time,date,time_of_day,airspeed_temperature,airspeed_angle_of_attack,airspeed_apparent_windspeed,kite_0_vx,kite_0_vy,kite_0_vz,kite_0_roll,kite_0_pitch,kite_0_yaw,kite_1_vx,kite_1_vy,kite_1_vz,kite_1_ax,kite_1_ay,kite_1_az,kite_1_roll,kite_1_pitch,kite_1_yaw,kite_1_roll_rate,kite_1_pitch_rate,kite_1_yaw_rate,ground_upwind_direction,ground_wind_velocity,ground_pos_latitude,ground_pos_longitude,ground_pos_altitude,ground_tether_reelout_speed,ground_tether_force,est_upwind_direction,kite_pos_east,kite_pos_north,kite_height,kite_elevation,kite_azimuth,kite_distance,kite_heading,kite_course,kite_actual_steering,kite_actual_depower,kite_set_steering,kite_set_depower,ground_mech_energy,ground_mech_power,flight_phase,flight_phase_index,phase,pattern,pattern_section
1570532321.6,2019-10-08,12:58:41.600,14.0,7.0,15.3500003814697,13.0,-0.7,3.2,21.5,-6.0,-46.2,11.9928,-0.0002200859999999,3.76745,6.16606,10.7275,3.39544,26.7769,7.8498,-43.6935,0.0247034,0.203346,1.01331,246.9,4.8,52.1701,4.427169999999999,4.9,-2.80255,101.903,4.61183,53.9464,4.18044,229.583,1.33934,0.0231562999999999,235.873,0.873908,1.64995,-34.970123291015604,22.0019989013672,-35.0,22.0,-675822.0,-3353.33,pp-riro,4,0,-1,-1
1570532321.7,2019-10-08,12:58:41.700,14.0,8.0,15.119999885559098,13.6,0.4,3.6,23.1,-7.7,-41.1,12.4705,1.17697,4.23321,1.44153,12.1485,6.16878,28.3687,6.15641,-37.9931,0.1454609999999999,0.158351,0.993934,246.9,4.8,52.1701,4.427169999999999,4.9,-2.7947900000000003,99.0274,4.6117,53.8879,5.7005,229.283,1.33872,-0.00477065,235.6,0.997944,1.76183,-34.973541259765604,21.9994239807129,-35.0,22.0,-676387.0,-6091.37,pp-riro,4,0,-1,-1
1570532321.8,2019-10-08,12:58:41.800,14.0,8.0,14.880000114440902,14.1,1.7,4.0,24.4,-9.3,-36.0,12.4705,1.17697,4.23321,1.44153,12.1485,6.16878,28.3687,6.15641,-37.9931,0.1454609999999999,0.158351,0.993934,246.9,4.8,52.1701,4.427169999999999,4.9,-2.79978,96.9792,4.61158,53.9171,6.84054,229.083,1.33786,-0.0254480999999999,235.442,1.11429,1.8728,-34.9871978759766,21.9994239807129,-35.0,22.0,-676988.0,-6091.37,pp-riro,4,0,-1,-1
1570532321.9,2019-10-08,12:58:41.900,14.0,8.0,14.5799999237061,14.5,2.9,4.3,25.6,-10.8,-30.8,12.9936,2.37624,4.5971,2.87213,11.2638,4.45535,30.0122,4.207669999999999,-32.2842,0.1421609999999999,0.2270989999999999,1.00471,254.0,4.7,52.1701,4.427169999999999,4.9,-2.83856,89.3014,4.61148,54.0631,7.980580000000001,228.784,1.3363200000000002,-0.0456845,235.22,1.23144,1.96855,-34.9871978759766,21.9994239807129,-35.0,22.0,-678345.0,-10890.6,pp-riro,4,0,-1,-1
1570532322.0,2019-10-08,12:58:42.000,14.0,8.0,14.5200004577637,14.8,4.2,4.6,26.7,-12.5,-25.5,13.429,4.27482,5.0882,0.400307,12.1024,2.96022,31.8534,1.26218,-23.8567,0.139577,0.174983,1.0297,254.0,4.7,52.1701,4.427169999999999,4.9,-2.85796,87.3547,4.6114,54.3552,9.88065,228.484,1.33356,-0.0788623,235.068,1.36376,2.07779,-34.9957275390625,21.9994239807129,-35.0,22.0,-679055.0,-13290.3,pp-riro,4,0,-1,-1
1570532322.1,2019-10-08,12:58:42.100,14.0,8.0,14.460000038147,15.0,5.5,5.1,27.6,-14.7,-20.3,13.6212,5.478280000000001,5.46871,2.8126,12.3605,5.52969,32.7613,-0.787211,-17.9476,0.226353,0.269531,1.0003799999999998,254.0,4.7,52.1701,4.427169999999999,4.9,-2.94993,87.6284,4.61132,54.7641,11.0207,228.18400000000003,1.33071,-0.0975539,234.922,1.4817,2.17111,-34.9957275390625,21.9994239807129,-35.0,22.0,-681315.0,-16397.5,pp-riro,4,0,-1,-1
1570532322.2,2019-10-08,12:58:42.200,14.0,8.0,14.3400001525879,15.1,6.7,5.5,28.2,-16.8,-15.4,13.6877,6.617369999999999,5.89078,-1.25699,9.33101,2.91016,33.2192,-2.85447,-12.1356,0.113865,0.178482,0.987296,254.0,4.7,52.1701,4.427169999999999,4.9,-2.97265,88.3427,4.61124,55.319,12.9208,227.784,1.32639,-0.128341,234.76,1.60572,2.26599,-34.9974365234375,21.9994239807129,-35.0,22.0,-682095.0,-14920.8,pp-riro,4,0,-1,-1
1570532322.3,2019-10-08,12:58:42.300,14.0,8.0,14.210000038147,15.1,7.9,5.8,28.4,-18.7,-9.6,13.6588,7.805680000000001,6.26595,-2.0016700000000003,12.5096,3.43136,33.5563,-5.00659,-6.418080000000001,0.08206,0.200872,1.01049,254.0,4.7,52.1701,4.427169999999999,4.9,-3.03138,88.7131,4.61115,55.9907,14.4408,227.284,1.32167,-0.151219,234.524,1.7354900000000002,2.35022,-34.9991455078125,21.9994239807129,-35.0,22.0,-683578.0,-15320.7,pp-riro,4,0,-1,-1
1570532322.4,2019-10-08,12:58:42.400,14.0,8.0,14.210000038147,15.0,9.2,6.2,28.7,-20.2,-4.0,13.5287,8.976189999999999,6.58609,-1.39316,11.2943,2.87693,33.5634,-6.966880000000001,-0.5790770000000001,0.145302,0.327727,0.97005,254.0,4.7,52.1701,4.427169999999999,5.1,-3.11394,86.0124,4.61107,56.7793,15.5809,226.784,1.3167799999999998,-0.166544,234.302,1.85167,2.43126,-35.0059814453125,21.9994239807129,-35.0,22.0,-685887.0,-15566.8,pp-riro,4,0,-1,-1
1570532322.5,2019-10-08,12:58:42.500,14.0,9.0,14.2700004577637,14.9,10.4,6.7,28.7,-22.4,1.4,13.4456,9.57734,6.72792,-1.95343,11.1152,6.08654,33.5479,-7.903689999999999,2.4742,0.12415,0.292219,0.961667,254.0,4.7,52.1701,4.427169999999999,5.1,-3.15051,87.3164,4.61099,57.6555,17.4809,226.18400000000003,1.31048,-0.1930319999999999,234.07,1.97747,2.51471,-35.0059814453125,21.9994239807129,-35.0,22.0,-686805.0,-17074.3,pp-riro,4,0,-1,-1
1570532322.6,2019-10-08,12:58:42.600,14.0,9.0,14.3999996185303,14.6,11.6,7.1,28.5,-24.1,7.1,13.233,10.6668,7.1165,-2.18567,11.2811,3.41459,33.0336,-9.71735,8.36406,0.141623,0.279564,1.03794,254.0,4.7,52.1701,4.427169999999999,5.1,-3.20315,94.1255,4.61091,58.707,18.621,225.583,1.30427,-0.205713,233.84,2.09139,2.5867400000000003,-35.0059814453125,21.9994239807129,-35.0,22.0,-688392.0,-15043.8,pp-riro,4,0,-1,-1
1570532322.7,2019-10-08,12:58:42.700,14.0,9.0,14.5799999237061,14.3,12.9,7.5,27.9,-25.6,12.9,13.1443,11.2562,7.31412,-1.41947,12.3015,6.33705,32.8798,-10.6536,11.3197,0.13472,0.348838,0.969849,254.0,4.7,52.1701,4.427169999999999,5.1,-3.22254,99.2558,4.61082,59.846,20.5211,224.983,1.29667,-0.2288079999999999,233.71,2.2143900000000003,2.66828,-35.0059814453125,21.9994239807129,-35.0,22.0,-689312.0,-7721.89,pp-riro,4,0,-1,-1
1570532322.8,2019-10-08,12:58:42.800,14.0,9.0,14.6999998092651,13.8,14.1,8.0,26.9,-26.9,19.1,12.8607,12.3635,7.74045,-2.6619900000000003,12.0947,6.12563,31.9771,-12.2578,17.3328,0.0601821,0.339987,1.03944,254.0,4.7,52.1701,4.427169999999999,5.1,-3.22254,102.998,4.61075,61.1896,21.6611,224.183,1.28896,-0.238639,233.392,2.32906,2.73746,-35.0042724609375,21.9994239807129,-35.0,22.0,-690428.0,-7783.42,pp-riro,4,0,-1,-1
1570532322.9,2019-10-08,12:58:42.900,14.0,10.0,14.880000114440902,13.2,15.3,8.4,26.2,-28.5,25.2,12.1406,14.0568,8.32484,-5.64775,10.7297,4.21735,30.5145,-14.4281,26.6328,-0.000226083,0.334336,0.926793,262.5,4.1,52.1701,4.427169999999999,5.1,-3.21202,105.288,4.61071,62.5915,22.8012,223.383,1.28098,-0.247677,233.105,2.441,2.80542,-35.0042724609375,21.9994239807129,-23.0,22.0,-690629.0,-3968.62,pp-riro,4,0,-1,-1
1570532323.0,2019-10-08,12:58:43.000,14.0,10.0,15.109999656677198,12.5,16.6,8.8,25.1,-29.7,31.5,11.5992,15.1647,8.69179,-6.710710000000001,9.33501,5.05416,29.1548,-15.5756,32.775,0.110616,0.457373,0.982331,262.5,4.1,52.1701,4.427169999999999,5.1,-3.14276,120.984,4.61069,64.1395,24.7013,222.583,1.27129,-0.2659289999999999,232.954,2.56116,2.88465,-35.0042724609375,21.9994239807129,-23.0,22.0,-690711.0,1630.52,pp-riro,4,0,-1,-1
1570532323.1,2019-10-08,12:58:43.100,14.0,10.0,15.3500003814697,11.8,17.8,9.3,23.7,-30.6,38.1,10.5864,16.7937,9.35798,-5.68346,8.17983,4.47154,26.7166,-17.1756,42.3003,-0.0429586,0.309299,0.978986,262.5,4.1,52.1701,4.427169999999999,5.1,-3.04025,133.063,4.61068,65.8043,25.8413,221.683,1.26209,-0.2725,232.683,2.67278,2.94703,-34.792633056640604,21.9994239807129,-23.0,22.0,-689637.0,12490.4,pp-riro,4,0,-1,-1
1570532323.2,2019-10-08,12:58:43.200,14.0,10.0,15.630000114440902,11.0,19.0,9.8,22.0,-31.3,45.1,10.5864,16.7937,9.35798,-5.68346,8.17983,4.47154,26.7166,-17.1756,42.3003,-0.0429586,0.309299,0.978986,262.5,4.1,52.1701,4.427169999999999,5.1,-2.9588,137.518,4.61067,67.6735,27.3614,220.783,1.25149,-0.282508,232.537,2.79165,3.0126,-34.1952514648438,21.9994239807129,-23.0,22.0,-688842.0,15105.4,pp-riro,4,0,-1,-1
1570532323.3,2019-10-08,12:58:43.300,14.0,11.0,15.8500003814697,10.0,20.0,10.3,20.4,-32.0,51.9,9.8294,17.8336,9.80099,-8.10309,10.4541,5.26141,24.9284,-18.0569,48.9372,0.0951802,0.306998,1.0082799999999998,262.5,4.1,52.1701,4.427169999999999,5.1,-2.78149,144.789,4.61066,69.572,28.1215,219.783,1.24178,-0.282401,232.241,2.89715,3.0689900000000003,-33.236053466796896,21.9994239807129,-23.0,22.0,-686946.0,19566.2,pp-riro,4,0,-1,-1
1570532323.4,2019-10-08,12:58:43.400,14.0,10.0,16.2399997711182,8.9,21.2,10.6,18.5,-32.4,58.8,8.9136,18.8586,10.1875,-9.52891,9.55483,4.3680900000000005,23.019,-18.9928,55.494,0.0639668,0.300184,1.04484,262.5,4.1,52.1701,4.427169999999999,5.4,-2.55321,151.721,4.61064,71.5872,28.8815,218.683,1.23146,-0.281731,231.908,3.00207,3.12883,-31.928649902343803,21.9994239807129,-23.0,22.0,-684840.0,22058.1,pp-riro,4,0,-1,-1
1570532323.5,2019-10-08,12:58:43.500,14.0,11.0,16.5100002288818,7.5,22.2,10.9,16.4,-32.8,65.7,7.368760000000001,20.4011,10.6862,-10.3549,8.21773,-0.068899,20.0374,-20.3211,65.1572,-0.0228949,0.229591,0.969105,262.5,4.1,52.1701,4.427169999999999,5.4,-2.17699,161.207,4.6106300000000005,73.7778,30.0216,217.583,1.21987,-0.284701,231.704,3.10915,3.19678,-30.2594299316406,21.9994239807129,-22.975975036621104,22.0,-681261.0,23719.4,pp-riro,4,0,-1,-1
1570532323.6,2019-10-08,12:58:43.600,14.0,11.0,16.7199993133545,6.2,23.0,11.1,14.6,-32.6,72.2,6.82216,20.8773,10.8477,-13.7322,9.9566,2.39278,19.1559,-20.7583,68.4476,0.0374452,0.2683,1.0411700000000002,262.5,4.1,52.1701,4.427169999999999,5.4,-1.87224,167.17,4.610609999999999,75.9975,30.4016,216.483,1.20931,-0.278765,231.441,3.20174,3.24812,-28.2863922119141,21.9994239807129,-22.2807025909424,22.0,-678946.0,23381.0,pp-riro,4,0,-1,-1
1570532323.7,2019-10-08,12:58:43.700,14.0,11.0,16.9300003051758,4.8,23.6,11.3,12.8,-32.8,78.6,4.9682900000000005,21.962,11.1481,-11.4316,1.72878,0.960399,16.1278,-21.7751,77.6683,0.0997143,0.1879279999999999,1.00024,262.5,4.1,52.1701,4.427169999999999,5.4,-1.7193200000000002,168.963,4.6106,78.2756,31.5417,215.383,1.19736,-0.281267,231.326,3.29938,3.30697,-26.5011138916016,21.9994239807129,-21.716856002807603,22.0,-677684.0,22950.3,pp-riro,4,0,-1,-1
1570532323.8,2019-10-08,12:58:43.800,14.0,9.0,17.0300006866455,3.4,24.1,11.3,10.4,-32.6,84.9,4.3621300000000005,22.2904,11.1873,-15.4699,2.81122,0.0480487,15.2084,-22.085,80.7534,0.2244139999999999,0.15325,0.96736,262.5,4.1,52.1701,4.427169999999999,5.4,-1.37911,170.764,4.610580000000001,80.729,31.9217,214.183,1.18572,-0.27475,231.107,3.3877,3.3560300000000005,-24.5946426391602,21.9994239807129,-21.127517700195305,22.0,-675774.0,19135.5,pp-riro,4,0,-1,-1
1570532323.9,2019-10-08,12:58:43.900,14.0,8.0,17.1399993896484,2.0,24.3,11.1,8.6,-32.1,90.9,3.02416,22.7124,11.2038,-13.8046,0.105422,-1.64996,13.1175,-22.3864,86.5221,-0.0477571,0.2395,0.797991,264.2,4.2,52.1701,4.427169999999999,5.4,-1.05497,167.67,4.61062,83.0948,32.3018,212.983,1.17437,-0.268966,230.89,3.47265,3.40392,-23.9170532226562,21.9994239807129,-20.5786476135254,22.0,-674190.0,14397.8,pp-riro,4,0,-1,-1
1570532324.0,2019-10-08,12:58:44.000,14.0,9.0,17.2399997711182,0.6,24.3,10.9,6.6,-31.6,96.0,2.38278,22.8478,11.1506,-13.2085,5.41303,-0.0926716,12.1201,-22.4423,89.1631,0.0806723,0.165044,0.774791,264.2,4.2,52.1701,4.427169999999999,5.4,-0.728618,158.344,4.61067,85.51899999999999,32.3018,211.983,1.16365,-0.259404,230.854,3.5410699999999995,3.4477800000000003,-22.730842590332,21.9994239807129,-20.0028228759766,22.0,-673186.0,8798.64,pp-riro,4,0,-1,-1
1570532324.1,2019-10-08,12:58:44.100,14.0,8.0,17.229999542236303,-0.5,24.1,10.6,5.0,-30.9,101.3,1.07911,23.0808,10.9725,-14.3193,0.4715359999999999,-1.22263,10.4463,-22.4809,94.6313,0.169865,0.172753,0.605549,264.2,4.2,52.1701,4.427169999999999,5.4,-0.351842,146.93,4.61071,87.914,32.3018,210.883,1.15283,-0.2504139999999999,230.747,3.61376,3.48165,-21.7084808349609,21.9994239807129,-19.6595726013184,22.0,-672468.0,3168.74,pp-riro,4,0,-1,-1
1570532324.2,2019-10-08,12:58:44.200,14.0,8.0,17.229999542236303,-1.2,24.0,10.5,4.3,-30.1,103.5,-0.768109,22.866,10.5519,-9.70698,1.47404,-1.84578,8.0371,-21.8955,101.758,0.0513442999999999,0.2379219999999999,0.817705,264.2,4.2,52.1701,4.427169999999999,5.4,-0.22662,143.899,4.61076,89.1699,32.3019,210.383,1.14728,-0.245892,230.772,3.64529,3.5042800000000005,-20.6161499023438,21.9994239807129,-19.386159896850604,22.0,-672371.0,1845.87,pp-riro,4,0,-1,-1
1570532324.3,2019-10-08,12:58:44.300,14.0,8.0,17.1800003051758,-2.3,23.7,10.0,2.8,-29.5,107.9,-1.81526,22.6783,10.2204,-11.0267,-2.9831,1.4772,6.71201,-21.2642,106.227,-0.0482833,0.2811,0.61893,264.2,4.2,52.1701,4.427169999999999,5.4,-0.0326909,140.393,4.6108,91.5357,32.3019,209.383,1.1367,-0.237659,230.789,3.70538,3.5415300000000003,-19.8890609741211,21.9994239807129,-19.0024471282959,22.0,-672318.0,184.587,pp-riro,4,0,-1,-1
1570532324.4,2019-10-08,12:58:44.400,14.0,8.0,17.1800003051758,-3.8,23.3,9.8,0.8,-27.5,114.1,-2.82787,22.404,9.88074,-8.64901,-0.695136,-3.75495,5.33371,-20.2549,110.239,-0.153647,0.232145,0.627075,264.2,4.2,52.1701,4.427169999999999,5.5,0.221633,138.547,4.610869999999999,95.0697,31.9219,207.883,1.12132,-0.222382,230.80900000000003,3.79316,3.58731,-19.3360595703125,21.9994239807129,-18.5633373260498,22.0,-672464.0,-1476.7,pp-riro,4,0,-1,-1
1570532324.5,2019-10-08,12:58:44.500,14.0,8.0,17.1800003051758,-4.7,23.0,9.6,-0.4,-26.0,117.7,-3.68717,22.1133,9.61776,-5.4196800000000005,-2.53701,0.859977,3.8575,-19.246,114.13,-0.290261,0.162711,0.655337,264.2,4.2,52.1701,4.427169999999999,5.5,0.262635,142.209,4.61089,97.4063,31.542,206.983,1.11143,-0.211667,230.922,3.84507,3.61481,-19.0237274169922,21.9994239807129,-18.318044662475604,22.0,-672420.0,1322.87,pp-riro,4,0,-1,-1
1570532324.6,2019-10-08,12:58:44.600,14.0,9.0,17.129999160766598,-5.6,22.7,9.6,-1.8,-25.4,121.5,-4.53777,21.9056,9.40128,-9.12507,-3.97622,0.6155470000000001,2.71313,-18.3236,117.92,-0.00685024,0.258346,0.58835,264.2,4.2,52.1701,4.427169999999999,5.5,0.22662,146.658,4.61094,99.6553,31.162,205.983,1.10164,-0.201614,230.936,3.89593,3.64179,-18.6072692871094,21.9994239807129,-18.1085033416748,22.0,-672377.0,799.877,pp-riro,4,0,-1,-1
1570532324.7,2019-10-08,12:58:44.700,14.0,10.0,17.0699996948242,-6.6,22.3,9.6,-3.4,-24.5,125.0,-5.34059,21.619,9.31947,-3.94204,-2.888,1.4101,0.87145,-17.3836,121.461,-0.00173982,0.246842,0.623743,264.2,4.2,52.1701,4.427169999999999,5.5,0.29588,165.636,4.6109800000000005,101.904,30.402,204.983,1.09223,-0.188526,230.926,3.94171,3.6708,-18.3427200317383,21.9994239807129,-17.785924911499,22.0,-672426.0,307.645,pp-riro,4,0,-1,-1
1570532324.8,2019-10-08,12:58:44.800,14.0,11.0,16.9699993133545,-7.4,22.0,9.6,-5.1,-23.6,128.5,-5.76553,21.3891,9.36715,-5.08536,1.0897,-2.46601,0.0663933999999999,-16.9628,123.228,-0.0831924999999999,0.146152,0.551842,264.2,4.2,52.1701,4.427169999999999,5.5,0.290339,167.342,4.61103,104.124,29.642,203.983,1.08286,-0.1759599999999999,230.932,3.98819,3.69227,-18.1993560791016,21.9994239807129,-17.6413326263428,22.0,-672390.0,738.3480000000001,pp-riro,4,0,-1,-1
1570532324.9,2019-10-08,12:58:44.900,14.0,11.0,16.8600006103516,-8.3,21.7,9.5,-6.9,-22.6,131.9,-6.590210000000001,21.0632,9.20661,-12.5701,-5.1108,-1.30627,-1.50821,-16.1721,126.758,-0.0749414,0.1211,0.426909,256.6,2.6,52.1701,4.427169999999999,5.5,0.287569,169.21400000000003,4.61101,106.315,28.8821,202.983,1.07354,-0.163905,230.952,4.03454,3.71907,-18.110595703125,21.9994239807129,-17.4170551300049,22.0,-672364.0,92.2935,pp-riro,4,0,-1,-1
1570532325.0,2019-10-08,12:58:45.000,14.0,11.0,16.8600006103516,-9.2,21.3,9.6,-8.6,-21.8,135.0,-7.428960000000001,20.8394,9.10702,-5.38619,-4.09278,-1.94672,-3.43255,-15.4152,129.915,-0.204787,0.0383765,0.687671,256.6,2.6,52.1701,4.427169999999999,5.5,0.303083,178.852,4.61097,108.447,28.1221,201.983,1.06438,-0.152328,230.973,4.0757,3.7453,-17.7641220092773,21.9994239807129,-17.2238140106201,22.0,-672341.0,276.88,pp-riro,4,0,-1,-1
1570532325.1,2019-10-08,12:58:45.100,14.0,11.0,16.9699993133545,-9.6,21.2,9.6,-9.6,-21.4,136.6,-8.7522,20.3594,9.08401,-9.07212,-6.8567100000000005,-2.78302,-6.39693,-14.5067,134.72299999999998,-0.214365,0.0894472,0.579337,256.6,2.6,52.1701,4.427169999999999,5.5,0.331341,193.492,4.61091,109.498,27.7421,201.483,1.0598299999999998,-0.146652,230.987,4.09721,3.75616,-17.489334106445302,21.9994239807129,-17.1800022125244,22.0,-672314.0,246.116,pp-riro,4,0,-1,-1
1570532325.2,2019-10-08,12:58:45.200,14.0,12.0,17.020000457763697,-10.5,20.6,9.6,-11.4,-20.4,139.6,-9.60762,19.9594,9.09157,-7.400710000000001,-6.13711,-2.5726400000000003,-8.40848,-13.9052,137.814,-0.0632192999999999,-0.0632004,0.459871,256.6,2.6,52.1701,4.427169999999999,5.5,0.338544,197.279,4.61089,111.689,26.6021,200.383,1.05049,-0.132342,230.944,4.13625,3.78351,-17.3459625244141,21.9994239807129,-16.9515533447266,22.0,-672294.0,369.174,pp-riro,4,0,-1,-1
1570532325.3,2019-10-08,12:58:45.300,14.0,13.0,17.0699996948242,-11.5,20.2,9.5,-13.0,-19.7,142.5,-10.0858,19.6811,9.04226,-9.80313,-6.34285,1.10715,-9.46682,-13.669,139.195,-0.318448,0.0658606,0.599896,256.6,2.6,52.1701,4.427169999999999,5.5,0.347964,202.917,4.61085,113.704,25.4621,199.283,1.04171,-0.118775,230.847,4.17232,3.81392,-17.1821136474609,21.9994239807129,-16.664529800415,22.0,-672252.0,430.703,pp-riro,4,0,-1,-1
1570532325.4,2019-10-08,12:58:45.400,14.0,12.0,17.120000839233402,-12.3,19.6,9.5,-14.7,-19.0,145.3,-11.0194,19.1404,9.0103,-7.76382,-7.85263,2.14814,-11.5105,-13.0507,141.924,-0.179102,0.160622,0.532343,256.6,2.6,52.1701,4.427169999999999,5.5,0.3618159999999999,209.875,4.6108,115.69,24.3221,198.183,1.03294,-0.1056319999999999,230.764,4.20734,3.83933,-17.0489807128906,21.9994239807129,-16.508733749389602,22.0,-672179.0,553.761,pp-riro,4,0,-1,-1
1570532325.5,2019-10-08,12:58:45.500,14.0,12.0,17.2199993133545,-13.1,18.9,9.4,-16.5,-18.4,148.0,-11.4643,18.882,8.934,-9.59691,-7.66838,-3.40803,-12.3644,-12.7932,143.341,-0.227117,0.0266361,0.4301819999999999,256.6,2.6,52.1701,4.427169999999999,5.5,0.366248,211.533,4.61076,117.676,22.8021,197.083,1.02437,-0.0897925,230.671,4.23781,3.86569,-16.7502975463867,21.9994239807129,-16.2969970703125,22.0,-672120.0,584.525,pp-riro,4,0,-1,-1
1570532325.6,2019-10-08,12:58:45.600,14.0,11.0,17.3199996948242,-13.8,18.2,9.2,-17.7,-17.9,150.6,-12.216,18.202,8.88743,-9.83233,-5.64374,-2.87018,-14.2039,-12.4523,145.955,-0.28635,-0.0511609,0.263255,256.6,2.6,52.1701,4.427169999999999,5.5,0.367357,212.937,4.61072,119.516,21.6621,195.983,1.01597,-0.0776342,230.57,4.26904,3.89391,-16.516471862793,21.9994239807129,-16.131219863891598,22.0,-672086.0,646.054,pp-riro,4,0,-1,-1
1570532325.7,2019-10-08,12:58:45.700,14.0,12.0,17.4200000762939,-14.5,17.5,9.1,-18.8,-17.1,153.1,-13.2445,17.1424,8.62,-11.7271,-6.45151,-2.71339,-16.6661,-11.7371,149.745,-0.157452,0.0475869,0.3195909999999999,256.6,2.6,52.1701,4.427169999999999,5.5,0.374006,218.957,4.61068,121.386,20.5221,194.883,1.00739,-0.0657943,230.51,4.30168,3.92149,-16.338966369628903,21.9994239807129,-16.0236988067627,22.0,-672037.0,430.703,pp-riro,4,0,-1,-1
1570532325.8,2019-10-08,12:58:45.800,14.0,11.0,17.5699996948242,-15.3,16.7,8.9,-19.8,-16.6,155.7,-13.8671,16.352999999999998,8.479519999999999,-7.055,-10.2163,-0.455345,-17.7066,-11.2049,152.232,-0.284889,-0.11885,0.251452,256.6,2.6,52.1701,4.427169999999999,5.5,0.385641,222.983,4.61064,123.08,18.6221,193.883,1.00004,-0.0484353,230.404,4.32863,3.95166,-16.0641784667969,21.9994239807129,-15.711054801940902,22.0,-671943.0,830.6410000000001,pp-riro,4,0,-1,-1
1570532325.9,2019-10-08,12:58:45.900,14.0,11.0,17.7199993133545,-15.7,15.9,8.6,-20.3,-15.8,157.6,-14.1751,15.9557,8.400360000000001,-6.33244,-10.3567,-0.0200593,-18.2847,-11.0344,153.446,0.00210048,-0.0284132,0.312165,269.3,3.2,52.1701,4.427169999999999,5.5,0.384533,222.61,4.61064,124.715,17.4821,192.983,0.992617,-0.037514,230.438,4.3536,3.97704,-16.0146789550781,21.9994239807129,-15.6311368942261,22.0,-671907.0,707.5830000000001,pp-riro,4,0,-1,-1
1570532326.0,2019-10-08,12:58:46.000,14.0,11.0,17.8700008392334,-16.1,15.1,8.3,-20.9,-15.0,159.9,-14.4119,15.5178,8.22268,-6.03808,-11.8818,-4.2272,-18.7719,-10.7397,154.579,-0.165418,-0.00286857,0.362194,269.3,3.2,52.1701,4.427169999999999,5.5,0.378438,217.235,4.61067,126.263,15.5821,191.983,0.985566,-0.0210525,230.31,4.37983,3.99887,-15.7569580078125,21.9994239807129,-15.5421838760376,22.0,-671781.0,922.935,pp-riro,4,0,-1,-1
1570532326.1,2019-10-08,12:58:46.100,14.0,10.0,18.0100002288818,-16.6,14.4,8.1,-21.0,-14.2,161.9,-14.7938,14.7411,7.92899,-4.1012,-6.844069999999999,-6.2137400000000005,-19.259,-9.8342,156.813,-0.00208437,-0.0220900999999999,0.34158,269.3,3.2,52.1701,4.427169999999999,5.5,0.375668,220.509,4.6107,127.694,14.0621,191.183,0.979141,-0.00797766,230.335,4.40466,4.02335,-15.6084671020508,21.9994239807129,-15.428032875061,22.0,-671716.0,492.232,pp-riro,4,0,-1,-1
1570532326.2,2019-10-08,12:58:46.200,14.0,10.0,18.0599994659424,-17.0,13.7,7.7,-21.2,-13.3,164.2,-15.4264,13.5982,7.53593,-3.28893,-5.70386,1.99232,-19.7202,-8.88048,159.998,-0.0120381,0.0847042,0.495926,269.3,3.2,52.1701,4.427169999999999,5.5,0.384533,223.995,4.61074,129.155,12.162,190.283,0.97242,0.00776262,230.296,4.432580000000001,4.047,-15.468505859375,21.9994239807129,35.0,22.0,-671698.0,338.409,pp-riro,4,0,-1,-1
1570532326.3,2019-10-08,12:58:46.300,14.0,10.0,18.159999847412102,-17.4,13.0,7.6,-21.3,-12.8,166.6,-15.76,12.8269,7.30932,-4.14506,-11.6421,-5.94589,-19.9844,-8.03379,162.184,-0.205053,-0.0971327,0.303901,269.3,3.2,52.1701,4.427169999999999,5.5,0.396169,229.935,4.61077,130.44,10.642,189.483,0.966347,0.0202305999999999,230.286,4.46077,4.068309999999999,-15.3746337890625,21.9994239807129,35.0,22.0,-671636.0,676.819,pp-riro,4,0,-1,-1
1570532326.4,2019-10-08,12:58:46.400,14.0,9.0,18.2099990844727,-17.7,12.3,7.3,-21.3,-11.7,169.0,-16.0879,12.2321,7.12063,-3.2798199999999995,-2.819,-3.93396,-20.2082,-7.428999999999999,164.812,0.190626,-0.000187109,0.444324,269.3,3.2,52.1701,4.427169999999999,5.5,0.80896,231.758,4.6108,131.696,9.12201,188.682,0.960306,0.0324468,230.278,4.4951,4.0915300000000006,-15.2722320556641,21.9994239807129,35.0,22.0,-673268.0,-19074.0,pp-riro,4,0,-1,-1
1570532326.5,2019-10-08,12:58:46.500,14.0,9.0,18.3500003814697,-17.8,11.8,6.7,-21.4,-10.5,171.6,-16.3573,11.6054,6.811539999999999,-2.18823,0.1914789999999999,-1.39782,-20.5341,-6.37547,167.148,0.1021919999999999,0.011382,0.553513,269.3,3.2,52.1701,4.427169999999999,5.5,0.972969,190.246,4.6108400000000005,132.893,7.221989999999999,187.882,0.954478,0.0472779,230.245,4.53126,4.10864,-14.816520690918,21.9994239807129,35.0,22.0,-672905.0,21842.8,pp-riro,4,0,-1,-1
1570532326.6,2019-10-08,12:58:46.600,14.0,8.0,18.3999996185303,-17.5,11.1,6.1,-21.3,-9.1,173.9,-16.2378,11.098,6.134519999999999,2.5445,-3.55541,-3.99869,-20.2879,-5.56149,169.74400000000003,-0.0475052,-0.0217203,0.427052,269.3,3.2,52.1701,4.427169999999999,5.5,0.843867,180.696,4.610869999999999,134.003,4.94195,187.182,0.949159,0.0646574,230.258,4.56332,4.1199900000000005,-14.0057983398438,21.9994239807129,35.0,22.0,-672575.0,6337.48,pp-riro,4,0,-1,-1
1570532326.7,2019-10-08,12:58:46.700,14.0,8.0,18.4500007629395,-17.6,10.3,6.1,-21.5,-7.8,175.8,-16.1632,10.4764,5.75257,-0.5637310000000001,-9.99682,-2.94338,-20.3618,-4.617,171.882,-0.0138595,0.0886815,0.280153,269.3,3.2,52.1701,4.427169999999999,5.5,0.948589,199.875,4.6109,135.055,3.42194,186.582,0.9441,0.0761695,230.357,4.59364,4.13797,-12.8366622924805,21.9994239807129,35.0,22.0,-673282.0,-7075.83,pp-riro,4,0,-1,-1
1570532326.8,2019-10-08,12:58:46.800,14.0,8.0,18.3500003814697,-17.5,9.6,5.9,-21.5,-7.0,177.9,-16.2384,9.41508,5.67133,1.06643,-1.6438700000000002,-2.35843,-20.4368,-3.45102,175.382,-0.0636257,-0.0791169,0.320238,269.3,3.2,52.1701,4.427169999999999,5.5,0.959117,207.877,4.61094,136.019,1.90192,185.982,0.93929,0.0874862,230.422,4.62183,4.15326,-11.3159255981445,21.9994239807129,35.0,22.0,-672904.0,5537.61,pp-riro,4,0,-1,-1
1570532326.9,2019-10-08,12:58:46.900,14.0,8.0,18.25,-17.2,9.3,5.5,-21.7,-5.9,179.8,-16.2384,9.41508,5.67133,1.06643,-1.6438700000000002,-2.35843,-20.4368,-3.45102,175.382,-0.0636257,-0.0791169,0.320238,248.1,2.8,52.1701,4.427169999999999,5.5,0.94194,191.331,4.610869999999999,136.953,0.00188951,185.282,0.934269,0.101439,230.404,4.64825,4.1538900000000005,-9.94367980957031,21.9994239807129,35.0,22.0,-672790.0,861.4060000000001,pp-riro,4,0,-1,-1
1570532327.0,2019-10-08,12:58:47.000,14.0,8.0,18.2000007629395,-17.2,8.9,5.3,-21.9,-4.6,-178.8,-16.2384,9.41508,5.67133,1.06643,-1.6438700000000002,-2.35843,-20.4368,-3.45102,175.382,-0.0636257,-0.0791169,0.320238,248.1,2.8,52.1701,4.427169999999999,5.5,0.919777,189.285,4.61075,137.83,-1.51813,184.782,0.929894,0.112592,230.529,4.67226,4.16368,-7.86311340332031,21.9994239807129,35.0,22.0,-672493.0,2891.86,pp-riro,4,0,-1,-1
1570532327.1,2019-10-08,12:58:47.100,14.0,8.0,18.0100002288818,-17.3,8.6,5.5,-22.2,-4.0,-177.8,-16.0381,8.93622,5.16383,-4.677309999999999,-1.52974,-1.72428,-20.7775,-2.73536,178.30599999999998,-0.0254047,0.0466794,0.307462,248.1,2.8,52.1701,4.427169999999999,5.5,0.933075,195.158,4.61062,138.64700000000002,-3.41816,184.182,0.925377,0.126352,230.56,4.68132,4.16054,-5.75012969970703,21.9994239807129,35.0,22.0,-672478.0,-215.351,pp-riro,4,0,-1,-1
1570532327.2,2019-10-08,12:58:47.200,14.0,9.0,17.909999847412102,-17.2,8.4,5.6,-22.8,-3.6,-176.9,-16.2981,8.35621,5.312880000000001,2.29002,-2.28362,3.06525,-21.5137,-2.07729,-178.985,-0.0886786,-0.20332,0.242031,248.1,2.8,52.1701,4.427169999999999,5.5,0.943602,196.758,4.6105,139.495,-4.93818,183.582,0.920721,0.137214,230.62,4.68921,4.15384,-3.65079498291016,21.9994239807129,35.0,22.0,-672315.0,2368.87,pp-riro,4,0,-1,-1
1570532327.3,2019-10-08,12:58:47.300,14.0,9.0,17.7600002288818,-17.0,8.5,5.6,-23.7,-3.3,-176.7,-16.3236,8.318430000000001,5.30815,-1.75682,3.22102,-3.2452400000000003,-21.9132,-2.26587,-178.43599999999998,-0.279634,-0.175717,0.170319,248.1,2.8,52.1701,4.427169999999999,5.5,0.932521,193.29,4.61037,140.312,-6.838210000000001,182.882,0.915787,0.150651,230.608,4.68433,4.13464,-1.5378036499023402,21.9994239807129,35.0,22.0,-672129.0,1630.52,pp-riro,4,0,-1,-1
1570532327.4,2019-10-08,12:58:47.400,14.0,10.0,17.7600002288818,-17.2,8.6,5.9,-24.5,-3.2,-176.9,-16.5443,8.472010000000001,5.3463,-1.86089,-1.50101,3.93016,-23.2428,-3.19617,-177.72,-0.183624,-0.0468461,0.018481,248.1,2.8,52.1701,4.427169999999999,5.6,0.940832,199.956,4.61025,141.159,-8.35823,182.282,0.911014,0.161221,230.7,4.67416,4.12044,0.567146301269531,21.9994239807129,35.0,22.0,-671939.0,1199.82,pp-riro,4,0,-1,-1
1570532327.5,2019-10-08,12:58:47.500,14.0,10.0,17.659999847412102,-17.2,8.6,6.4,-25.6,-3.8,-177.3,-16.8745,8.62165,5.836040000000001,-3.89776,5.21509,4.59206,-24.5083,-3.71357,-177.713,-0.0752207,-0.133022,-0.104557,248.1,2.8,52.1701,4.427169999999999,5.6,0.946373,203.218,4.610119999999999,141.977,-10.2583,181.582,0.905933,0.1743309999999999,230.727,4.65179,4.0976300000000005,2.6688232421875,21.9994239807129,35.0,22.0,-671894.0,830.6410000000001,pp-riro,4,0,-1,-1
1570532327.6,2019-10-08,12:58:47.600,14.0,10.0,17.5599994659424,-17.0,8.9,6.9,-26.9,-4.8,-178.1,-16.8745,8.62165,5.836040000000001,-3.89776,5.21509,4.59206,-24.5083,-3.71357,-177.713,-0.0752207,-0.133022,-0.104557,248.1,2.8,52.1701,4.427169999999999,5.6,0.95413,204.36900000000003,4.61,142.82399999999998,-11.7783,180.882,0.900781,0.184609,230.772,4.6219,4.06205,4.777313232421879,21.9994239807129,35.0,22.0,-671786.0,1292.11,pp-riro,4,0,-1,-1
1570532327.7,2019-10-08,12:58:47.700,14.0,10.0,17.4599990844727,-16.8,9.3,7.4,-28.2,-6.0,-179.6,-16.8745,8.62165,5.836040000000001,-3.89776,5.21509,4.59206,-24.5083,-3.71357,-177.713,-0.0752207,-0.133022,-0.104557,248.1,2.8,52.1701,4.427169999999999,5.6,0.946927,199.478,4.60987,143.671,-13.6783,180.182,0.8954629999999999,0.197374,230.855,4.57842,4.021669999999999,6.88580322265625,21.9994239807129,35.0,22.0,-671493.0,1999.69,pp-riro,4,0,-1,-1
1570532327.8,2019-10-08,12:58:47.800,14.0,10.0,17.4599990844727,-16.6,9.6,8.1,-29.7,-7.4,178.4,-16.851,8.98146,6.602189999999999,1.18944,4.725630000000001,5.869269999999999,-26.1966,-6.08875,-178.313,-0.213062,-0.315851,-0.325053,248.1,2.8,52.1701,4.427169999999999,5.6,0.938061,195.937,4.60975,144.577,-15.1983,179.282,0.889466,0.2073179999999999,230.815,4.52832,3.98277,8.99599456787109,21.9994239807129,35.0,22.0,-671334.0,1292.11,pp-riro,4,0,-1,-1
1570532327.9,2019-10-08,12:58:47.900,14.0,10.0,17.3600006103516,-16.1,10.2,9.0,-31.1,-9.5,176.5,-16.851,8.98146,6.602189999999999,1.18944,4.725630000000001,5.869269999999999,-26.1966,-6.08875,-178.313,-0.213062,-0.315851,-0.325053,270.2,3.7,52.1701,4.427169999999999,5.6,0.936953,192.61900000000003,4.60973,145.512,-17.0983,178.382,0.883177,0.219651,230.838,4.47025,3.92052,11.102783203125,21.9994239807129,35.0,22.0,-671256.0,1445.93,pp-riro,4,0,-1,-1
1570532328.0,2019-10-08,12:58:48.000,14.0,10.0,17.3099994659424,-15.4,10.9,9.7,-32.0,-11.7,173.9,-16.4536,10.4841,8.944560000000001,3.98538,3.09992,4.682119999999999,-30.1777,-12.9781,177.155,-0.29653,-0.191446,-0.632556,270.2,3.7,52.1701,4.427169999999999,5.6,0.920885,182.225,4.6098,146.534,-18.2383,177.482,0.876848,0.226463,230.878,4.40607,3.85873,13.204460144043,21.9994239807129,35.0,22.0,-671033.0,2491.92,pp-riro,4,0,-1,-1
1570532328.1,2019-10-08,12:58:48.100,14.0,10.0,17.1000003814697,-14.8,11.6,10.4,-33.0,-14.5,170.9,-16.1889,10.9332,9.31513,6.915710000000001,16.3928,8.52891,-30.8238,-14.2454,176.023,-0.155182,-0.128376,-0.548786,270.2,3.7,52.1701,4.427169999999999,5.6,0.902046,175.68099999999998,4.6098300000000005,147.614,-19.7583,176.482,0.8698620000000001,0.235648,230.925,4.32862,3.79941,15.3197631835938,21.9994239807129,35.0,22.0,-670836.0,1876.63,pp-riro,4,0,-1,-1
1570532328.2,2019-10-08,12:58:48.200,14.0,10.0,17.1000003814697,-14.1,12.4,11.4,-33.4,-17.7,167.1,-15.3872,12.1584,10.7181,6.815230000000001,10.8376,13.8365,-32.2795,-19.6027,172.40099999999998,-0.243009,-0.356419,-0.69828,270.2,3.7,52.1701,4.427169999999999,5.6,0.904817,180.864,4.60987,148.812,-21.2783,175.382,0.862176,0.244565,230.991,4.23717,3.73086,17.424850463867198,21.9994239807129,35.0,22.0,-670747.0,676.819,pp-riro,4,0,-1,-1
1570532328.3,2019-10-08,12:58:48.300,14.0,11.0,17.0,-13.1,13.2,12.3,-33.7,-20.8,163.2,-15.1068,12.5305,11.2399,4.71874,5.78833,8.0053,-32.7273,-21.6737,171.058,-0.245639,-0.328831,-0.666213,270.2,3.7,52.1701,4.427169999999999,5.6,0.935291,195.628,4.60994,149.98,-22.4183,174.282,0.854736,0.250869,231.021,4.14846,3.65795,19.5452651977539,21.9994239807129,35.0,22.0,-670653.0,984.464,pp-riro,4,0,-1,-1
1570532328.4,2019-10-08,12:58:48.400,14.0,11.0,16.9899997711182,-12.0,14.1,13.2,-32.9,-24.3,158.5,-13.7602,13.9523,12.9304,11.953,0.740842,12.1358,-33.392,-27.4912,166.422,-0.284889,-0.19742,-0.750359,270.2,3.7,52.1701,4.427169999999999,5.5,0.940278,196.742,4.60997,151.295,-23.9383,173.082,0.846333,0.259368,231.129,4.04488,3.57999,21.6486358642578,21.9994239807129,35.0,22.0,-670592.0,1169.05,pp-riro,4,0,-1,-1
1570532328.5,2019-10-08,12:58:48.500,14.0,10.0,16.9899997711182,-10.7,14.9,13.9,-31.4,-27.5,153.1,-13.7602,13.9523,12.9304,11.953,0.740842,12.1358,-33.392,-27.4912,166.422,-0.284889,-0.19742,-0.750359,270.2,3.7,52.1701,4.427169999999999,5.5,0.938061,196.32,4.61002,152.697,-25.0783,171.882,0.837825,0.26518,231.276,3.93902,3.5034300000000003,23.7639465332031,21.9994239807129,35.0,22.0,-670443.0,1568.99,pp-riro,4,0,-1,-1
1570532328.6,2019-10-08,12:58:48.600,14.0,11.0,17.0400009155273,-9.3,15.7,14.8,-29.1,-30.8,146.6,-12.6734,15.0201,13.9218,13.7788,10.722,11.6502,-33.4836,-31.4048,162.243,-0.548694,-0.129099,-0.961612,270.2,3.7,52.1701,4.427169999999999,5.5,0.943602,202.056,4.61006,154.157,-25.8383,170.482,0.8287459999999999,0.268416,231.292,3.82208,3.4254,25.8724365234375,21.9994239807129,35.0,22.0,-670321.0,984.464,pp-riro,4,0,-1,-1
1570532328.7,2019-10-08,12:58:48.700,14.0,12.0,17.0900001525879,-7.8,16.4,15.6,-26.1,-34.5,139.4,-9.80946,17.0613,16.0517,14.1103,12.0926,9.92081,-30.7301,-40.3131,150.767,-0.178123,-0.264243,-1.12591,270.2,3.7,52.1701,4.427169999999999,5.5,0.958562,211.064,4.610119999999999,155.734,-26.5983,169.082,0.8193,0.271462,231.407,3.6962,3.34895,27.9741134643555,21.9994239807129,35.0,22.0,-670237.0,830.6410000000001,pp-riro,4,0,-1,-1
1570532328.8,2019-10-08,12:58:48.800,14.0,12.0,17.0900001525879,-5.7,17.0,16.2,-21.4,-37.8,130.7,-8.92809,17.5604,16.4949,13.532,10.2698,6.14915,-29.6235,-42.9393,147.545,-0.571408,-0.0671821,-1.06664,270.2,3.7,52.1701,4.427169999999999,5.5,0.982942,223.39,4.610180000000001,157.341,-27.7382,167.68200000000002,0.809565,0.2767489999999999,231.609,3.5569900000000003,3.252,30.0161743164062,21.9994239807129,35.0,22.0,-670075.0,1107.52,pp-riro,4,0,-1,-1
1570532328.9,2019-10-08,12:58:48.900,14.0,13.0,17.1399993896484,-3.7,17.3,16.7,-16.1,-40.5,121.2,-8.92809,17.5604,16.4949,13.532,10.2698,6.14915,-29.6235,-42.9393,147.545,-0.571408,-0.0671821,-1.06664,264.5,4.9,52.1701,4.427169999999999,5.5,0.990699,225.506,4.6102300000000005,159.005,-28.1182,166.082,0.799469,0.2772159999999999,231.639,3.41991,3.16753,31.7108001708984,21.9994239807129,35.0,22.0,-669922.0,1630.52,pp-riro,4,0,-1,-1
1570532329.0,2019-10-08,12:58:49.000,14.0,13.0,17.0400009155273,-1.4,17.8,17.0,-9.2,-42.6,110.1,-6.86781,18.4747,17.3327,25.0773,13.8632,7.843999999999999,-26.2463,-47.6637,139.47299999999998,-0.0195849999999999,-0.284942,-1.29111,264.5,4.9,52.1701,4.427169999999999,5.5,0.986821,225.125,4.61028,160.787,-28.4981,164.482,0.789025,0.277557,231.773,3.27045,3.07143,33.0562896728516,21.9994239807129,23.0,22.0,-669734.0,1784.34,pp-riro,4,0,-1,-1
1570532329.1,2019-10-08,12:58:49.100,14.0,12.0,16.9300003051758,0.9,17.9,17.2,-2.8,-43.4,99.8,-0.706641,19.8263,18.5159,23.19,6.20975,6.822539999999999,-8.56864,-55.6781,110.184,-0.627504,-0.186077,-1.40858,264.5,4.9,52.1701,4.427169999999999,5.5,0.987929,226.513,4.61033,162.51,-28.4981,163.68200000000002,0.7814180000000001,0.275683,232.408,3.13974,2.98074,34.0390014648438,21.9994239807129,23.0,22.0,-669656.0,1568.99,pp-ro,1,1,-1,-1
1570532329.2,2019-10-08,12:58:49.200,14.0,12.0,16.979999542236303,3.3,17.9,17.3,4.1,-43.5,88.3,-0.706641,19.8263,18.5159,23.19,6.20975,6.822539999999999,-8.56864,-55.6781,110.184,-0.627504,-0.186077,-1.40858,264.5,4.9,52.1701,4.427169999999999,5.5,1.0006700000000002,237.391,4.61038,164.292,-28.498,161.282,0.768744,0.273786,231.982,2.99588,2.88755,34.6674652099609,21.9994239807129,23.0,22.0,-669519.0,1107.52,pp-ro,1,1,-1,-1
1570532329.3,2019-10-08,12:58:49.300,14.0,13.0,17.0900001525879,5.9,17.6,17.3,12.1,-42.4,76.4,0.6436109999999999,19.9832,18.7142,28.1955,2.53833,3.41515,-4.33861,-56.2439,103.105,-1.0052299999999998,-0.236906,-1.26918,264.5,4.9,52.1701,4.427169999999999,5.5,1.05165,264.967,4.61043,166.10299999999998,-28.1179,159.582,0.758323,0.269675,232.05,2.84619,2.78933,34.94677734375,21.9994239807129,23.0,22.0,-669473.0,123.058,pp-ro,1,1,-1,-1
1570532329.4,2019-10-08,12:58:49.400,14.0,13.0,17.2399997711182,8.4,16.9,16.9,19.0,-40.4,65.2,4.99291,20.098,18.846,28.1069,-12.5337,4.30154,10.2765,-55.9017,80.5904,-0.3371659999999999,-0.1189359999999999,-1.33066,264.5,4.9,52.1701,4.427169999999999,5.3,1.06827,263.67,4.61048,167.855,-26.9778,157.982,0.748744,0.261291,232.08,2.70243,2.69349,34.9212341308594,21.9994239807129,23.0,22.0,-669247.0,3168.74,pp-ro,1,1,-1,-1
1570532329.5,2019-10-08,12:58:49.500,14.0,13.0,17.3400001525879,10.4,16.0,15.9,24.9,-38.0,55.3,9.41489,19.0608,18.2347,32.5829,-15.661,-8.26515,23.467,-52.9782,59.5859,-0.292601,-0.0199065999999999,-1.29341,264.5,4.9,52.1701,4.427169999999999,5.3,1.03503,249.601,4.610530000000001,169.491,-26.2177,156.382,0.7393029999999999,0.255351,232.098,2.56833,2.60377,34.4852294921875,21.9994239807129,23.0,22.0,-668872.0,3445.62,pp-ro,1,1,-1,-1
1570532329.6,2019-10-08,12:58:49.600,14.0,13.0,17.5900001525879,11.2,15.6,15.3,27.3,-36.8,51.1,11.6906,18.1612,17.0085,19.1421,-3.57315,-9.60139,31.0374,-49.748000000000005,47.4077,-0.5659029999999999,-0.141811,-1.45145,264.5,4.9,52.1701,4.427169999999999,5.3,1.02284,242.866,4.610580000000001,170.25,-25.8377,155.68200000000002,0.735063,0.252446,232.141,2.5097400000000003,2.5636400000000004,33.6830444335938,21.9994239807129,23.0,22.0,-668732.0,2645.75,pp-ro,1,1,-1,-1
1570532329.7,2019-10-08,12:58:49.700,14.0,12.0,17.7399997711182,13.0,14.7,14.3,30.8,-32.9,42.8,13.8866,17.1663,15.7353,18.8574,-11.1141,-7.39573,34.7267,-44.8197,38.319,-0.0439295,0.141361,-1.36199,264.5,4.9,52.1701,4.427169999999999,5.3,1.01231,237.764,4.6106300000000005,171.856,-24.6976,154.281,0.726485,0.2445139999999999,232.266,2.3788,2.47785,32.526611328125,21.9994239807129,23.0,22.0,-668457.0,2861.1,pp-ro,1,1,-1,-1
1570532329.8,2019-10-08,12:58:49.800,14.0,13.0,17.7800006866455,14.5,13.7,13.2,34.5,-28.9,35.6,14.8427,16.5263,15.1688,18.2526,-17.274,-6.53366,36.565,-42.4418,34.3433,-0.688098,0.0216149,-1.06542,264.5,4.9,52.1701,4.427169999999999,5.3,1.01009,242.937,4.61069,173.287,-23.1775,152.981,0.718846,0.2346659999999999,232.312,2.2578,2.39824,31.8112945556641,21.9994239807129,22.1448440551758,22.0,-668295.0,1107.52,pp-ro,1,1,-1,-1
1570532329.9,2019-10-08,12:58:49.900,14.0,13.0,17.7800006866455,15.6,12.6,11.9,36.9,-24.6,28.9,15.7774,15.9254,14.4786,21.0126,-15.367,-16.7108,37.8341,-39.9392,30.721,-0.2720869999999999,0.0526879,-1.29265,259.0,4.4,52.1701,4.427169999999999,5.3,1.03059,248.626,4.61072,174.66,-22.0374,151.781,0.7115199999999999,0.2271889999999999,232.442,2.13527,2.32119,30.1183776855469,21.9994239807129,20.8525695800781,22.0,-668181.0,1538.22,pp-ro,1,1,-1,-1
1570532330.0,2019-10-08,12:58:50.000,14.0,13.0,17.8299999237061,16.7,11.5,10.6,38.7,-20.1,23.3,17.9796,14.033,12.2367,17.4572,-14.7737,-14.3495,41.0393,-31.9647,20.9433,-0.167375,0.362607,-1.05532,259.0,4.4,52.1701,4.427169999999999,5.3,1.01342,237.655,4.61076,175.945,-20.5174,150.781,0.7051970000000001,0.217715,232.621,2.02212,2.24165,28.1052551269531,21.9994239807129,19.4700813293457,22.0,-667786.0,2922.63,pp-ro,1,1,-1,-1
1570532330.1,2019-10-08,12:58:50.100,14.0,12.0,17.9200000762939,17.4,10.5,9.4,40.3,-16.0,18.3,18.9836,12.658,10.8712,2.44401,-13.0243,-9.77831,42.5641,-26.9398,15.3547,-0.478496,0.121513,-1.39424,259.0,4.4,52.1701,4.427169999999999,5.3,1.00566,235.943,4.61076,177.142,-18.6173,149.881,0.699522,0.206331,232.788,1.92072,2.17652,26.071701049804695,21.9994239807129,18.351957321167,22.0,-667661.0,2368.87,pp-ro,1,1,-1,-1
1570532330.2,2019-10-08,12:58:50.200,14.0,12.0,17.9699993133545,18.1,9.6,8.0,41.3,-12.1,14.3,19.6007,11.4852,9.20466,4.0523,-10.0067,-14.4748,42.9386,-21.8265,10.826,-0.213326,0.326305,-1.0503,259.0,4.4,52.1701,4.427169999999999,5.3,1.01009,235.577,4.61077,178.22299999999998,-17.0972,149.08100000000002,0.694344,0.197263,232.983,1.83078,2.10326,24.167594909668,21.9994239807129,17.0670471191406,22.0,-667410.0,2061.22,pp-ro,1,1,-1,-1
1570532330.3,2019-10-08,12:58:50.300,14.0,12.0,17.9699993133545,18.7,8.8,6.9,42.9,-7.9,10.6,20.2412,10.3104,7.805839999999999,5.32149,-11.6634,-10.4535,43.409,-16.7893,7.12792,-0.0605915999999999,0.2401059999999999,-1.08944,259.0,4.4,52.1701,4.427169999999999,5.3,1.00621,236.274,4.61079,179.21599999999998,-15.1971,148.381,0.689792,0.186192,233.166,1.74083,2.04303,21.960319519043,21.9994239807129,16.0199890136719,22.0,-667272.0,2461.16,pp-ro,1,1,-1,-1
1570532330.4,2019-10-08,12:58:50.400,14.0,11.0,17.9699993133545,19.1,7.9,5.8,43.7,-4.0,7.0,21.0653,8.76694,6.00084,-0.657147,-9.4894,-16.4374,44.239,-10.068,1.66017,-0.1109769999999999,0.0183764999999999,-0.853816,259.0,4.4,52.1701,4.427169999999999,5.3,1.01508,239.11,4.61081,180.209,-13.297,147.781,0.68552,0.175241,233.43400000000003,1.65553,1.9832,19.9540100097656,21.9994239807129,14.978485107421902,22.0,-667062.0,1630.52,pp-ro,1,1,-1,-1
1570532330.5,2019-10-08,12:58:50.500,14.0,11.0,17.8700008392334,19.3,7.1,4.7,44.8,-0.8,3.8,21.1055,7.66379,4.72201,0.111936,-11.4498,-14.2795,44.7543,-5.97262,-1.49879,-0.0808422,0.0581633,-0.7779010000000001,259.0,4.4,52.1701,4.427169999999999,5.3,1.01508,239.727,4.61083,181.056,-11.397,147.281,0.681925,0.164434,233.673,1.58382,1.92781,18.3700942993164,21.9994239807129,14.0062246322632,22.0,-666947.0,2122.75,pp-ro,1,1,-1,-1
1570532330.6,2019-10-08,12:58:50.600,14.0,11.0,17.6700000762939,19.5,6.3,3.7,45.8,2.1,1.0,21.328000000000003,7.14364,4.17866,-2.5551,-18.6728,-13.7146,45.022,-3.99395,-2.93362,-0.00652044,0.270603,-0.859759,259.0,4.4,52.1701,4.427169999999999,5.3,1.01175,240.104,4.61085,181.757,-9.49689,146.881,0.679006,0.153755,233.88,1.52045,1.87383,17.637741088867198,21.9994239807129,13.0416488647461,22.0,-666759.0,1784.34,pp-ro,1,1,-1,-1
1570532330.7,2019-10-08,12:58:50.700,14.0,11.0,17.520000457763697,19.7,5.5,2.7,46.8,5.4,-1.5,21.1619,6.6508,3.62293,0.593957,-7.8648,-10.7046,45.5499,-2.05355,-4.3190800000000005,0.00287038,0.226211,-0.885767,259.0,4.4,52.1701,4.427169999999999,5.3,1.01896,244.817,4.61086,182.487,-7.216810000000001,146.481,0.6760010000000001,0.14106,234.116,1.45623,1.81966,16.261604309082,21.9994239807129,12.0840978622437,22.0,-666593.0,1630.52,pp-ro,1,1,-1,-1
1570532330.8,2019-10-08,12:58:50.800,14.0,11.0,17.4200000762939,19.9,4.6,1.8,48.1,7.8,-3.8,21.3473,5.67631,2.60993,1.31768,-11.2021,-7.43888,46.0888,1.59791,-6.80449,0.132816,0.19583,-0.67019,259.0,4.4,52.1701,4.427169999999999,5.3,1.0317,252.085,4.61088,183.071,-5.31674,146.181,0.673617,0.130549,234.334,1.40511,1.7638599999999998,14.9876556396484,21.9994239807129,11.0752239227295,22.0,-666445.0,1599.75,pp-ro,1,1,-1,-1
1570532330.9,2019-10-08,12:58:50.900,14.0,10.0,17.270000457763697,20.1,3.8,1.0,49.0,9.7,-6.3,21.5073,4.16907,1.23209,-0.26385,-12.3256,-14.2128,47.2632,5.94088,-10.2896,0.3517409999999999,-0.130963,-0.487202,257.2,3.8,52.1701,4.427169999999999,5.3,1.045,262.53,4.6109,183.567,-3.4166800000000004,145.881,0.671417,0.1201049999999999,234.499,1.35867,1.71429,13.5467910766602,21.9994239807129,10.189733505249,22.0,-666309.0,1169.05,pp-ro,1,1,-1,-1
1570532331.0,2019-10-08,12:58:51.000,14.0,11.0,17.2199993133545,20.1,2.9,0.5,50.0,11.7,-9.1,21.5621,3.72863,0.8240719999999999,0.363007,-10.7092,-10.975,47.8109,7.278,-11.3991,0.525211,-0.0385064,-0.551951,257.2,3.8,52.1701,4.427169999999999,5.3,1.06827,271.962,4.61091,183.976,-1.13662,145.681,0.669741,0.1076599999999999,234.673,1.30899,1.67555,12.4414596557617,21.9994239807129,9.507123947143551,22.0,-666185.0,1445.93,pp-ro,1,1,-1,-1
1570532331.1,2019-10-08,12:58:51.100,14.0,11.0,17.1700000762939,20.2,2.2,-0.1,51.1,13.6,-11.3,21.5621,3.72863,0.8240719999999999,0.363007,-10.7092,-10.975,47.8109,7.278,-11.3991,0.525211,-0.0385064,-0.551951,257.2,3.8,52.1701,4.427169999999999,5.3,1.07714,277.813,4.61095,184.297,0.763439,145.481,0.668229,0.0973266,234.8,1.26597,1.63689,11.325897216796902,21.9994239807129,8.822591781616211,22.0,-665936.0,2861.1,pp-ro,1,1,-1,-1
1570532331.2,2019-10-08,12:58:51.200,14.0,11.0,17.2199993133545,20.2,1.4,-0.6,52.2,15.3,-13.3,21.5771,2.80631,0.159589,2.93687,-5.43971,-13.2831,48.6836,9.61975,-13.6321,0.290521,0.0122258,-0.404567,257.2,3.8,52.1701,4.427169999999999,5.3,1.08434,284.926,4.61094,184.531,3.0435,145.381,0.6672170000000001,0.0849373,234.94,1.22919,1.60058,10.089416503906198,21.9994239807129,8.172947883605959,22.0,-665753.0,1538.22,pp-ro,1,1,-1,-1
1570532331.3,2019-10-08,12:58:51.300,14.0,12.0,17.4200000762939,20.3,0.5,-1.2,52.6,16.2,-15.2,21.5117,0.723057,-1.38518,4.41182,-9.29605,-1.17049,50.3259,14.8833,-18.4327,0.281138,0.197176,-0.297429,257.2,3.8,52.1701,4.427169999999999,5.3,1.10706,293.327,4.6109800000000005,184.706,4.94355,145.281,0.6663140000000001,0.0746791,235.048,1.20299,1.55607,9.66021728515625,21.9994239807129,7.3555269241333,22.0,-665539.0,2522.69,pp-ro,1,1,-1,-1
1570532331.4,2019-10-08,12:58:51.400,14.0,12.0,17.5699996948242,20.1,-0.2,-1.6,53.1,17.0,-16.8,21.5117,0.723057,-1.38518,4.41182,-9.29605,-1.17049,50.3259,14.8833,-18.4327,0.281138,0.197176,-0.297429,257.2,3.8,52.1701,4.427169999999999,5.4,1.11814,300.731,4.61097,184.735,7.2236,145.281,0.66604,0.0623479,235.13,1.18268,1.52622,8.87847900390625,21.9994239807129,6.81337738037109,22.0,-665184.0,2307.34,pp-ro,1,1,-1,-1
1570532331.5,2019-10-08,12:58:51.500,14.0,11.0,17.770000457763697,19.9,-0.9,-2.1,53.3,17.5,-18.6,21.2262,-0.546557,-2.12038,0.0262982,-4.55513,-3.1313,50.8755,16.6417,-20.8496,-0.0357628,-0.292335,-0.488727,257.2,3.8,52.1701,4.427169999999999,5.4,1.1242299999999998,301.42400000000004,4.6109800000000005,184.706,9.50365,145.281,0.665846,0.05001,235.188,1.16419,1.49189,7.91620635986328,21.9994239807129,6.18492126464844,22.0,-664897.0,3230.27,pp-ro,1,1,-1,-1
1570532331.6,2019-10-08,12:58:51.600,14.0,11.0,17.9699993133545,19.7,-1.4,-2.4,53.3,18.4,-20.1,21.2262,-0.546557,-2.12038,0.0262982,-4.55513,-3.1313,50.8755,16.6417,-20.8496,-0.0357628,-0.292335,-0.488727,257.2,3.8,52.1701,4.427169999999999,5.4,1.11758,299.453,4.61099,184.647,11.0237,145.281,0.665778,0.0417742,235.208,1.14112,1.46859,7.23494720458984,21.9994239807129,5.75851678848267,22.0,-664737.0,3168.74,pp-ro,1,1,-1,-1
1570532331.7,2019-10-08,12:58:51.700,14.0,10.0,18.2099990844727,19.3,-1.9,-2.6,53.0,18.7,-22.1,20.9303,-1.51059,-2.78914,-4.4869,-5.097919999999999,-6.79447,51.192,18.1011,-22.699,0.0893501999999999,-0.0694838,-0.237304,257.2,3.8,52.1701,4.427169999999999,5.4,1.11149,293.483,4.611000000000001,184.472,13.3037,145.381,0.6661779999999999,0.0293986,235.25,1.12306,1.4498,6.87387847900391,21.9994239807129,5.4217815399169895,22.0,-664437.0,3014.92,pp-ro,1,1,-1,-1
1570532331.8,2019-10-08,12:58:51.800,14.0,10.0,18.3500003814697,19.0,-2.2,-2.8,52.8,19.5,-23.4,20.3654,-2.1345400000000003,-3.09811,-4.65756,-1.5981299999999998,-3.97693,50.699,19.0649,-25.4792,-0.182754,0.0104748999999999,-0.260943,257.2,3.8,52.1701,4.427169999999999,5.4,1.10152,288.255,4.61102,184.268,15.2038,145.58100000000002,0.6669970000000001,0.0190562,235.329,1.10484,1.43614,6.08362579345703,21.9994239807129,5.15980911254883,22.0,-664100.0,3476.39,pp-ro,1,1,-1,-1
1570532331.9,2019-10-08,12:58:51.900,14.0,10.0,18.4500007629395,18.6,-2.5,-3.1,52.4,20.4,-24.5,19.8897,-2.47712,-3.35051,-1.03918,0.574997,-1.48652,50.3965,20.3244,-26.5566,-0.143903,0.0290125999999999,-0.316627,256.2,3.5,52.1701,4.427169999999999,5.4,1.08988,283.965,4.61106,184.034,17.1038,145.781,0.66784,0.00865627,235.4,1.08757,1.41686,5.61696624755859,21.9994239807129,4.78783845901489,22.0,-663691.0,2430.39,pp-ro,1,1,-1,-1
1570532332.0,2019-10-08,12:58:52.000,14.0,10.0,18.5400009155273,18.5,-3.0,-3.4,52.1,21.3,-25.6,19.8897,-2.47712,-3.35051,-1.03918,0.574997,-1.48652,50.3965,20.3244,-26.5566,-0.143903,0.0290125999999999,-0.316627,256.2,3.5,52.1701,4.427169999999999,5.4,1.09597,289.19,4.6111,183.8,19.0038,145.981,0.6686300000000001,-0.00172003,235.487,1.07036,1.39424,5.20140075683594,21.9994239807129,4.3561224937439,22.0,-663453.0,2307.34,pp-ro,1,1,-1,-1
1570532332.1,2019-10-08,12:58:52.100,14.0,11.0,18.6399993896484,18.2,-3.5,-3.4,51.4,21.5,-27.1,19.8897,-2.47712,-3.35051,-1.03918,0.574997,-1.48652,50.3965,20.3244,-26.5566,-0.143903,0.0290125999999999,-0.316627,256.2,3.5,52.1701,4.427169999999999,5.4,1.10429,293.657,4.61114,183.42,20.9039,146.281,0.670083,-0.0122109,235.538,1.05785,1.3812799999999998,4.84544372558594,21.9994239807129,4.08327198028564,22.0,-663261.0,1907.4,pp-ro,1,1,-1,-1
1570532332.2,2019-10-08,12:58:52.200,14.0,11.0,18.8700008392334,18.0,-3.6,-3.6,50.9,22.1,-28.3,19.3949,-3.70483,-3.82567,-2.50868,1.6582599999999998,-0.0849418,48.7666,22.0944,-29.7054,0.1539849999999999,-0.0307542,-0.110044,256.2,3.5,52.1701,4.427169999999999,5.4,1.10927,290.888,4.611190000000001,183.07,22.8039,146.58100000000002,0.671405,-0.0227011,235.628,1.0435,1.37364,4.42816925048828,21.9994239807129,3.92731690406799,22.0,-663000.0,3014.92,pp-ro,1,1,-1,-1
1570532332.3,2019-10-08,12:58:52.300,14.0,10.0,18.9699993133545,17.8,-3.8,-3.7,50.6,22.5,-29.2,19.0879,-3.89732,-3.9114,-7.0496,2.06084,-4.4065900000000005,48.1759,22.7958,-30.626,-0.049721,-0.1117119999999999,-0.199925,256.2,3.5,52.1701,4.427169999999999,5.4,1.09099,282.905,4.61123,182.69,24.7039,146.881,0.67275,-0.0332249,235.712,1.0350700000000002,1.36682,4.244232177734379,21.9994239807129,3.790081739425661,22.0,-662636.0,3599.45,pp-ro,1,1,-1,-1
1570532332.4,2019-10-08,12:58:52.400,14.0,10.0,19.0100002288818,17.5,-4.1,-3.7,49.8,23.1,-30.3,19.0879,-3.89732,-3.9114,-7.0496,2.06084,-4.4065900000000005,48.1759,22.7958,-30.626,-0.049721,-0.1117119999999999,-0.199925,256.2,3.5,52.1701,4.427169999999999,5.6,1.08212,280.756,4.611269999999999,182.252,26.2239,147.181,0.674337,-0.0417661,235.724,1.02064,1.35805,3.9717254638671897,21.9994239807129,3.5841219425201403,22.0,-662487.0,2799.57,pp-ro,1,1,-1,-1
1570532332.5,2019-10-08,12:58:52.500,14.0,11.0,18.9699993133545,17.3,-4.2,-3.6,49.4,23.4,-31.4,18.4493,-4.48602,-3.91545,-1.081,1.37956,0.548929,47.0737,24.1351,-33.2455,0.0603481,0.0226181,-0.132787,256.2,3.5,52.1701,4.427169999999999,5.6,1.08434,277.413,4.61131,181.785,28.124,147.481,0.675812,-0.0523931,235.77,1.01135,1.36243,3.9001922607421897,21.9994239807129,3.6686635017395,22.0,-662279.0,2399.63,pp-ro,1,1,-1,-1
1570532332.6,2019-10-08,12:58:52.600,14.0,9.0,18.7800006866455,17.0,-4.2,-3.7,49.4,23.9,-32.4,18.2401,-4.60755,-3.87812,0.367809,-1.35911,2.53008,47.1105,24.4053,-33.6709,0.112507,-0.0710818999999999,-0.310813,256.2,3.5,52.1701,4.427169999999999,5.6,1.0699299999999998,269.216,4.61135,181.376,30.024,147.781,0.677079,-0.0630093,235.877,1.00066,1.35973,3.64813232421875,21.9994239807129,3.62961840629578,22.0,-661932.0,3599.45,pp-ro,1,1,-1,-1
1570532332.7,2019-10-08,12:58:52.700,14.0,10.0,18.6399993896484,16.7,-4.3,-3.5,49.3,24.5,-33.3,18.2401,-4.60755,-3.87812,0.367809,-1.35911,2.53008,47.1105,24.4053,-33.6709,0.112507,-0.0710818999999999,-0.310813,256.2,3.5,52.1701,4.427169999999999,5.6,1.0522,261.514,4.61139,180.879,31.924,148.08100000000002,0.678519,-0.0736772,235.933,0.989904,1.36658,3.6089630126953103,21.9994239807129,3.77473759651184,22.0,-661664.0,2245.81,pp-ro,1,1,-1,-1
1570532332.8,2019-10-08,12:58:52.800,14.0,10.0,18.5499992370605,16.4,-4.5,-3.5,49.0,24.5,-34.2,18.1472,-4.621180000000001,-3.88481,-5.62073,1.16096,-3.14711,46.893,24.4533,-34.2851,0.114824,-0.1252869999999999,-0.0609273,256.2,3.5,52.1701,4.427169999999999,5.6,1.03724,252.802,4.61143,180.441,33.444,148.381,0.679936,-0.0822906,235.997,0.985329,1.36008,3.6787872314453103,21.9994239807129,3.63595247268677,22.0,-661252.0,2984.16,pp-ro,1,1,-1,-1
1570532332.9,2019-10-08,12:58:52.900,14.0,10.0,18.4500007629395,16.1,-4.6,-3.7,48.7,24.7,-35.0,17.3111,-4.91169,-3.65125,-3.81401,2.25216,-1.52779,46.464,25.5243,-36.833,0.129615,-0.00730081,-0.212857,236.4,4.0,52.1701,4.427169999999999,5.6,1.02727,244.823,4.61137,179.94400000000002,34.9641,148.681,0.681469,-0.0909518999999999,236.027,0.979416,1.34776,3.75202178955078,21.9994239807129,3.37456560134888,22.0,-661029.0,2153.51,pp-ro,1,1,-1,-1
1570532333.0,2019-10-08,12:58:53.000,14.0,11.0,18.3600006103516,15.8,-4.8,-3.7,48.7,24.7,-35.3,17.3111,-4.91169,-3.65125,-3.81401,2.25216,-1.52779,46.464,25.5243,-36.833,0.129615,-0.00730081,-0.212857,236.4,4.0,52.1701,4.427169999999999,5.6,1.01674,241.975,4.61124,179.44799999999998,36.4841,148.981,0.682964,-0.0994945,236.068,0.981584,1.34064,3.71285247802734,21.9994239807129,3.22068786621094,22.0,-660752.0,2645.75,pp-ro,1,1,-1,-1
1570532333.1,2019-10-08,12:58:53.100,14.0,12.0,18.2099990844727,15.5,-5.0,-3.9,48.7,24.3,-36.4,16.7748,-5.16918,-3.79867,-0.0528466999999999,-1.7259099999999998,-3.5868900000000004,46.3768,25.8027,-37.7768,-0.0213680999999999,-0.0956993,-0.2158179999999999,236.4,4.0,52.1701,4.427169999999999,5.6,1.0184,246.058,4.61112,178.922,38.3841,149.381,0.684615,-0.1100579999999999,236.223,0.981062,1.32549,3.39776611328125,21.9994239807129,2.92276763916016,22.0,-660586.0,1384.4,pp-ro,1,1,-1,-1
1570532333.2,2019-10-08,12:58:53.200,14.0,11.0,18.1200008392334,15.3,-5.2,-3.9,48.1,23.9,-37.0,16.7748,-5.16918,-3.79867,-0.0528466999999999,-1.7259099999999998,-3.5868900000000004,46.3768,25.8027,-37.7768,-0.0213680999999999,-0.0956993,-0.2158179999999999,236.4,4.0,52.1701,4.427169999999999,5.6,1.02671,248.977,4.611000000000001,178.396,39.9041,149.781,0.68643,-0.118729,236.33,0.984817,1.31999,3.2325592041015603,21.9994239807129,2.7819371223449703,22.0,-660520.0,1322.87,pp-ro,1,1,-1,-1
1570532333.3,2019-10-08,12:58:53.300,14.0,12.0,17.8799991607666,15.2,-5.5,-4.4,48.1,23.4,-37.7,16.139,-5.59557,-3.92952,-0.2600159999999999,-1.4608,-6.167590000000001,46.0306,24.8394,-39.4572,-0.034783,-0.2902349999999999,-0.0913799999999999,236.4,4.0,52.1701,4.427169999999999,5.6,1.03724,253.68,4.61089,177.812,41.0441,150.181,0.688589,-0.125401,236.33900000000003,0.987358,1.28988,3.05203247070312,21.9994239807129,2.09050226211548,22.0,-660343.0,2061.22,pp-ro,1,1,-1,-1
1570532333.4,2019-10-08,12:58:53.400,14.0,12.0,17.9300003051758,15.3,-6.2,-4.8,48.4,23.0,-38.2,16.0467,-6.21125,-4.60677,-0.27871,-6.769710000000001,-7.792889999999999,45.8009,24.5138,-40.1216,-0.0618125,-0.14845,0.096313,236.4,4.0,52.1701,4.427169999999999,5.5,1.04888,269.016,4.61075,177.199,42.9442,150.681,0.69065,-0.136206,236.534,0.993617,1.26013,2.70799255371094,21.9994239807129,1.47493898868561,22.0,-660182.0,1045.99,pp-ro,1,1,-1,-1
1570532333.5,2019-10-08,12:58:53.500,14.0,12.0,17.979999542236303,15.5,-6.5,-4.8,48.7,22.1,-39.1,16.000999999999998,-6.49391,-4.80897,-1.7153900000000002,-4.3314900000000005,-2.60988,45.7391,24.2138,-40.4057,0.209846,-0.1777099999999999,-0.0224666,236.4,4.0,52.1701,4.427169999999999,5.5,1.09542,296.319,4.6106300000000005,176.55599999999998,44.0842,151.08100000000002,0.6929,-0.142985,236.519,0.998721,1.26072,2.04717254638672,21.9994239807129,1.38608038425446,22.0,-660194.0,-246.116,pp-ro,1,1,-1,-1
1570532333.6,2019-10-08,12:58:53.600,14.0,12.0,18.2199993133545,15.7,-6.5,-4.7,48.5,22.0,-40.2,16.0509,-6.79587,-4.86198,-0.664346,-7.10805,2.76477,45.826,23.743,-40.6019,0.2367659999999999,-0.00339646,-0.0277868,236.4,4.0,52.1701,4.427169999999999,5.5,1.14861,316.558,4.6105,175.884,45.9842,151.58100000000002,0.695013,-0.153898,236.7,0.994383,1.27695,1.58392333984375,21.9994239807129,1.68868005275726,22.0,-659960.0,3045.68,pp-ro,1,1,-1,-1
1570532333.7,2019-10-08,12:58:53.700,14.0,10.0,18.2199993133545,15.8,-6.7,-4.9,48.6,22.4,-41.0,16.4147,-7.145919999999999,-4.71776,-0.551165,-1.08636,3.1554900000000004,45.9665,23.4863,-41.717,0.0492624,-0.0991442,-0.159167,236.4,4.0,52.1701,4.427169999999999,5.5,1.14584,315.316,4.61038,175.21200000000002,47.5042,151.981,0.697008,-0.1628119999999999,236.758,0.986129,1.27109,1.4510726928710902,21.9994239807129,1.52849328517914,22.0,-659800.0,3230.27,pp-ro,1,1,-1,-1
1570532333.8,2019-10-08,12:58:53.800,14.0,11.0,18.5100002288818,15.7,-6.9,-4.9,48.8,22.5,-41.9,16.5105,-7.22297,-4.78647,5.31585,-2.36625,-2.2057900000000004,45.8124,23.5726,-42.4803,0.15627,-0.0459103,-0.2482489999999999,236.4,4.0,52.1701,4.427169999999999,5.5,1.14252,310.8,4.61026,174.511,49.0242,152.481,0.699362,-0.171794,236.872,0.980367,1.26866,1.46300506591797,21.9994239807129,1.4008386135101298,22.0,-659461.0,3630.21,pp-ro,1,1,-1,-1
1570532333.9,2019-10-08,12:58:53.900,14.0,11.0,18.8799991607666,15.5,-7.1,-5.1,49.3,22.4,-42.5,16.4707,-7.54838,-4.88136,-3.04211,-0.685991,0.71555,45.7881,24.0147,-43.3144,0.070989,-0.0559954,-0.0636896999999999,236.8,4.7,52.1701,4.427169999999999,5.5,1.13144,311.405,4.610119999999999,173.78099999999998,50.5442,152.981,0.701749,-0.180841,236.977,0.980566,1.25549,1.6809997558593797,21.9994239807129,1.05308222770691,22.0,-659138.0,2614.98,pp-ro,1,1,-1,-1
1570532334.0,2019-10-08,12:58:54.000,14.0,11.0,19.340000152587898,15.6,-7.3,-5.3,49.3,22.5,-42.9,16.2018,-7.63507,-5.11174,-6.82682,3.25862,-4.42298,46.0944,23.9073,-44.4695,-0.156161,0.039366,0.14379,236.8,4.7,52.1701,4.427169999999999,5.5,1.15027,317.624,4.60999,173.02200000000002,52.0643,153.481,0.704168,-0.189958,237.073,0.980767,1.25041,1.59754943847656,21.9994239807129,-35.0,22.0,-658790.0,3107.21,pp-ro,1,1,-1,-1
1570532334.1,2019-10-08,12:58:54.100,14.0,11.0,19.5699996948242,15.7,-7.4,-5.2,49.6,22.6,-43.3,16.3194,-8.01258,-5.24181,5.567130000000001,-0.334011,0.0778434,46.5854,24.1396,-44.959,0.191557,0.00711801,-0.172088,236.8,4.7,52.1701,4.427169999999999,5.5,1.14917,320.73400000000004,4.60985,172.262,53.5843,153.981,0.706543,-0.199105,237.183,0.980999,1.26033,1.19390869140625,21.9994239807129,-35.0,22.0,-658622.0,3291.8,pp-ro,1,1,-1,-1
1570532334.2,2019-10-08,12:58:54.200,14.0,10.0,19.840000152587898,15.8,-7.5,-5.3,49.8,22.4,-43.6,16.4619,-8.15317,-5.247719999999999,1.05393,-4.12343,1.10678,46.7799,24.4711,-45.211000000000006,-0.0848589,0.091377,-0.0616018,236.8,4.7,52.1701,4.427169999999999,5.5,1.19128,343.755,4.609719999999999,171.47400000000002,55.1043,154.281,0.70831,-0.208329,237.155,0.986089,1.26226,0.538192749023438,21.9994239807129,-35.0,22.0,-658402.0,799.877,pp-ro,1,1,-1,-1
1570532334.3,2019-10-08,12:58:54.300,14.0,11.0,20.1399993896484,16.0,-8.0,-5.3,50.1,22.4,-43.7,16.4619,-8.15317,-5.247719999999999,1.05393,-4.12343,1.10678,46.7799,24.4711,-45.211000000000006,-0.0848589,0.091377,-0.0616018,236.8,4.7,52.1701,4.427169999999999,5.5,1.20679,352.918,4.60958,171.09400000000002,55.8643,154.781,0.7102569999999999,-0.21286,237.384,0.987968,1.25714,-0.488136291503906,21.9994239807129,-35.0,22.0,-658050.0,3691.74,pp-ro,1,1,-1,-1
1570532334.4,2019-10-08,12:58:54.400,14.0,10.0,20.4899997711182,16.2,-8.3,-5.3,50.1,22.0,-43.7,16.4619,-8.15317,-5.247719999999999,1.05393,-4.12343,1.10678,46.7799,24.4711,-45.211000000000006,-0.0848589,0.091377,-0.0616018,236.8,4.7,52.1701,4.427169999999999,5.4,1.20679,353.82800000000003,4.60945,170.218,57.7643,155.281,0.712488,-0.224287,237.536,1.00047,1.26195,-1.8672103881835904,21.9994239807129,-35.0,22.0,-657900.0,2984.16,pp-ro,1,1,-1,-1
1570532334.5,2019-10-08,12:58:54.500,14.0,10.0,20.7900009155273,16.3,-8.3,-5.2,50.8,21.5,-43.2,16.6367,-8.77201,-5.23273,1.00214,3.21705,-0.8951870000000001,47.6116,24.3106,-44.2674,0.0403703,-0.15721,0.109096,236.8,4.7,52.1701,4.427169999999999,5.4,1.22064,359.75199999999995,4.60931,169.37099999999998,59.2843,155.781,0.714921,-0.2336909999999999,237.632,1.0187,1.2745799999999998,-3.59105682373047,21.9994239807129,-35.0,22.0,-657558.0,4030.15,pp-ro,1,1,-1,-1
1570532334.6,2019-10-08,12:58:54.600,14.0,10.0,20.9599990844727,16.5,-8.4,-4.6,51.7,20.7,-42.6,16.5845,-8.67774,-4.9682900000000005,-1.00967,5.64481,11.5259,48.2046,24.2512,-43.7051,0.2101559999999999,0.0118802,0.173343,236.8,4.7,52.1701,4.427169999999999,5.4,1.24281,362.765,4.60918,168.524,60.8043,156.281,0.717306,-0.243126,237.742,1.04178,1.3061200000000002,-5.65283966064453,21.9994239807129,-35.0,22.0,-657144.0,2368.87,pp-ro,1,1,-1,-1
1570532334.7,2019-10-08,12:58:54.700,14.0,11.0,21.090000152587898,17.1,-8.2,-4.0,53.0,19.9,-41.5,17.195999999999998,-8.69763,-4.02603,8.09944,3.78967,10.8474,49.4736,23.9313,-41.1993,0.0400844,0.1234109999999999,0.195417,236.8,4.7,52.1701,4.427169999999999,5.4,1.23782,351.41900000000004,4.60904,167.67700000000002,62.3243,156.681,0.719327,-0.252591,237.8,1.07082,1.3546,-7.760711669921879,21.9994239807129,-35.0,22.0,-656800.0,6583.6,pp-ro,1,1,-1,-1
1570532334.8,2019-10-08,12:58:54.800,14.0,10.0,20.9200000762939,17.5,-7.7,-2.6,53.2,18.1,-41.9,17.7521,-8.282210000000001,-2.72813,6.27952,4.97455,13.7268,50.542,22.7898,-40.5439,-0.106781,-0.201175,0.236828,236.8,4.7,52.1701,4.427169999999999,5.4,1.17022,330.876,4.60891,166.83,64.2244,156.981,0.720608,-0.2640699999999999,237.908,1.09598,1.43823,-9.86516571044922,21.9994239807129,-35.0,22.0,-656073.0,6091.37,pp-ro,1,1,-1,-1
1570532334.9,2019-10-08,12:58:54.900,14.0,13.0,20.9599990844727,18.0,-6.9,-2.0,54.1,17.4,-40.8,17.7521,-8.282210000000001,-2.72813,6.27952,4.97455,13.7268,50.542,22.7898,-40.5439,-0.106781,-0.201175,0.236828,243.1,5.7,52.1701,4.427169999999999,5.4,1.15969,318.228,4.60879,166.041,66.1244,157.281,0.72167,-0.27544,238.075,1.12529,1.50156,-11.973030090332,21.9994239807129,-35.0,22.0,-655767.0,2891.86,pp-ro,1,1,-1,-1
