time,date,time_of_day,airspeed_temperature,airspeed_angle_of_attack,airspeed_apparent_windspeed,kite_0_vx,kite_0_vy,kite_0_vz,kite_0_roll,kite_0_pitch,kite_0_yaw,kite_1_vx,kite_1_vy,kite_1_vz,kite_1_ax,kite_1_ay,kite_1_az,kite_1_roll,kite_1_pitch,kite_1_yaw,kite_1_roll_rate,kite_1_pitch_rate,kite_1_yaw_rate,ground_upwind_direction,ground_wind_velocity,ground_pos_latitude,ground_pos_longitude,ground_pos_altitude,ground_tether_reelout_speed,ground_tether_force,est_upwind_direction,kite_pos_east,kite_pos_north,kite_height,kite_elevation,kite_azimuth,kite_distance,kite_heading,kite_course,kite_actual_steering,kite_actual_depower,kite_set_steering,kite_set_depower,ground_mech_energy,ground_mech_power,flight_phase,flight_phase_index,phase,pattern,pattern_section
1570534308.4,2019-10-08,13:31:48.400,14.0,9.0,14.890000343322802,13.0,-1.2,2.7,21.1,-6.9,-45.2,12.3326,0.0545948,3.45326,6.59697,11.119000000000002,1.50352,26.6199,6.0205,-40.6952,0.215204,0.191512,0.911322,258.8,4.2,52.1701,4.42716,13.3,-2.23628,99.4171,4.60427,43.344,6.460430000000001,236.764,1.38778,-0.0398469,240.785,0.956021,1.66327,-34.970123291015604,22.0009689331055,-35.0,22.0,-908900.0,-3199.51,pp-riro,4,0,-1,-1
1570534308.5,2019-10-08,13:31:48.500,14.0,9.0,14.710000038147,13.7,-0.1,2.9,22.6,-8.2,-40.3,12.3326,0.0545948,3.45326,6.59697,11.119000000000002,1.50352,26.6199,6.0205,-40.6952,0.215204,0.191512,0.911322,258.8,4.2,52.1701,4.42716,13.3,-2.2495700000000003,87.3877,4.60426,43.2856,7.60047,236.564,1.38711,-0.0656927,240.612,1.07182,1.77247,-34.980377197265604,22.0009689331055,-35.0,22.0,-909545.0,-7045.07,pp-riro,4,0,-1,-1
1570534308.6,2019-10-08,13:31:48.600,14.0,8.0,14.6499996185303,14.2,0.9,3.4,23.8,-11.3,-33.0,12.9319,1.13842,3.65678,5.17165,10.5424,-0.955377,28.3844,4.28891,-35.2954,0.342055,0.117474,1.02023,258.8,4.2,52.1701,4.42716,12.9,-2.31385,87.2978,4.60425,43.344,9.12052,236.364,1.38555,-0.0992609,240.478,1.24292,1.87908,-34.9923248291016,22.0009689331055,-35.0,22.0,-910742.0,-13290.3,pp-riro,4,0,-1,-1
1570534308.7,2019-10-08,13:31:48.700,14.0,9.0,14.3400001525879,14.7,2.1,3.8,24.7,-12.2,-30.7,13.3877,2.19443,4.07404,3.68845,9.60521,4.86641,29.4872,2.28633,-29.8404,0.135262,0.1279269999999999,0.921769,258.8,4.2,52.1701,4.42716,12.9,-2.38865,95.7827,4.60424,43.3732,9.88055,236.164,1.38462,-0.115835,240.317,1.3026799999999998,1.97456,-34.9906158447266,22.0009689331055,-35.0,22.0,-912374.0,-8767.88,pp-riro,4,0,-1,-1
1570534308.8,2019-10-08,13:31:48.800,14.0,9.0,14.0299997329712,15.0,3.3,4.2,25.6,-14.3,-25.3,13.7646,3.96118,4.70948,1.82565,13.3028,4.54208,30.6281,-0.814175,-21.3487,0.0615858,0.201232,0.9851,258.8,4.2,52.1701,4.42716,12.9,-2.40195,91.5198,4.60423,43.6069,11.0206,235.864,1.38236,-0.1393869999999999,240.114,1.42743,2.07286,-34.9906158447266,22.0009689331055,-35.0,22.0,-912800.0,-8491.0,pp-riro,4,0,-1,-1
1570534308.9,2019-10-08,13:31:48.900,14.0,9.0,13.7799997329712,15.1,4.6,4.4,25.9,-16.2,-19.9,13.7479,4.5477300000000005,4.88037,-1.06808,13.2186,2.76088,30.7372,-1.83422,-18.4869,0.151436,0.165823,1.01656,258.8,4.2,52.1701,4.42716,12.9,-2.45015,75.444,4.60422,43.9281,12.9207,235.564,1.37881,-0.177898,239.973,1.56613,2.18772,-34.9957275390625,22.0009689331055,-35.0,22.0,-914041.0,-14274.7,pp-riro,4,0,-1,-1
1570534309.0,2019-10-08,13:31:49.000,14.0,8.0,13.710000038147,15.1,5.9,4.7,26.3,-17.9,-14.6,13.8139,6.40557,5.15607,-2.57358,11.244000000000002,0.590946,31.3784,-4.90184,-10.2635,0.143012,0.17858,0.960519,255.5,5.1,52.1701,4.42716,12.9,-2.64574,75.1532,4.60419,44.3954,14.0607,235.264,1.3753799999999998,-0.198543,239.828,1.6840700000000002,2.28356,-35.0042724609375,22.0009689331055,-35.0,22.0,-917423.0,-24519.3,pp-riro,4,0,-1,-1
1570534309.1,2019-10-08,13:31:49.100,14.0,8.0,13.8400001525879,15.1,7.1,5.0,26.5,-19.5,-9.3,13.8193,6.98732,5.31629,-0.154122,13.8607,5.09604,31.4673,-5.85466,-7.624169999999999,-0.0141214,0.24739,0.885583,255.5,5.1,52.1701,4.42716,12.9,-2.76598,84.7884,4.60414,44.9796,15.5808,234.863,1.37083,-0.225238,239.639,1.80708,2.37541,-35.0042724609375,22.0009689331055,-35.0,22.0,-919453.0,-19227.8,pp-riro,4,0,-1,-1
1570534309.2,2019-10-08,13:31:49.200,14.0,8.0,13.9700002670288,15.0,8.3,5.5,26.6,-21.0,-4.1,13.8018,7.50795,5.50523,-0.990362,9.38888,4.70715,31.3532,-6.63582,-4.8611,0.0334922,0.264457,0.984399,255.5,5.1,52.1701,4.42716,12.9,-2.79922,86.5468,4.604080000000001,46.0602,17.8609,234.463,1.36313,-0.261615,239.611,1.9372,2.47675,-35.0059814453125,22.0009689331055,-35.0,22.0,-920327.0,-16397.5,pp-riro,4,0,-1,-1
1570534309.3,2019-10-08,13:31:49.300,14.0,7.0,14.0299997329712,14.8,9.4,6.0,26.3,-22.3,1.0,13.6009,9.10818,6.15,-3.95626,10.486,3.45287,31.1333,-8.787180000000001,3.69327,-0.0367669,0.281521,0.996934,255.5,5.1,52.1701,4.42716,12.9,-2.86738,82.2037,4.604030000000001,46.4691,18.6209,234.063,1.36009,-0.272789,239.357,2.0383400000000003,2.54778,-35.0059814453125,22.0009689331055,-35.0,22.0,-921887.0,-16828.2,pp-riro,4,0,-1,-1
1570534309.4,2019-10-08,13:31:49.400,14.0,8.0,13.8999996185303,14.4,10.6,6.3,25.7,-23.9,6.5,13.2348,10.1671,6.474880000000001,-4.67307,12.1353,2.05435,30.5759,-10.3338,9.42487,0.0154855999999999,0.229373,0.8726860000000001,255.5,5.1,52.1701,4.42716,12.9,-2.95825,78.9461,4.60397,47.3745,20.521,233.463,1.35316,-0.300377,239.104,2.16271,2.64086,-35.0059814453125,22.0009689331055,-35.0,22.0,-923818.0,-19074.0,pp-riro,4,0,-1,-1
1570534309.5,2019-10-08,13:31:49.500,14.0,8.0,14.0299997329712,14.2,11.8,6.5,25.6,-25.0,12.1,12.9008,11.1936,6.80328,-3.96118,12.6829,2.59712,29.8981,-11.7436,14.9281,0.101808,0.322335,0.856683,255.5,5.1,52.1701,4.42716,12.9,-3.0529900000000003,84.8282,4.60392,48.426,21.661,232.863,1.3468,-0.312164,238.829,2.2705900000000003,2.70818,-35.0059814453125,22.0009689331055,-35.0,22.0,-925949.0,-20643.0,pp-riro,4,0,-1,-1
1570534309.6,2019-10-08,13:31:49.600,14.0,9.0,14.2799997329712,13.9,12.9,7.0,25.0,-26.2,17.8,12.6557,12.218,7.06902,-3.3211,10.2987,3.96706,29.2434,-12.7681,20.4349,0.1056869999999999,0.323042,0.887573,255.5,5.1,52.1701,4.42716,12.6,-3.14165,98.7829,4.60386,49.5651,22.8011,232.263,1.34008,-0.322658,238.585,2.3780900000000003,2.77172,-35.0042724609375,22.0009689331055,-23.0044822692871,22.0,-928167.0,-12152.0,pp-riro,4,0,-1,-1
1570534309.7,2019-10-08,13:31:49.700,14.0,10.0,14.5799999237061,13.6,14.0,7.5,24.3,-27.1,24.0,12.2843,13.7089,7.70096,-3.155,10.1301,5.98123,27.7203,-14.1603,29.6672,-0.00625635,0.358673,0.970906,255.5,5.1,52.1701,4.42716,12.6,-3.15439,103.856,4.60381,50.9086,24.7011,231.563,1.33113,-0.343188,238.376,2.5009900000000003,2.84138,-35.0042724609375,22.0009689331055,-23.0044822692871,22.0,-928569.0,-7445.01,pp-riro,4,0,-1,-1
1570534309.8,2019-10-08,13:31:49.800,14.0,10.0,14.6999998092651,13.1,15.3,8.0,23.3,-28.4,30.0,11.8705,14.7727,8.121080000000001,-6.16801,8.932360000000001,3.82144,26.1817,-15.2437,35.911,-0.0457523,0.316477,1.02983,255.5,5.1,52.1701,4.42716,12.6,-3.13057,112.965,4.60375,52.3105,25.8412,230.763,1.32315,-0.350223,238.024,2.60778,2.90803,-34.9564819335938,22.0009689331055,-23.0044822692871,22.0,-929002.0,-3168.74,pp-riro,4,0,-1,-1
1570534309.9,2019-10-08,13:31:49.900,14.0,11.0,14.880000114440902,12.4,16.5,8.4,22.2,-29.3,36.1,11.5703,15.3218,8.2956,-8.67666,11.92,4.54504,25.4987,-15.6834,38.9786,-0.0235502,0.306598,0.972053,255.5,5.1,52.1701,4.42716,12.6,-3.06906,118.222,4.6037,53.8293,27.3613,229.963,1.31401,-0.361598,237.758,2.71774,2.9789,-34.5434417724609,22.0009689331055,-23.0044822692871,22.0,-928746.0,1845.87,pp-riro,4,0,-1,-1
1570534310.0,2019-10-08,13:31:50.000,14.0,10.0,15.0600004196167,11.6,17.7,8.7,20.8,-30.1,42.4,11.249,15.8117,8.44624,-7.13011,13.1997,1.4167299999999998,24.8072,-16.2885,41.9758,0.0324635,0.143821,1.03805,263.5,6.2,52.1701,4.42716,12.6,-2.97431,123.667,4.603680000000001,55.4649,28.5013,229.063,1.305,-0.365955,237.399,2.8229,3.0433,-33.775390625,22.0009689331055,-23.0044822692871,22.0,-927987.0,10244.6,pp-riro,4,0,-1,-1
1570534310.1,2019-10-08,13:31:50.100,14.0,10.0,15.4099998474121,10.7,18.8,9.1,19.7,-30.6,48.7,10.5617,16.9163,8.72263,-7.22098,13.1754,3.93842,23.3515,-17.3313,47.9278,0.105701,0.290387,0.950578,263.5,6.2,52.1701,4.42716,12.6,-2.86184,132.743,4.60371,57.2465,29.6414,228.163,1.29543,-0.369083,237.095,2.92522,3.1047700000000003,-32.6489105224609,22.0009689331055,-23.0044822692871,22.0,-927156.0,10029.2,pp-riro,4,0,-1,-1
1570534310.2,2019-10-08,13:31:50.200,14.0,10.0,15.6899995803833,9.7,19.8,9.6,18.0,-30.9,55.2,9.81931,17.9218,9.07792,-8.16098,9.79841,5.4099,21.6945,-18.0167,53.9762,0.0795256,0.299859,0.941779,263.5,6.2,52.1701,4.42716,12.6,-2.69672,140.69899999999998,4.60374,59.145,31.1615,227.262,1.2847,-0.376248,236.891,3.03305,3.16874,-31.1708526611328,22.0009689331055,-23.0044822692871,22.0,-925535.0,16674.4,pp-riro,4,0,-1,-1
1570534310.3,2019-10-08,13:31:50.300,14.0,10.0,15.9700002670288,8.5,20.7,9.7,16.3,-31.2,61.7,9.35834,18.4395,9.2543,-12.220999999999998,9.11378,3.1933,20.8915,-18.3634,56.9696,-0.00268913,0.2175619999999999,0.969557,263.5,6.2,52.1701,4.42716,12.6,-2.51166,142.657,4.60377,61.1602,31.9215,226.262,1.27484,-0.372409,236.546,3.13022,3.2259900000000004,-29.3377685546875,22.0009689331055,-22.20751953125,22.0,-923672.0,18612.5,pp-riro,4,0,-1,-1
1570534310.4,2019-10-08,13:31:50.400,14.0,10.0,16.3600006103516,7.4,21.4,9.7,14.7,-31.2,67.6,7.88532,19.6093,9.53778,-9.9044,7.46802,3.81122,18.2095,-19.5663,65.7006,-0.00324387,0.222425,0.942003,263.5,6.2,52.1701,4.42716,12.6,-2.30277,142.064,4.6038,63.2047,32.6815,225.262,1.26484,-0.368628,236.233,3.21752,3.27485,-27.3971710205078,22.0009689331055,-21.538352966308604,22.0,-922007.0,16674.4,pp-riro,4,0,-1,-1
1570534310.5,2019-10-08,13:31:50.500,14.0,10.0,16.620000839233402,6.3,22.2,9.8,12.8,-30.9,73.8,6.43011,20.6026,9.527,-9.09154,5.88449,3.16166,15.6,-20.2846,74.0864,0.0186448,0.243887,0.921213,263.5,6.2,52.1701,4.42716,12.6,-2.11272,145.269,4.60383,65.3661,33.4416,224.262,1.25439,-0.364318,235.976,3.30885,3.32292,-25.6767349243164,22.0009689331055,-20.8980712890625,22.0,-920452.0,15782.2,pp-riro,4,0,-1,-1
1570534310.6,2019-10-08,13:31:50.600,14.0,9.0,16.7800006866455,5.1,22.7,10.0,11.1,-30.7,79.5,5.87934,20.9322,9.59219,-11.5744,9.65627,2.12635,14.8594,-20.3559,76.9063,0.1050369999999999,0.178041,0.803999,263.5,6.2,52.1701,4.42716,12.3,-1.76531,158.279,4.60386,67.6442,33.8216,223.262,1.24419,-0.355117,235.724,3.38791,3.36505,-24.1047973632812,22.0009689331055,-20.2596817016602,22.0,-917865.0,17658.8,pp-riro,4,0,-1,-1
1570534310.7,2019-10-08,13:31:50.700,14.0,9.0,16.9400005340576,3.8,23.1,10.0,9.4,-30.0,84.8,5.34578,21.1961,9.63098,-16.2839,7.425110000000001,-1.11854,13.9271,-20.4528,79.7311,-0.137722,0.0769603,0.7515569999999999,263.5,6.2,52.1701,4.42716,12.3,-1.4794,159.749,4.60389,69.8932,34.5817,222.262,1.23337,-0.350952,235.545,3.46611,3.4144400000000004,-22.7359619140625,22.0009689331055,-19.6290035247803,22.0,-916088.0,17535.8,pp-riro,4,0,-1,-1
1570534310.8,2019-10-08,13:31:50.800,14.0,8.0,16.9400005340576,2.5,23.5,9.8,7.7,-29.5,89.7,4.16651,21.6206,9.63233,-13.0326,2.86865,-2.29224,12.0769,-20.3982,84.9599,0.111991,0.2264159999999999,0.596614,263.5,6.2,52.1701,4.42716,12.3,-1.21012,155.435,4.60392,72.1713,34.9617,221.362,1.2232299999999998,-0.342632,235.44,3.5343400000000003,3.46011,-21.5616989135742,22.0009689331055,-18.9549312591553,22.0,-914655.0,13105.7,pp-riro,4,0,-1,-1
1570534310.9,2019-10-08,13:31:50.900,14.0,8.0,16.9899997711182,1.3,23.5,9.7,6.2,-29.0,94.4,3.555,21.8141,9.61008,-8.37482,5.9286900000000005,-2.46352,11.2598,-20.4171,87.3356,0.0374469,0.1360559999999999,0.705314,263.5,6.2,52.1701,4.42716,12.3,-1.08157,153.715,4.60395,74.5955,35.3418,220.262,1.21224,-0.334001,235.221,3.59925,3.4988,-20.5137405395508,22.0009689331055,-18.4597320556641,22.0,-914105.0,11013.7,pp-riro,4,0,-1,-1
1570534311.0,2019-10-08,13:31:51.000,14.0,9.0,17.1399993896484,0.3,23.7,9.4,4.8,-28.1,98.8,1.84159,22.2267,9.3259,-10.4712,1.66672,0.38381,8.96982,-20.0781,94.3014,0.0514539,0.259157,0.660684,261.3,5.5,52.1701,4.42716,12.3,-0.8217040000000001,151.183,4.604019999999999,76.9321,35.3418,219.362,1.20246,-0.322266,235.132,3.65841,3.5287900000000003,-19.8242034912109,22.0009689331055,-18.0222282409668,22.0,-913238.0,7937.24,pp-riro,4,0,-1,-1
1570534311.1,2019-10-08,13:31:51.100,14.0,8.0,17.2900009155273,-0.7,23.8,9.3,3.1,-27.1,102.8,0.241996,22.3754,8.95786,-2.71939,2.81756,-0.969292,6.77442,-19.387,100.438,-0.113646,0.155156,0.853915,261.3,5.5,52.1701,4.42716,12.3,-0.456564,155.991,4.60412,79.2979,35.3418,218.462,1.19253,-0.3109949999999999,235.08,3.71263,3.55769,-19.0629806518555,22.0009689331055,-17.6339740753174,22.0,-912435.0,4307.03,pp-riro,4,0,-1,-1
1570534311.2,2019-10-08,13:31:51.200,14.0,9.0,17.6000003814697,-1.6,23.6,9.3,1.6,-26.5,107.0,-0.665222,22.4641,8.78968,-5.54024,-2.06167,1.78155,5.28584,-18.8949,104.434,-0.195959,0.247113,0.541678,261.3,5.5,52.1701,4.42716,12.3,-0.333003,161.607,4.60423,81.7221,35.3419,217.562,1.18234,-0.299963,235.076,3.76887,3.58219,-18.4178161621094,22.0009689331055,-17.3616409301758,22.0,-912253.0,3384.09,pp-riro,4,0,-1,-1
1570534311.3,2019-10-08,13:31:51.300,14.0,9.0,17.7000007629395,-2.5,23.4,9.1,-0.2,-26.0,111.3,-1.05952,22.335,8.738660000000001,-6.784510000000001,-3.36987,-2.13106,4.44763,-18.5483,106.613,0.0809375,0.247608,0.697304,261.3,5.5,52.1701,4.42716,12.3,-0.0592868,164.87,4.60433,84.0586,35.3419,216.561,1.17226,-0.289948,234.976,3.82706,3.6093,-17.8033752441406,22.0009689331055,-17.0665912628174,22.0,-912133.0,276.88,pp-riro,4,0,-1,-1
1570534311.4,2019-10-08,13:31:51.400,14.0,9.0,17.7999992370605,-3.2,23.1,8.7,-1.8,-25.0,115.1,-2.37675,21.9884,8.47976,-14.4385,-1.6606,-2.15425,2.20359,-17.8937,112.407,-0.0610275,0.190412,0.453154,261.3,5.5,52.1701,4.42716,12.3,0.233823,146.059,4.60444,86.366,34.9619,215.661,1.16298,-0.2766929999999999,234.928,3.87751,3.62795,-17.4381256103516,22.0009689331055,-16.8383693695068,22.0,-912330.0,-2676.51,pp-riro,4,0,-1,-1
1570534311.5,2019-10-08,13:31:51.500,14.0,9.0,17.7399997711182,-4.0,22.6,8.4,-3.2,-23.9,118.2,-2.37675,21.9884,8.47976,-14.4385,-1.6606,-2.15425,2.20359,-17.8937,112.407,-0.0610275,0.190412,0.453154,261.3,5.5,52.1701,4.42716,12.3,0.178969,119.701,4.60454,88.6442,34.5819,214.761,1.15373,-0.264059,234.896,3.91877,3.65205,-17.093360900878903,22.0009689331055,-16.5241737365723,22.0,-912165.0,1445.93,pp-riro,4,0,-1,-1
1570534311.6,2019-10-08,13:31:51.600,14.0,8.0,17.6900005340576,-4.8,22.2,8.2,-4.3,-22.9,121.1,-3.48929,21.4283,7.84611,-11.1276,-4.47966,-1.2816299999999998,0.398294,-16.7936,117.415,-0.0140145,0.221801,0.368811,261.3,5.5,52.1701,4.42716,12.0,0.168995,125.551,4.60464,90.9223,34.582,213.861,1.14391,-0.255652,234.945,3.96041,3.67991,-16.758834838867198,22.0009689331055,-16.2735576629639,22.0,-912185.0,-369.174,pp-riro,4,0,-1,-1
1570534311.7,2019-10-08,13:31:51.700,14.0,8.0,17.7399997711182,-5.7,21.7,8.4,-5.2,-21.7,123.4,-4.3699900000000005,20.9771,7.830239999999999,-9.08779,-5.809159999999999,3.93864,-0.929535,-15.7907,119.988,-0.140308,0.187053,0.36196,261.3,5.5,52.1701,4.42716,12.0,0.253216,149.99200000000002,4.60475,93.2005,33.442,213.061,1.13575,-0.236814,234.946,3.98538,3.70005,-16.547195434570302,22.0009689331055,-15.8628168106079,22.0,-912256.0,-769.112,pp-riro,4,0,-1,-1
1570534311.8,2019-10-08,13:31:51.800,14.0,10.0,17.5900001525879,-6.4,21.2,8.5,-6.3,-21.2,126.0,-4.80489,20.7741,7.87131,-8.301860000000001,-4.67799,-0.633808,-1.33812,-15.4552,121.27,-0.091663,0.121016,0.438221,261.3,5.5,52.1701,4.42716,12.0,0.266514,155.976,4.60485,95.3326,33.062,212.161,1.12686,-0.226288,234.933,4.01819,3.72128,-16.315071105957,22.0009689331055,-15.6713600158691,22.0,-912196.0,430.703,pp-riro,4,0,-1,-1
1570534311.9,2019-10-08,13:31:51.900,14.0,8.0,17.3899993896484,-6.9,20.9,8.3,-7.7,-20.9,128.4,-6.14451,19.9587,7.85917,-6.41221,-3.95938,-3.39474,-3.68169,-14.5982,126.287,0.0203769,-0.0864971,0.363956,261.3,5.5,52.1701,4.42716,12.0,0.269838,155.484,4.60495,97.4648,32.302,211.261,1.11839,-0.2125429999999999,234.891,4.04402,3.73356,-15.966888427734402,22.0009689331055,-15.5747661590576,22.0,-912170.0,338.409,pp-riro,4,0,-1,-1
1570534312.0,2019-10-08,13:31:52.000,14.0,13.0,17.2399997711182,-7.6,20.8,8.2,-8.9,-20.1,131.0,-6.70737,19.7249,7.75502,-7.976660000000001,-0.309695,0.480741,-4.959630000000001,-14.2841,128.71200000000002,0.136418,0.151091,0.358876,268.6,4.3,52.1701,4.42716,12.0,0.269284,158.208,4.60508,99.5677,31.922,210.361,1.10951,-0.20287,234.914,4.07966,3.75479,-15.6972198486328,22.0009689331055,-15.4279117584229,22.0,-912149.0,369.174,pp-riro,4,0,-1,-1
1570534312.1,2019-10-08,13:31:52.100,14.0,13.0,17.0300006866455,-8.6,20.6,8.3,-9.6,-19.4,133.1,-7.178380000000001,19.7251,7.67421,-10.9552,0.38125,-3.60048,-5.64115,-14.0456,129.944,-0.11634,0.110124,0.411702,268.6,4.3,52.1701,4.42716,12.0,0.282582,168.388,4.60524,101.641,31.1621,209.461,1.10113,-0.190264,234.895,4.10462,3.78366,-15.5777435302734,22.0009689331055,-15.0470972061157,22.0,-912140.0,0.0,pp-riro,4,0,-1,-1
1570534312.2,2019-10-08,13:31:52.200,14.0,13.0,17.0799999237061,-9.6,20.8,8.5,-10.9,-19.0,135.5,-7.76075,19.6958,7.69608,-8.98143,1.44943,0.945371,-6.54456,-13.7114,131.05,-0.143372,0.141513,0.393063,268.6,4.3,52.1701,4.42716,12.0,0.313057,189.156,4.60541,103.774,30.0221,208.461,1.09268,-0.174547,234.789,4.12943,3.8028,-15.5265426635742,22.0009689331055,-14.8094635009766,22.0,-912125.0,246.116,pp-riro,4,0,-1,-1
1570534312.3,2019-10-08,13:31:52.300,14.0,13.0,16.9699993133545,-10.3,20.7,8.8,-12.3,-19.4,138.3,-8.79234,19.7385,7.78147,-7.26248,0.528822,2.09957,-8.27475,-13.1718,133.406,-0.251536,0.0776046,0.493558,268.6,4.3,52.1701,4.42716,12.0,0.387858,226.717,4.60556,105.818,29.2621,207.56,1.08426,-0.162879,234.80900000000003,4.15787,3.81587,-15.1920166015625,22.0019989013672,-14.797908782959,22.0,-912147.0,-61.529,pp-riro,4,0,-1,-1
1570534312.4,2019-10-08,13:31:52.400,14.0,12.0,17.1800003051758,-11.1,20.6,9.0,-14.1,-19.1,141.8,-9.79444,19.6379,8.093110000000001,-1.6478700000000002,-1.96658,-3.16693,-11.5842,-13.5972,138.162,-0.129334,-0.0667073,0.573122,268.6,4.3,52.1701,4.42716,12.0,0.416116,250.149,4.60571,107.979,28.1221,206.46,1.07532,-0.148027,234.683,4.19881,3.83032,-14.8677215576172,22.003026962280305,-14.7379741668701,22.0,-912106.0,338.409,pp-riro,4,0,-1,-1
1570534312.5,2019-10-08,13:31:52.500,14.0,10.0,17.5900001525879,-11.9,19.9,9.3,-15.6,-18.5,145.1,-10.1988,19.5616,8.15161,-4.25941,-7.1499,2.15875,-12.694,-13.5345,139.705,-0.18873,-0.0147799,0.543625,268.6,4.3,52.1701,4.42716,12.0,0.434955,257.702,4.60587,109.995,26.6021,205.46,1.06735,-0.130697,234.564,4.23693,3.84951,-14.8131103515625,22.003026962280305,-14.4866609573364,22.0,-912111.0,-92.2935,pp-riro,4,0,-1,-1
1570534312.6,2019-10-08,13:31:52.600,14.0,11.0,18.0300006866455,-12.6,19.0,9.0,-17.0,-17.6,148.1,-11.3975,18.6133,8.62735,-6.44161,-8.04429,0.191599,-15.486,-12.8186,144.553,-0.349199,-0.0216263,0.354033,268.6,4.3,52.1701,4.427169999999999,11.8,0.459334,251.458,4.6060300000000005,111.922,25.8421,204.46,1.05893,-0.120479,234.517,4.27902,3.88296,-14.7294769287109,22.003026962280305,-14.153569221496598,22.0,-912008.0,1784.34,pp-riro,4,0,-1,-1
1570534312.7,2019-10-08,13:31:52.700,14.0,11.0,18.4200000762939,-13.2,18.2,8.5,-18.2,-16.3,150.9,-12.0499,17.7611,8.19026,-5.730169999999999,-4.0316,-1.84539,-17.0195,-11.9034,147.08100000000002,-0.130513,0.0386445,0.551254,268.6,4.3,52.1701,4.427169999999999,11.8,0.402264,228.538,4.60619,113.821,24.7021,203.46,1.05088,-0.107432,234.438,4.31925,3.91319,-14.439323425293,22.0025119781494,-13.819694519043,22.0,-911807.0,1661.28,pp-riro,4,0,-1,-1
1570534312.8,2019-10-08,13:31:52.800,14.0,9.0,18.5100002288818,-13.6,17.2,8.1,-19.3,-16.4,153.5,-12.3363,17.3548,7.985139999999999,-3.06581,-10.8209,-1.7694599999999998,-17.4962,-11.4243,148.361,0.052841,0.105748,0.544551,268.6,4.3,52.1701,4.427169999999999,11.8,0.363478,209.092,4.60635,115.573,23.1821,202.46,1.04356,-0.0918343,234.275,4.34267,3.93846,-14.1679458618164,22.0025119781494,-13.501522064209,22.0,-911650.0,1015.23,pp-riro,4,0,-1,-1
1570534312.9,2019-10-08,13:31:52.900,14.0,9.0,18.5100002288818,-13.9,16.4,7.6,-19.7,-15.4,155.5,-12.3363,17.3548,7.985139999999999,-3.06581,-10.8209,-1.7694599999999998,-17.4962,-11.4243,148.361,0.052841,0.105748,0.544551,268.6,4.3,52.1701,4.427169999999999,11.8,0.363478,213.662,4.6065,117.238,21.6621,201.66,1.0368700000000002,-0.0768236,234.266,4.36717,3.96025,-14.0587158203125,22.0025119781494,-13.2398557662964,22.0,-911601.0,307.645,pp-riro,4,0,-1,-1
1570534313.0,2019-10-08,13:31:53.000,14.0,9.0,18.4599990844727,-14.2,16.1,7.4,-19.4,-13.7,157.0,-13.1236,15.5601,7.42163,-0.982754,-4.80888,-3.48279,-18.724,-10.5862,152.892,0.1278369999999999,-0.00241567,0.34108,260.9,5.1,52.1701,4.427169999999999,11.8,0.373452,216.149,4.60662,118.932,20.5221,200.76,1.02952,-0.0650632,234.245,4.39347,3.9703,-13.6149520874023,22.0025119781494,-13.3494291305542,22.0,-911583.0,369.174,pp-riro,4,0,-1,-1
1570534313.1,2019-10-08,13:31:53.100,14.0,10.0,18.409999847412102,-14.8,15.0,7.1,-19.2,-13.0,159.2,-13.7419,14.885,7.06637,-6.602110000000001,-7.21196,-4.41359,-18.5689,-9.19297,154.779,-0.176649,0.217369,0.393366,260.9,5.1,52.1701,4.427169999999999,11.8,0.375114,219.252,4.6066400000000005,120.48,19.0021,200.06,1.0233,-0.0506729,234.308,4.41933,4.00908,-13.2838363647461,22.0025119781494,-12.7673969268799,22.0,-911470.0,707.5830000000001,pp-riro,4,0,-1,-1
1570534313.2,2019-10-08,13:31:53.200,14.0,10.0,18.3199996948242,-15.7,14.2,6.8,-18.9,-12.1,161.2,-14.3375,14.1931,6.87385,-4.22061,-4.11689,-4.68621,-18.6073,-8.27949,156.845,0.2142619999999999,-0.1507339999999999,0.398917,260.9,5.1,52.1701,4.427169999999999,11.8,0.393953,237.01,4.606669999999999,121.911,17.482,199.26,1.01719,-0.0367099,234.249,4.4445,4.05202,-13.0995025634766,22.003026962280305,-12.123112678527802,22.0,-911434.0,153.822,pp-riro,4,0,-1,-1
1570534313.3,2019-10-08,13:31:53.300,14.0,9.0,18.3199996948242,-16.0,13.9,6.7,-18.7,-11.7,162.2,-14.8537,13.3307,6.58559,-5.64866,-6.955239999999999,-1.05011,-18.2761,-7.73476,159.171,-0.121274,0.0960577,0.474672,260.9,5.1,52.1701,4.427169999999999,11.8,0.415562,247.05,4.6067,122.583,16.722,198.96,1.0144799999999998,-0.0298716,234.289,4.45682,4.06535,-12.7683868408203,22.003026962280305,-11.9462013244629,22.0,-911437.0,-61.529,pp-riro,4,0,-1,-1
1570534313.4,2019-10-08,13:31:53.400,14.0,10.0,18.3199996948242,-17.1,12.7,6.2,-17.7,-9.7,165.7,-15.1647,13.0008,6.53622,-6.462619999999999,-5.0429900000000005,-3.75535,-18.0589,-7.306769999999999,160.386,0.134206,-0.00995847,0.470156,260.9,5.1,52.1701,4.427169999999999,11.8,0.4476989999999999,256.079,4.60672,123.284,15.582,198.55900000000003,1.0116,-0.0200324,234.238,4.47139,4.08488,-12.2256393432617,22.003026962280305,-11.6080722808838,22.0,-911368.0,1107.52,pp-riro,4,0,-1,-1
1570534313.5,2019-10-08,13:31:53.500,14.0,10.0,18.5100002288818,-17.8,11.9,5.9,-17.3,-8.6,167.8,-15.9373,12.1604,6.27153,-11.4577,-6.16228,-4.62429,-17.9974,-6.21209,162.773,-0.124926,0.14849,0.370305,260.9,5.1,52.1701,4.427169999999999,11.8,0.446036,263.453,4.60675,125.767,12.162,197.259,1.0011,0.00923628,234.257,4.53362,4.156680000000001,-11.8194198608398,22.003026962280305,35.0,22.0,-911268.0,799.877,pp-riro,4,0,-1,-1
1570534313.6,2019-10-08,13:31:53.600,14.0,9.0,18.5100002288818,-18.4,11.1,5.7,-17.1,-7.7,170.1,-17.0584,11.0582,5.71247,-8.14736,-6.50887,-4.90089,-17.9508,-4.84006,166.255,0.00975719,-0.100551,0.4277829999999999,260.9,5.1,52.1701,4.427169999999999,11.5,0.482052,279.848,4.6067800000000005,126.935,10.6419,196.55900000000003,0.995792,0.0219702,234.225,4.56464,4.18993,-11.6692276000977,22.0035419464111,35.0,22.0,-911166.0,892.17,pp-riro,4,0,-1,-1
1570534313.7,2019-10-08,13:31:53.700,14.0,11.0,18.6499996185303,-18.5,10.7,5.5,-17.6,-6.8,172.5,-17.3579,10.6678,5.69704,-2.21582,-5.41573,1.18413,-18.1375,-4.542009999999999,167.43200000000002,-0.142655,0.0440211999999999,0.34892,260.9,5.1,52.1701,4.427169999999999,11.5,0.598963,282.143,4.6068,127.957,9.12193,195.959,0.991168,0.0344306,234.21400000000003,4.59744,4.19867,-11.1947402954102,22.0035419464111,35.0,22.0,-911924.0,-15228.4,pp-riro,4,0,-1,-1
1570534313.8,2019-10-08,13:31:53.800,14.0,9.0,18.9300003051758,-18.5,10.1,5.2,-17.9,-6.5,173.7,-17.6474,9.98934,5.17518,-7.03446,-10.7803,-6.26525,-18.6506,-3.97821,169.93400000000003,0.0224689,-0.0836459,0.382401,260.9,5.1,52.1701,4.427169999999999,11.5,1.2261799999999998,255.253,4.60683,128.483,7.9819,195.659,0.988863,0.0435288,234.21,4.61,4.21676,-10.3652496337891,22.003026962280305,35.0,22.0,-913711.0,13413.3,pp-riro,4,0,-1,-1
1570534313.9,2019-10-08,13:31:53.900,14.0,9.0,19.25,-18.2,9.5,4.5,-18.2,-5.2,175.7,-17.552,9.49348,4.86439,-0.33484,-7.43008,-7.400710000000001,-18.9539,-3.38689,172.66299999999998,0.2878449999999999,0.0148782,0.408638,260.9,5.1,52.1701,4.427169999999999,11.5,1.0921,227.634,4.60686,129.447,6.081869999999999,195.159,0.984627,0.0585975,234.266,4.63874,4.23297,-9.17391967773438,22.0019989013672,35.0,22.0,-912434.0,24119.4,pp-riro,4,0,-1,-1
1570534314.0,2019-10-08,13:31:54.000,14.0,7.0,19.340000152587898,-17.6,8.9,4.1,-18.8,-3.8,177.5,-16.9035,8.678289999999999,3.9017,4.17687,-6.40027,1.66895,-19.7338,-1.85048,175.542,-0.194956,-0.0246958,0.2636469999999999,263.9,5.0,52.1701,4.427169999999999,11.5,0.858274,197.99400000000003,4.60693,130.32299999999998,4.18184,194.659,0.9806,0.0734426,234.294,4.66585,4.23694,-7.63099670410156,22.0025119781494,35.0,22.0,-912005.0,-5414.55,pp-riro,4,0,-1,-1
1570534314.1,2019-10-08,13:31:54.100,14.0,7.0,19.340000152587898,-17.4,8.6,3.9,-19.6,-2.8,178.7,-16.9035,8.678289999999999,3.9017,4.17687,-6.40027,1.66895,-19.7338,-1.85048,175.542,-0.194956,-0.0246958,0.2636469999999999,263.9,5.0,52.1701,4.427169999999999,11.5,0.979064,218.477,4.6070400000000005,131.17,2.66181,194.259,0.97679,0.0851172,234.413,4.68304,4.23832,-5.731353759765621,22.0019989013672,35.0,22.0,-911939.0,8706.35,pp-riro,4,0,-1,-1
1570534314.2,2019-10-08,13:31:54.200,14.0,8.0,19.2000007629395,-17.0,8.3,4.0,-20.5,-1.5,179.7,-16.8149,8.327010000000001,3.82837,1.87571,-0.309379,-1.59792,-20.4276,-1.23741,177.051,-0.0301149,0.167515,0.244623,263.9,5.0,52.1701,4.427169999999999,11.5,0.949697,216.198,4.60715,131.988,0.761778,193.859,0.973033,0.0995231999999999,234.527,4.6981,4.22524,-3.63031005859375,22.0025119781494,35.0,22.0,-911831.0,1999.69,pp-riro,4,0,-1,-1
1570534314.3,2019-10-08,13:31:54.300,14.0,7.0,19.340000152587898,-16.7,8.3,4.2,-21.6,-1.1,-179.4,-16.5938,8.27867,3.72939,3.96038,-0.878216,-2.19539,-21.0935,-0.686796,177.592,-0.038027,0.0456545,0.287493,263.9,5.0,52.1701,4.427169999999999,11.5,0.991807,218.363,4.60726,132.77700000000002,-0.758247,193.459,0.969295,0.110892,234.641,4.70545,4.203130000000001,-1.5275650024414098,22.0025119781494,35.0,22.0,-911872.0,584.525,pp-riro,4,0,-1,-1
1570534314.4,2019-10-08,13:31:54.400,14.0,9.0,19.2900009155273,-16.4,8.7,4.3,-22.7,-0.2,-179.5,-16.5938,8.27867,3.72939,3.96038,-0.878216,-2.19539,-21.0935,-0.686796,177.592,-0.038027,0.0456545,0.287493,263.9,5.0,52.1701,4.427169999999999,11.5,0.972415,219.444,4.60738,133.595,-2.65828,193.05900000000003,0.965373,0.124964,234.79,4.701219999999999,4.16594,0.573959350585938,22.0025119781494,35.0,22.0,-911552.0,2707.28,pp-riro,4,0,-1,-1
1570534314.5,2019-10-08,13:31:54.500,14.0,10.0,19.2000007629395,-16.3,8.8,4.7,-23.8,-0.1,179.8,-16.2023,8.63523,4.23037,-0.216061,0.371627,4.42165,-23.9525,-0.00741547,179.42,-0.171551,-0.0321974,-0.0832794,263.9,5.0,52.1701,4.427169999999999,11.5,0.991253,228.386,4.60749,134.41299999999998,-3.79829,192.55900000000003,0.961203,0.133207,234.862,4.68536,4.14256,2.67733764648438,22.0019989013672,35.0,22.0,-911346.0,2061.22,pp-riro,4,0,-1,-1
1570534314.6,2019-10-08,13:31:54.600,14.0,10.0,19.0599994659424,-16.5,9.1,5.2,-24.8,-0.6,178.9,-16.2023,8.63523,4.23037,-0.216061,0.371627,4.42165,-23.9525,-0.00741547,179.42,-0.171551,-0.0321974,-0.0832794,263.9,5.0,52.1701,4.42716,11.3,1.01065,247.71400000000003,4.6076,135.26,-5.31832,192.05900000000003,0.956852,0.144199,234.968,4.658530000000001,4.11564,4.78412628173828,22.0019989013672,35.0,22.0,-911267.0,61.529,pp-riro,4,0,-1,-1
1570534314.7,2019-10-08,13:31:54.700,14.0,9.0,18.7399997711182,-16.4,9.2,5.8,-26.2,-2.1,177.6,-16.8254,9.05666,5.3194300000000005,-4.811730000000001,0.543275,7.30995,-26.819000000000003,-2.20782,178.388,-0.357475,-0.235813,-0.295923,263.9,5.0,52.1701,4.42716,11.3,1.03281,255.359,4.60772,136.107,-7.21835,191.558,0.952379,0.157715,235.099,4.61382,4.08361,6.88921356201172,22.0019989013672,35.0,22.0,-911274.0,-153.822,pp-riro,4,0,-1,-1
1570534314.8,2019-10-08,13:31:54.800,14.0,13.0,18.5,-16.2,9.6,6.5,-27.3,-4.0,175.4,-16.8254,9.05666,5.3194300000000005,-4.811730000000001,0.543275,7.30995,-26.819000000000003,-2.20782,178.388,-0.357475,-0.235813,-0.295923,263.9,5.0,52.1701,4.42716,11.3,1.05497,258.327,4.60783,137.041,-8.73837,190.858,0.947113,0.168296,235.125,4.55477,4.03903,9.00110626220703,22.0019989013672,35.0,22.0,-911034.0,3507.15,pp-riro,4,0,-1,-1
1570534314.9,2019-10-08,13:31:54.900,14.0,10.0,18.159999847412102,-15.9,10.4,7.4,-28.3,-5.9,172.6,-17.0194,9.39379,5.98816,-1.21958,1.02303,4.49482,-27.9194,-4.60273,176.94400000000002,-0.228328,-0.126737,-0.506131,263.9,5.0,52.1701,4.42716,11.3,1.03669,251.32,4.60794,137.947,-10.6384,190.158,0.941795,0.181472,235.165,4.48519,3.97304,11.1078948974609,22.0019989013672,35.0,22.0,-910705.0,3045.68,pp-riro,4,0,-1,-1
1570534315.0,2019-10-08,13:31:55.000,14.0,10.0,18.020000457763697,-15.2,11.0,8.4,-29.2,-9.0,170.0,-16.5706,10.8591,8.00964,4.255730000000001,3.47707,11.6337,-30.539,-10.4369,171.975,-0.265952,-0.266675,-0.794834,278.6,4.7,52.1701,4.42716,11.3,1.02727,245.878,4.6081,138.969,-11.7784,189.358,0.935974,0.188945,235.176,4.41126,3.90553,13.2078704833984,22.0019989013672,35.0,22.0,-910485.0,2030.46,pp-riro,4,0,-1,-1
1570534315.1,2019-10-08,13:31:55.100,14.0,9.0,17.8700008392334,-14.3,11.7,9.2,-29.4,-12.2,166.8,-16.5706,10.8591,8.00964,4.255730000000001,3.47707,11.6337,-30.539,-10.4369,171.975,-0.265952,-0.266675,-0.794834,278.6,4.7,52.1701,4.42716,11.3,1.0012299999999998,224.80900000000003,4.6083,140.079,-13.6784,188.358,0.929076,0.20153,235.134,4.32411,3.82907,15.3231735229492,22.0025119781494,35.0,22.0,-910014.0,4030.15,pp-riro,4,0,-1,-1
1570534315.2,2019-10-08,13:31:55.200,14.0,10.0,17.6200008392334,-13.0,12.3,10.0,-29.6,-15.6,162.9,-16.2321,11.2531,8.58491,6.0136400000000005,7.53574,7.65988,-30.8585,-12.101,170.679,-0.320002,-0.346001,-0.71653,278.6,4.7,52.1701,4.42716,11.3,0.960779,201.922,4.6085,141.218,-14.8184,187.458,0.922533,0.20854,235.165,4.23042,3.74576,17.4316558837891,22.0025119781494,35.0,22.0,-909671.0,3168.74,pp-riro,4,0,-1,-1
1570534315.3,2019-10-08,13:31:55.300,14.0,8.0,17.370000839233402,-11.7,13.1,10.5,-29.3,-18.9,158.5,-14.0715,12.8534,10.3551,5.455769999999999,8.55688,5.42004,-31.2944,-20.837,164.743,-0.1403599999999999,-0.501887,-0.546521,278.6,4.7,52.1701,4.42716,11.3,0.943048,192.024,4.6087,142.416,-15.9584,186.558,0.915772,0.215378,235.246,4.13197,3.66173,19.5571823120117,22.0014839172363,35.0,22.0,-909511.0,3045.68,pp-riro,4,0,-1,-1
1570534315.4,2019-10-08,13:31:55.400,14.0,7.0,17.0599994659424,-10.2,13.9,10.9,-28.4,-21.8,153.3,-13.3675,13.2512,10.7102,10.26,9.19872,4.59955,-31.2096,-23.119,163.024,-0.491791,-0.353132,-0.924415,278.6,4.7,52.1701,4.42716,11.3,0.913682,180.31,4.6089,143.701,-17.4784,185.558,0.908287,0.224623,235.345,4.02555,3.5688,21.667381286621104,22.0009689331055,35.0,22.0,-909268.0,1907.4,pp-riro,4,0,-1,-1
1570534315.5,2019-10-08,13:31:55.500,14.0,7.0,16.7999992370605,-8.1,14.7,11.9,-26.0,-26.4,144.3,-11.2671,14.7578,11.5616,11.7134,9.56031,1.3685,-30.0006,-28.6957,155.79399999999998,-0.334353,-0.218661,-1.07084,278.6,4.7,52.1701,4.42716,11.3,0.904817,177.75799999999998,4.6091,145.10299999999998,-18.2384,184.058,0.899383,0.2283219999999999,235.084,3.85822,3.4479300000000004,23.7775650024414,22.0009689331055,35.0,22.0,-909109.0,1661.28,pp-riro,4,0,-1,-1
1570534315.6,2019-10-08,13:31:55.600,14.0,7.0,16.7399997711182,-7.3,15.0,12.1,-24.8,-28.1,140.6,-8.96759,15.8494,12.6675,29.0981,14.8921,11.295,-28.2219,-34.5156,147.28,-0.537269,-0.0551593,-0.795561,278.6,4.7,52.1701,4.42716,11.2,0.921993,187.034,4.60931,146.505,-18.9984,183.558,0.8931209999999999,0.232142,235.623,3.79058,3.4022900000000003,25.8826522827148,22.0009689331055,35.0,22.0,-909020.0,399.9380000000001,pp-riro,4,0,-1,-1
1570534315.7,2019-10-08,13:31:55.700,14.0,7.0,16.6900005340576,-5.5,15.6,12.6,-22.1,-30.8,133.3,-8.96759,15.8494,12.6675,29.0981,14.8921,11.295,-28.2219,-34.5156,147.28,-0.537269,-0.0551593,-0.795561,278.6,4.7,52.1701,4.42716,11.2,0.92975,189.938,4.60951,147.965,-19.7584,182.458,0.885083,0.235732,235.743,3.66714,3.30525,27.9877395629883,22.0009689331055,35.0,22.0,-908949.0,1322.87,pp-riro,4,0,-1,-1
1570534315.8,2019-10-08,13:31:55.800,14.0,11.0,16.7399997711182,-3.8,16.0,13.3,-18.0,-33.5,124.4,-8.96759,15.8494,12.6675,29.0981,14.8921,11.295,-28.2219,-34.5156,147.28,-0.537269,-0.0551593,-0.795561,278.6,4.7,52.1701,4.42716,11.2,0.933629,198.845,4.60971,149.601,-20.5183,181.257,0.87621,0.239085,235.914,3.5246800000000005,3.21688,30.0213012695312,22.0009689331055,35.0,22.0,-908820.0,861.4060000000001,pp-riro,4,0,-1,-1
1570534315.9,2019-10-08,13:31:55.900,14.0,11.0,16.5799999237061,-1.9,16.0,13.7,-13.0,-36.1,114.9,-4.25057,17.7158,14.4202,20.2653,0.2988,10.3217,-20.2952,-44.1822,127.751,-0.00324655,0.0116279,-0.881108,278.6,4.7,52.1701,4.42716,11.2,0.961333,203.799,4.60991,151.149,-20.8983,179.957,0.8675200000000001,0.239972,235.939,3.38078,3.12697,31.7176208496094,22.0009689331055,35.0,22.0,-908689.0,1784.34,pp-riro,4,0,-1,-1
1570534316.0,2019-10-08,13:31:56.000,14.0,12.0,16.2000007629395,0.0,16.3,13.9,-7.4,-37.9,104.5,-4.25057,17.7158,14.4202,20.2653,0.2988,10.3217,-20.2952,-44.1822,127.751,-0.00324655,0.0116279,-0.881108,280.9,4.7,52.1701,4.42716,11.2,0.953022,199.31,4.6101,152.697,-20.8982,178.757,0.859276,0.2383949999999999,236.024,3.23398,3.03823,33.0699157714844,22.0009689331055,23.0044822692871,22.0,-908535.0,2891.86,pp-riro,4,0,-1,-1
1570534316.1,2019-10-08,13:31:56.100,14.0,12.0,16.0400009155273,2.3,16.2,14.0,-1.8,-39.1,93.9,-0.8461799999999999,18.1902,15.0844,24.5975,3.88965,1.31618,-11.5304,-49.17100000000001,111.222,-0.543824,-0.133694,-1.27052,280.9,4.7,52.1701,4.42716,11.2,0.92698,187.864,4.61029,154.303,-20.8982,177.457,0.8505739999999999,0.236809,236.087,3.08993,2.93328,34.0543365478516,22.0009689331055,23.0044822692871,22.0,-908306.0,2091.99,pp-ro,1,1,-1,-1
1570534316.2,2019-10-08,13:31:56.200,14.0,13.0,16.0400009155273,4.5,16.3,13.9,3.3,-39.0,84.6,-0.8461799999999999,18.1902,15.0844,24.5975,3.88965,1.31618,-11.5304,-49.17100000000001,111.222,-0.543824,-0.133694,-1.27052,280.9,4.7,52.1701,4.42716,11.2,0.929196,196.358,4.61049,155.939,-20.5181,176.157,0.841943,0.232826,236.155,2.96716,2.83589,34.6793823242188,22.0009689331055,23.0044822692871,22.0,-908142.0,430.703,pp-ro,1,1,-1,-1
1570534316.3,2019-10-08,13:31:56.300,14.0,13.0,16.1499996185303,6.6,16.0,13.9,8.6,-38.7,74.9,4.47083,18.3157,14.8874,25.9836,0.661207,-1.87467,2.34138,-51.6097,86.9358,-0.00206322,0.129774,-1.14456,280.9,4.7,52.1701,4.42716,11.2,0.960779,213.088,4.61068,157.487,-19.758,174.857,0.8337319999999999,0.226564,236.151,2.84151,2.74667,34.957000732421896,22.0009689331055,23.0044822692871,22.0,-908117.0,215.351,pp-ro,1,1,-1,-1
1570534316.4,2019-10-08,13:31:56.400,14.0,12.0,16.1399993896484,8.5,15.1,13.5,14.5,-37.5,65.0,8.06378,17.6066,14.8218,22.1641,-14.2028,-4.7209900000000005,13.0901,-50.5931,68.6375,-0.4519149999999999,-0.0391186999999999,-1.54428,280.9,4.7,52.1701,4.42716,11.2,0.977401,214.767,4.610869999999999,159.064,-18.998,173.55700000000002,0.825415,0.220486,236.187,2.71012,2.657,34.9093017578125,22.0009689331055,22.8190116882324,22.0,-908021.0,1199.82,pp-ro,1,1,-1,-1
1570534316.5,2019-10-08,13:31:56.500,14.0,12.0,16.0900001525879,10.1,14.4,12.7,20.5,-35.9,54.8,8.06378,17.6066,14.8218,22.1641,-14.2028,-4.7209900000000005,13.0901,-50.5931,68.6375,-0.4519149999999999,-0.0391186999999999,-1.54428,280.9,4.7,52.1701,4.42716,11.2,0.972415,206.422,4.61111,160.524,-18.2379,172.257,0.817441,0.214501,236.163,2.57267,2.57407,34.449462890625,22.0025119781494,21.4275913238525,22.0,-907883.0,2645.75,pp-ro,1,1,-1,-1
1570534316.6,2019-10-08,13:31:56.600,14.0,11.0,16.0900001525879,11.9,13.7,11.9,24.7,-33.1,46.3,8.06378,17.6066,14.8218,22.1641,-14.2028,-4.7209900000000005,13.0901,-50.5931,68.6375,-0.4519149999999999,-0.0391186999999999,-1.54428,280.9,4.7,52.1701,4.42715,11.2,0.921993,190.962,4.61126,161.92600000000002,-17.4778,171.157,0.810212,0.208651,236.263,2.44632,2.48178,33.6285400390625,22.0025119781494,19.8243045806885,22.0,-907452.0,1692.05,pp-ro,1,1,-1,-1
1570534316.7,2019-10-08,13:31:56.700,14.0,11.0,16.2000007629395,13.4,12.7,11.3,28.3,-30.1,38.9,13.2047,15.3665,12.5369,8.10161,-13.9448,-7.3523,29.3432,-44.094,39.8352,-0.430256,-0.0434079999999999,-1.56889,280.9,4.7,52.1701,4.42715,11.2,0.936953,196.379,4.61145,163.299,-15.9577,170.05700000000002,0.803294,0.198445,236.306,2.33304,2.40302,32.448272705078104,22.0025119781494,18.4328346252441,22.0,-907432.0,30.7645,pp-ro,1,1,-1,-1
1570534316.8,2019-10-08,13:31:56.800,14.0,14.0,16.4099998474121,14.9,11.5,10.2,30.6,-26.7,32.3,14.2006,14.8202,12.0519,12.9145,-13.1008,-5.2702800000000005,30.9345,-42.0959,35.7989,-0.110678,0.0211327,-1.0258200000000002,280.9,4.7,52.1701,4.42715,11.2,0.94471,197.84,4.61164,164.584,-14.8177,169.05599999999998,0.796786,0.19063,236.405,2.22189,2.30643,31.332702636718803,22.0019989013672,16.7027244567871,22.0,-907375.0,1169.05,pp-ro,1,1,-1,-1
1570534316.9,2019-10-08,13:31:56.900,14.0,13.0,16.6700000762939,16.0,10.6,9.1,32.5,-23.3,26.9,16.4653,12.8821,10.3398,9.5253,-12.8255,-9.5822,34.5312,-36.0733,25.4764,-0.344925,0.250588,-1.24921,280.9,4.7,52.1701,4.42715,11.2,0.924209,184.154,4.61184,165.752,-13.6776,168.15599999999998,0.790903,0.182979,236.511,2.12359,2.22791,29.5341796875,22.0019989013672,15.3146390914917,22.0,-907076.0,2245.81,pp-ro,1,1,-1,-1
1570534317.0,2019-10-08,13:31:57.000,14.0,13.0,16.8299999237061,16.7,9.6,7.9,33.9,-19.6,22.2,17.6596,11.7174,9.01255,12.2746,-13.4386,-12.7819,35.8961,-31.5441,19.9028,-0.29215,0.286058,-1.1323299999999998,273.7,4.6,52.1701,4.42715,11.2,0.905925,179.785,4.61204,166.803,-11.7775,167.356,0.78581,0.170944,236.58,2.03199,2.15758,27.4614715576172,22.0019989013672,14.0150089263916,22.0,-906899.0,1415.17,pp-ro,1,1,-1,-1
1570534317.1,2019-10-08,13:31:57.100,14.0,12.0,16.7800006866455,17.3,8.5,7.1,35.2,-16.4,17.4,18.7088,9.76922,7.388789999999999,2.09609,-11.0483,-12.9069,37.074,-24.9687,13.3157,-0.3663079999999999,0.215102,-0.940362,273.7,4.6,52.1701,4.42715,11.2,0.907587,182.689,4.61224,167.796,-10.2574,166.65599999999998,0.781057,0.161306,236.717,1.94228,2.09453,24.8352203369141,22.0019989013672,12.8781766891479,22.0,-906858.0,769.112,pp-ro,1,1,-1,-1
1570534317.2,2019-10-08,13:31:57.200,14.0,12.0,16.6700000762939,17.7,7.5,6.1,35.9,-13.3,13.4,19.2987,8.64502,6.23538,8.17413,-7.888619999999999,-9.00039,37.4591,-21.1871,9.57476,-0.104873,-0.00757167,-0.794211,273.7,4.6,52.1701,4.42715,11.2,0.920885,181.997,4.61244,168.672,-8.35735,166.15599999999998,0.77727,0.149557,236.914,1.86427,2.0327900000000003,22.726730346679695,22.0019989013672,11.707987785339402,22.0,-906783.0,1292.11,pp-ro,1,1,-1,-1
1570534317.3,2019-10-08,13:31:57.300,14.0,12.0,16.3999996185303,18.1,7.1,5.2,36.8,-10.5,9.9,19.2987,8.64502,6.23538,8.17413,-7.888619999999999,-9.00039,37.4591,-21.1871,9.57476,-0.104873,-0.00757167,-0.794211,273.7,4.6,52.1701,4.42715,11.2,0.900938,171.25400000000002,4.61264,169.49,-6.837280000000001,165.55599999999998,0.773251,0.140166,237.028,1.7939,1.9891,20.6284561157227,22.0019989013672,10.9396991729736,22.0,-906561.0,2368.87,pp-ro,1,1,-1,-1
1570534317.4,2019-10-08,13:31:57.400,14.0,12.0,16.2399997711182,18.5,6.6,4.4,37.7,-7.5,6.7,19.6895,7.95463,5.20432,9.81095,0.386669,-8.50511,38.5511,-17.7652,5.68731,0.115563,0.144488,-0.925124,273.7,4.6,52.1701,4.42715,11.2,0.905925,183.952,4.61284,170.27900000000002,-4.937209999999999,165.15599999999998,0.769918,0.128632,237.267,1.7258099999999998,1.94689,18.5233764648438,22.0019989013672,10.1538515090942,22.0,-906458.0,-215.351,pp-ro,1,1,-1,-1
1570534317.5,2019-10-08,13:31:57.500,14.0,10.0,16.129999160766598,19.2,5.9,3.8,38.4,-4.8,3.2,20.1314,7.2845,4.3327,8.550939999999999,-11.8692,-9.51875,38.1227,-13.2483,2.56474,0.0301724,0.322972,-0.682453,273.7,4.6,52.1701,4.42715,11.2,0.922547,191.795,4.61305,171.03799999999998,-3.03713,164.65599999999998,0.76631,0.117198,237.43400000000003,1.65755,1.89991,17.465721130371097,22.0019989013672,9.29453372955322,22.0,-906465.0,-123.058,pp-ro,1,1,-1,-1
1570534317.6,2019-10-08,13:31:57.600,14.0,10.0,16.129999160766598,19.4,5.1,3.2,39.2,-2.6,0.1,20.1314,7.2845,4.3327,8.550939999999999,-11.8692,-9.51875,38.1227,-13.2483,2.56474,0.0301724,0.322972,-0.682453,273.7,4.6,52.1701,4.42715,11.3,0.940278,193.759,4.61325,171.65099999999998,-0.757051,164.25599999999997,0.7633810000000001,0.10355,237.581,1.60175,1.8599900000000005,14.9365615844727,22.0019989013672,8.52978515625,22.0,-906386.0,1415.17,pp-ro,1,1,-1,-1
1570534317.7,2019-10-08,13:31:57.700,14.0,10.0,16.0799999237061,19.3,4.5,2.4,40.2,-1.3,-2.4,20.7709,5.55337,3.11804,-0.849941,-6.38007,-3.23655,39.7056,-7.420039999999999,-3.21793,-0.0232261,-0.0396124,-0.665188,273.7,4.6,52.1701,4.42715,11.3,0.908141,177.767,4.61345,172.235,0.763008,163.956,0.760771,0.0945075,237.796,1.56141,1.81967,12.7378005981445,22.0019989013672,7.78625822067261,22.0,-906027.0,2430.39,pp-ro,1,1,-1,-1
1570534317.8,2019-10-08,13:31:57.800,14.0,8.0,16.020000457763697,19.4,4.0,1.7,41.5,0.5,-4.0,20.7522,5.24702,2.7243,-5.46776,-4.98846,-10.6423,40.3086,-6.36223,-4.56112,-0.124043,0.0840429999999999,-0.2737969999999999,273.7,4.6,52.1701,4.42715,11.3,0.900938,177.095,4.61365,172.761,3.04308,163.656,0.758262,0.0812238,237.989,1.52855,1.78575,11.165802001953098,22.0025119781494,7.13609981536865,22.0,-905954.0,1476.7,pp-ro,1,1,-1,-1
1570534317.9,2019-10-08,13:31:57.900,14.0,9.0,16.020000457763697,19.8,3.4,1.4,42.6,2.0,-5.6,20.5501,4.87746,2.29102,-8.73663,-9.11101,-14.3946,40.7225,-5.13051,-5.53848,-0.00214164,0.0599938999999999,-0.323289,273.7,4.6,52.1701,4.42715,11.3,0.909803,182.116,4.61386,173.22799999999998,4.56314,163.356,0.7559020000000001,0.0722981,238.147,1.4964,1.7568,9.74197387695312,22.0025119781494,6.61852025985718,22.0,-905884.0,615.29,pp-ro,1,1,-1,-1
1570534318.0,2019-10-08,13:31:58.000,14.0,9.0,16.0799999237061,20.2,2.8,1.1,44.0,3.1,-7.3,20.5501,4.87746,2.29102,-8.73663,-9.11101,-14.3946,40.7225,-5.13051,-5.53848,-0.00214164,0.0599938999999999,-0.323289,262.9,3.8,52.1701,4.42715,11.3,0.921993,187.093,4.61404,173.579,6.843210000000001,163.156,0.754067,0.0589495,238.319,1.47109,1.7318900000000002,8.54977416992188,22.0009689331055,6.12345790863037,22.0,-905787.0,1169.05,pp-ro,1,1,-1,-1
1570534318.1,2019-10-08,13:31:58.100,14.0,8.0,16.0799999237061,20.3,2.6,0.9,45.8,3.5,-8.9,20.5501,4.87746,2.29102,-8.73663,-9.11101,-14.3946,40.7225,-5.13051,-5.53848,-0.00214164,0.0599938999999999,-0.323289,262.9,3.8,52.1701,4.42715,11.3,0.926426,190.842,4.61413,173.9,9.12328,162.95600000000002,0.7522340000000001,0.0458914,238.493,1.45584,1.72636,8.01499176025391,22.0019989013672,6.024529933929441,22.0,-905656.0,1353.64,pp-ro,1,1,-1,-1
1570534318.2,2019-10-08,13:31:58.200,14.0,8.0,16.0799999237061,20.5,2.3,0.7,47.8,4.0,-10.5,21.2009,2.87092,1.07954,3.07891,-2.33797,-5.91885,43.8663,1.29781,-10.3158,0.183978,-0.130926,-0.2346639999999999,262.9,3.8,52.1701,4.42715,11.3,0.937507,202.122,4.61422,174.16299999999998,11.0233,162.655,0.75025,0.034956,238.56,1.43781,1.7154900000000002,6.87899017333984,22.0019989013672,5.849835395812991,22.0,-905574.0,584.525,pp-ro,1,1,-1,-1
1570534318.3,2019-10-08,13:31:58.300,14.0,9.0,16.0799999237061,21.3,1.6,0.8,49.5,5.3,-12.2,21.5902,2.31735,0.665122,0.457606,-10.3946,1.91674,46.3202,3.38772,-11.9686,0.0821641,0.0486863,-0.357431,262.9,3.8,52.1701,4.42715,11.3,0.992362,230.168,4.614319999999999,174.425,13.3034,162.455,0.7484350000000001,0.0219958,238.732,1.4099,1.7014200000000002,6.2982177734375,22.0019989013672,5.59348392486572,22.0,-905544.0,461.467,pp-ro,1,1,-1,-1
1570534318.4,2019-10-08,13:31:58.400,14.0,9.0,16.1900005340576,21.2,0.9,0.9,50.6,5.9,-14.3,22.2044,1.70633,0.776608,4.12055,-4.44269,0.4563239999999999,47.7721,4.41907,-13.6881,0.19262,0.000621325,-0.384974,262.9,3.8,52.1701,4.42715,11.3,1.00289,237.683,4.61441,174.571,14.4434,162.355,0.747456,0.0154291,238.837,1.38161,1.68702,5.8724365234375,22.0025119781494,5.32509422302246,22.0,-905486.0,1076.76,pp-ro,1,1,-1,-1
1570534318.5,2019-10-08,13:31:58.500,14.0,9.0,16.3999996185303,21.3,0.5,0.7,51.0,5.8,-15.2,22.2044,1.70633,0.776608,4.12055,-4.44269,0.4563239999999999,47.7721,4.41907,-13.6881,0.19262,0.000621325,-0.384974,262.9,3.8,52.1701,4.42715,11.3,1.02007,242.328,4.6145,174.63,16.7235,162.055,0.745792,0.00245659,238.824,1.38106,1.6758099999999998,5.59141540527344,22.0025119781494,5.128100395202639,22.0,-905385.0,1230.58,pp-ro,1,1,-1,-1
1570534318.6,2019-10-08,13:31:58.600,14.0,8.0,16.5100002288818,21.1,0.0,0.6,52.2,6.2,-15.9,22.2743,1.06331,0.882591,-6.06286,-8.110710000000001,-3.61038,49.1045,5.70665,-15.428,0.240823,-0.283773,-0.183309,262.9,3.8,52.1701,4.42715,11.5,1.01674,234.656,4.61459,174.65900000000002,18.6235,161.855,0.7445510000000001,-0.00843222,238.851,1.37504,1.6638099999999998,5.37171173095703,22.0025119781494,4.90700578689575,22.0,-905107.0,3322.56,pp-ro,1,1,-1,-1
1570534318.7,2019-10-08,13:31:58.700,14.0,9.0,16.7199993133545,20.8,-0.3,0.5,53.2,6.6,-16.4,21.7018,-0.379557,0.336219,-5.12639,-1.09302,-1.1715,51.399,6.607489999999999,-18.4814,0.187433,0.0442841999999999,-0.0843836999999999,262.9,3.8,52.1701,4.42715,11.5,0.985158,220.022,4.61469,174.63,20.9036,161.655,0.74329,-0.0214399,238.882,1.37289,1.6594799999999998,5.08728790283203,22.0019989013672,4.83460140228271,22.0,-904783.0,2953.39,pp-ro,1,1,-1,-1
1570534318.8,2019-10-08,13:31:58.800,14.0,9.0,16.8199996948242,20.7,-0.7,0.6,53.5,6.9,-17.6,21.7018,-0.379557,0.336219,-5.12639,-1.09302,-1.1715,51.399,6.607489999999999,-18.4814,0.187433,0.0442841999999999,-0.0843836999999999,262.9,3.8,52.1701,4.42715,11.5,0.963549,206.881,4.61479,174.6,22.8036,161.455,0.742088,-0.0322207,238.9,1.36216,1.6571599999999995,4.85395812988281,22.0019989013672,4.81751871109009,22.0,-904545.0,2307.34,pp-ro,1,1,-1,-1
1570534318.9,2019-10-08,13:31:58.900,14.0,10.0,16.879999160766598,20.2,-1.0,0.5,53.4,6.8,-18.5,21.3635,-0.935465,0.4489859999999999,-6.16188,-1.61483,-2.33145,52.1589,7.183110000000001,-19.6737,-0.1073549999999999,-0.219013,-0.139629,262.9,3.8,52.1701,4.42715,11.5,0.938061,197.58900000000003,4.61488,174.483,25.0837,161.255,0.740921,-0.0452732,238.907,1.36158,1.6521099999999995,4.84373474121094,22.0019989013672,4.73904848098755,22.0,-904203.0,1907.4,pp-ro,1,1,-1,-1
1570534319.0,2019-10-08,13:31:59.000,14.0,9.0,16.979999542236303,19.8,-1.3,0.4,53.3,6.4,-18.8,20.8136,-1.13645,0.324863,-6.87265,-2.16803,-4.74489,52.1026,6.891439999999999,-20.4245,-0.0281246,0.0104604,-0.0211027,258.0,3.7,52.1701,4.42715,11.5,0.938061,197.523,4.61495,174.396,27.3637,161.155,0.739901,-0.0581755,239.026,1.37191,1.6464900000000002,4.81648254394531,22.0019989013672,4.64759254455566,22.0,-904150.0,1015.23,pp-ro,1,1,-1,-1
1570534319.1,2019-10-08,13:31:59.100,14.0,10.0,16.979999542236303,19.8,-1.4,0.3,53.2,6.3,-18.8,20.6399,-1.2886799999999998,0.203431,1.7492,0.701901,-5.3905,52.043,6.87201,-20.4997,-0.212076,0.0587864,0.270736,258.0,3.7,52.1701,4.42715,11.5,0.944156,200.836,4.61499,174.22,29.2638,161.055,0.73922,-0.0690159,239.056,1.38056,1.64663,4.70237731933594,22.0019989013672,4.66026306152344,22.0,-904038.0,1169.05,pp-ro,1,1,-1,-1
1570534319.2,2019-10-08,13:31:59.200,14.0,10.0,17.1399993896484,19.9,-1.9,0.4,52.5,6.6,-19.0,20.5712,-1.47081,0.155935,3.33265,-3.96047,-2.32957,51.6829,7.09167,-20.2915,-0.0509095,0.0711265,0.150782,258.0,3.7,52.1701,4.42715,11.5,0.953576,208.003,4.61506,174.074,31.1638,160.855,0.738092,-0.0797951,239.055,1.38169,1.64081,4.654685974121089,22.0019989013672,4.59778165817261,22.0,-903927.0,1138.29,pp-ro,1,1,-1,-1
1570534319.3,2019-10-08,13:31:59.300,14.0,11.0,17.0799999237061,19.8,-2.2,0.5,51.9,6.2,-19.8,20.6731,-1.90014,0.268201,-2.6682,-2.63163,4.45979,51.0249,7.219339999999999,-20.6563,-0.131405,-0.182451,-0.172705,258.0,3.7,52.1701,4.42715,11.5,0.966874,215.566,4.6151,173.84,33.0639,160.755,0.737458,-0.0906669,239.073,1.38468,1.64139,4.625732421875,22.0025119781494,4.62920761108398,22.0,-903834.0,922.935,pp-ro,1,1,-1,-1
1570534319.4,2019-10-08,13:31:59.400,14.0,10.0,16.979999542236303,19.8,-2.3,0.6,51.2,5.9,-20.7,20.7199,-2.11895,0.333495,1.27273,-2.36748,1.83305,50.8019,6.775010000000001,-21.208,-0.124232,-0.138591,-0.0157965,258.0,3.7,52.1701,4.42715,11.5,0.980172,219.554,4.61515,173.578,35.3439,160.655,0.736636,-0.103613,239.141,1.38667,1.6504,4.561012268066411,22.0025119781494,4.84868717193604,22.0,-903685.0,1784.34,pp-ro,1,1,-1,-1
1570534319.5,2019-10-08,13:31:59.500,14.0,12.0,16.9300003051758,20.0,-2.6,0.1,50.6,6.2,-21.0,20.7782,-2.4175,0.361937,0.110217,-4.99014,-5.911569999999999,49.8164,6.26907,-22.1989,-0.0295461999999999,0.0296264,-0.00167051,258.0,3.7,52.1701,4.42715,11.5,0.981834,225.469,4.6152,173.315,37.2439,160.555,0.735956,-0.1144579999999999,239.171,1.38663,1.62985,4.709190368652339,22.0025119781494,4.47895765304565,22.0,-903506.0,1630.52,pp-ro,1,1,-1,-1
1570534319.6,2019-10-08,13:31:59.600,14.0,12.0,17.0300006866455,20.1,-3.3,0.3,50.6,6.5,-21.7,20.9586,-2.88227,0.0910746,2.93963,-3.78838,-0.8499129999999999,48.8717,6.80737,-22.7496,-0.183136,-0.0575533,-0.247857,258.0,3.7,52.1701,4.42715,11.6,1.00511,242.429,4.61524,173.02200000000002,39.524,160.454,0.735062,-0.127411,239.258,1.38329,1.62323,4.811378479003911,22.0025119781494,4.41625499725342,22.0,-903452.0,246.116,pp-ro,1,1,-1,-1
1570534319.7,2019-10-08,13:31:59.700,14.0,10.0,17.2900009155273,20.0,-3.7,0.5,49.9,6.1,-24.1,20.9586,-2.88227,0.0910746,2.93963,-3.78838,-0.8499129999999999,48.8717,6.80737,-22.7496,-0.183136,-0.0575533,-0.247857,258.0,3.7,52.1701,4.42715,11.6,1.03669,245.972,4.61529,172.643,41.044,160.254,0.73451,-0.1363069999999999,239.106,1.36602,1.62288,4.77220153808594,22.0025119781494,4.4599890708923295,22.0,-903391.0,1261.34,pp-ro,1,1,-1,-1
1570534319.8,2019-10-08,13:31:59.800,14.0,9.0,17.3400001525879,19.5,-3.4,0.4,49.8,6.2,-24.6,21.2016,-3.86077,0.485705,2.80258,-3.92425,1.62244,48.1427,6.34166,-24.6036,-0.0593799,-0.128162,-0.0292914,258.0,3.7,52.1701,4.42715,11.6,1.00511,224.058,4.61534,172.234,43.3241,160.254,0.734105,-0.149354,239.213,1.36769,1.63529,4.458824157714839,22.0025119781494,4.753686904907231,22.0,-902964.0,4768.5,pp-ro,1,1,-1,-1
1570534319.9,2019-10-08,13:31:59.900,14.0,9.0,17.4899997711182,19.3,-3.6,0.2,49.7,6.6,-25.5,21.2016,-3.86077,0.485705,2.80258,-3.92425,1.62244,48.1427,6.34166,-24.6036,-0.0593799,-0.128162,-0.0292914,258.0,3.7,52.1701,4.42715,11.6,0.951359,200.537,4.61538,171.88299999999998,45.6041,160.154,0.7331479999999999,-0.162315,239.318,1.36073,1.62856,4.412841796875,22.0009689331055,4.74292898178101,22.0,-902606.0,3168.74,pp-ro,1,1,-1,-1
1570534320.0,2019-10-08,13:32:00.000,14.0,9.0,17.4400005340576,19.2,-3.9,0.2,49.6,7.1,-26.1,20.3194,-3.91515,0.323342,0.59245,-0.809802,-1.82066,47.8914,7.19885,-26.8107,-0.120676,-0.0486724,-0.386648,261.7,3.4,52.1701,4.42715,11.6,0.933629,194.102,4.61544,171.503,47.1241,160.054,0.732754,-0.17117,239.273,1.35323,1.62374,4.67852783203125,22.0009689331055,4.71418333053589,22.0,-902328.0,1630.52,pp-ro,1,1,-1,-1
1570534320.1,2019-10-08,13:32:00.100,14.0,9.0,17.4400005340576,18.6,-4.1,0.2,49.4,6.8,-27.4,19.6484,-4.5301,0.360333,-9.4254,-2.35662,0.278541,47.8178,7.29432,-28.8058,-0.00935989,-0.153223,-0.033648,261.7,3.4,52.1701,4.42715,11.6,0.933075,195.703,4.61552,171.03599999999997,49.4042,160.054,0.732283,-0.184294,239.398,1.35055,1.62158,4.72792053222656,22.0009689331055,-35.0,22.0,-902267.0,1138.29,pp-ro,1,1,-1,-1
1570534320.2,2019-10-08,13:32:00.200,14.0,11.0,17.6399993896484,18.1,-4.1,-0.1,49.2,6.9,-27.9,19.3937,-4.5647,0.211601,-0.00935279,-1.00201,-5.56274,47.6823,7.06249,-29.5935,-0.429196,-0.087626,-0.0973723,261.7,3.4,52.1701,4.42715,11.6,0.94194,197.96400000000003,4.6156,170.59799999999998,50.9242,160.054,0.7322609999999999,-0.193296,239.404,1.34938,1.61183,4.722816467285161,22.0009689331055,-35.0,22.0,-902183.0,922.935,pp-ro,1,1,-1,-1
1570534320.3,2019-10-08,13:32:00.300,14.0,5.0,17.7900009155273,17.6,-4.3,0.0,49.4,7.9,-27.8,18.7395,-4.71097,-0.0786118999999999,-10.0978,-5.7766,-3.54651,47.6562,7.88678,-29.9181,0.109473,0.13041,-0.0308817,261.7,3.4,52.1701,4.42715,11.6,0.938616,189.598,4.61568,170.16,52.8242,160.054,0.7318859999999999,-0.204258,239.504,1.3452,1.61185,4.697265625,22.0009689331055,-35.0,22.0,-901980.0,2307.34,pp-ro,1,1,-1,-1
1570534320.4,2019-10-08,13:32:00.400,14.0,4.0,17.5900001525879,17.0,-4.4,0.1,49.4,8.2,-28.3,18.7395,-4.71097,-0.0786118999999999,-10.0978,-5.7766,-3.54651,47.6562,7.88678,-29.9181,0.109473,0.13041,-0.0308817,261.7,3.4,52.1701,4.42715,11.6,0.900938,166.35299999999998,4.61576,169.66299999999998,54.7243,160.054,0.731607,-0.215333,239.578,1.34291,1.6143,4.3055419921875,22.0009689331055,-35.0,22.0,-901715.0,2738.04,pp-ro,1,1,-1,-1
1570534320.5,2019-10-08,13:32:00.500,14.0,7.0,17.1900005340576,16.6,-4.1,0.0,49.0,8.5,-29.1,17.7056,-4.8591,0.116074,-6.01368,1.64407,-1.50685,48.1272,9.12687,-30.6295,0.0370427,-0.0547429,0.0313325999999999,261.7,3.4,52.1701,4.42715,11.6,0.840543,142.799,4.61584,169.196,56.6243,160.054,0.731191,-0.226359,239.689,1.33705,1.6248200000000002,3.5527496337890603,22.0009689331055,-35.0,22.0,-901368.0,1599.75,pp-ro,1,1,-1,-1
1570534320.6,2019-10-08,13:32:00.600,14.0,7.0,16.9300003051758,16.2,-4.0,0.0,49.1,8.5,-29.5,17.1743,-4.56555,0.073274,-8.25511,2.56469,-0.752141,48.2377,9.07438,-31.4017,0.0491678,-0.0582318,-0.0905123,261.7,3.4,52.1701,4.42715,11.5,0.841651,145.713,4.61591,168.787,58.1443,160.154,0.731219,-0.2352389999999999,239.831,1.33827,1.63077,2.43549346923828,22.0009689331055,-35.0,22.0,-901354.0,246.116,pp-ro,1,1,-1,-1
1570534320.7,2019-10-08,13:32:00.700,14.0,6.0,16.770000457763697,16.2,-4.2,-0.1,49.1,8.9,-29.7,16.9526,-4.49811,-0.0430145,2.56506,0.489466,1.64101,48.006,9.90908,-31.5421,0.0204826,0.231492,-0.0944378,261.7,3.4,52.1701,4.42715,11.5,0.865477,158.924,4.61599,168.31900000000002,60.0443,160.154,0.730697,-0.246221,239.971,1.33816,1.62582,0.9639816284179692,22.0009689331055,-35.0,22.0,-901356.0,0.0,pp-ro,1,1,-1,-1
1570534320.8,2019-10-08,13:32:00.800,14.0,6.0,16.879999160766598,16.2,-4.4,-0.1,49.4,8.8,-29.7,16.8375,-4.6291400000000005,-0.116819,-0.524275,-1.54633,-2.93089,47.8184,10.3875,-31.1702,-0.0503232,0.142643,-0.0149953,261.7,3.4,52.1701,4.42715,11.5,0.890965,174.72799999999998,4.61607,167.88099999999997,61.1844,160.254,0.731078,-0.253133,240.019,1.34402,1.62271,-0.3618392944335939,22.0009689331055,-35.0,22.0,-901337.0,215.351,pp-ro,1,1,-1,-1
1570534320.9,2019-10-08,13:32:00.900,14.0,10.0,16.770000457763697,16.3,-4.4,0.3,49.6,7.7,-30.8,16.8505,-4.8191,-0.182259,-1.48915,-5.0911800000000005,-1.93806,47.8672,10.8703,-30.6418,0.081974,0.18657,0.0075821,261.7,3.4,52.1701,4.42715,11.5,0.922547,192.375,4.61615,167.385,62.7044,160.254,0.730907,-0.262152,240.064,1.35121,1.64739,-2.4202117919921897,22.0009689331055,-35.0,22.0,-901331.0,61.529,pp-ro,1,1,-1,-1
1570534321.0,2019-10-08,13:32:01.000,14.0,12.0,16.6700000762939,16.6,-4.0,0.5,50.4,7.3,-31.5,16.8291,-4.97067,0.1217569999999999,0.54864,1.33984,5.8048,47.9945,10.5092,-30.9175,-0.1134829999999999,-0.1262069999999999,-0.0200770999999999,265.0,2.7,52.1701,4.42715,11.5,0.955238,209.779,4.616230000000001,166.917,64.6044,160.254,0.7302420000000001,-0.273088,240.242,1.35545,1.68148,-4.52466583251953,22.0009689331055,-35.0,22.0,-901214.0,922.935,pp-ro,1,1,-1,-1
1570534321.1,2019-10-08,13:32:01.100,14.0,10.0,16.6100006103516,17.1,-4.0,0.9,51.0,7.5,-31.6,16.8291,-4.97067,0.1217569999999999,0.54864,1.33984,5.8048,47.9945,10.5092,-30.9175,-0.1134829999999999,-0.1262069999999999,-0.0200770999999999,265.0,2.7,52.1701,4.42715,11.5,0.963549,212.109,4.61631,166.479,66.1244,160.154,0.729524,-0.281962,240.285,1.3576700000000002,1.70813,-6.63082122802734,22.0009689331055,-35.0,22.0,-901182.0,615.29,pp-ro,1,1,-1,-1
1570534321.2,2019-10-08,13:32:01.200,14.0,9.0,16.6100006103516,17.4,-4.1,1.6,51.8,6.5,-32.4,16.9339,-4.923830000000001,0.315932,1.8336,0.486441,3.04106,48.1691,10.2203,-31.2274,0.21853,-0.149303,-0.0537533,265.0,2.7,52.1701,4.42715,11.5,0.970752,213.286,4.61638,166.041,68.0245,160.053,0.7283689999999999,-0.292782,240.446,1.3684,1.7423799999999998,-8.74552154541016,22.0009689331055,-35.0,22.0,-901032.0,1968.93,pp-ro,1,1,-1,-1
1570534321.3,2019-10-08,13:32:01.300,14.0,9.0,16.6700000762939,17.4,-3.8,2.4,52.5,4.5,-33.2,16.9339,-4.923830000000001,0.315932,1.8336,0.486441,3.04106,48.1691,10.2203,-31.2274,0.21853,-0.149303,-0.0537533,265.0,2.7,52.1701,4.42715,11.5,0.955238,199.429,4.61646,165.544,69.9245,159.85299999999998,0.7269979999999999,-0.303692,240.515,1.39216,1.7936,-10.8619232177734,22.0009689331055,-35.0,22.0,-900736.0,2153.51,pp-ro,1,1,-1,-1
1570534321.4,2019-10-08,13:32:01.400,14.0,9.0,16.770000457763697,17.3,-3.1,3.1,53.8,2.6,-32.6,17.3579,-3.86032,3.13953,-1.31207,7.893730000000001,11.0159,52.3494,7.6252,-31.3069,0.27574,0.131371,0.213585,265.0,2.7,52.1701,4.42715,11.5,0.941386,188.686,4.6165400000000005,165.165,71.8245,159.553,0.724962,-0.314309,240.615,1.43111,1.85579,-12.9714965820312,22.0009689331055,-35.0,22.0,-900576.0,3076.45,pp-ro,1,1,-1,-1
1570534321.5,2019-10-08,13:32:01.500,14.0,8.0,16.8199996948242,17.4,-2.8,3.7,55.0,1.0,-31.0,17.3149,-3.51631,3.4604,0.97521,6.47854,1.39256,52.8209,7.01589,-30.7972,0.115817,0.0788656,0.39914,265.0,2.7,52.1701,4.42715,11.5,0.897059,164.986,4.616619999999999,164.843,73.3446,159.253,0.7231529999999999,-0.322822,240.654,1.4764700000000002,1.89694,-15.0810699462891,22.0009689331055,-35.0,22.0,-900238.0,3353.33,pp-ro,1,1,-1,-1
1570534321.6,2019-10-08,13:32:01.600,14.0,8.0,16.8199996948242,17.4,-2.4,4.6,56.4,-2.6,-31.0,17.3175,-2.78947,4.4629,0.58502,0.9229,4.66783,55.1279,4.11094,-27.9903,0.117441,-0.0864653,0.746383,265.0,2.7,52.1701,4.42716,11.4,0.862152,153.649,4.61669,164.52200000000002,75.2446,158.85299999999998,0.720565,-0.3332179999999999,240.756,1.53088,1.95452,-17.1940612792969,22.0009689331055,-35.0,22.0,-900050.0,1076.76,pp-ro,1,1,-1,-1
1570534321.7,2019-10-08,13:32:01.700,14.0,8.0,16.8199996948242,17.3,-1.7,5.5,57.5,-5.9,-30.0,17.3175,-2.78947,4.4629,0.58502,0.9229,4.66783,55.1279,4.11094,-27.9903,0.117441,-0.0864653,0.746383,265.0,2.7,52.1701,4.42716,11.4,0.8782209999999999,163.109,4.61677,164.259,76.7646,158.453,0.718222,-0.341523,240.793,1.59189,2.02224,-19.3121643066406,22.0009689331055,-35.0,22.0,-899996.0,30.7645,pp-ro,1,1,-1,-1
1570534321.8,2019-10-08,13:32:01.800,14.0,8.0,16.9300003051758,17.4,-0.8,6.3,58.7,-9.1,-27.6,16.9921,-2.20079,5.40418,-4.8094,7.44781,8.30482,56.172,1.10608,-26.256,0.28597,-0.0393814,0.548309,265.0,2.7,52.1701,4.42716,11.4,0.88487,164.497,4.61685,164.084,78.6646,157.85299999999998,0.714559,-0.351507,240.892,1.66882,2.09238,-21.423454284668,22.0009689331055,-35.0,22.0,-899961.0,646.054,pp-ro,1,1,-1,-1
1570534321.9,2019-10-08,13:32:01.900,14.0,8.0,16.979999542236303,17.7,-0.2,7.3,59.6,-13.0,-25.1,16.8249,-0.718599,6.649260000000001,-5.13199,5.2946800000000005,8.79593,57.8481,-3.83459,-22.172,0.0697309,0.104319,0.814509,265.0,2.7,52.1701,4.42716,11.4,0.880437,162.661,4.61696,163.99599999999998,80.1847,157.253,0.711091,-0.3592619999999999,240.941,1.75453,2.1513400000000003,-23.5432662963867,22.0009689331055,-35.0,22.0,-899826.0,1445.93,pp-ro,1,1,-1,-1
1570534322.0,2019-10-08,13:32:02.000,14.0,8.0,17.1399993896484,17.6,0.4,8.6,60.9,-18.1,-22.9,16.8249,-0.718599,6.649260000000001,-5.13199,5.2946800000000005,8.79593,57.8481,-3.83459,-22.172,0.0697309,0.104319,0.814509,254.7,2.4,52.1701,4.42716,11.4,0.883761,171.31400000000002,4.616969999999999,163.967,82.0847,156.553,0.706681,-0.368755,241.105,1.85398,2.22326,-25.6562576293945,22.0009689331055,-35.0,22.0,-899766.0,215.351,pp-ro,1,1,-1,-1
