time,date,time_of_day,airspeed_temperature,airspeed_angle_of_attack,airspeed_apparent_windspeed,kite_0_vx,kite_0_vy,kite_0_vz,kite_0_roll,kite_0_pitch,kite_0_yaw,kite_1_vx,kite_1_vy,kite_1_vz,kite_1_ax,kite_1_ay,kite_1_az,kite_1_roll,kite_1_pitch,kite_1_yaw,kite_1_roll_rate,kite_1_pitch_rate,kite_1_yaw_rate,ground_upwind_direction,ground_wind_velocity,ground_pos_latitude,ground_pos_longitude,ground_pos_altitude,ground_tether_reelout_speed,ground_tether_force,est_upwind_direction,kite_pos_east,kite_pos_north,kite_height,kite_elevation,kite_azimuth,kite_distance,kite_heading,kite_course,kite_actual_steering,kite_actual_depower,kite_set_steering,kite_set_depower,ground_mech_energy,ground_mech_power,flight_phase,flight_phase_index,phase,pattern,pattern_section
1570542067.0,2019-10-08,15:41:07.000,14.0,8.0,15.5799999237061,11.5,-4.1,1.5,17.4,1.4,-77.0,9.99129,-3.58216,1.95334,11.7468,5.99532,-0.5606949999999999,18.991,15.9092,-81.2927,0.162071,0.120144,0.947484,241.4,7.2,52.1701,4.42724,-0.4,-1.81351,106.458,4.32952,83.7088,15.9613,240.285,1.22999,0.194457,254.948,0.434004,1.46638,-34.5144195556641,22.0710010528564,-35.0,22.0,2109240.0,-153.822,pp-riro,4,0,-1,-1
1570542067.1,2019-10-08,15:41:07.100,14.0,7.0,15.5299997329712,12.6,-3.5,1.6,19.6,0.3,-72.1,11.6948,-2.59586,2.3314,11.2685,7.083810000000001,4.888669999999999,22.7437,14.4164,-72.9011,0.193254,0.1960339999999999,0.905438,241.4,7.2,52.1701,4.42724,-0.2,-1.7769400000000002,110.454,4.32954,83.3291,17.4813,240.185,1.23013,0.176062,254.83,0.544128,1.55121,-34.903564453125,22.0359840393066,-35.0,22.0,2109020.0,-1599.75,pp-riro,4,0,-1,-1
1570542067.2,2019-10-08,15:41:07.200,14.0,7.0,15.4099998474121,13.7,-2.9,2.1,22.0,-0.7,-67.1,12.6712,-1.94223,2.66473,10.4963,4.976719999999999,3.45455,25.2542,13.2971,-66.9842,0.243092,0.1524569999999999,0.94853,241.4,7.2,52.1701,4.42724,-0.2,-1.75312,111.715,4.32955,83.0078,18.6214,240.085,1.23026,0.162155,254.711,0.651158,1.6322,-34.970123291015604,22.0122966766357,-35.0,22.0,2109020.0,-30.7645,pp-riro,4,0,-1,-1
1570542067.3,2019-10-08,15:41:07.300,14.0,8.0,15.3000001907349,14.7,-2.0,2.6,24.0,-2.4,-61.8,13.165,-1.62997,2.84133,8.943480000000001,4.09135,2.74763,26.4736,12.6793,-63.8464,0.324971,0.291365,1.03368,241.4,7.2,52.1701,4.42724,-0.2,-1.71433,107.328,4.32957,82.7156,20.5215,239.985,1.22957,0.1396329999999999,254.668,0.775116,1.73055,-34.970123291015604,22.0025119781494,-35.0,22.0,2109030.0,-769.112,pp-riro,4,0,-1,-1
1570542067.4,2019-10-08,15:41:07.400,14.0,9.0,15.119999885559098,15.7,-1.2,3.0,26.0,-4.3,-56.8,14.5124,-0.377117,3.58419,11.8059,7.823230000000001,4.55138,29.7621,9.95124,-55.0816,0.2446489999999999,0.179305,0.984013,241.4,7.2,52.1701,4.42724,-0.2,-1.68219,105.141,4.32957,82.5404,21.6615,239.785,1.22889,0.126176,254.517,0.8856850000000001,1.80324,-34.971832275390604,22.0009689331055,-35.0,22.0,2108840.0,-1138.29,pp-riro,4,0,-1,-1
1570542067.5,2019-10-08,15:41:07.500,14.0,8.0,15.0600004196167,16.7,-0.2,3.3,28.0,-6.1,-51.7,14.9419,0.0826468,3.77618,8.95611,9.71476,4.25376,30.6484,8.88599,-52.1794,0.173953,0.101392,1.00859,246.7,6.9,52.1701,4.42724,-0.2,-1.67222,106.364,4.3296,82.4527,23.1815,239.585,1.22746,0.108715,254.43400000000003,1.00177,1.88184,-34.9906158447266,22.0009689331055,-35.0,22.0,2108720.0,-2399.63,pp-riro,4,0,-1,-1
1570542067.6,2019-10-08,15:41:07.600,14.0,10.0,15.119999885559098,17.6,0.6,3.9,29.8,-8.3,-46.5,15.8153,0.996929,4.1955800000000005,8.23687,10.4967,6.39532,32.5348,6.790080000000001,-46.5126,0.211431,0.192179,0.934681,246.7,6.9,52.1701,4.42724,-0.2,-1.63399,109.355,4.3295900000000005,82.4819,25.0816,239.385,1.22512,0.0875948,254.436,1.12545,1.952,-35.0076751708984,22.0009689331055,-35.0,22.0,2108540.0,-953.699,pp-riro,4,0,-1,-1
1570542067.7,2019-10-08,15:41:07.700,14.0,9.0,15.119999885559098,18.3,1.8,4.6,30.9,-10.6,-41.5,16.2427,1.45869,4.44004,7.509810000000001,7.576,5.48521,33.3418,5.63333,-43.7161,0.104341,0.186741,1.0864,246.7,6.9,52.1701,4.42724,-0.2,-1.60074,107.554,4.3295900000000005,82.5987,26.6017,239.085,1.22263,0.0712337,254.346,1.24134,2.03538,-35.0076751708984,22.0009689331055,-35.0,22.0,2108570.0,215.351,pp-riro,4,0,-1,-1
1570542067.8,2019-10-08,15:41:07.800,14.0,9.0,15.0,18.8,3.0,5.0,32.1,-13.1,-36.6,17.2951,2.93774,5.23336,2.97236,10.6571,4.074330000000001,35.2984,2.13271,-35.2574,0.234575,0.242176,0.924714,246.7,6.9,52.1701,4.42724,-0.2,-1.58634,105.46,4.32958,82.8323,28.5017,238.685,1.21905,0.0514108,254.252,1.36007,2.1133,-35.0076751708984,22.0009689331055,-35.0,22.0,2108560.0,-246.116,pp-riro,4,0,-1,-1
1570542067.9,2019-10-08,15:41:07.900,14.0,8.0,15.0,19.3,4.3,5.4,33.1,-15.2,-31.1,17.8243,4.80241,5.93297,1.75393,11.5243,3.61984,36.3158,-1.88653,-26.9708,0.174905,0.258286,1.01202,246.7,6.9,52.1701,4.42724,-0.2,-1.56528,102.493,4.32957,83.212,30.4018,238.285,1.21484,0.0325267999999999,254.221,1.48477,2.19029,-35.0093841552734,22.0009689331055,-35.0,22.0,2108380.0,-1630.52,pp-riro,4,0,-1,-1
1570542068.0,2019-10-08,15:41:08.000,14.0,8.0,15.119999885559098,19.7,5.6,5.9,33.7,-17.3,-25.4,18.1945,5.94488,6.3884,3.38804,10.6221,6.504519999999999,36.9248,-4.22609,-21.4582,0.206289,0.267144,0.957915,246.7,6.9,52.1701,4.42724,-0.2,-1.56584,101.685,4.32956,83.7085,32.6819,237.885,1.20961,0.0105992,254.292,1.6145,2.2681400000000003,-35.0093841552734,22.0009689331055,-35.0,22.0,2108140.0,-2553.45,pp-riro,4,0,-1,-1
1570542068.1,2019-10-08,15:41:08.100,14.0,7.0,15.2399997711182,20.0,6.8,6.6,34.1,-19.6,-20.0,18.4105,6.49653,6.59852,4.8897900000000005,9.22309,3.13488,36.9341,-5.43084,-18.5709,0.0288454,0.217848,1.05608,246.7,6.9,52.1701,4.42724,-0.1,-1.55919,108.345,4.32956,84.3218,34.582,237.285,1.2040799999999998,-0.00636777,254.185,1.73458,2.33699,-35.0076751708984,22.0009689331055,-35.0,22.0,2107730.0,-1999.69,pp-riro,4,0,-1,-1
1570542068.2,2019-10-08,15:41:08.200,14.0,8.0,15.2399997711182,20.2,8.2,7.2,34.3,-22.0,-14.5,18.5653,7.0591800000000005,6.8660000000000005,2.58788,13.0591,5.15824,36.9431,-6.60652,-15.4846,-0.0588548,0.302769,1.03453,246.7,6.9,52.1701,4.42724,-0.1,-1.54201,111.74,4.32955,85.0811,36.4821,236.785,1.19811,-0.0222395,254.238,1.85444,2.40928,-35.0093841552734,22.0009689331055,-35.0,22.0,2107720.0,-246.116,pp-riro,4,0,-1,-1
1570542068.3,2019-10-08,15:41:08.300,14.0,9.0,15.2399997711182,20.2,9.7,7.8,34.2,-24.3,-8.9,18.6618,8.2803,7.5042,-0.55614,12.5774,7.91608,36.64,-8.90494,-9.51825,0.0196763,0.330244,0.989942,246.7,6.9,52.1701,4.42724,-0.1,-1.49768,116.704,4.32954,85.9281,38.7622,236.085,1.1909,-0.0409224,254.209,1.97615,2.48759,-35.0076751708984,22.0009689331055,-35.0,22.0,2107830.0,1630.52,pp-riro,4,0,-1,-1
1570542068.4,2019-10-08,15:41:08.400,14.0,10.0,15.3500003814697,20.2,11.1,8.4,33.8,-26.1,-2.9,18.6095,10.3233,8.3047,0.0586264,11.3267,6.07856,35.7773,-12.3501,-0.4503279999999999,0.0599084,0.353132,1.05101,246.7,6.9,52.1701,4.42724,-0.1,-1.41734,119.211,4.32953,86.9795,40.2822,235.385,1.18408,-0.0508642,254.154,2.09071,2.55045,-35.0076751708984,22.0009689331055,-35.0,22.0,2108060.0,2461.16,pp-riro,4,0,-1,-1
1570542068.5,2019-10-08,15:41:08.500,14.0,10.0,15.5799999237061,20.2,12.6,9.1,33.4,-28.1,3.0,18.5432,11.6452,8.894860000000001,-0.166737,10.1985,7.8092,34.9184,-14.2122,5.60246,0.0273906999999999,0.273559,1.04054,249.9,7.3,52.1701,4.42724,-0.1,-1.2827,133.202,4.32953,88.0894,42.5623,234.585,1.1756799999999998,-0.0672367,254.168,2.20894,2.6194900000000003,-35.0059814453125,22.0009689331055,-35.0,22.0,2108610.0,4860.79,pp-riro,4,0,-1,-1
1570542068.6,2019-10-08,15:41:08.600,14.0,9.0,15.859999656677198,19.9,14.1,9.9,32.5,-30.1,9.1,18.4344,12.9913,9.54395,-1.02556,13.3215,5.77019,33.9519,-16.1438,11.8848,0.169922,0.293534,1.04437,249.9,7.3,52.1701,4.42724,-0.1,-1.12091,147.442,4.32954,89.4036,44.4624,233.685,1.16699,-0.0786586,254.123,2.32361,2.68762,-35.0076751708984,22.0009689331055,-35.0,22.0,2109300.0,7752.65,pp-riro,4,0,-1,-1
1570542068.7,2019-10-08,15:41:08.700,14.0,11.0,16.0799999237061,19.7,15.6,10.6,31.4,-32.3,15.6,18.1981,14.3579,10.2502,-2.31022,13.7937,3.81228,32.4077,-18.2788,18.5548,0.156389,0.199375,1.07211,249.9,7.3,52.1701,4.42724,-0.1,-0.907587,160.00799999999998,4.32956,90.8055,46.3625,232.785,1.15798,-0.0892369,254.134,2.44212,2.74823,-35.0059814453125,22.0009689331055,-23.0044822692871,22.0,2110190.0,8952.47,pp-riro,4,0,-1,-1
1570542068.8,2019-10-08,15:41:08.800,14.0,10.0,16.4099998474121,19.1,17.2,11.3,29.9,-34.1,22.6,18.0251,15.0889,10.5944,-4.28199,11.7938,7.006060000000001,31.6068,-19.241,21.9049,0.0429293,0.305193,1.08274,249.9,7.3,52.1701,4.42724,-0.1,-0.75466,165.34400000000002,4.32957,92.3827,48.2626,231.785,1.14821,-0.0986062,254.142,2.56199,2.81658,-35.0059814453125,22.0009689331055,-23.0044822692871,22.0,2110630.0,8521.76,pp-riro,4,0,-1,-1
1570542068.9,2019-10-08,15:41:08.900,14.0,10.0,16.729999542236303,18.3,18.8,12.0,28.1,-36.0,29.8,17.7284,15.7688,10.8895,-6.92438,15.3139,4.67408,30.527,-20.1796,25.3727,0.127248,0.310826,1.11838,249.9,7.3,52.1701,4.42724,-0.1,-0.45878,173.602,4.3295900000000005,94.1935,50.1627,230.585,1.13734,-0.106544,254.083,2.68122,2.88521,-34.8011627197266,22.0009689331055,-23.0044822692871,22.0,2111330.0,6183.66,pp-riro,4,0,-1,-1
1570542069.0,2019-10-08,15:41:09.000,14.0,10.0,17.0900001525879,17.7,19.6,12.4,26.9,-37.0,33.7,16.7383,17.9897,11.833,-7.57378,13.4621,5.96509,27.4174,-22.9282,36.2656,0.195555,0.330295,1.20339,249.9,7.3,52.1701,4.42724,-0.1,-0.0964103,180.156,4.3296,96.1503,52.0628,229.985,1.127,-0.1134849999999999,254.654,2.74687,2.92632,-34.2362213134766,22.0009689331055,-23.0044822692871,22.0,2111580.0,1261.34,pp-riro,4,0,-1,-1
1570542069.1,2019-10-08,15:41:09.100,14.0,10.0,17.3500003814697,16.6,21.1,12.8,24.6,-38.3,41.3,16.7383,17.9897,11.833,-7.57378,13.4621,5.96509,27.4174,-22.9282,36.2656,0.195555,0.330295,1.20339,249.9,7.3,52.1701,4.42724,0.0,0.25654,184.802,4.329619999999999,97.1141,53.2028,228.785,1.12003,-0.118408,254.174,2.86192,2.99241,-33.3094482421875,22.0009689331055,-23.0044822692871,22.0,2111280.0,-4522.38,pp-riro,4,0,-1,-1
1570542069.2,2019-10-08,15:41:09.200,14.0,10.0,17.6499996185303,15.2,22.4,13.2,21.5,-39.2,49.3,16.7383,17.9897,11.833,-7.57378,13.4621,5.96509,27.4174,-22.9282,36.2656,0.195555,0.330295,1.20339,249.9,7.3,52.1701,4.42724,0.0,0.396169,185.765,4.32963,99.3046,54.7229,227.585,1.10858,-0.12089,254.265,2.9775400000000003,3.05843,-32.0344848632812,22.0009689331055,-23.0044822692871,22.0,2111320.0,3968.62,pp-riro,4,0,-1,-1
1570542069.3,2019-10-08,15:41:09.300,14.0,10.0,17.8999996185303,13.8,23.5,13.8,18.8,-39.7,56.8,13.8324,21.2155,13.0494,-10.3049,11.7037,2.25605,21.0311,-26.6792,53.7686,0.236538,0.251506,1.13545,249.9,7.3,52.1701,4.42724,0.0,0.273717,202.588,4.32964,101.524,55.863,226.285,1.09752,-0.1202829999999999,254.23,3.08136,3.11666,-30.3976745605469,22.0009689331055,-23.0044822692871,22.0,2111480.0,-522.996,pp-riro,4,0,-1,-1
1570542069.4,2019-10-08,15:41:09.400,14.0,11.0,18.1399993896484,12.4,24.5,14.7,16.2,-40.1,64.1,11.856,22.7718,14.0213,-13.7218,5.97305,7.68561,16.6876,-28.1475,64.1451,0.0118071,0.1169569999999999,1.16694,249.9,7.3,52.1701,4.42724,0.0,0.434955,238.074,4.32966,103.861,57.3831,224.985,1.08546,-0.122028,254.358,3.18286,3.17353,-28.4417114257812,22.0009689331055,-23.0044822692871,22.0,2111250.0,-1230.58,pp-riro,4,0,-1,-1
1570542069.5,2019-10-08,15:41:09.500,14.0,12.0,18.3799991607666,10.2,25.8,15.2,11.1,-39.8,75.3,10.5072,23.6878,14.6287,-16.2173,8.85769,3.53577,13.3983,-29.1107,71.268,0.068527,0.279952,1.1127,244.7,6.3,52.1701,4.42724,0.0,0.434955,255.27,4.32967,107.629,58.9032,222.785,1.0674,-0.1180369999999999,254.336,3.33237,3.25051,-26.661544799804695,22.0025119781494,-23.0116176605225,22.0,2111400.0,-338.409,pp-riro,4,0,-1,-1
1570542069.6,2019-10-08,15:41:09.600,14.0,10.0,18.8600006103516,9.3,26.1,15.4,9.3,-39.5,79.2,9.79548,24.1126,14.7226,-12.8843,6.59112,-2.05318,11.4066,-29.2651,74.7583,-0.2041589999999999,0.175155,0.957249,244.7,6.3,52.1701,4.42724,0.0,0.45878,266.452,4.32961,108.972,60.0433,221.985,1.05994,-0.120826,254.475,3.38796,3.28245,-25.2397994995117,22.0025119781494,-23.0116176605225,22.0,2111500.0,1538.22,pp-riro,4,0,-1,-1
1570542069.7,2019-10-08,15:41:09.700,14.0,11.0,19.4500007629395,7.7,27.0,15.7,5.8,-38.9,86.5,8.39955,24.7165,14.8454,-14.9198,6.06989,2.08515,7.77406,-29.4443,81.5666,0.114027,0.1417759999999999,1.0893,244.7,6.3,52.1701,4.42724,0.0,0.459888,273.127,4.32954,111.601,60.8033,220.485,1.0479,-0.116019,254.49,3.48445,3.33415,-24.1628265380859,22.003026962280305,-23.0139999389648,22.0,2111550.0,892.17,pp-riro,4,0,-1,-1
1570542069.8,2019-10-08,15:41:09.800,14.0,10.0,19.8600006103516,5.7,27.3,15.8,1.8,-38.0,93.8,6.83285,25.5538,15.1978,-23.2819,9.49147,0.533849,3.99233,-28.9587,88.4497,-0.0108843999999999,0.0363589999999999,0.910743,244.7,6.3,52.1701,4.42724,0.0,0.494796,285.236,4.32948,114.375,61.1834,218.885,1.03583,-0.108293,254.432,3.58007,3.38905,-23.4391555786133,22.0035419464111,-23.0163822174072,22.0,2111580.0,492.232,pp-riro,4,0,-1,-1
1570542069.9,2019-10-08,15:41:09.900,14.0,11.0,20.2999992370605,3.8,27.6,15.5,-1.5,-36.8,100.3,6.83285,25.5538,15.1978,-23.2819,9.49147,0.533849,3.99233,-28.9587,88.4497,-0.0108843999999999,0.0363589999999999,0.910743,244.7,6.3,52.1701,4.42724,0.0,0.5047689999999999,295.448,4.32941,117.15,61.9435,217.385,1.02335,-0.1034109999999999,254.592,3.66912,3.44556,-23.0721969604492,22.0035419464111,-23.0163822174072,22.0,2111710.0,1261.34,pp-riro,4,0,-1,-1
1570542070.0,2019-10-08,15:41:10.000,14.0,12.0,20.7199993133545,1.7,27.8,15.3,-4.4,-34.9,105.8,4.12355,25.9587,15.1216,-24.3896,-1.99235,1.64827,-1.20401,-27.7595,97.9353,-0.0712707,0.132027,0.8463860000000001,244.7,6.3,52.1701,4.42724,0.0,0.530257,309.907,4.32935,119.895,61.9435,215.885,1.01212,-0.0938366,254.594,3.74651,3.5035199999999995,-23.0244064331055,22.0035419464111,-23.0163822174072,22.0,2111790.0,676.819,pp-riro,4,0,-1,-1
1570542070.1,2019-10-08,15:41:10.100,14.0,11.0,21.1399993896484,-0.3,27.9,15.1,-6.8,-33.1,111.3,0.204119,26.4005,14.7781,-16.6414,0.813941,-4.65117,-7.36747,-24.6821,108.742,-0.0717054,0.269574,1.20986,244.7,6.3,52.1701,4.42724,0.0,0.575692,338.45300000000003,4.32929,122.758,62.3236,214.285,0.99973,-0.0866823999999999,254.699,3.82647,3.56036,-23.0124588012695,22.003026962280305,-23.0139999389648,22.0,2111940.0,1015.23,pp-riro,4,0,-1,-1
1570542070.2,2019-10-08,15:41:10.200,14.0,11.0,21.5499992370605,-2.3,27.8,14.9,-9.3,-31.0,116.4,-1.72351,26.2961,14.4946,-26.2672,-2.88436,-8.30199,-10.0282,-22.8941,113.777,-0.175137,0.0769842,0.629992,244.7,6.3,52.1701,4.42724,0.0,0.597301,349.032,4.329219999999999,125.532,61.9436,212.885,0.989128,-0.0752245,254.785,3.90139,3.61319,-23.0090484619141,22.004571914672898,-23.0211448669434,22.0,2112000.0,984.464,pp-riro,4,0,-1,-1
1570542070.3,2019-10-08,15:41:10.300,14.0,11.0,21.9599990844727,-4.4,27.7,14.4,-11.4,-28.4,121.2,-1.72351,26.2961,14.4946,-26.2672,-2.88436,-8.30199,-10.0282,-22.8941,113.777,-0.175137,0.0769842,0.629992,244.7,6.3,52.1701,4.42724,0.0,0.631654,371.388,4.32916,128.278,61.9437,211.385,0.977807,-0.0666324,254.903,3.97989,3.67439,-23.0056304931641,22.004056930542003,-23.018762588501,22.0,2112120.0,1230.58,pp-riro,4,0,-1,-1
1570542070.4,2019-10-08,15:41:10.400,14.0,11.0,22.3199996948242,-6.7,27.3,14.1,-13.5,-26.4,126.6,-1.72351,26.2961,14.4946,-26.2672,-2.88436,-8.30199,-10.0282,-22.8941,113.777,-0.175137,0.0769842,0.629992,244.7,6.3,52.1701,4.42724,0.0,0.679859,397.656,4.32909,131.023,61.1837,209.985,0.967732,-0.0536111,254.959,4.05954,3.73661,-23.0056304931641,22.004571914672898,-22.596378326416,22.0,2112230.0,1107.52,pp-riro,4,0,-1,-1
1570542070.5,2019-10-08,15:41:10.500,14.0,12.0,22.7399997711182,-9.1,26.8,13.5,-15.1,-23.8,131.4,-7.01473,25.4024,13.3928,-24.1583,-5.30807,-5.79274,-16.2422,-17.4251,126.181,-0.149642,0.115047,0.921931,239.5,7.6,52.1701,4.42724,0.0,0.725294,428.501,4.32903,133.681,60.8038,208.585,0.95734,-0.0435131,255.098,4.13973,3.80808,-23.0056304931641,22.0056018829346,-21.8758220672607,22.0,2112370.0,1261.34,pp-riro,4,0,-1,-1
1570542070.6,2019-10-08,15:41:10.600,14.0,11.0,23.2000007629395,-11.3,25.8,12.8,-17.2,-21.3,136.5,-9.20384,24.5587,12.7191,-18.0796,-13.8267,-6.005330000000001,-18.4853,-14.8437,131.236,-0.321551,0.0555346,1.0308,239.5,7.6,52.1701,4.42724,0.0,0.7856890000000001,455.891,4.32896,136.31,59.2838,207.285,0.948687,-0.0268137,255.072,4.21921,3.87275,-22.718894958496104,22.0056018829346,-21.1427631378174,22.0,2112510.0,1630.52,pp-riro,4,0,-1,-1
1570542070.7,2019-10-08,15:41:10.700,14.0,11.0,23.5400009155273,-13.3,24.8,11.8,-18.9,-19.0,142.1,-9.20384,24.5587,12.7191,-18.0796,-13.8267,-6.005330000000001,-18.4853,-14.8437,131.236,-0.321551,0.0555346,1.0308,239.5,7.6,52.1701,4.42724,0.0,0.822258,475.777,4.32886,138.821,58.1438,205.985,0.939783,-0.0131079,255.111,4.30675,3.9401,-22.186378479003896,22.0050868988037,-20.4383563995361,22.0,2112960.0,3199.51,pp-riro,4,0,-1,-1
1570542070.8,2019-10-08,15:41:10.800,14.0,11.0,24.0200004577637,-15.3,23.3,10.6,-20.0,-16.2,146.4,-12.1564,23.0488,11.4606,-15.9536,-9.34927,-12.3886,-21.3161,-11.1303,139.071,-0.104098,0.0758518,1.0037,239.5,7.6,52.1701,4.42724,0.0,0.833894,483.262,4.32882,141.333,57.0038,204.784,0.931032,0.000193896,255.267,4.382619999999999,4.01804,-21.4285736083984,22.0056018829346,35.0,22.0,2113130.0,3353.33,pp-riro,4,0,-1,-1
1570542070.9,2019-10-08,15:41:10.900,14.0,10.0,24.280000686645497,-16.9,21.5,9.6,-21.0,-13.6,150.8,-14.7443,20.8327,9.81806,-15.6805,-18.6719,-10.9053,-23.5429,-8.43344,146.28799999999998,-0.0659315,-0.0663758999999999,0.7771600000000001,239.5,7.6,52.1701,4.42724,0.0,0.881545,509.344,4.32875,143.582,55.1038,203.784,0.924304,0.0171912,255.305,4.45585,4.08655,-20.7629318237305,22.0050868988037,35.0,22.0,2113540.0,2368.87,pp-riro,4,0,-1,-1
1570542071.0,2019-10-08,15:41:11.000,14.0,11.0,24.4899997711182,-17.9,20.0,8.5,-22.0,-11.0,155.3,-14.7443,20.8327,9.81806,-15.6805,-18.6719,-10.9053,-23.5429,-8.43344,146.28799999999998,-0.0659315,-0.0663758999999999,0.7771600000000001,239.5,7.6,52.1701,4.42724,0.0,1.07547,506.894,4.32868,145.656,53.5838,202.784,0.917548,0.0311913999999999,255.359,4.53329,4.14328,-20.100700378418,22.0050868988037,35.0,22.0,2112200.0,-25288.4,pp-riro,4,0,-1,-1
1570542071.1,2019-10-08,15:41:11.100,14.0,10.0,24.4899997711182,-18.4,18.5,6.8,-22.8,-8.3,159.2,-15.5015,19.9237,9.31396,-8.14638,-16.954,-5.4897800000000005,-24.1038,-7.511819999999999,148.876,0.0008277439999999,0.0383187,0.8920299999999999,239.5,7.6,52.1701,4.42724,0.1,1.55586,476.354,4.32862,147.554,51.6838,201.984,0.912085,0.0468586,255.424,4.60285,4.20158,-19.0919952392578,22.0050868988037,35.0,22.0,2109830.0,-17228.1,pp-riro,4,0,-1,-1
1570542071.2,2019-10-08,15:41:11.200,14.0,9.0,24.3799991607666,-18.5,16.9,5.4,-22.8,-5.7,162.6,-16.4216,18.2435,8.126660000000001,-3.63804,-16.058,-12.5574,-25.1695,-5.24129,153.526,-0.068014,-0.0482124,0.8423120000000001,239.5,7.6,52.1701,4.42724,0.1,1.31872,431.786,4.32855,149.30700000000002,50.1638,201.284,0.906807,0.0597139,255.586,4.667,4.25418,-17.738525390625,22.0050868988037,35.0,22.0,2113160.0,30118.4,pp-riro,4,0,-1,-1
1570542071.3,2019-10-08,15:41:11.300,14.0,9.0,24.1200008392334,-18.6,14.9,4.5,-23.1,-3.7,166.1,-16.4216,18.2435,8.126660000000001,-3.63804,-16.058,-12.5574,-25.1695,-5.24129,153.526,-0.068014,-0.0482124,0.8423120000000001,239.5,7.6,52.1701,4.42724,0.1,1.33811,434.01,4.32848,150.91299999999998,47.8838,200.784,0.903078,0.0766656,255.699,4.7231,4.3078,-16.0266265869141,22.0050868988037,35.0,22.0,2112630.0,-10152.3,pp-riro,4,0,-1,-1
1570542071.4,2019-10-08,15:41:11.400,14.0,11.0,23.75,-18.6,13.2,3.9,-23.5,-1.5,168.9,-16.9908,15.9884,5.75082,-1.15143,-17.1101,-14.3472,-25.8514,-1.92371,160.11,0.0742746,-0.00966354,1.05519,239.5,7.6,52.1701,4.42724,0.1,1.36027,437.147,4.32841,152.286,46.3638,200.284,0.89923,0.0884101,255.841,4.7759,4.35536,-13.9972686767578,22.0056018829346,35.0,22.0,2113740.0,7014.3,pp-riro,4,0,-1,-1
1570542071.5,2019-10-08,15:41:11.500,14.0,11.0,23.2999992370605,-18.5,12.4,2.8,-23.5,0.4,171.6,-16.9609,12.4023,4.21015,8.77735,-13.9912,-1.31868,-25.4527,1.7276200000000002,167.59,-0.1386079999999999,0.0430173,0.419587,244.2,7.3,52.1701,4.42724,0.1,1.35196,421.109,4.32833,153.571,44.0837,199.884,0.896465,0.104518,255.893,4.82081,4.3905,-11.8808670043945,22.0056018829346,35.0,22.0,2114030.0,5968.31,pp-riro,4,0,-1,-1
1570542071.6,2019-10-08,15:41:11.600,14.0,11.0,22.8099994659424,-18.3,11.3,2.6,-23.5,2.5,174.3,-16.7946,10.9112,2.96791,0.975692,-7.67435,-8.14524,-24.9362,3.16257,172.528,0.141536,0.0554606,0.436666,244.2,7.3,52.1701,4.42724,0.1,1.29323,399.068,4.32827,154.71,42.5637,199.584,0.8936430000000001,0.115644,256.088,4.87175,4.41452,-9.78836059570312,22.0056018829346,35.0,22.0,2114950.0,9444.7,pp-riro,4,0,-1,-1
1570542071.7,2019-10-08,15:41:11.700,14.0,12.0,22.2999992370605,-18.1,10.5,2.2,-23.9,4.0,176.5,-16.7189,9.91263,2.62433,-1.77622,-11.755999999999998,-5.67972,-24.7186,4.94594,175.38299999999998,0.0508653,0.0971245,0.494778,244.2,7.3,52.1701,4.42724,0.1,1.28325,390.906,4.32821,155.791,40.6637,199.18400000000003,0.890985,0.128864,256.123,4.90765,4.435569999999999,-7.67536926269531,22.0050868988037,35.0,22.0,2115420.0,4214.73,pp-riro,4,0,-1,-1
1570542071.8,2019-10-08,15:41:11.800,14.0,12.0,21.8199996948242,-17.8,9.8,2.0,-24.3,5.2,178.3,-16.715,9.22148,2.37822,-2.96484,-15.0641,-7.77181,-24.7731,5.92472,177.762,0.246385,-0.168122,0.141683,244.2,7.3,52.1701,4.42724,0.1,1.25998,372.937,4.32815,156.726,38.7637,198.884,0.888919,0.141775,256.165,4.93507,4.44736,-5.55555725097656,22.004571914672898,35.0,22.0,2116060.0,7014.3,pp-riro,4,0,-1,-1
1570542071.9,2019-10-08,15:41:11.900,14.0,13.0,21.2900009155273,-17.3,9.3,2.0,-25.0,5.5,179.8,-16.5095,8.89434,2.15853,3.69481,-0.725009,-3.55407,-25.0863,5.87144,178.912,0.0358171,0.0212902,0.636025,244.2,7.3,52.1701,4.42724,0.1,1.2212,353.2,4.32808,157.602,36.8636,198.484,0.8867,0.154532,256.112,4.94875,4.44337,-3.45110321044922,22.004056930542003,35.0,22.0,2116700.0,6122.13,pp-riro,4,0,-1,-1
1570542072.0,2019-10-08,15:41:12.000,14.0,13.0,20.7399997711182,-16.9,8.9,2.1,-26.0,5.3,-179.3,-16.3336,8.67493,2.04342,-0.630076,1.32628,-6.867439999999999,-25.2005,6.07726,179.91299999999998,0.10309,-0.131339,0.365621,244.2,7.3,52.1701,4.42724,0.1,1.19349,341.246,4.32802,158.44899999999998,35.3436,198.084,0.884239,0.164899,256.111,4.95066,4.43722,-1.33640289306641,22.004571914672898,35.0,22.0,2117160.0,4214.73,pp-riro,4,0,-1,-1
1570542072.1,2019-10-08,15:41:12.100,14.0,13.0,20.1800003051758,-16.1,8.7,2.5,-27.4,5.9,-179.3,-16.3417,8.440489999999999,1.97706,-3.66089,-5.57649,2.33604,-25.5521,6.25795,-179.18599999999998,0.0633836,-0.0883586,0.34004,244.2,7.3,52.1701,4.42724,0.1,1.18518,332.353,4.32796,159.267,33.4436,197.68400000000003,0.8820479999999999,0.17745,256.05400000000003,4.94725,4.40301,0.7681198120117191,22.004056930542003,35.0,22.0,2117600.0,4583.91,pp-riro,4,0,-1,-1
1570542072.2,2019-10-08,15:41:12.200,14.0,13.0,19.7900009155273,-15.7,8.9,2.9,-28.5,6.2,-179.3,-15.2163,7.87724,2.53848,3.12323,3.10714,1.6885599999999998,-27.5231,4.944030000000001,-177.771,-0.167448,0.1031779999999999,-0.05241,244.2,7.3,52.1701,4.42724,0.1,1.12257,288.278,4.3279,160.085,32.3036,197.185,0.879085,0.185372,256.032,4.94424,4.366680000000001,2.86468505859375,22.004056930542003,35.0,22.0,2118410.0,5783.72,pp-riro,4,0,-1,-1
1570542072.3,2019-10-08,15:41:12.300,14.0,13.0,19.3299999237061,-15.5,9.3,3.3,-29.4,6.0,179.3,-15.2163,7.87724,2.53848,3.12323,3.10714,1.6885599999999998,-27.5231,4.944030000000001,-177.771,-0.167448,0.1031779999999999,-0.05241,244.2,7.3,52.1701,4.42724,0.1,1.0610700000000002,261.116,4.32784,160.903,30.4035,196.685,0.8765200000000001,0.197795,255.927,4.9134400000000005,4.3248,4.971473693847661,22.0035419464111,35.0,22.0,2119010.0,5814.49,pp-riro,4,0,-1,-1
1570542072.4,2019-10-08,15:41:12.400,14.0,13.0,18.9200000762939,-15.4,9.6,4.1,-30.9,4.0,178.0,-15.2163,7.87724,2.53848,3.12323,3.10714,1.6885599999999998,-27.5231,4.944030000000001,-177.771,-0.167448,0.1031779999999999,-0.05241,244.2,7.3,52.1701,4.42724,0.1,1.0339200000000002,255.872,4.327780000000001,161.779,28.8835,196.085,0.8732549999999999,0.207936,255.843,4.8659300000000005,4.27869,7.07996368408203,22.003026962280305,35.0,22.0,2119290.0,1630.52,pp-riro,4,0,-1,-1
1570542072.5,2019-10-08,15:41:12.500,14.0,13.0,18.3500003814697,-14.9,10.2,5.0,-32.2,2.0,176.2,-15.2163,7.87724,2.53848,3.12323,3.10714,1.6885599999999998,-27.5231,4.944030000000001,-177.771,-0.167448,0.1031779999999999,-0.05241,243.1,6.5,52.1701,4.42724,0.1,1.04555,259.61,4.327719999999999,162.626,27.7435,195.485,0.869836,0.215702,255.795,4.81341,4.21085,9.19185638427734,22.003026962280305,35.0,22.0,2119340.0,1045.99,pp-riro,4,0,-1,-1
1570542072.6,2019-10-08,15:41:12.600,14.0,15.0,17.9599990844727,-14.3,10.8,5.8,-33.6,-0.9,173.4,-15.2062,9.19442,4.06694,3.09223,7.0314,10.1696,-31.4573,1.09716,-179.899,-0.15985,0.0149502,-0.2710329999999999,243.1,6.5,52.1701,4.42724,0.1,1.04888,255.255,4.32765,163.59,26.2235,194.785,0.86597,0.225796,255.715,4.73555,4.14191,11.3139724731445,22.0035419464111,35.0,22.0,2119730.0,3261.04,pp-riro,4,0,-1,-1
1570542072.7,2019-10-08,15:41:12.700,14.0,13.0,17.5699996948242,-13.7,11.6,6.9,-34.8,-4.4,170.4,-15.2062,9.19442,4.06694,3.09223,7.0314,10.1696,-31.4573,1.09716,-179.899,-0.15985,0.0149502,-0.2710329999999999,243.1,6.5,52.1701,4.42724,0.1,1.03059,250.267,4.32757,164.612,24.7035,194.085,0.8618809999999999,0.2358559999999999,255.688,4.64826,4.06039,13.4105453491211,22.003026962280305,35.0,22.0,2120030.0,2676.51,pp-riro,4,0,-1,-1
1570542072.8,2019-10-08,15:41:12.800,14.0,14.0,17.4099998474121,-13.4,12.0,8.1,-35.3,-5.9,166.9,-14.586,10.8362,6.0530800000000005,7.68372,4.98643,13.6427,-34.1979,-5.80159,176.36900000000003,-0.208426,-0.2651429999999999,-0.742979,243.1,6.5,52.1701,4.42724,0.1,1.03226,250.142,4.3275,165.138,24.3235,193.685,0.859485,0.238646,255.687,4.58287,4.00608,15.5207366943359,22.003026962280305,35.0,22.0,2120130.0,1907.4,pp-riro,4,0,-1,-1
1570542072.9,2019-10-08,15:41:12.900,14.0,14.0,17.1599998474121,-12.7,13.0,8.7,-36.2,-11.6,162.9,-14.586,10.8362,6.0530800000000005,7.68372,4.98643,13.6427,-34.1979,-5.80159,176.36900000000003,-0.208426,-0.2651429999999999,-0.742979,243.1,6.5,52.1701,4.42724,0.1,1.0317,245.249,4.3274300000000006,166.861,22.4235,192.485,0.852151,0.251374,255.726,4.45593,3.93281,17.6258239746094,22.0025119781494,35.0,22.0,2120390.0,2922.63,pp-riro,4,0,-1,-1
1570542073.0,2019-10-08,15:41:13.000,14.0,14.0,17.0,-11.6,13.9,9.7,-36.3,-13.8,160.3,-13.1134,13.4303,9.32576,10.1969,10.4773,12.489,-37.5145,-16.2113,168.544,-0.134232,-0.595457,-1.00615,243.1,6.5,52.1701,4.42724,0.1,1.01286,239.658,4.32736,167.533,21.6635,191.985,0.849196,0.256434,255.724,4.39345,3.84581,19.753044128418,22.003026962280305,35.0,22.0,2120680.0,2614.98,pp-riro,4,0,-1,-1
1570542073.1,2019-10-08,15:41:13.100,14.0,14.0,16.8999996185303,-10.3,14.5,11.0,-36.1,-17.7,155.9,-12.6741,14.0341,9.9171,11.6732,11.2113,16.8044,-38.0128,-18.8481,166.78900000000002,-0.307511,-0.16722,-0.924986,243.1,6.5,52.1701,4.42724,0.1,1.01175,235.555,4.3272900000000005,168.81799999999998,20.9035,190.985,0.843151,0.2619039999999999,255.757,4.28878,3.75318,21.8632431030273,22.0025119781494,35.0,22.0,2121000.0,2645.75,pp-riro,4,0,-1,-1
1570542073.2,2019-10-08,15:41:13.200,14.0,14.0,16.8500003814697,-9.2,15.5,12.2,-35.7,-21.4,150.5,-11.4895,15.0914,11.2029,8.15197,5.41329,13.2142,-38.3025,-23.2276,162.284,-0.342157,0.0811046,-1.0193,243.1,6.5,52.1701,4.42724,0.1,1.004,232.876,4.32722,170.19099999999997,20.1435,189.885,0.8365790000000001,0.267361,255.787,4.1749,3.66937,23.9683227539062,22.0025119781494,35.0,22.0,2121150.0,2738.04,pp-riro,4,0,-1,-1
1570542073.3,2019-10-08,15:41:13.300,14.0,15.0,16.8999996185303,-7.9,16.4,13.5,-34.4,-25.5,145.4,-10.2128,16.1549,12.6639,14.557,16.5696,16.8856,-38.6882,-27.3374,157.357,-0.512779,-0.187288,-1.10744,243.1,6.5,52.1701,4.42724,0.1,0.997902,229.69,4.32715,171.68,19.0035,188.68400000000003,0.8295170000000001,0.275,255.807,4.06086,3.58185,26.0751037597656,22.0025119781494,35.0,22.0,2121350.0,2030.46,pp-riro,4,0,-1,-1
1570542073.4,2019-10-08,15:41:13.400,14.0,15.0,17.0,-6.3,17.2,14.8,-32.5,-29.3,138.7,-8.83153,17.3028,14.1132,20.5478,15.0024,12.9428,-38.5969,-32.0805,151.921,-0.740897,-0.118845,-0.948525,243.1,6.5,52.1701,4.42724,0.1,1.00511,238.358,4.3270800000000005,173.25799999999998,18.2436,187.384,0.821801,0.280403,255.859,3.93381,3.49125,28.181884765625,22.0025119781494,35.0,22.0,2121530.0,1568.99,pp-riro,4,0,-1,-1
1570542073.5,2019-10-08,15:41:13.500,14.0,15.0,17.1000003814697,-4.4,17.7,16.0,-29.1,-33.9,131.4,-7.11335,18.345,15.7329,16.8821,6.03012,13.2014,-37.0098,-36.9937,145.861,-0.197192,-0.144481,-1.36809,244.6,7.5,52.1701,4.42724,0.1,1.02616,250.698,4.327030000000001,174.893,17.8636,185.884,0.813264,0.283573,255.851,3.79692,3.39897,30.1882019042969,22.0025119781494,35.0,22.0,2121640.0,953.699,pp-riro,4,0,-1,-1
1570542073.6,2019-10-08,15:41:13.600,14.0,16.0,17.2600002288818,-2.3,18.0,16.9,-25.0,-38.7,123.1,-5.06835,18.9805,17.1108,24.8055,13.2045,15.7437,-35.3258,-42.6797,138.849,-0.533667,-0.5599569999999999,-1.38731,244.6,7.5,52.1701,4.42724,0.1,1.05664,264.806,4.32702,176.58700000000002,17.4836,184.284,0.804288,0.286686,255.831,3.65223,3.30616,31.8504638671875,22.0019989013672,35.0,22.0,2121870.0,2153.51,pp-riro,4,0,-1,-1
1570542073.7,2019-10-08,15:41:13.700,14.0,16.0,17.4599990844727,1.0,18.5,18.2,-15.9,-44.0,107.6,-3.90745,19.3524,17.7749,14.033,10.1922,11.1437,-33.3279,-45.8915,135.333,-0.202788,-0.438928,-1.61226,244.6,7.5,52.1701,4.42724,0.1,1.06051,270.09,4.327,179.274,17.4837,181.68400000000003,0.789709,0.288168,255.84,3.42866,3.17242,33.161895751953104,22.0025119781494,35.0,22.0,2121990.0,2245.81,pp-riro,4,0,-1,-1
1570542073.8,2019-10-08,15:41:13.800,14.0,18.0,17.8099994659424,2.4,18.5,18.6,-12.0,-45.5,101.3,-1.4049,19.9651,18.8161,27.9834,7.1334100000000005,9.97451,-28.3327,-51.052,124.984,-0.452163,-0.138192,-1.42632,244.6,7.5,52.1701,4.42724,0.1,1.08489,285.30400000000003,4.32699,180.18,17.4838,180.784,0.7847310000000001,0.2886599999999999,255.838,3.34619,3.1187400000000003,33.679641723632805,22.0025119781494,35.0,22.0,2122130.0,1138.29,pp-riro,4,0,-1,-1
1570542073.9,2019-10-08,15:41:13.900,14.0,13.0,18.3899993896484,4.9,17.9,19.3,-3.0,-47.5,88.5,2.95185,20.3504,20.4329,20.8175,-3.59695,10.5768,-16.682000000000002,-56.1493,104.876,-0.225198,0.0675181,-1.82715,244.6,7.5,52.1701,4.42724,0.1,1.13698,314.437,4.326980000000001,182.896,17.8639,178.884,0.771938,0.288048,256.456,3.18969,3.02416,34.4528656005859,22.003026962280305,23.0139999389648,22.0,2122320.0,1199.82,pp-riro,4,0,-1,-1
1570542074.0,2019-10-08,15:41:14.000,14.0,12.0,19.0,7.6,17.2,19.1,6.7,-48.4,74.1,2.95185,20.3504,20.4329,20.8175,-3.59695,10.5768,-16.682000000000002,-56.1493,104.876,-0.225198,0.0675181,-1.82715,244.6,7.5,52.1701,4.42724,0.1,1.15249,319.85400000000004,4.32696,183.713,18.2439,177.084,0.764575,0.286443,255.817,3.0232900000000003,2.92105,34.868438720703104,22.003026962280305,23.0139999389648,22.0,2122420.0,1907.4,pp-ro,1,1,-1,-1
1570542074.1,2019-10-08,15:41:14.100,14.0,13.0,19.5400009155273,10.5,16.1,18.8,15.5,-46.9,60.4,2.95185,20.3504,20.4329,20.8175,-3.59695,10.5768,-16.682000000000002,-56.1493,104.876,-0.225198,0.0675181,-1.82715,244.6,7.5,52.1701,4.42724,0.0,1.16191,325.12,4.32695,185.407,19.004,175.18400000000003,0.754447,0.283296,255.786,2.86255,2.80796,34.9501953125,22.0035419464111,23.0163822174072,22.0,2122730.0,3137.98,pp-ro,1,1,-1,-1
1570542074.2,2019-10-08,15:41:14.200,14.0,14.0,19.7600002288818,12.7,14.6,18.2,23.2,-44.9,48.9,6.12598,19.7567,21.0274,24.2555,1.15195,1.86282,-4.78792,-59.6001,88.5795,0.0749901,-0.336856,-1.66684,244.6,7.5,52.1701,4.42724,0.0,1.1608,326.081,4.3269400000000005,186.897,20.1441,173.384,0.745031,0.278076,255.731,2.72318,2.71194,34.761138916015604,22.003026962280305,23.0139999389648,22.0,2123270.0,3753.27,pp-ro,1,1,-1,-1
1570542074.3,2019-10-08,15:41:14.300,14.0,14.0,19.979999542236303,14.8,13.5,17.2,29.7,-41.2,37.8,6.12598,19.7567,21.0274,24.2555,1.15195,1.86282,-4.78792,-59.6001,88.5795,0.0749901,-0.336856,-1.66684,244.6,7.5,52.1701,4.42724,0.0,1.1630200000000002,328.829,4.32693,188.328,21.2841,171.78400000000002,0.7363310000000001,0.272924,255.793,2.57146,2.61843,34.16162109375,22.0035419464111,23.0163822174072,22.0,2123400.0,2614.98,pp-ro,1,1,-1,-1
1570542074.4,2019-10-08,15:41:14.400,14.0,14.0,20.1100006103516,16.9,12.0,16.6,35.1,-36.5,27.9,13.8059,16.7609,19.9124,31.1029,-13.4155,-2.19352,24.5815,-56.7075,46.0715,-0.46837,-0.0900637,-1.3194,244.6,7.5,52.1701,4.42724,0.0,1.18684,341.644,4.32691,189.73,22.8042,170.18400000000003,0.727582,0.26586,255.891,2.41891,2.5251900000000003,33.194244384765604,22.0035419464111,23.0163822174072,22.0,2123640.0,2491.92,pp-ro,1,1,-1,-1
1570542074.5,2019-10-08,15:41:14.500,14.0,14.0,20.2900009155273,18.5,10.4,15.2,39.4,-31.9,19.2,19.9184,13.0566,17.5979,12.7538,-14.3718,-8.32075,40.7279,-44.0625,17.0897,-0.832406,0.147136,-1.46656,249.3,7.1,52.1701,4.42724,0.0,1.2173200000000002,356.004,4.3269,190.956,24.7043,168.68400000000003,0.719432,0.256836,255.986,2.27706,2.43161,31.862380981445305,22.004056930542003,22.899906158447298,22.0,2124000.0,2338.1,pp-ro,1,1,-1,-1
1570542074.6,2019-10-08,15:41:14.600,14.0,14.0,20.3700008392334,19.8,9.0,13.6,42.5,-27.0,12.1,21.8073,11.0755,15.6939,12.6499,-26.2087,-15.5393,43.4598,-37.7702,8.78324,-0.517444,0.173142,-1.60892,249.3,7.1,52.1701,4.42724,0.0,1.22508,355.936,4.3269,192.037,26.6044,167.384,0.71221,0.247827,256.132,2.14582,2.34291,30.1864929199219,22.004571914672898,21.3509521484375,22.0,2124200.0,3907.09,pp-ro,1,1,-1,-1
1570542074.7,2019-10-08,15:41:14.700,14.0,14.0,20.3199996948242,21.1,7.6,11.9,45.3,-21.6,5.7,22.5712,10.1663,14.8896,7.1153,-20.5839,-18.8383,44.333,-34.5385,5.27994,-0.8469260000000001,0.188462,-1.57758,249.3,7.1,52.1701,4.42724,0.0,1.20679,352.525,4.32691,193.03,28.5045,166.18400000000003,0.7054739999999999,0.2388739999999999,256.301,2.01314,2.2493,28.2108459472656,22.004056930542003,19.6930236816406,22.0,2124700.0,4307.03,pp-ro,1,1,-1,-1
1570542074.8,2019-10-08,15:41:14.800,14.0,13.0,20.3199996948242,21.7,5.9,10.3,46.9,-16.1,-0.1,24.5046,7.44135,12.0443,12.8999,-18.0294,-15.2145,46.8562,-25.0299,-3.63541,-0.0356286,0.212058,-1.22001,249.3,7.1,52.1701,4.42724,0.0,1.21621,354.05300000000005,4.32691,193.848,30.4046,165.18400000000003,0.699739,0.229897,256.49,1.8835,2.16272,25.8264465332031,22.004056930542003,18.1445903778076,22.0,2125020.0,3353.33,pp-ro,1,1,-1,-1
1570542074.9,2019-10-08,15:41:14.900,14.0,13.0,20.270000457763697,21.9,4.5,8.4,48.3,-11.2,-5.0,24.6203,6.29885,10.9544,5.879919999999999,-14.7191,-25.4615,47.1272,-21.9506,-6.35877,-0.0190768,-0.203362,-1.3846,249.3,7.1,52.1701,4.42724,0.0,1.21122,350.211,4.326919999999999,194.548,32.6846,164.28400000000002,0.694404,0.2190239999999999,256.723,1.77147,2.07908,23.9717330932617,22.004571914672898,16.6407585144043,22.0,2125480.0,4891.55,pp-ro,1,1,-1,-1
1570542075.0,2019-10-08,15:41:15.000,14.0,14.0,20.229999542236303,21.8,3.1,6.3,48.8,-6.1,-9.0,24.7954,4.6614,8.8588,1.27024,-16.3767,-15.2775,47.9648,-16.033,-11.224,-0.0087086,0.3260969999999999,-1.17384,249.3,7.1,52.1701,4.42724,0.0,1.19959,346.11300000000006,4.326919999999999,195.074,34.9647,163.584,0.69005,0.208112,256.975,1.66585,1.98725,22.1544723510742,22.004056930542003,14.9432458877563,22.0,2126110.0,4122.44,pp-ro,1,1,-1,-1
1570542075.1,2019-10-08,15:41:15.100,14.0,14.0,20.229999542236303,22.3,1.6,4.6,49.6,-1.0,-12.4,24.802,2.98476,6.59058,-2.35945,-22.8472,-33.6732,47.1908,-9.59426,-14.7576,-0.29943,0.345559,-1.16998,249.3,7.1,52.1701,4.42724,0.0,1.20014,350.411,4.32693,195.483,37.2448,162.984,0.686231,0.197191,257.225,1.56646,1.89242,20.4036483764648,22.004056930542003,13.1725749969482,22.0,2126310.0,3691.74,pp-ro,1,1,-1,-1
1570542075.2,2019-10-08,15:41:15.200,14.0,14.0,20.1800003051758,22.5,0.0,3.0,50.2,3.2,-16.6,25.0645,1.1903,4.6585,8.590119999999999,-16.3533,-16.6212,47.3424,-4.02012,-18.3029,-0.209176,0.159247,-1.12263,249.3,7.1,52.1701,4.42724,0.0,1.22452,363.996,4.32693,195.716,39.5248,162.584,0.683384,0.186187,257.48900000000003,1.47033,1.79971,18.615348815918,22.004571914672898,11.4123096466064,22.0,2126510.0,1722.81,pp-ro,1,1,-1,-1
1570542075.3,2019-10-08,15:41:15.300,14.0,14.0,20.1800003051758,22.2,-1.0,1.7,50.6,7.0,-20.7,25.2624,-0.5657369999999999,2.9529400000000003,-4.84212,-8.90466,-9.41236,47.4375,0.752834,-22.0638,-0.080481,0.0903558,-1.03769,249.3,7.1,52.1701,4.42724,0.0,1.2489,374.134,4.3269400000000005,195.833,41.8049,162.184,0.680765,0.175136,257.686,1.38086,1.73458,16.363792419433597,22.004571914672898,10.2011194229126,22.0,2127070.0,4460.85,pp-ro,1,1,-1,-1
1570542075.4,2019-10-08,15:41:15.400,14.0,14.0,20.3099994659424,21.8,-1.9,0.5,50.8,11.2,-24.0,24.6521,-1.7519900000000002,1.35542,-9.13991,-13.8635,-19.91,47.5731,4.99578,-25.9575,0.121015,0.194897,-0.951016,249.3,7.1,52.1701,4.42724,0.0,1.24946,374.764,4.3269400000000005,195.804,44.085,161.884,0.6787380000000001,0.16399,257.855,1.29524,1.67335,15.479866027832,22.004056930542003,9.04968547821045,22.0,2127480.0,3784.03,pp-ro,1,1,-1,-1
1570542075.5,2019-10-08,15:41:15.500,14.0,14.0,20.3600006103516,21.6,-2.9,-0.8,51.4,14.9,-27.1,24.0432,-2.89989,0.106857,-3.68682,-12.0054,-13.0206,47.902,9.72146,-29.3507,-0.158355,0.0766487,-0.8976360000000001,251.8,5.7,52.1701,4.42724,0.0,1.2533299999999998,374.611,4.32695,195.687,46.365,161.684,0.677163,0.152795,258.04,1.219,1.60439,13.8022689819336,22.004571914672898,7.73057746887207,22.0,2127700.0,4030.15,pp-ro,1,1,-1,-1
1570542075.6,2019-10-08,15:41:15.600,14.0,15.0,20.3999996185303,21.5,-3.8,-1.7,51.2,17.2,-30.8,23.8349,-3.52837,-0.655737,-10.0214,-14.0405,-15.3102,47.7814,11.9417,-30.907,0.0688628999999999,0.255562,-0.954755,251.8,5.7,52.1701,4.42724,0.0,1.24281,372.18,4.326969999999999,195.453,49.0251,161.484,0.675582,0.1396599999999999,258.23,1.15624,1.55425,12.2115325927734,22.004056930542003,6.7941632270813,22.0,2128200.0,5137.67,pp-ro,1,1,-1,-1
1570542075.7,2019-10-08,15:41:15.700,14.0,15.0,20.270000457763697,20.9,-4.6,-2.7,51.5,18.7,-33.9,23.8349,-3.52837,-0.655737,-10.0214,-14.0405,-15.3102,47.7814,11.9417,-30.907,0.0688628999999999,0.255562,-0.954755,251.8,5.7,52.1701,4.42724,0.0,1.2561,384.119,4.32699,195.132,50.9251,161.384,0.6748930000000001,0.1301109999999999,258.29200000000003,1.10839,1.49651,10.7025451660156,22.004571914672898,5.672133922576901,22.0,2128540.0,2922.63,pp-ro,1,1,-1,-1
1570542075.8,2019-10-08,15:41:15.800,14.0,11.0,20.270000457763697,20.4,-5.6,-3.4,51.6,20.8,-36.7,22.3162,-5.68931,-3.58286,-6.89185,-12.6456,-15.2982,48.0029,19.2078,-38.4106,0.194072,0.027274,-0.609125,251.8,5.7,52.1701,4.42724,0.0,1.33534,432.251,4.32702,194.694,53.2051,161.384,0.6744939999999999,0.11861,258.421,1.05755,1.4452200000000002,9.27191162109375,22.0050868988037,4.671080589294429,22.0,2128810.0,1169.05,pp-ro,1,1,-1,-1
1570542075.9,2019-10-08,15:41:15.900,14.0,15.0,20.4899997711182,20.0,-6.3,-4.5,51.6,22.8,-39.1,22.3162,-5.68931,-3.58286,-6.89185,-12.6456,-15.2982,48.0029,19.2078,-38.4106,0.194072,0.027274,-0.609125,251.8,5.7,52.1701,4.42724,0.0,1.37468,442.194,4.32704,194.168,55.1052,161.484,0.674788,0.10882,258.486,1.01166,1.38735,7.57728576660156,22.0050868988037,3.5092151165008505,22.0,2129260.0,6399.01,pp-ro,1,1,-1,-1
1570542076.0,2019-10-08,15:41:16.000,14.0,14.0,20.909999847412102,19.7,-7.3,-5.4,52.1,24.6,-41.5,21.123,-7.38887,-5.75589,-3.78572,-9.99175,-9.7707,47.8335,24.1221,-43.4801,-0.1442369999999999,-0.29951,-0.749149,251.8,5.7,52.1701,4.42724,0.0,1.36637,447.227,4.32706,193.525,57.3852,161.684,0.675348,0.0970618,258.625,0.96985,1.33265,6.33909606933594,22.0050868988037,2.40298700332642,22.0,2129630.0,7045.07,pp-ro,1,1,-1,-1
1570542076.1,2019-10-08,15:41:16.100,14.0,13.0,21.4500007629395,19.0,-8.2,-5.8,51.5,25.0,-44.6,20.5123,-8.28864,-6.41518,-7.333639999999999,-8.37469,-0.243311,47.4309,25.776,-46.1006,0.356014,-0.0950427,-0.444292,251.8,5.7,52.1701,4.42724,-0.1,1.39961,471.419,4.3270800000000005,192.766,60.0452,161.984,0.676139,0.0833386999999999,258.849,0.938737,1.29216,5.00042724609375,22.0056018829346,1.57635152339935,22.0,2129910.0,1630.52,pp-ro,1,1,-1,-1
1570542076.2,2019-10-08,15:41:16.200,14.0,13.0,21.899999618530305,18.6,-8.6,-6.5,50.9,26.5,-46.5,20.1349,-8.64587,-6.598260000000001,-9.61999,-4.46715,-4.37148,47.353,26.2466,-47.2249,0.0569495999999999,-0.217863,-0.369702,251.8,5.7,52.1701,4.42724,-0.1,1.4517,491.124,4.3271,191.948,61.5653,162.384,0.678122,0.0749107,258.849,0.904391,1.25542,3.72647857666016,22.0050868988037,0.758459508419037,22.0,2130300.0,4706.97,pp-ro,1,1,-1,-1
1570542076.3,2019-10-08,15:41:16.300,14.0,13.0,22.25,18.2,-9.3,-7.1,50.4,27.8,-48.0,19.789,-8.89841,-6.941510000000001,-15.2843,-1.811,-7.170960000000001,46.94,26.9197,-48.3595,0.0468781,-0.0504084999999999,-0.42333,251.8,5.7,52.1701,4.42724,-0.1,1.44172,480.274,4.32713,191.101,63.8453,162.884,0.679856,0.0628285,259.089,0.8796430000000001,1.21799,2.67393493652344,22.0050868988037,-0.054819364100695,22.0,2131470.0,9475.46,pp-ro,1,1,-1,-1
1570542076.4,2019-10-08,15:41:16.400,14.0,12.0,22.6399993896484,18.1,-9.9,-7.6,49.9,28.2,-49.2,19.1352,-9.63056,-7.835260000000001,1.33269,-8.73301,-3.3338,46.2723,28.8043,-50.96,-0.101482,-0.0980845,-0.153,251.8,5.7,52.1701,4.42724,-0.1,1.42621,484.092,4.32715,190.166,65.3653,163.384,0.682321,0.0541636999999999,259.095,0.866814,1.19207,2.15277099609375,22.0056018829346,-0.6838970780372621,22.0,2132130.0,4860.79,pp-ro,1,1,-1,-1
1570542076.5,2019-10-08,15:41:16.500,14.0,12.0,23.030000686645497,17.8,-10.2,-8.0,49.8,27.9,-50.2,18.8622,-10.0851,-8.35419,-6.8952,-3.824,-7.6535,45.5413,29.4231,-52.2765,-0.0264861,-0.144204,-0.0271225,246.8,6.6,52.1701,4.42724,-0.1,1.46222,499.555,4.32717,189.115,67.6453,163.984,0.684696,0.0417041,259.29,0.8669459999999999,1.17328,1.16665649414062,22.0056018829346,-1.15983843803406,22.0,2132660.0,6737.42,pp-ro,1,1,-1,-1
1570542076.6,2019-10-08,15:41:16.600,14.0,10.0,23.600000381469695,17.7,-10.4,-7.8,49.5,28.3,-51.8,18.777,-10.2912,-8.545630000000001,-1.02491,-3.29464,-2.9414700000000003,45.4177,29.233,-52.604,0.0741587,-0.1292289999999999,-0.0596088,246.8,6.6,52.1701,4.42724,-0.1,1.49159,525.825,4.32717,188.063,69.5453,164.584,0.6873130000000001,0.0310135,259.408,0.8508129999999999,1.18012,0.091972351074219,22.0056018829346,-1.14320755004883,22.0,2133130.0,3199.51,pp-ro,1,1,-1,-1
1570542076.7,2019-10-08,15:41:16.700,14.0,11.0,24.0400009155273,17.7,-10.6,-7.5,49.4,28.8,-53.1,18.5284,-10.7146,-8.37265,-7.051069999999999,-4.405530000000001,1.25512,44.996,29.3165,-54.6945,0.0503582,-0.244804,-0.286641,246.8,6.6,52.1701,4.42724,-0.1,1.54035,538.4069999999999,4.32718,186.953,71.4453,165.18400000000003,0.690006,0.0201838,259.503,0.837096,1.19292,-0.61444091796875,22.0056018829346,-1.01475739479065,22.0,2133630.0,6675.89,pp-ro,1,1,-1,-1
1570542076.8,2019-10-08,15:41:16.800,14.0,10.0,24.3600006103516,17.7,-10.6,-7.4,49.5,28.5,-53.7,18.5713,-10.6919,-8.01114,-3.2099900000000003,0.893874,3.68072,44.7011,29.1642,-56.2761,0.0750175,-0.0725566,-0.0170095,246.8,6.6,52.1701,4.42724,-0.1,1.53647,536.08,4.32718,185.902,72.9653,165.78400000000002,0.692847,0.0111935,259.553,0.8394149999999999,1.20195,-1.0394287109375,22.0056018829346,-0.97944438457489,22.0,2134110.0,9198.58,pp-ro,1,1,-1,-1
1570542076.9,2019-10-08,15:41:16.900,14.0,10.0,24.399999618530305,17.6,-10.4,-6.9,50.1,28.0,-54.1,18.3654,-10.7686,-7.617660000000001,0.38927,-0.959543,2.78804,45.2707,28.6314,-56.5611,0.0972846,-0.157045,0.0148495,246.8,6.6,52.1701,4.42724,-0.1,1.5204,526.88,4.32718,184.821,75.2454,166.384,0.69501,-0.00142374,259.816,0.848791,1.22796,-1.11452484130859,22.0056018829346,-0.5584171414375311,22.0,2135010.0,9321.64,pp-ro,1,1,-1,-1
1570542077.0,2019-10-08,15:41:17.000,14.0,11.0,24.399999618530305,17.6,-10.4,-6.7,50.4,28.2,-53.6,18.3654,-10.7686,-7.617660000000001,0.38927,-0.959543,2.78804,45.2707,28.6314,-56.5611,0.0972846,-0.157045,0.0148495,246.8,6.6,52.1701,4.42724,-0.1,1.50821,525.314,4.32718,183.74,76.7654,166.885,0.697522,-0.0105419,259.815,0.8583059999999999,1.2405700000000002,-0.960914611816406,22.0056018829346,-0.439481109380722,22.0,2135820.0,6922.01,pp-ro,1,1,-1,-1
1570542077.1,2019-10-08,15:41:17.100,14.0,11.0,24.260000228881804,17.5,-10.5,-6.5,50.4,27.7,-53.7,18.3654,-10.7686,-7.617660000000001,0.38927,-0.959543,2.78804,45.2707,28.6314,-56.5611,0.0972846,-0.157045,0.0148495,246.8,6.6,52.1701,4.42725,-0.2,1.50932,524.452,4.32718,183.156,77.5254,167.085,0.698715,-0.015201,259.757,0.8659549999999999,1.24582,-0.7151412963867191,22.0061168670654,-0.3984774053096769,22.0,2136970.0,8429.47,pp-ro,1,1,-1,-1
1570542077.2,2019-10-08,15:41:17.200,14.0,12.0,24.010000228881804,17.4,-10.9,-6.3,51.1,26.9,-53.7,18.2516,-10.7565,-6.72399,-4.37879,-7.89423,-6.35965,46.6066,27.1379,-56.7763,0.0235546,0.134043,0.0857605,246.8,6.6,52.1701,4.42725,-0.2,1.52096,538.559,4.32718,181.462,80.5654,167.885,0.701925,-0.0326308,260.009,0.8867120000000001,1.25309,-0.37890625,22.0066318511963,-0.416016936302185,22.0,2137690.0,6860.48,pp-ro,1,1,-1,-1
1570542077.3,2019-10-08,15:41:17.300,14.0,12.0,23.75,17.3,-11.1,-5.9,50.7,26.6,-54.0,18.1657,-11.1275,-6.58645,-5.2333300000000005,-3.5045900000000003,9.53376,46.6996,25.6091,-57.3929,-0.016819,0.149139,0.0658091,246.8,6.6,52.1701,4.42725,-0.2,1.53259,550.057,4.32719,180.878,81.7054,168.085,0.7026789999999999,-0.0390768,260.086,0.890971,1.26422,-0.389144897460938,22.0066318511963,-0.225005969405174,22.0,2137940.0,4706.97,pp-ro,1,1,-1,-1
1570542077.4,2019-10-08,15:41:17.400,14.0,14.0,23.350000381469695,17.1,-11.2,-5.4,50.7,25.6,-54.3,17.7847,-11.3874,-5.660819999999999,-0.419171,6.957489999999999,2.07052,47.6712,25.1396,-57.3521,0.120099,-0.12965,-0.2274469999999999,246.8,6.6,52.1701,4.42725,-0.2,1.58246,548.899,4.32719,179.65099999999998,83.2254,168.585,0.7053470000000001,-0.0486258,260.04200000000003,0.905364,1.2805799999999998,-0.399383544921875,22.0066318511963,-0.055935628712177,22.0,2138460.0,7475.77,pp-ro,1,1,-1,-1
1570542077.5,2019-10-08,15:41:17.500,14.0,15.0,23.1200008392334,17.0,-11.0,-5.3,50.3,25.0,-55.2,17.7847,-11.3874,-5.660819999999999,-0.419171,6.957489999999999,2.07052,47.6712,25.1396,-57.3521,0.120099,-0.12965,-0.2274469999999999,250.0,8.6,52.1701,4.42725,-0.2,1.48217,500.296,4.32718,178.512,84.7454,169.185,0.7080649999999999,-0.0580248,260.138,0.907901,1.29197,-0.165557861328125,22.0066318511963,0.003078303532675,22.0,2140370.0,10183.0,pp-ro,1,1,-1,-1
1570542077.6,2019-10-08,15:41:17.600,14.0,14.0,22.9300003051758,16.7,-11.0,-4.7,50.1,24.4,-55.6,17.7847,-11.3874,-5.660819999999999,-0.419171,6.957489999999999,2.07052,47.6712,25.1396,-57.3521,0.120099,-0.12965,-0.2274469999999999,250.0,8.6,52.1701,4.42725,-0.2,1.46056,491.24,4.32719,177.373,86.6454,169.285,0.708862,-0.0691999,260.05,0.917661,1.31296,-0.0614471435546879,22.0066318511963,0.401044487953186,22.0,2140880.0,9690.81,pp-ro,1,1,-1,-1
1570542077.7,2019-10-08,15:41:17.700,14.0,14.0,22.6599998474121,16.1,-10.6,-4.1,49.5,23.1,-55.9,16.7959,-10.9025,-4.29478,0.365033,3.45931,4.12239,47.7835,22.9181,-58.3982,0.183852,-0.0604544,0.124471,250.0,8.6,52.1701,4.42725,-0.2,1.43951,472.826,4.3272,176.205,88.1654,169.685,0.710966,-0.0787491999999999,260.027,0.935563,1.3353700000000002,0.1226272583007809,22.0061168670654,0.719885528087616,22.0,2141900.0,6552.84,pp-ro,1,1,-1,-1
1570542077.8,2019-10-08,15:41:17.800,14.0,14.0,22.2700004577637,15.8,-10.2,-3.8,49.7,22.9,-55.8,16.7959,-10.9025,-4.29478,0.365033,3.45931,4.12239,47.7835,22.9181,-58.3982,0.183852,-0.0604544,0.124471,250.0,8.6,52.1701,4.42725,-0.2,1.42011,457.997,4.32721,175.095,90.0655,169.985,0.712166,-0.0899113999999999,260.124,0.94671,1.35611,0.436004638671875,22.0061168670654,1.08171653747559,22.0,2142390.0,9936.93,pp-ro,1,1,-1,-1
1570542077.9,2019-10-08,15:41:17.900,14.0,14.0,22.030000686645497,15.7,-10.1,-3.6,49.7,22.9,-56.2,16.6332,-10.6474,-3.94727,-8.002089999999999,-4.24451,3.18686,47.6467,22.9214,-58.566,-0.475927,0.333246,-0.1296119999999999,250.0,8.6,52.1701,4.42725,-0.2,1.35362,430.127,4.32722,174.043,91.5855,170.285,0.71362,-0.0992398999999999,260.146,0.948227,1.36994,0.592689514160156,22.0056018829346,1.27627837657928,22.0,2143350.0,7937.24,pp-ro,1,1,-1,-1
1570542078.0,2019-10-08,15:41:18.000,14.0,14.0,21.7099990844727,15.6,-9.9,-3.4,49.3,23.2,-56.5,16.6332,-10.6474,-3.94727,-8.002089999999999,-4.24451,3.18686,47.6467,22.9214,-58.566,-0.475927,0.333246,-0.1296119999999999,250.0,8.6,52.1701,4.42725,-0.2,1.31096,413.467,4.32723,172.96200000000002,93.1055,170.585,0.715095,-0.108655,260.161,0.947507,1.38654,1.03040313720703,22.0056018829346,1.52310752868652,22.0,2144350.0,6152.9,pp-ro,1,1,-1,-1
1570542078.1,2019-10-08,15:41:18.100,14.0,15.0,21.5900001525879,15.3,-9.9,-3.4,49.0,23.2,-56.3,15.7766,-10.0929,-3.38776,-4.635619999999999,0.296645,-0.669957,46.5185,22.2052,-60.3096,0.0997342,-0.0370418,0.157889,250.0,8.6,52.1701,4.42725,-0.1,1.31151,415.504,4.32724,171.99900000000002,94.6255,170.885,0.716268,-0.117815,260.267,0.956099,1.38496,1.32674407958984,22.0050868988037,1.43095886707306,22.0,2144540.0,3722.5,pp-ro,1,1,-1,-1
1570542078.2,2019-10-08,15:41:18.200,14.0,15.0,21.2999992370605,15.1,-10.2,-3.5,49.1,22.3,-56.6,15.7766,-10.0929,-3.38776,-4.635619999999999,0.296645,-0.669957,46.5185,22.2052,-60.3096,0.0997342,-0.0370418,0.157889,250.0,8.6,52.1701,4.42725,-0.1,1.33312,421.691,4.32725,170.947,96.5255,171.185,0.71712,-0.128887,260.469,0.970611,1.37536,1.56858825683594,22.0050868988037,1.2196872234344498,22.0,2144960.0,4830.02,pp-ro,1,1,-1,-1
1570542078.3,2019-10-08,15:41:18.300,14.0,15.0,21.2600002288818,15.0,-10.3,-3.5,49.6,22.1,-56.8,15.696,-10.5215,-3.5329,2.79403,-5.76655,-4.16033,46.8006,22.1244,-59.7336,0.0643030999999999,-0.00926864,-0.111522,250.0,8.6,52.1701,4.42725,-0.1,1.33755,432.712,4.32726,169.896,97.6655,171.585,0.719159,-0.1366,260.47,0.975742,1.37533,1.61627960205078,22.0050868988037,1.06488358974457,22.0,2145410.0,3691.74,pp-ro,1,1,-1,-1
1570542078.4,2019-10-08,15:41:18.400,14.0,15.0,21.1399993896484,15.2,-10.8,-3.6,49.7,22.9,-57.6,15.5848,-10.6555,-3.79426,5.865819999999999,-1.7049900000000002,-4.98792,47.0037,22.1133,-59.878,0.28817,-0.279387,-0.159083,250.0,8.6,52.1701,4.42725,-0.1,1.36914,439.856,4.32727,168.815,99.1855,171.985,0.720745,-0.146092,260.605,0.963195,1.37065,1.4136047363281203,22.0050868988037,0.867069065570831,22.0,2145820.0,5322.26,pp-ro,1,1,-1,-1
1570542078.5,2019-10-08,15:41:18.500,14.0,14.0,21.2600002288818,15.0,-11.0,-3.5,49.3,22.5,-58.8,15.595999999999998,-11.5569,-3.58542,2.43584,0.289247,14.1559,46.277,21.7242,-61.8842,0.143457,-0.242823,-0.0990737,248.3,9.0,52.1701,4.42725,-0.1,1.36249,444.971,4.32728,167.705,100.706,172.385,0.722348,-0.15567,260.736,0.959951,1.37076,1.13088226318359,22.0056018829346,0.7599874138832091,22.0,2146420.0,5353.02,pp-ro,1,1,-1,-1
1570542078.6,2019-10-08,15:41:18.600,14.0,13.0,21.3899993896484,14.6,-10.8,-3.6,48.7,21.4,-60.4,15.4728,-11.5648,-3.65686,-2.4498,3.6017300000000003,0.935037,46.3402,21.5934,-62.2584,0.143345,-0.0842343999999999,-0.10436,248.3,9.0,52.1701,4.42725,-0.1,1.38133,444.865,4.32727,166.56599999999997,102.226,172.785,0.723967,-0.16533,260.862,0.959864,1.36719,0.8311309814453121,22.0056018829346,0.5734538435935971,22.0,2146900.0,6060.6,pp-ro,1,1,-1,-1
1570542078.7,2019-10-08,15:41:18.700,14.0,13.0,21.6399993896484,14.3,-10.9,-3.6,48.6,21.8,-61.2,15.4728,-11.5648,-3.65686,-2.4498,3.6017300000000003,0.935037,46.3402,21.5934,-62.2584,0.143345,-0.0842343999999999,-0.10436,248.3,9.0,52.1701,4.42725,-0.1,1.35972,437.742,4.32726,165.485,103.746,173.185,0.725413,-0.174846,261.039,0.952022,1.36267,0.7783355712890621,22.0050868988037,0.3826058804988859,22.0,2147850.0,5199.2,pp-ro,1,1,-1,-1
1570542078.8,2019-10-08,15:41:18.800,14.0,12.0,21.8799991607666,14.0,-10.9,-3.6,48.1,21.9,-62.2,14.6892,-11.4484,-3.72417,-7.531810000000001,-2.36723,0.64377,45.3896,21.228,-64.6511,0.138985,-0.0425256999999999,-0.152171,248.3,9.0,52.1701,4.42725,-0.1,1.36083,435.396,4.32725,164.43400000000003,104.886,173.585,0.7272689999999999,-0.1826569999999999,261.096,0.943939,1.35927,0.616539001464844,22.0056018829346,0.146493405103683,22.0,2148150.0,5906.78,pp-ro,1,1,-1,-1
1570542078.9,2019-10-08,15:41:18.900,14.0,12.0,22.0400009155273,13.8,-10.6,-3.6,48.2,21.8,-62.4,14.5262,-11.4658,-3.785930000000001,-1.45228,1.53704,-5.71332,45.2188,21.0623,-65.0192,0.0596673,-0.165649,-0.0910644999999999,248.3,9.0,52.1701,4.42725,-0.1,1.34365,425.195,4.32724,163.35299999999998,106.406,174.085,0.7289140000000001,-0.192197,261.366,0.949241,1.36706,0.255470275878906,22.0056018829346,-35.0,22.0,2148800.0,6891.25,pp-ro,1,1,-1,-1
1570542079.0,2019-10-08,15:41:19.000,14.0,12.0,22.0799999237061,13.8,-10.6,-3.4,47.8,21.8,-63.1,14.2374,-10.9319,-3.83316,3.22202,-1.3988200000000002,-1.78001,45.472,21.1361,-65.6011,0.00818976,0.264077,-0.371834,248.3,9.0,52.1701,4.42725,-0.1,1.33257,430.138,4.32723,162.27200000000002,107.926,174.485,0.730225,-0.201749,261.582,0.947266,1.38169,0.047691345214844,22.0050868988037,-35.0,22.0,2149660.0,4922.32,pp-ro,1,1,-1,-1
1570542079.1,2019-10-08,15:41:19.100,14.0,13.0,22.1200008392334,13.6,-10.4,-3.4,47.9,21.3,-63.8,14.1002,-10.9625,-3.64144,5.19333,1.58802,-3.16194,45.4696,21.2153,-66.3198,0.294601,-0.132176,-0.0700707,248.3,9.0,52.1701,4.42724,-0.1,1.36969,445.269,4.32722,161.162,109.066,174.985,0.732379,-0.209776,261.703,0.949829,1.38625,-0.4778976440429689,22.0056018829346,-35.0,22.0,2149960.0,3076.45,pp-ro,1,1,-1,-1
1570542079.2,2019-10-08,15:41:19.200,14.0,13.0,22.1200008392334,13.6,-10.6,-3.3,48.2,21.6,-63.5,13.9359,-10.9666,-3.4891,-2.85554,1.64917,10.6567,46.1403,21.3667,-65.5939,0.0695916,-0.0700161999999999,-0.0643696,248.3,9.0,52.1701,4.42724,-0.1,1.38354,447.985,4.32721,160.082,110.206,175.385,0.734153,-0.217741,261.785,0.95565,1.39077,-1.09233856201172,22.0056018829346,-35.0,22.0,2150250.0,5537.61,pp-ro,1,1,-1,-1
1570542079.3,2019-10-08,15:41:19.300,14.0,14.0,22.1599998474121,13.7,-10.9,-3.2,48.5,21.0,-63.5,13.8329,-11.09,-3.34342,4.55431,-6.01094,-0.7133689999999999,45.7425,21.738000000000003,-66.1292,0.260996,-0.1988579999999999,-0.1418039999999999,248.3,9.0,52.1701,4.42724,-0.1,1.37468,450.062,4.3272,158.972,111.726,175.785,0.7353970000000001,-0.227413,262.021,0.969285,1.39685,-2.2461166381835898,22.0056018829346,-35.0,22.0,2150890.0,5937.55,pp-ro,1,1,-1,-1
1570542079.4,2019-10-08,15:41:19.400,14.0,15.0,22.2000007629395,13.9,-11.1,-2.9,49.0,20.4,-63.2,13.9787,-11.328,-3.12114,1.14283,-2.75144,4.75093,46.8273,22.0408,-64.8862,0.166358,0.252525,0.0918927,248.3,9.0,52.1701,4.42724,-0.1,1.37634,441.096,4.32719,157.804,113.246,176.185,0.7367130000000001,-0.237265,262.236,0.986783,1.41656,-3.7549057006835898,22.0050868988037,-35.0,22.0,2151780.0,7629.59,pp-ro,1,1,-1,-1
1570542079.5,2019-10-08,15:41:19.500,14.0,14.0,22.0799999237061,14.3,-11.1,-2.6,49.5,19.1,-63.5,14.032,-11.4511,-2.93764,2.65283,-2.63987,-2.70001,47.1124,21.759,-64.5413,0.0423562,-0.074316,0.1211329999999999,248.2,9.0,52.1701,4.42724,-0.1,1.36027,436.36800000000005,4.32717,156.694,114.766,176.485,0.737577,-0.246932,262.433,1.00492,1.44632,-4.63389587402344,22.0050868988037,-35.0,22.0,2152200.0,7814.18,pp-ro,1,1,-1,-1
1570542079.6,2019-10-08,15:41:19.600,14.0,14.0,21.9599990844727,14.6,-11.0,-1.9,49.9,17.4,-62.8,14.032,-11.4511,-2.93764,2.65283,-2.63987,-2.70001,47.1124,21.759,-64.5413,0.0423562,-0.074316,0.1211329999999999,248.2,9.0,52.1701,4.42724,-0.1,1.35473,435.985,4.32713,155.584,115.906,176.785,0.738974,-0.255017,262.476,1.03913,1.49049,-6.67008209228516,22.0050868988037,-35.0,22.0,2152760.0,5045.38,pp-ro,1,1,-1,-1
1570542079.7,2019-10-08,15:41:19.700,14.0,14.0,21.9200000762939,14.9,-10.9,-1.1,51.3,15.1,-61.9,14.3355,-11.386,-2.42896,-2.64316,8.22295,-4.924869999999999,47.3164,20.4709,-64.9816,-0.11775,-0.0725865,0.3920599999999999,248.2,9.0,52.1701,4.42724,-0.1,1.35418,431.192,4.3270800000000005,154.474,117.426,177.085,0.739749,-0.264662,262.698,1.0844,1.53919,-8.78648376464844,22.0056018829346,-35.0,22.0,2153290.0,5383.79,pp-ro,1,1,-1,-1
1570542079.8,2019-10-08,15:41:19.800,14.0,13.0,21.9599990844727,15.7,-10.4,-0.3,52.4,12.6,-60.3,15.1354,-10.5347,-0.354491,7.22451,6.630210000000001,11.9438,50.9518,16.3141,-61.2201,0.107324,0.25016,0.7495609999999999,248.2,9.0,52.1701,4.42724,-0.1,1.31318,409.125,4.32706,153.393,118.946,177.185,0.739854,-0.274267,262.816,1.14124,1.60931,-10.8909378051758,22.0056018829346,-35.0,22.0,2154360.0,7229.65,pp-ro,1,1,-1,-1
1570542079.9,2019-10-08,15:41:19.900,14.0,14.0,22.0400009155273,16.6,-10.0,0.5,54.1,9.4,-58.3,15.4789,-10.1425,0.014145,10.4931,5.58108,8.7803,51.6491,15.0848,-60.0351,0.1562059999999999,0.00918999,0.5225850000000001,248.2,9.0,52.1701,4.42724,-0.1,1.296,395.124,4.32702,152.342,120.466,177.285,0.739855,-0.2837159999999999,262.964,1.21203,1.67563,-12.9919815063477,22.0056018829346,-35.0,22.0,2154890.0,5322.26,pp-ro,1,1,-1,-1
1570542080.0,2019-10-08,15:41:20.000,14.0,14.0,22.0799999237061,17.5,-9.5,2.1,56.0,6.6,-55.8,16.1888,-9.67011,1.1966,6.867139999999999,5.645519999999999,13.9731,53.9108,12.4177,-56.9914,0.135562,0.09062,0.718665,248.2,9.0,52.1701,4.42724,-0.1,1.2755,395.887,4.32699,151.349,122.366,177.185,0.738522,-0.294503,263.2,1.28558,1.77164,-15.0947265625,22.0056018829346,-35.0,22.0,2155470.0,4922.32,pp-ro,1,1,-1,-1
1570542080.1,2019-10-08,15:41:20.100,14.0,14.0,22.1299991607666,18.7,-8.8,3.4,57.6,3.6,-52.7,16.8365,-9.45419,1.81003,10.7545,4.388719999999999,13.7532,55.0304,11.1501,-55.732,0.486877,0.0573030999999999,0.6194609999999999,248.2,9.0,52.1701,4.42724,0.0,1.28381,398.904,4.32695,150.385,123.886,176.985,0.737412,-0.303644,263.224,1.36786,1.85931,-17.2008895874023,22.0050868988037,-35.0,22.0,2155630.0,2922.63,pp-ro,1,1,-1,-1
1570542080.2,2019-10-08,15:41:20.200,14.0,13.0,22.1599998474121,19.6,-8.0,5.4,59.6,-1.9,-50.4,18.0697,-8.26013,4.1754,5.81385,7.99937,23.6506,57.5244,5.94771,-50.8386,0.3210119999999999,0.0979406999999999,1.09588,248.2,9.0,52.1701,4.42724,0.0,1.30154,399.914,4.3269,149.509,126.166,176.585,0.73428,-0.315433,263.539,1.47507,1.96519,-19.3104629516602,22.0050868988037,-35.0,22.0,2156100.0,5722.19,pp-ro,1,1,-1,-1
1570542080.3,2019-10-08,15:41:20.300,14.0,13.0,22.3199996948242,20.2,-6.7,7.5,60.7,-7.5,-47.1,18.8191,-7.23053,5.978280000000001,9.45901,8.07628,15.6287,58.9281,0.954826,-47.7361,0.202775,0.112381,1.01316,248.2,9.0,52.1701,4.42724,0.0,1.31816,420.8130000000001,4.32688,148.72,127.686,175.985,0.731611,-0.323938,263.42400000000004,1.59383,2.0793,-21.4268646240234,22.0050868988037,-35.0,22.0,2156600.0,522.996,pp-ro,1,1,-1,-1
1570542080.4,2019-10-08,15:41:20.400,14.0,13.0,22.3600006103516,20.9,-5.4,9.7,63.1,-14.2,-44.5,19.3132,-5.80432,7.92875,4.874680000000001,11.2298,16.0507,60.8252,-4.8622,-42.9419,0.318,0.209709,1.47943,248.2,9.0,52.1701,4.42724,0.0,1.33368,413.919,4.32685,148.077,129.966,175.285,0.727079,-0.334826,263.71,1.7215200000000002,2.18929,-23.5535049438477,22.0050868988037,-35.0,22.0,2157180.0,8337.18,pp-ro,1,1,-1,-1
1570542080.5,2019-10-08,15:41:20.500,14.0,14.0,22.399999618530305,21.3,-3.3,11.7,64.4,-19.5,-39.8,19.7092,-4.30312,9.92767,-1.36783,13.8068,25.2601,62.2661,-10.7332,-37.7279,0.466976,0.354203,1.40113,246.5,8.4,52.1701,4.42724,0.0,1.29544,403.301,4.32681,147.58100000000002,131.486,174.385,0.7229270000000001,-0.342209,263.588,1.85086,2.31054,-25.6801528930664,22.0050868988037,-35.0,22.0,2157840.0,5353.02,pp-ro,1,1,-1,-1
1570542080.6,2019-10-08,15:41:20.600,14.0,14.0,22.4799995422363,21.4,-1.3,14.0,64.6,-26.4,-35.4,19.9019,-1.28441,12.945,-9.17576,17.3565,14.1999,62.4409,-19.726,-30.3604,0.0293287,0.285544,1.39467,246.5,8.4,52.1701,4.42724,0.0,1.30043,402.385,4.32676,147.289,134.14600000000002,173.185,0.7156,-0.353106,263.974,1.99953,2.43066,-27.7760696411133,22.0050868988037,-35.0,22.0,2158050.0,4153.21,pp-ro,1,1,-1,-1
1570542080.7,2019-10-08,15:41:20.700,14.0,14.0,22.510000228881804,21.1,0.7,16.5,65.6,-33.9,-30.6,19.9019,-1.28441,12.945,-9.17576,17.3565,14.1999,62.4409,-19.726,-30.3604,0.0293287,0.285544,1.39467,246.5,8.4,52.1701,4.42724,0.0,1.29378,401.955,4.32671,147.201,135.666,171.885,0.709489,-0.358967,263.85200000000003,2.15457,2.54547,-29.8276214599609,22.0056018829346,-35.0,22.0,2158570.0,5076.14,pp-ro,1,1,-1,-1
