time,date,time_of_day,airspeed_temperature,airspeed_angle_of_attack,airspeed_apparent_windspeed,kite_0_vx,kite_0_vy,kite_0_vz,kite_0_roll,kite_0_pitch,kite_0_yaw,kite_1_vx,kite_1_vy,kite_1_vz,kite_1_ax,kite_1_ay,kite_1_az,kite_1_roll,kite_1_pitch,kite_1_yaw,kite_1_roll_rate,kite_1_pitch_rate,kite_1_yaw_rate,ground_upwind_direction,ground_wind_velocity,ground_pos_latitude,ground_pos_longitude,ground_pos_altitude,ground_tether_reelout_speed,ground_tether_force,est_upwind_direction,kite_pos_east,kite_pos_north,kite_height,kite_elevation,kite_azimuth,kite_distance,kite_heading,kite_course,kite_actual_steering,kite_actual_depower,kite_set_steering,kite_set_depower,ground_mech_energy,ground_mech_power,flight_phase,flight_phase_index,phase,pattern,pattern_section
1570534892.3,2019-10-08,13:41:32.300,14.0,10.0,15.1800003051758,14.4,-1.7,1.9,21.5,-2.5,-51.8,13.2406,-1.088,2.3725400000000003,4.42061,12.7064,3.20183,24.1598,13.4263,-50.3748,0.2570929999999999,0.204333,1.06297,250.6,2.7,52.1701,4.42725,0.1,-2.09554,98.0382,4.54328,62.0371,-7.599889999999999,236.04,1.31195,0.291004,244.175,0.566094,1.37202,-34.929168701171896,22.0081768035889,-35.0,22.0,-1160330.0,-1568.99,pp-riro,4,0,-1,-1
1570534892.4,2019-10-08,13:41:32.400,14.0,10.0,14.5299997329712,15.2,-0.5,2.1,23.5,-3.8,-46.8,13.8669,0.25747,2.68781,6.72477,12.0403,4.45671,26.6778,11.6114,-44.4855,0.191126,0.16898,0.979303,250.6,2.7,52.1701,4.42725,0.1,-2.12878,92.5054,4.54324,61.8618,-6.45985,235.94,1.31304,0.273173,244.001,0.677022,1.4734,-34.970123291015604,22.0009689331055,-35.0,22.0,-1161460.0,-9383.17,pp-riro,4,0,-1,-1
1570534892.5,2019-10-08,13:41:32.500,14.0,10.0,14.4099998474121,15.9,0.6,2.7,25.4,-5.5,-41.7,14.518,1.41709,3.08193,3.49041,11.0655,7.99385,28.8068,9.91902,-38.8369,0.130851,0.125196,0.947224,250.6,2.7,52.1701,4.42725,0.1,-2.16812,95.3064,4.5432,61.8326,-4.55978,235.941,1.3138299999999998,0.242802,243.951,0.803999,1.57922,-34.970123291015604,22.0009689331055,-35.0,22.0,-1162280.0,-8460.23,pp-riro,4,0,-1,-1
1570534892.6,2019-10-08,13:41:32.600,14.0,11.0,14.0900001525879,16.5,1.8,3.2,27.3,-7.2,-36.8,15.0085,2.43738,3.69122,5.93189,10.0723,6.11711,30.8893,7.98032,-33.2444,0.259404,0.156209,0.972812,250.6,2.7,52.1701,4.42724,0.4,-2.18031,95.0641,4.54315,61.9494,-3.03972,235.741,1.31352,0.218263,243.763,0.921826,1.67727,-34.978668212890604,22.0009689331055,-35.0,22.0,-1162580.0,-5845.25,pp-riro,4,0,-1,-1
1570534892.7,2019-10-08,13:41:32.700,14.0,12.0,13.5799999237061,16.8,2.9,3.7,28.7,-9.2,-32.0,15.4584,3.5782,4.1876,2.62652,11.8453,3.01403,32.7141,5.74841,-27.4879,0.016833,0.102342,1.02482,250.6,2.7,52.1701,4.42724,0.4,-2.23738,85.4482,4.54311,62.1246,-1.13965,235.641,1.31298,0.187619,243.695,1.04529,1.7727,-34.9923248291016,22.0009689331055,-35.0,22.0,-1163960.0,-10152.3,pp-riro,4,0,-1,-1
1570534892.8,2019-10-08,13:41:32.800,14.0,12.0,13.5799999237061,17.0,4.1,4.1,29.9,-11.2,-27.1,15.6062,4.12121,4.42753,0.1025539999999999,10.1543,5.34851,33.4202,4.64772,-24.7949,0.141587,0.195707,0.956537,250.6,2.7,52.1701,4.42724,0.4,-2.27451,81.9281,4.543069999999999,62.4459,0.380407,235.341,1.31143,0.1632279999999999,243.485,1.16442,1.86344,-34.9991455078125,22.0009689331055,-35.0,22.0,-1164670.0,-13259.5,pp-riro,4,0,-1,-1
1570534892.9,2019-10-08,13:41:32.900,14.0,6.0,13.25,17.2,5.4,4.6,31.2,-13.2,-22.1,15.7108,5.33257,4.87103,0.218759,13.5572,3.73492,34.808,2.2703,-19.6469,0.357761,0.1889999999999999,0.912707,250.6,2.7,52.1701,4.42724,0.4,-2.3675900000000003,77.1637,4.54303,62.8839,1.90047,235.141,1.30937,0.13915,243.411,1.28485,1.95602,-35.0059814453125,22.0009689331055,-35.0,22.0,-1166260.0,-17351.2,pp-riro,4,0,-1,-1
1570534893.0,2019-10-08,13:41:33.000,14.0,6.0,13.5799999237061,17.3,6.6,5.0,32.1,-15.3,-17.1,15.8177,6.506469999999999,5.3266800000000005,1.27461,12.4898,5.853330000000001,36.1634,-0.304799,-14.2052,0.11619,0.16646,0.995081,260.7,2.8,52.1701,4.42724,0.4,-2.47232,77.2378,4.54298,63.4681,3.80054,234.741,1.30628,0.109596,243.199,1.41096,2.04515,-35.0059814453125,22.0009689331055,-35.0,22.0,-1168090.0,-18274.1,pp-riro,4,0,-1,-1
1570534893.1,2019-10-08,13:41:33.100,14.0,7.0,13.710000038147,17.2,7.7,5.4,32.5,-17.4,-11.9,15.7122,8.07214,6.0046,-4.88227,10.6947,3.80554,36.9199,-3.60457,-6.23177,0.161804,0.244179,0.989016,260.7,2.8,52.1701,4.42724,0.4,-2.64574,76.8444,4.54296,64.1106,5.70062,234.341,1.30275,0.080734,243.019,1.53909,2.1299900000000003,-35.0076751708984,22.0009689331055,-35.0,22.0,-1171100.0,-20827.6,pp-riro,4,0,-1,-1
1570534893.2,2019-10-08,13:41:33.200,14.0,7.0,13.7700004577637,17.0,8.8,5.9,32.6,-19.5,-6.6,15.5607,9.15119,6.36451,-1.89415,11.7769,4.73417,36.972,-5.92809,-0.5702520000000001,-0.0127464,0.284758,0.951905,260.7,2.8,52.1701,4.42724,0.4,-2.76265,76.7507,4.54292,64.8992,7.220689999999999,233.941,1.2986,0.0586545,242.883,1.66153,2.20941,-35.0059814453125,22.0009689331055,-35.0,22.0,-1173220.0,-21719.7,pp-riro,4,0,-1,-1
1570534893.3,2019-10-08,13:41:33.300,14.0,8.0,13.8400001525879,16.8,10.0,6.4,32.7,-21.8,-1.0,15.4337,9.64192,6.568,-4.14497,12.8712,5.47963,36.8837,-7.030539999999999,2.28135,0.0499975,0.247629,1.03466,260.7,2.8,52.1701,4.42724,0.4,-2.81141,78.0283,4.5429,65.863,9.12077,233.441,1.29331,0.0318784,242.726,1.79352,2.29462,-35.0059814453125,22.0009689331055,-35.0,22.0,-1174370.0,-21596.7,pp-riro,4,0,-1,-1
1570534893.4,2019-10-08,13:41:33.400,14.0,8.0,13.8999996185303,16.5,11.1,6.9,32.4,-24.0,4.4,15.4337,9.64192,6.568,-4.14497,12.8712,5.47963,36.8837,-7.030539999999999,2.28135,0.0499975,0.247629,1.03466,260.7,2.8,52.1701,4.42724,0.4,-2.91337,81.61399999999999,4.54288,66.85600000000001,10.6408,232.941,1.28797,0.0116738,242.579,1.91395,2.3695,-35.0076751708984,22.0009689331055,-35.0,22.0,-1176450.0,-20643.0,pp-riro,4,0,-1,-1
1570534893.5,2019-10-08,13:41:33.500,14.0,8.0,14.0299997329712,16.1,12.3,7.3,31.8,-25.9,10.0,15.0747,11.1889,7.19252,-1.02816,9.67551,4.68066,35.9593,-10.300999999999998,10.7511,0.031162,0.305728,1.05387,260.7,2.8,52.1701,4.42724,0.4,-3.04413,86.45100000000001,4.54285,67.9659,12.1609,232.241,1.2818200000000002,-0.00751737,242.287,2.03365,2.44643,-35.0059814453125,22.0009689331055,-35.0,22.0,-1179180.0,-18335.6,pp-riro,4,0,-1,-1
1570534893.6,2019-10-08,13:41:33.600,14.0,8.0,14.2200002670288,15.7,13.5,7.8,31.0,-27.4,15.9,14.7446,12.2223,7.669869999999999,-4.4369,9.46598,3.13058,35.1544,-12.3085,16.7857,0.0586472,0.258859,1.0258200000000002,260.7,2.8,52.1701,4.42724,0.7,-3.07904,88.43299999999999,4.54283,69.2802,14.061,231.541,1.27447,-0.0306765999999999,242.092,2.15808,2.52495,-35.0059814453125,22.0009689331055,-35.0,22.0,-1180110.0,-17751.1,pp-riro,4,0,-1,-1
1570534893.7,2019-10-08,13:41:33.700,14.0,9.0,14.460000038147,15.3,14.7,8.3,30.0,-28.6,22.0,14.2919,13.2985,8.10478,-4.52201,11.0896,3.44696,34.2018,-13.9976,22.5414,-0.0158396,0.29265,0.932696,260.7,2.8,52.1701,4.42724,0.7,-3.13777,94.6452,4.5428,70.6529,15.201,230.841,1.26739,-0.0423324,241.889,2.27178,2.58956,-35.0042724609375,22.0009689331055,-35.0,22.0,-1181610.0,-14274.7,pp-riro,4,0,-1,-1
1570534893.8,2019-10-08,13:41:33.800,14.0,9.0,14.710000038147,14.7,15.9,8.9,28.7,-30.3,28.1,13.6178,14.8905,8.83111,-5.789569999999999,10.5152,4.95405,32.2222,-16.1427,31.3815,0.0149118,0.348151,1.00344,260.7,2.8,52.1701,4.42724,0.7,-3.15605,105.31,4.54277,72.1425,17.1011,229.941,1.25888,-0.0631364,241.598,2.39433,2.66661,-35.0042724609375,22.0009689331055,-23.0044822692871,22.0,-1182530.0,-8767.88,pp-riro,4,0,-1,-1
1570534893.9,2019-10-08,13:41:33.900,14.0,10.0,15.0,14.0,17.1,9.5,27.0,-31.7,34.9,13.0769,15.8985,9.39978,-7.869639999999999,10.7353,4.56069,30.4682,-17.502,37.6609,-0.0909411999999999,0.338751,1.02707,260.7,2.8,52.1701,4.42724,0.7,-3.1217,117.084,4.54275,73.8073,18.2412,229.041,1.2503,-0.072651,241.33,2.51409,2.73335,-35.0059814453125,22.0009689331055,-23.0044822692871,22.0,-1182700.0,2061.22,pp-riro,4,0,-1,-1
1570534894.0,2019-10-08,13:41:34.000,14.0,10.0,15.289999961853,13.2,18.2,10.0,25.2,-32.6,41.7,12.3794,16.9454,9.87689,-8.98715,12.6033,4.46039,28.4371,-18.6767,44.0014,-0.0470335,0.309897,0.943193,262.5,2.9,52.1701,4.42724,0.7,-3.04025,125.883,4.54272,75.5305,20.1413,228.141,1.24069,-0.090934,241.161,2.63761,2.80563,-34.965011596679695,22.0009689331055,-23.0044822692871,22.0,-1182100.0,8367.94,pp-riro,4,0,-1,-1
1570534894.1,2019-10-08,13:41:34.100,14.0,10.0,15.5799999237061,12.2,19.4,10.5,23.2,-33.6,48.5,12.0346,17.4644,10.0766,-9.01493,8.2541,1.8691,27.2959,-19.2015,47.3863,0.0573505999999999,0.294668,1.13378,262.5,2.9,52.1701,4.42724,0.7,-2.91115,132.799,4.54275,77.3997,21.2814,227.041,1.23096,-0.0986828,240.814,2.7505,2.87441,-34.586105346679695,22.0009689331055,-23.0044822692871,22.0,-1180870.0,12244.3,pp-riro,4,0,-1,-1
1570534894.2,2019-10-08,13:41:34.200,14.0,10.0,15.9200000762939,11.1,20.5,11.0,20.9,-34.4,55.9,11.6052,17.961,10.3241,-8.85835,10.6762,4.64184,26.2118,-19.7332,50.6392,0.0305024,0.290207,1.0214299999999998,262.5,2.9,52.1701,4.42724,0.7,-2.75545,143.925,4.54277,79.415,22.4214,225.941,1.22062,-0.105555,240.539,2.8693,2.94096,-33.845367431640604,22.0009689331055,-23.0044822692871,22.0,-1179270.0,18551.0,pp-riro,4,0,-1,-1
1570534894.3,2019-10-08,13:41:34.300,14.0,10.0,16.25,9.8,21.6,11.5,18.7,-34.8,63.1,10.2227,19.4651,11.0633,-10.0609,8.97761,6.2583,22.5528,-21.1352,60.6101,-0.0980414999999999,0.268455,1.02708,262.5,2.9,52.1701,4.42724,0.7,-2.5316,158.125,4.54281,81.5763,23.1815,224.741,1.20997,-0.107287,240.21,2.97855,3.00696,-32.7479095458984,22.0009689331055,-22.4269180297852,22.0,-1176970.0,23473.3,pp-riro,4,0,-1,-1
1570534894.4,2019-10-08,13:41:34.400,14.0,10.0,16.25,8.4,22.5,11.9,16.8,-35.3,70.1,9.08114,20.3901,11.5322,-13.0976,10.691,2.73926,20.2905,-21.9125,67.1525,-0.0110503999999999,0.2752489999999999,1.0451700000000002,262.5,2.9,52.1701,4.42724,0.7,-2.09055,170.797,4.54282,83.8252,24.7016,223.541,1.19813,-0.117004,240.015,3.09051,3.07797,-30.880691528320305,22.0009689331055,-21.8717765808105,22.0,-1172970.0,28272.6,pp-riro,4,0,-1,-1
1570534894.5,2019-10-08,13:41:34.500,14.0,11.0,16.5699996948242,7.0,23.3,12.2,14.3,-35.3,76.8,7.818239999999999,21.2254,11.924,-14.9252,11.7916,3.23436,17.7733,-22.8354,73.6514,0.186379,0.178052,0.965298,262.5,2.9,52.1701,4.42724,0.7,-1.76475,172.32299999999998,4.54286,86.0742,25.4616,222.241,1.18694,-0.118076,239.683,3.18958,3.1377900000000003,-28.9895935058594,22.0009689331055,-21.272325515747102,22.0,-1170390.0,25503.8,pp-riro,4,0,-1,-1
1570534894.6,2019-10-08,13:41:34.600,14.0,10.0,16.7800006866455,5.6,23.8,12.3,11.9,-35.0,83.2,7.818239999999999,21.2254,11.924,-14.9252,11.7916,3.23436,17.7733,-22.8354,73.6514,0.186379,0.178052,0.965298,262.5,2.9,52.1701,4.42724,1.0,-1.41069,171.00799999999998,4.54288,88.44,25.8417,221.041,1.17586,-0.114767,239.476,3.28041,3.18923,-26.9073181152344,22.0019989013672,-20.7258472442627,22.0,-1168250.0,19873.9,pp-riro,4,0,-1,-1
1570534894.7,2019-10-08,13:41:34.700,14.0,10.0,16.9899997711182,4.0,24.2,12.3,9.6,-34.6,89.5,6.52532,21.9257,12.1911,-16.1178,7.93735,4.18388,15.6463,-23.426,79.8682,0.00116297,0.169984,0.8833040000000001,262.5,2.9,52.1701,4.42724,1.0,-1.24613,169.99400000000003,4.5429,90.8642,26.6017,219.741,1.1639700000000002,-0.115317,239.27,3.37305,3.2499,-25.9549407958984,22.0019989013672,-20.1717891693115,22.0,-1167330.0,17474.2,pp-riro,4,0,-1,-1
1570534894.8,2019-10-08,13:41:34.800,14.0,9.0,17.0900001525879,3.4,24.2,12.2,7.4,-34.1,95.1,3.85366,22.8306,12.314,-13.8045,3.40231,0.304149,11.2671,-24.3812,91.491,0.00805055,0.253245,0.747685,262.5,2.9,52.1701,4.42724,1.0,-0.931412,166.851,4.54293,92.0616,26.6018,219.141,1.15856,-0.1118319999999999,239.177,3.4527300000000003,3.2684900000000003,-24.2720642089844,22.0019989013672,-19.9991607666016,22.0,-1166020.0,12121.2,pp-riro,4,0,-1,-1
1570534894.9,2019-10-08,13:41:34.900,14.0,8.0,17.1900005340576,1.9,24.3,12.0,6.4,-33.7,97.9,3.17661,22.8842,12.2085,-13.6188,-1.34644,-2.77402,10.3927,-24.3918,94.187,-0.0842291,0.0265923,0.631088,262.5,2.9,52.1701,4.42724,1.0,-0.605612,162.15200000000002,4.54295,94.515,27.3618,217.841,1.14654,-0.112356,239.032,3.49434,3.32431,-22.4799499511719,22.0025119781494,-19.5820293426514,22.0,-1165140.0,7568.06,pp-riro,4,0,-1,-1
1570534895.0,2019-10-08,13:41:35.000,14.0,8.0,17.1900005340576,0.6,24.1,11.7,4.6,-33.0,102.9,1.82975,22.9025,12.1167,-12.9576,-0.780219,0.0216044,8.64933,-24.337,99.105,-0.0969352,0.107511,0.769001,255.5,3.3,52.1701,4.42724,1.0,-0.1806309999999999,149.186,4.54298,96.9392,27.3619,216.641,1.13558,-0.10569,238.913,3.56319,3.3663300000000005,-21.2954406738281,22.0025119781494,-19.196153640747102,22.0,-1164620.0,1722.81,pp-riro,4,0,-1,-1
1570534895.1,2019-10-08,13:41:35.100,14.0,7.0,17.1900005340576,-1.0,23.8,11.2,2.3,-31.7,109.4,0.621658,22.8319,11.8012,-11.9439,-2.84681,-2.73367,6.93279,-24.0241,103.898,0.156869,0.156066,0.763567,255.5,3.3,52.1701,4.42724,1.0,-0.067044,144.61700000000002,4.5429,100.502,27.3619,214.941,1.11954,-0.096321,238.849,3.65417,3.4193300000000004,-20.1945724487305,22.0025119781494,-18.8542461395264,22.0,-1164600.0,492.232,pp-riro,4,0,-1,-1
1570534895.2,2019-10-08,13:41:35.200,14.0,7.0,17.1900005340576,-1.5,23.7,11.1,1.7,-30.9,111.7,-0.977629,22.5054,11.2356,-10.8671,-2.9451,-4.05957,4.80646,-22.9516,110.246,0.160775,0.142105,0.625228,255.5,3.3,52.1701,4.42724,1.0,0.1224519999999999,139.731,4.54282,101.729,27.362,214.441,1.11417,-0.093186,238.919,3.68841,3.43591,-19.491378784179695,22.0025119781494,-18.774705886840803,22.0,-1164660.0,-984.464,pp-riro,4,0,-1,-1
1570534895.3,2019-10-08,13:41:35.300,14.0,7.0,17.1900005340576,-2.5,23.3,10.8,0.0,-30.1,116.0,-1.4114799999999998,22.3296,11.0284,-8.90318,-7.278760000000001,-3.66423,4.14427,-22.4852,112.448,0.32647,0.231983,0.526345,255.5,3.3,52.1701,4.42724,1.0,0.273163,142.7,4.54275,104.066,27.362,213.341,1.10366,-0.0874703999999999,238.941,3.74957,3.47085,-18.998123168945305,22.0009689331055,-18.5984230041504,22.0,-1164780.0,-676.819,pp-riro,4,0,-1,-1
1570534895.4,2019-10-08,13:41:35.400,14.0,6.0,17.1900005340576,-3.6,22.8,10.7,-1.2,-28.8,119.9,-2.9815,21.8435,10.796,-12.152,-0.428027,-3.43724,1.80824,-21.3678,118.258,-0.0973025,0.187221,0.5856020000000001,255.5,3.3,52.1701,4.42724,1.0,0.239364,155.575,4.542669999999999,106.461,26.602,212.241,1.09362,-0.0751458999999999,238.931,3.80251,3.50402,-18.8479232788086,22.0009689331055,-18.2696590423584,22.0,-1164680.0,-307.645,pp-riro,4,0,-1,-1
1570534895.5,2019-10-08,13:41:35.500,14.0,8.0,17.129999160766598,-4.6,22.4,10.6,-2.6,-27.8,123.5,-2.9815,21.8435,10.796,-12.152,-0.428027,-3.43724,1.80824,-21.3678,118.258,-0.0973025,0.187221,0.5856020000000001,255.5,3.3,52.1701,4.42724,1.0,0.273163,160.891,4.5426,108.71,26.222,211.241,1.08392,-0.0668977,239.015,3.85333,3.53771,-18.6465301513672,22.0019989013672,-18.0441837310791,22.0,-1164720.0,-738.3480000000001,pp-riro,4,0,-1,-1
1570534895.6,2019-10-08,13:41:35.600,14.0,9.0,17.129999160766598,-5.6,21.9,10.4,-4.5,-27.0,127.3,-3.50356,21.5701,10.7171,-10.6322,-5.06731,-4.66257,1.10502,-20.9023,120.181,-0.10899,0.00257294,0.51615,255.5,3.3,52.1701,4.427230000000001,1.3,0.2908929999999999,165.66400000000002,4.54252,110.929,25.8421,210.141,1.0741,-0.059009,239.024,3.90642,3.57387,-18.3700256347656,22.0019989013672,-17.8121032714844,22.0,-1164670.0,799.877,pp-riro,4,0,-1,-1
1570534895.7,2019-10-08,13:41:35.700,14.0,9.0,17.2800006866455,-6.6,21.5,10.2,-5.6,-25.7,130.3,-6.08986,20.6103,10.2422,-7.557860000000001,-2.11278,-2.31212,-2.92438,-18.6506,128.8,-0.320612,0.1936109999999999,0.444165,255.5,3.3,52.1701,4.427230000000001,1.3,0.282582,167.778,4.54244,113.12,25.0821,209.141,1.0648799999999998,-0.0482551,239.092,3.94911,3.6078,-18.0884094238281,22.0019989013672,-17.533166885376,22.0,-1164640.0,61.529,pp-riro,4,0,-1,-1
1570534895.8,2019-10-08,13:41:35.800,14.0,9.0,17.2800006866455,-7.5,21.2,10.1,-6.9,-24.2,133.1,-6.08986,20.6103,10.2422,-7.557860000000001,-2.11278,-2.31212,-2.92438,-18.6506,128.8,-0.320612,0.1936109999999999,0.444165,255.5,3.3,52.1701,4.427230000000001,1.3,0.31084,183.301,4.54237,115.252,24.7021,208.041,1.05532,-0.0411158,239.112,3.9938,3.63983,-17.8306884765625,22.0009689331055,-17.437349319458,22.0,-1164610.0,246.116,pp-riro,4,0,-1,-1
1570534895.9,2019-10-08,13:41:35.900,14.0,8.0,17.229999542236303,-8.4,20.7,10.1,-8.7,-23.6,136.2,-7.509119999999999,20.0418,10.0519,-12.9935,-8.08414,1.26656,-5.41165,-17.018,133.191,-0.33211,0.17335,0.511691,255.5,3.3,52.1701,4.427230000000001,1.3,0.319706,188.539,4.54229,117.443,23.9422,206.941,1.04582,-0.0310094,239.146,4.034269999999999,3.67042,-17.566139221191403,22.0009689331055,-17.3210601806641,22.0,-1164600.0,153.822,pp-riro,4,0,-1,-1
1570534896.0,2019-10-08,13:41:36.000,14.0,9.0,17.4300003051758,-9.2,20.0,10.0,-10.2,-22.6,139.0,-7.509119999999999,20.0418,10.0519,-12.9935,-8.08414,1.26656,-5.41165,-17.018,133.191,-0.33211,0.17335,0.511691,235.3,3.8,52.1701,4.427230000000001,1.3,0.337436,195.69,4.54222,119.458,22.8022,205.941,1.03737,-0.0184382,239.169,4.07151,3.69895,-17.4313049316406,22.0025119781494,-17.1338195800781,22.0,-1164570.0,338.409,pp-riro,4,0,-1,-1
1570534896.1,2019-10-08,13:41:36.100,14.0,10.0,17.5300006866455,-9.8,19.5,9.8,-12.3,-21.5,142.0,-8.580680000000001,19.2361,9.91933,-4.224080000000001,-2.7378400000000003,-1.49701,-8.21302,-16.4408,137.414,-0.1577609999999999,0.1461859999999999,0.625232,235.3,3.8,52.1701,4.427230000000001,1.3,0.341315,196.349,4.542,121.415,22.0422,204.841,1.0286,-0.00919781,239.139,4.11555,3.72255,-17.257209777832,22.0019989013672,-17.182350158691403,22.0,-1164520.0,646.054,pp-riro,4,0,-1,-1
1570534896.2,2019-10-08,13:41:36.200,14.0,10.0,17.7800006866455,-10.5,19.0,9.7,-14.0,-20.1,144.8,-9.5519,18.4623,9.57987,-4.83882,-4.43842,-1.03269,-11.3031,-15.0407,141.487,-0.161744,0.129832,0.5408189999999999,235.3,3.8,52.1701,4.427230000000001,1.3,0.336882,194.882,4.54178,123.43,20.9022,203.741,1.0198200000000002,0.00285528,239.128,4.15709,3.74691,-17.132614135742198,22.0025119781494,35.0,22.0,-1164460.0,553.761,pp-riro,4,0,-1,-1
1570534896.3,2019-10-08,13:41:36.300,14.0,10.0,17.9300003051758,-11.2,18.3,9.6,-15.8,-19.3,147.8,-9.92302,18.2186,9.5548,-4.21712,-2.16114,-3.17829,-12.3207,-14.3691,142.936,-0.2373719999999999,0.10217,0.535105,235.3,3.8,52.1701,4.427230000000001,1.3,0.339652,197.406,4.54156,125.299,20.1422,202.641,1.01128,0.0114364999999999,239.1,4.19965,3.77781,-17.1599273681641,22.0019989013672,35.0,22.0,-1164380.0,522.996,pp-riro,4,0,-1,-1
1570534896.4,2019-10-08,13:41:36.400,14.0,10.0,17.9300003051758,-11.7,17.6,9.3,-17.5,-18.3,150.4,-10.5781,17.5083,9.40102,-5.6235,-10.2771,-2.02761,-14.2961,-13.2588,145.665,-0.277176,0.0392755,0.512316,235.3,3.8,52.1701,4.427230000000001,1.3,0.45601,199.366,4.54135,127.081,18.6222,201.541,1.00341,0.0254313,238.988,4.23374,3.80029,-16.9568176269531,22.0025119781494,35.0,22.0,-1164920.0,-10213.8,pp-riro,4,0,-1,-1
1570534896.5,2019-10-08,13:41:36.500,14.0,10.0,17.9300003051758,-12.2,17.0,8.9,-19.1,-17.1,152.9,-11.0976,16.8339,9.15267,-8.3069,-9.21126,-4.00122,-16.0279,-12.6313,148.382,-0.174708,-0.0567087,0.458943,235.3,3.8,52.1701,4.427230000000001,1.3,0.918669,195.221,4.54113,128.892,17.4822,200.541,0.995401,0.0364479,239.03,4.270969999999999,3.82643,-16.3628616333008,22.0019989013672,35.0,22.0,-1166550.0,-19289.3,pp-riro,4,0,-1,-1
1570534896.6,2019-10-08,13:41:36.600,14.0,10.0,17.8799991607666,-12.4,16.4,8.2,-20.3,-16.1,155.0,-11.0976,16.8339,9.15267,-8.3069,-9.21126,-4.00122,-16.0279,-12.6313,148.382,-0.174708,-0.0567087,0.458943,235.3,3.8,52.1701,4.427230000000001,1.6,0.991253,171.21,4.54091,130.498,15.9622,199.541,0.988213,0.0497646,238.959,4.29893,3.84536,-15.4138946533203,22.0019989013672,35.0,22.0,-1165900.0,15474.5,pp-riro,4,0,-1,-1
1570534896.7,2019-10-08,13:41:36.700,14.0,9.0,17.7800006866455,-12.7,15.7,7.9,-20.7,-15.2,156.5,-12.0474,15.3099,7.89215,-6.15156,-6.50819,-1.1493799999999998,-19.2011,-11.4727,153.507,-0.139229,0.0835863,0.25771,235.3,3.8,52.1701,4.427230000000001,1.6,0.8095140000000001,170.83599999999998,4.540690000000001,132.105,14.8222,198.541,0.980798,0.0598529,238.935,4.32008,3.86777,-14.1099166870117,22.0019989013672,35.0,22.0,-1165410.0,-3784.03,pp-riro,4,0,-1,-1
1570534896.8,2019-10-08,13:41:36.800,14.0,7.0,17.729999542236303,-13.0,15.1,8.0,-21.6,-14.4,157.9,-12.0474,15.3099,7.89215,-6.15156,-6.50819,-1.1493799999999998,-19.2011,-11.4727,153.507,-0.139229,0.0835863,0.25771,235.3,3.8,52.1701,4.427230000000001,1.6,0.982942,198.901,4.5404800000000005,133.68200000000002,13.6822,197.641,0.973673,0.0699178999999999,238.998,4.33922,3.88227,-12.454345703125,22.0019989013672,35.0,22.0,-1166000.0,-1476.7,pp-riro,4,0,-1,-1
1570534896.9,2019-10-08,13:41:36.900,14.0,8.0,17.4200000762939,-13.1,14.5,7.9,-22.0,-13.6,159.1,-12.2374,14.9859,7.91285,-6.108280000000001,-5.68572,2.48728,-19.6325,-10.9546,154.295,-0.0546793999999999,-0.0146007,0.179842,235.3,3.8,52.1701,4.427230000000001,1.6,0.928088,194.85,4.54022,135.201,12.1622,196.741,0.966829,0.0824516999999999,239.028,4.35358,3.89135,-10.4540023803711,22.0025119781494,35.0,22.0,-1165390.0,5383.79,pp-riro,4,0,-1,-1
1570534897.0,2019-10-08,13:41:37.000,14.0,9.0,17.4200000762939,-13.3,14.2,7.8,-22.3,-12.8,160.0,-12.5278,14.1016,8.015089999999999,-1.50692,-1.80017,-6.83817,-20.4674,-10.3663,156.832,-0.0367468,-0.157595,0.1114349999999999,256.1,4.0,52.1701,4.427230000000001,1.6,0.932521,186.412,4.54004,136.60299999999998,11.0222,195.841,0.960214,0.0918334,239.03,4.36632,3.90019,-8.33760070800781,22.0025119781494,35.0,22.0,-1165270.0,2307.34,pp-riro,4,0,-1,-1
1570534897.1,2019-10-08,13:41:37.100,14.0,9.0,17.3199996948242,-13.4,13.8,7.9,-22.6,-12.9,160.9,-12.7457,13.7588,7.79315,-5.57798,-4.84363,2.80353,-21.0775,-10.5807,158.159,-0.315144,0.0388349,0.00671298,256.1,4.0,52.1701,4.427230000000001,1.6,0.915344,190.606,4.53995,138.005,9.88222,194.941,0.953561,0.100907,239.05,4.37055,3.90434,-6.23143768310547,22.0025119781494,35.0,22.0,-1165090.0,676.819,pp-riro,4,0,-1,-1
1570534897.2,2019-10-08,13:41:37.200,14.0,9.0,17.2199993133545,-13.5,13.6,8.0,-22.7,-12.8,161.5,-13.1377,13.3261,7.91344,-1.18146,-3.48424,-0.4733,-21.6278,-11.3657,160.048,0.0322619,-0.121154,0.215509,256.1,4.0,52.1701,4.427230000000001,1.6,0.946373,195.149,4.53986,139.378,8.362210000000001,194.041,0.947049,0.1125589999999999,239.056,4.37044,3.901580000000001,-4.126983642578121,22.0019989013672,35.0,22.0,-1165050.0,1015.23,pp-riro,4,0,-1,-1
1570534897.3,2019-10-08,13:41:37.300,14.0,9.0,17.2199993133545,-13.4,13.5,8.2,-23.3,-12.9,161.7,-13.2485,13.2248,7.986039999999999,1.2144,0.0025703,2.68548,-21.9349,-11.4843,160.503,0.141294,-0.0519093,0.157003,256.1,4.0,52.1701,4.427230000000001,1.6,0.94194,193.361,4.53977,140.692,7.22221,193.041,0.940363,0.121332,238.98,4.365130000000001,3.88956,-2.00887298583984,22.0019989013672,35.0,22.0,-1164910.0,2768.8,pp-riro,4,0,-1,-1
1570534897.4,2019-10-08,13:41:37.400,14.0,9.0,17.1100006103516,-13.1,13.5,8.6,-23.4,-13.0,161.7,-13.1586,13.1563,8.32855,0.5000180000000001,-0.701086,3.30904,-22.2387,-12.7403,161.254,0.0834819,-0.2269199999999999,-0.116394,256.1,4.0,52.1701,4.427230000000001,1.6,0.916452,182.49400000000003,4.539680000000001,142.006,5.7022,192.141,0.93394,0.1325339999999999,238.991,4.35505,3.86176,0.097076416015625,22.0019989013672,35.0,22.0,-1164700.0,1661.28,pp-riro,4,0,-1,-1
1570534897.5,2019-10-08,13:41:37.500,14.0,9.0,17.0100002288818,-12.8,13.5,8.9,-23.9,-13.3,161.5,-13.1267,13.1562,8.48933,-0.943035,-1.68576,0.424646,-22.4435,-13.1919,161.468,0.1058099999999999,-0.1060319999999999,-0.0804143,256.1,4.0,52.1701,4.427230000000001,1.6,0.905925,172.31099999999998,4.5395900000000005,143.321,4.18219,191.141,0.927209,0.143585,238.942,4.3404,3.836,2.19875335693359,22.0009689331055,35.0,22.0,-1164510.0,2030.46,pp-riro,4,0,-1,-1
1570534897.6,2019-10-08,13:41:37.600,14.0,8.0,16.8500003814697,-12.3,13.7,9.2,-24.5,-13.8,161.2,-12.6748,13.383,8.9468,0.144168,2.96441,1.6977099999999998,-23.217,-14.3387,161.343,-0.0199537999999999,-0.1058099999999999,-0.117727,256.1,4.0,52.1701,4.427230000000001,1.8,0.8682469999999999,154.254,4.53949,144.635,3.0422,190.141,0.920394,0.151864,238.919,4.32466,3.80012,4.30384063720703,22.0009689331055,35.0,22.0,-1164200.0,1876.63,pp-riro,4,0,-1,-1
1570534897.7,2019-10-08,13:41:37.700,14.0,8.0,16.7999992370605,-11.9,13.9,9.6,-25.0,-14.4,160.5,-12.6748,13.383,8.9468,0.144168,2.96441,1.6977099999999998,-23.217,-14.3387,161.343,-0.0199537999999999,-0.1058099999999999,-0.117727,256.1,4.0,52.1701,4.427230000000001,1.8,0.859936,149.362,4.5394,145.94899999999998,2.28221,189.141,0.913528,0.15735,238.916,4.3046,3.76864,6.41573333740234,22.0009689331055,35.0,22.0,-1164130.0,1353.64,pp-riro,4,0,-1,-1
1570534897.8,2019-10-08,13:41:37.800,14.0,9.0,16.6900005340576,-11.5,14.2,10.1,-25.7,-15.3,159.2,-12.5448,13.5272,9.08506,1.3853,1.99355,1.66202,-23.5243,-14.5797,161.029,-0.0374548,-0.0020803,-0.148301,256.1,4.0,52.1701,4.427230000000001,1.8,0.8510709999999999,144.76,4.53931,147.351,0.762209,188.141,0.90638,0.167904,238.977,4.26935,3.72959,8.52763366699219,22.0009689331055,35.0,22.0,-1164000.0,1353.64,pp-riro,4,0,-1,-1
1570534897.9,2019-10-08,13:41:37.900,14.0,9.0,16.6900005340576,-11.0,14.5,10.5,-26.5,-16.5,157.7,-11.8687,14.0907,9.94502,5.10152,1.98869,3.822,-24.771,-17.3536,159.829,-0.355996,-0.299335,-0.0941214,256.1,4.0,52.1701,4.427230000000001,1.8,0.8483,146.715,4.539219999999999,148.695,-0.377784,187.141,0.89938,0.175709,239.023,4.230659999999999,3.69097,10.6327209472656,22.0009689331055,35.0,22.0,-1163920.0,492.232,pp-riro,4,0,-1,-1
1570534898.0,2019-10-08,13:41:38.000,14.0,9.0,16.5900001525879,-10.3,15.0,11.1,-27.0,-18.2,155.9,-11.8687,14.0907,9.94502,5.10152,1.98869,3.822,-24.771,-17.3536,159.829,-0.355996,-0.299335,-0.0941214,238.2,4.3,52.1701,4.427230000000001,1.8,0.859936,152.734,4.53913,150.097,-1.13776,186.041,0.891912,0.180794,239.043,4.185169999999999,3.64026,12.7378005981445,22.0009689331055,35.0,22.0,-1163820.0,922.935,pp-riro,4,0,-1,-1
1570534898.1,2019-10-08,13:41:38.100,14.0,9.0,16.5300006866455,-9.6,15.5,11.9,-27.5,-20.0,153.3,-10.9687,15.1156,11.1875,3.67359,3.60359,6.994210000000001,-25.9579,-21.3443,157.105,-0.275187,-0.348219,-0.491663,238.2,4.3,52.1701,4.427230000000001,1.8,0.863814,157.888,4.538930000000001,151.55700000000002,-2.65776,184.841,0.8839440000000001,0.19099,239.046,4.12435,3.58456,14.849700927734402,22.0009689331055,35.0,22.0,-1163790.0,615.29,pp-riro,4,0,-1,-1
1570534898.2,2019-10-08,13:41:38.200,14.0,10.0,16.4200000762939,-8.9,16.1,12.6,-27.5,-22.1,149.7,-10.4823,15.8453,12.0004,5.49165,10.4841,8.05309,-26.7723,-23.987,154.997,-0.2330829999999999,-0.258691,-0.57144,238.2,4.3,52.1701,4.427230000000001,1.8,0.901492,176.532,4.53874,153.076,-3.41774,183.641,0.875801,0.195975,239.098,4.05161,3.5348,16.953079223632802,22.0009689331055,35.0,22.0,-1163770.0,399.9380000000001,pp-riro,4,0,-1,-1
1570534898.3,2019-10-08,13:41:38.300,14.0,9.0,16.3099994659424,-8.0,16.6,13.5,-27.3,-24.6,145.8,-9.81343,16.5236,12.9253,10.4299,7.412960000000001,9.44607,-27.2512,-27.1071,152.332,-0.404734,-0.399708,-0.614941,238.2,4.3,52.1701,4.427230000000001,1.8,0.908141,180.592,4.53854,154.624,-4.17771,182.341,0.867289,0.2008599999999999,239.111,3.97197,3.4785,19.0734939575195,22.0009689331055,35.0,22.0,-1163720.0,861.4060000000001,pp-riro,4,0,-1,-1
1570534898.4,2019-10-08,13:41:38.400,14.0,10.0,16.370000839233402,-6.8,17.0,14.3,-26.6,-27.8,141.3,-9.81343,16.5236,12.9253,10.4299,7.412960000000001,9.44607,-27.2512,-27.1071,152.332,-0.404734,-0.399708,-0.614941,238.2,4.3,52.1701,4.427230000000001,1.8,0.918669,187.816,4.53835,156.259,-4.55767,181.041,0.858526,0.203104,239.194,3.88133,3.41632,21.1836853027344,22.0009689331055,35.0,22.0,-1163640.0,738.3480000000001,pp-riro,4,0,-1,-1
1570534898.5,2019-10-08,13:41:38.500,14.0,10.0,16.370000839233402,-5.4,17.3,15.0,-25.1,-30.9,135.6,-8.92924,17.2693,13.9412,13.4272,6.3697,14.206,-27.6277,-30.8924,149.40200000000002,-0.366504,-0.334271,-0.584144,238.2,4.3,52.1701,4.427230000000001,1.8,0.936399,197.019,4.53815,157.895,-5.31764,179.541,0.8491770000000001,0.207807,239.153,3.77598,3.34772,23.2887649536133,22.0009689331055,35.0,22.0,-1163550.0,1045.99,pp-riro,4,0,-1,-1
1570534898.6,2019-10-08,13:41:38.600,14.0,10.0,16.4200000762939,-3.9,17.7,15.8,-22.8,-34.0,129.4,-6.30314,18.4236,15.7872,16.3908,2.56853,9.42164,-26.5312,-38.6636,140.44899999999998,-0.360959,-0.224746,-1.0467799999999998,238.2,4.3,52.1701,4.427230000000001,1.7,0.95413,205.12,4.53795,159.56,-6.0776,178.041,0.839726,0.212507,239.155,3.66704,3.27606,25.3989639282227,22.0009689331055,35.0,22.0,-1163390.0,1076.76,pp-riro,4,0,-1,-1
1570534898.7,2019-10-08,13:41:38.700,14.0,10.0,16.5799999237061,-2.2,17.9,16.4,-19.8,-36.6,122.0,-6.30314,18.4236,15.7872,16.3908,2.56853,9.42164,-26.5312,-38.6636,140.44899999999998,-0.360959,-0.224746,-1.0467799999999998,238.2,4.3,52.1701,4.427230000000001,1.7,0.956346,207.117,4.53769,161.283,-6.45756,176.44099999999997,0.829852,0.214712,239.135,3.5509699999999995,3.20243,27.5006408691406,22.0009689331055,35.0,22.0,-1163210.0,1845.87,pp-riro,4,0,-1,-1
1570534898.8,2019-10-08,13:41:38.800,14.0,11.0,16.8400001525879,-0.1,17.9,16.9,-15.7,-39.3,113.7,-2.61953,19.2248,17.482,13.5998,0.553917,2.1897900000000003,-21.6961,-46.6641,126.294,-0.7437630000000001,-0.488926,-1.41349,238.2,4.3,52.1701,4.427230000000001,1.7,0.958008,209.41,4.53756,163.006,-6.4575,174.84099999999998,0.8200219999999999,0.214323,239.128,3.42837,3.11687,29.5886840820312,22.0019989013672,35.0,22.0,-1163140.0,1353.64,pp-riro,4,0,-1,-1
1570534898.9,2019-10-08,13:41:38.900,14.0,11.0,16.9400005340576,1.9,17.7,17.1,-10.7,-41.5,104.1,-2.61953,19.2248,17.482,13.5998,0.553917,2.1897900000000003,-21.6961,-46.6641,126.294,-0.7437630000000001,-0.488926,-1.41349,238.2,4.3,52.1701,4.427230000000001,1.7,0.965766,212.979,4.53737,164.73,-6.45744,173.241,0.810193,0.214105,239.144,3.29612,3.0363900000000004,31.3599548339844,22.0019989013672,23.0092449188232,22.0,-1163040.0,984.464,pp-riro,4,0,-1,-1
1570534899.0,2019-10-08,13:41:39.000,14.0,11.0,16.9899997711182,4.1,17.3,17.3,-5.0,-42.9,94.1,2.12118,19.3138,18.2795,29.7945,-1.01863,2.51534,-11.4976,-53.9045,106.997,-0.566938,-0.105102,-1.13707,252.2,3.4,52.1701,4.427230000000001,1.7,0.968536,210.846,4.5372,166.511,-6.077369999999999,171.541,0.7999430000000001,0.2116739999999999,239.143,3.16729,2.94978,32.1178588867188,22.0019989013672,23.0092449188232,22.0,-1162870.0,1999.69,pp-ro,1,1,-1,-1
1570534899.1,2019-10-08,13:41:39.100,14.0,11.0,16.9899997711182,6.3,16.9,17.1,1.6,-43.4,83.2,3.3376300000000003,19.2194,18.3878,24.7362,-1.5219,1.24046,-7.688110000000001,-55.1016,100.922,-0.691261,-0.160271,-1.30241,252.2,3.4,52.1701,4.427230000000001,1.7,0.960225,210.114,4.53718,168.205,-5.31729,169.84099999999998,0.789988,0.20679,239.096,3.03258,2.86313,33.620025634765604,22.0025119781494,23.0116176605225,22.0,-1162650.0,1876.63,pp-ro,1,1,-1,-1
1570534899.2,2019-10-08,13:41:39.200,14.0,12.0,17.0900001525879,7.5,16.2,17.1,4.5,-43.1,78.2,7.110939999999999,18.6837,18.3215,14.6198,-0.879871,3.76391,4.62019,-56.7319,80.9088,-0.526019,0.000877653,-1.38208,252.2,3.4,52.1701,4.427230000000001,1.7,0.96632,215.444,4.53718,169.81099999999998,-4.93722,168.94099999999997,0.782617,0.204272,239.586,2.9707,2.81328,34.4170989990234,22.0025119781494,23.0116176605225,22.0,-1162560.0,769.112,pp-ro,1,1,-1,-1
1570534899.3,2019-10-08,13:41:39.300,14.0,12.0,17.2999992370605,10.5,15.4,16.6,14.2,-41.8,62.1,7.110939999999999,18.6837,18.3215,14.6198,-0.879871,3.76391,4.62019,-56.7319,80.9088,-0.526019,0.000877653,-1.38208,252.2,3.4,52.1701,4.427230000000001,1.7,0.986821,225.51,4.53719,171.418,-4.17715,166.541,0.77082,0.199561,239.034,2.7682,2.69071,34.861618041992195,22.0025119781494,23.0116176605225,22.0,-1162370.0,1538.22,pp-ro,1,1,-1,-1
1570534899.4,2019-10-08,13:41:39.400,14.0,12.0,17.2999992370605,12.5,14.3,15.9,20.1,-39.5,51.9,9.57341,17.939,17.9474,25.0573,-5.2734,-5.97684,13.0248,-56.4908,67.2329,-0.5180319999999999,0.0389954,-1.2477200000000002,252.2,3.4,52.1701,4.427230000000001,1.7,0.990145,226.772,4.5372,172.96599999999998,-3.03706,164.94099999999997,0.7615770000000001,0.192751,239.023,2.63327,2.60063,34.9638061523438,22.0025119781494,23.0116176605225,22.0,-1162280.0,1599.75,pp-ro,1,1,-1,-1
1570534899.5,2019-10-08,13:41:39.500,14.0,12.0,17.3999996185303,14.1,13.2,15.0,25.6,-36.6,42.4,13.2046,16.4514,16.9115,31.0178,-18.596,-11.7605,24.24,-52.7199,48.1125,0.0079898,0.153079,-1.29995,252.2,3.4,52.1701,4.427230000000001,1.7,0.990699,224.948,4.53721,174.36700000000002,-1.51698,163.441,0.753045,0.183883,238.996,2.50107,2.52103,34.727081298828104,22.003026962280305,22.8837070465088,22.0,-1162100.0,1999.69,pp-ro,1,1,-1,-1
1570534899.6,2019-10-08,13:41:39.600,14.0,12.0,17.3999996185303,14.9,12.5,14.5,29.7,-32.9,33.9,15.1706,15.1951,15.9136,18.4041,-13.4618,-8.11488,30.2237,-48.7921,37.4769,-0.423022,0.00752893,-0.969298,252.2,3.4,52.1701,4.427219999999999,1.6,0.985713,222.736,4.53721,175.71099999999998,-0.376899,162.741,0.7470939999999999,0.177322,239.498,2.36879,2.4784900000000003,34.093505859375,22.003026962280305,22.2500247955322,22.0,-1161900.0,2091.99,pp-ro,1,1,-1,-1
1570534899.7,2019-10-08,13:41:39.700,14.0,12.0,17.4500007629395,16.2,11.3,13.5,33.0,-29.1,26.6,16.8878,13.7254,14.6905,23.105,-19.4244,-9.39915,34.3568,-44.5246,28.0834,-0.531409,0.095908,-1.06881,252.2,3.4,52.1701,4.427219999999999,1.6,0.981834,221.484,4.53722,176.908,1.14318,160.741,0.737542,0.168708,239.03,2.24823,2.40157,33.0988616943359,22.003026962280305,21.0829601287842,22.0,-1161720.0,1630.52,pp-ro,1,1,-1,-1
1570534899.8,2019-10-08,13:41:39.800,14.0,12.0,17.3899993896484,17.5,10.1,12.2,34.0,-27.0,23.3,18.5354,12.28,13.338,7.84645,-14.9709,-16.204,37.9488,-40.0353,19.7998,-0.719905,0.165302,-1.46347,252.2,3.4,52.1701,4.427219999999999,1.6,0.980726,220.282,4.53723,177.49200000000002,2.28323,160.141,0.73401,0.162299,239.069,2.1901900000000003,2.3144,31.7499847412109,22.003026962280305,19.461566925048803,22.0,-1161540.0,1753.58,pp-ro,1,1,-1,-1
1570534899.9,2019-10-08,13:41:39.900,14.0,11.0,17.4899997711182,18.6,8.8,11.2,36.3,-22.7,17.2,19.8507,10.885,11.9421,12.2369,-13.9106,-8.68271,39.6711,-34.8351,13.065,-0.400991,-0.2217,-1.0356,252.2,3.4,52.1701,4.427219999999999,1.6,0.98405,223.955,4.53723,178.544,3.8033,159.041,0.727578,0.153857,239.137,2.07422,2.23727,30.0434265136719,22.003026962280305,18.1670188903809,22.0,-1161390.0,1384.4,pp-ro,1,1,-1,-1
1570534900.0,2019-10-08,13:41:40.000,14.0,11.0,17.6399993896484,19.3,7.8,9.9,38.3,-18.8,11.8,20.4307,10.1143,11.2701,5.62493,-15.1102,-10.0695,40.5997,-32.5192,10.3994,-0.381025,0.272652,-1.07096,247.1,3.9,52.1701,4.427219999999999,1.6,0.988483,224.723,4.53724,179.449,6.0833900000000005,158.041,0.7217640000000001,0.141261,239.198,1.97236,2.1707400000000003,28.0132751464844,22.003026962280305,17.0469551086426,22.0,-1161230.0,1692.05,pp-ro,1,1,-1,-1
1570534900.1,2019-10-08,13:41:40.100,14.0,12.0,17.7399997711182,19.8,6.6,8.5,39.5,-14.9,7.0,21.5631,8.07662,9.003680000000001,3.13458,-15.9424,-16.0828,41.7047,-24.8926,2.62487,-0.7136060000000001,0.229737,-1.23886,247.1,3.9,52.1701,4.427219999999999,1.6,0.986821,223.298,4.53725,180.325,7.603460000000001,157.141,0.7163649999999999,0.133,239.308,1.87349,2.09545,25.908203125,22.003026962280305,15.761453628539998,22.0,-1161020.0,2122.75,pp-ro,1,1,-1,-1
1570534900.2,2019-10-08,13:41:40.200,14.0,11.0,17.9300003051758,20.6,5.7,7.2,40.7,-10.9,2.7,21.5631,8.07662,9.003680000000001,3.13458,-15.9424,-16.0828,41.7047,-24.8926,2.62487,-0.7136060000000001,0.229737,-1.23886,247.1,3.9,52.1701,4.427219999999999,1.6,0.985713,223.738,4.5373,181.055,9.88354,156.341,0.711542,0.120554,239.418,1.78086,2.02546,23.8082275390625,22.003026962280305,14.549957275390598,22.0,-1160850.0,1692.05,pp-ro,1,1,-1,-1
1570534900.3,2019-10-08,13:41:40.300,14.0,11.0,18.1299991607666,20.8,4.5,6.1,41.6,-7.1,-0.8,22.7264,6.241619999999999,6.8627,7.70897,-8.71242,-12.3892,42.5267,-17.4059,-3.60227,-0.390084,0.500462,-0.928155,247.1,3.9,52.1701,4.427219999999999,1.6,0.989037,228.168,4.53727,181.727,11.7836,155.641,0.7071930000000001,0.110371,239.557,1.6979400000000002,1.9615,21.7031402587891,22.003026962280305,13.4544610977173,22.0,-1160600.0,1445.93,pp-ro,1,1,-1,-1
1570534900.4,2019-10-08,13:41:40.400,14.0,10.0,18.2199993133545,20.8,3.6,5.1,42.6,-4.2,-4.2,22.5506,4.8453800000000005,5.6439900000000005,-4.86886,-10.5271,-7.784439999999999,42.9602,-13.3373,-6.83149,-0.271634,0.0209462,-0.577531,247.1,3.9,52.1701,4.427219999999999,1.6,0.997348,222.507,4.53727,182.282,14.0637,155.041,0.703353,0.0981132,239.713,1.62913,1.91115,19.6031723022461,22.003026962280305,12.6124658584595,22.0,-1160440.0,2245.81,pp-ro,1,1,-1,-1
1570534900.5,2019-10-08,13:41:40.500,14.0,10.0,18.2199993133545,20.7,3.2,3.9,43.5,-1.0,-6.8,22.5729,4.25208,5.03916,-4.71821,-11.7883,-10.0309,43.0244,-11.4722,-8.3035,0.0640364,0.272635,-0.752635,247.1,3.9,52.1701,4.427219999999999,1.6,0.964657,210.251,4.53728,182.778,15.9637,154.441,0.6996899999999999,0.0879872,239.822,1.56382,1.86647,18.6051254272461,22.0025119781494,11.8892307281494,22.0,-1160110.0,3045.68,pp-ro,1,1,-1,-1
1570534900.6,2019-10-08,13:41:40.600,14.0,8.0,18.0699996948242,20.8,2.5,3.2,44.7,1.9,-9.2,22.3193,3.2886,3.27387,-3.12394,-4.82983,-16.6518,43.9104,-5.1338,-11.7664,0.169319,0.162445,-0.73083,247.1,3.9,52.1701,4.42721,1.4,0.956346,211.347,4.5372900000000005,183.187,18.2438,154.041,0.696754,0.0758331,240.039,1.50601,1.82775,16.740188598632802,22.0019989013672,11.2569494247437,22.0,-1160010.0,1876.63,pp-ro,1,1,-1,-1
1570534900.7,2019-10-08,13:41:40.700,14.0,10.0,17.979999542236303,21.1,1.8,2.6,46.2,4.6,-11.9,22.6072,2.0426900000000003,2.36405,1.1838799999999998,-7.35077,-1.38625,44.9286,0.1768809999999999,-15.1277,0.1377779999999999,0.265661,-0.573546,247.1,3.9,52.1701,4.42721,1.4,1.0006700000000002,234.233,4.5373,183.567,20.5239,153.641,0.693829,0.0637442,240.257,1.44747,1.79069,14.7441024780273,22.003026962280305,10.668869972229,22.0,-1159970.0,276.88,pp-ro,1,1,-1,-1
1570534900.8,2019-10-08,13:41:40.800,14.0,11.0,17.7800006866455,21.0,1.2,2.0,46.9,7.3,-14.5,22.6072,2.0426900000000003,2.36405,1.1838799999999998,-7.35077,-1.38625,44.9286,0.1768809999999999,-15.1277,0.1377779999999999,0.265661,-0.573546,247.1,3.9,52.1701,4.42721,1.4,1.01065,237.376,4.53731,183.859,22.4239,153.341,0.691512,0.0537158,240.458,1.38881,1.75802,13.3884048461914,22.0035419464111,10.1457862854004,22.0,-1159890.0,1445.93,pp-ro,1,1,-1,-1
1570534900.9,2019-10-08,13:41:40.900,14.0,10.0,17.729999542236303,21.2,0.6,1.2,48.2,9.2,-16.8,22.6783,1.27779,1.68638,-1.28279,-1.04124,-3.6657,46.0742,3.3032,-17.6595,0.233679,0.0461418,-0.711676,247.1,3.9,52.1701,4.42721,1.4,1.01286,240.2,4.537319999999999,184.034,24.704,153.041,0.6893229999999999,0.0416323,240.625,1.34559,1.71774,12.1536254882812,22.003026962280305,9.47561168670654,22.0,-1159670.0,2245.81,pp-ro,1,1,-1,-1
1570534901.0,2019-10-08,13:41:41.000,14.0,10.0,17.4300003051758,21.4,-0.2,0.7,49.5,10.6,-18.6,22.6055,0.0698447,0.664891,0.83788,-7.115139999999999,-6.36688,47.2916,6.8318,-20.8063,0.191342,0.1165279999999999,-0.413589,251.1,3.5,52.1701,4.42721,1.4,1.04112,261.305,4.53733,184.18,27.3641,152.841,0.687318,0.0275685,240.897,1.3159299999999998,1.68405,11.1010818481445,22.0035419464111,8.94360446929932,22.0,-1159490.0,676.819,pp-ro,1,1,-1,-1
1570534901.1,2019-10-08,13:41:41.100,14.0,11.0,17.379999160766598,21.7,-1.0,0.2,50.8,11.5,-20.4,22.6274,-0.327447,0.288649,-6.56862,-7.214139999999999,-9.06007,48.1308,7.844989999999999,-21.4638,0.5677220000000001,-0.0846863,-0.388033,251.1,3.5,52.1701,4.42721,1.4,1.05664,270.087,4.53735,184.209,29.2641,152.641,0.685841,0.0174912,241.016,1.29039,1.64872,10.1507339477539,22.0035419464111,8.350466728210451,22.0,-1159440.0,953.699,pp-ro,1,1,-1,-1
1570534901.2,2019-10-08,13:41:41.200,14.0,13.0,17.479999542236303,21.8,-1.6,-0.2,52.5,12.7,-22.6,23.1651,-1.66321,-0.362676,2.19544,-8.48348,-4.64325,49.7584,10.3472,-23.9531,0.274758,-0.101732,-0.201391,251.1,3.5,52.1701,4.42721,1.4,1.10761,297.589,4.53737,184.121,31.5442,152.541,0.684772,0.00533895,241.173,1.25777,1.62479,9.18845367431641,22.0035419464111,7.97802019119263,22.0,-1159260.0,1507.46,pp-ro,1,1,-1,-1
1570534901.3,2019-10-08,13:41:41.300,14.0,14.0,17.729999542236303,22.0,-2.5,-0.3,53.6,13.2,-24.8,23.1651,-1.66321,-0.362676,2.19544,-8.48348,-4.64325,49.7584,10.3472,-23.9531,0.274758,-0.101732,-0.201391,251.1,3.5,52.1701,4.42721,1.4,1.12035,310.092,4.5374,183.975,33.8242,152.441,0.683783,-0.00683054,241.307,1.23439,1.60371,8.84952545166016,22.0035419464111,7.668659210205081,22.0,-1159170.0,1753.58,pp-ro,1,1,-1,-1
1570534901.4,2019-10-08,13:41:41.400,14.0,11.0,17.9300003051758,21.9,-3.3,-0.6,54.5,14.1,-26.5,23.2136,-2.01418,-0.58716,0.678344,-7.324330000000001,-12.7246,50.3183,11.0175,-24.9238,0.1069859999999999,-0.192227,-0.3951,251.1,3.5,52.1701,4.42721,1.4,1.16025,325.131,4.53742,183.741,36.1043,152.341,0.682948,-0.0190444,241.396,1.2114,1.57784,8.15294647216797,22.0035419464111,7.26617002487183,22.0,-1159110.0,553.761,pp-ro,1,1,-1,-1
1570534901.5,2019-10-08,13:41:41.500,14.0,13.0,18.020000457763697,21.5,-3.8,-1.0,54.4,14.6,-28.5,22.9391,-3.94151,-1.13468,-4.01796,-0.643975,-12.4943,52.0611,13.5471,-29.7897,0.228211,-0.3392239999999999,-0.40324,251.1,3.5,52.1701,4.42721,1.4,1.16524,315.118,4.53745,183.42,38.7643,152.341,0.682383,-0.0333339999999999,241.564,1.19158,1.55627,7.77655029296875,22.0035419464111,6.95812273025513,22.0,-1158650.0,6552.84,pp-ro,1,1,-1,-1
1570534901.6,2019-10-08,13:41:41.600,14.0,13.0,18.020000457763697,21.2,-4.4,-1.7,54.9,15.1,-29.4,22.9391,-3.94151,-1.13468,-4.01796,-0.643975,-12.4943,52.0611,13.5471,-29.7897,0.228211,-0.3392239999999999,-0.40324,251.1,3.5,52.1701,4.42721,1.2,1.11814,304.401,4.53747,183.069,40.6643,152.341,0.682226,-0.0436574,241.611,1.18158,1.51868,7.357574462890621,22.0035419464111,6.28913068771362,22.0,-1158140.0,3537.92,pp-ro,1,1,-1,-1
1570534901.7,2019-10-08,13:41:41.700,14.0,11.0,18.270000457763697,20.7,-5.0,-1.8,54.8,15.4,-30.4,22.2987,-4.84874,-1.96778,-6.0201400000000005,-5.81547,-2.4765900000000003,52.3816,14.4511,-31.5833,0.00990597,-0.0289135999999999,-0.0316121,251.1,3.5,52.1701,4.42721,1.2,1.13476,309.375,4.53749,182.602,42.9444,152.441,0.682411,-0.056087,241.715,1.17441,1.50151,7.01354217529297,22.003026962280305,6.03086614608765,22.0,-1157980.0,1845.87,pp-ro,1,1,-1,-1
1570534901.8,2019-10-08,13:41:41.800,14.0,11.0,18.4599990844727,20.3,-5.3,-2.2,54.3,16.1,-31.4,21.7152,-5.475,-2.12816,-9.43273,-1.50076,-2.55182,52.0243,14.9897,-32.6577,0.136065,-0.194488,-0.170656,251.1,3.5,52.1701,4.42721,1.2,1.13809,308.411,4.53752,182.076,44.8444,152.541,0.682905,-0.0666163999999999,241.726,1.16083,1.48092,6.46001434326172,22.0035419464111,5.67624759674072,22.0,-1157650.0,3722.5,pp-ro,1,1,-1,-1
1570534901.9,2019-10-08,13:41:41.900,14.0,10.0,18.9300003051758,19.8,-5.4,-2.5,54.5,16.8,-31.8,21.4499,-5.63141,-2.50597,-0.617581,0.984896,-4.60952,51.4515,15.868,-33.562,-0.329658,0.170009,-0.207027,251.1,3.5,52.1701,4.42721,1.2,1.11758,296.60200000000003,4.53754,181.609,47.1244,152.641,0.68295,-0.0790239,241.871,1.15525,1.46885,5.98484039306641,22.0035419464111,5.55233573913574,22.0,-1157110.0,3722.5,pp-ro,1,1,-1,-1
1570534902.0,2019-10-08,13:41:42.000,14.0,10.0,19.1100006103516,19.7,-6.0,-2.6,53.6,18.1,-32.9,21.1475,-5.96515,-2.79264,-1.61259,-6.860110000000001,-3.5475,51.2666,17.5309,-33.3275,-0.307784,0.1082089999999999,-0.18952,270.2,4.0,52.1701,4.42721,1.2,1.1126,298.236,4.53757,181.054,49.4045,152.841,0.6834600000000001,-0.0915628,242.037,1.13414,1.4549,5.81111907958984,22.003026962280305,5.37179470062256,22.0,-1156930.0,3599.45,pp-ro,1,1,-1,-1
1570534902.1,2019-10-08,13:41:42.100,14.0,10.0,19.2000007629395,19.2,-6.3,-2.8,52.5,18.5,-34.5,21.1475,-5.96515,-2.79264,-1.61259,-6.860110000000001,-3.5475,51.2666,17.5309,-33.3275,-0.307784,0.1082089999999999,-0.18952,270.2,4.0,52.1701,4.42721,1.2,1.15027,321.771,4.53759,180.44,51.3045,153.041,0.684312,-0.102224,242.1,1.11786,1.43879,5.58971405029297,22.0035419464111,5.11132955551147,22.0,-1156740.0,492.232,pp-ro,1,1,-1,-1
1570534902.2,2019-10-08,13:41:42.200,14.0,10.0,19.159999847412102,19.0,-6.4,-2.9,52.0,19.4,-35.4,21.1475,-5.96515,-2.79264,-1.61259,-6.860110000000001,-3.5475,51.2666,17.5309,-33.3275,-0.307784,0.1082089999999999,-0.18952,270.2,4.0,52.1701,4.42721,1.2,1.16801,321.098,4.53762,179.769,53.5845,153.241,0.684972,-0.1149099999999999,242.221,1.10436,1.4372200000000002,5.41258239746094,22.0035419464111,5.19478034973145,22.0,-1156400.0,4706.97,pp-ro,1,1,-1,-1
1570534902.3,2019-10-08,13:41:42.300,14.0,10.0,19.2000007629395,18.6,-6.6,-2.8,51.5,20.2,-36.7,21.1475,-5.96515,-2.79264,-1.61259,-6.860110000000001,-3.5475,51.2666,17.5309,-33.3275,-0.307784,0.1082089999999999,-0.18952,270.2,4.0,52.1701,4.42721,1.2,1.13919,312.942,4.53765,179.12599999999998,55.1045,153.441,0.686067,-0.123706,242.212,1.08517,1.43481,5.16392517089844,22.003026962280305,5.18166208267212,22.0,-1155940.0,3876.33,pp-ro,1,1,-1,-1
1570534902.4,2019-10-08,13:41:42.400,14.0,9.0,19.479999542236303,18.2,-6.8,-3.1,50.8,21.2,-38.0,21.1475,-5.96515,-2.79264,-1.61259,-6.860110000000001,-3.5475,51.2666,17.5309,-33.3275,-0.307784,0.1082089999999999,-0.18952,270.2,4.0,52.1701,4.42721,1.2,1.13864,311.997,4.53768,178.454,57.3846,153.741,0.6869109999999999,-0.1364,242.436,1.06603,1.419,5.099205017089839,22.0035419464111,4.99234676361084,22.0,-1155800.0,2830.33,pp-ro,1,1,-1,-1
1570534902.5,2019-10-08,13:41:42.500,14.0,9.0,19.7900009155273,17.8,-7.2,-3.1,50.2,22.0,-39.4,20.3288,-6.8769100000000005,-3.13113,-4.15024,2.17593,-2.52781,49.2264,18.2758,-36.6449,0.1915349999999999,0.123844,-0.0643864,270.2,4.0,52.1701,4.42721,1.2,1.14086,310.907,4.53771,177.72400000000002,58.9046,153.941,0.688131,-0.145367,242.391,1.04595,1.40641,5.167335510253911,22.0035419464111,4.7844820022583,22.0,-1155470.0,3630.21,pp-ro,1,1,-1,-1
1570534902.6,2019-10-08,13:41:42.600,14.0,10.0,19.840000152587898,17.3,-7.2,-3.3,49.9,22.6,-40.9,20.3288,-6.8769100000000005,-3.13113,-4.15024,2.17593,-2.52781,49.2264,18.2758,-36.6449,0.1915349999999999,0.123844,-0.0643864,270.2,4.0,52.1701,4.42721,1.2,1.1259,300.324,4.53774,176.99400000000003,61.1846,154.241,0.688983,-0.158181,242.612,1.02979,1.39719,4.993614196777339,22.0035419464111,4.761518001556401,22.0,-1154940.0,3507.15,pp-ro,1,1,-1,-1
1570534902.7,2019-10-08,13:41:42.700,14.0,10.0,19.7900009155273,16.9,-7.3,-3.3,50.0,23.2,-41.9,19.5696,-7.507060000000001,-3.13583,-3.37237,-5.62608,-3.60756,47.4318,21.4553,-39.4165,0.0572877,0.158017,-0.307746,270.2,4.0,52.1701,4.42721,1.2,1.1198,297.807,4.53777,176.263,62.7046,154.542,0.690425,-0.167164,242.66,1.0168,1.39215,4.78923034667969,22.0035419464111,4.70406103134155,22.0,-1154750.0,3845.56,pp-ro,1,1,-1,-1
1570534902.8,2019-10-08,13:41:42.800,14.0,10.0,19.7000007629395,16.5,-7.4,-3.5,49.6,23.5,-43.3,18.1693,-8.00146,-3.35463,-3.78832,-0.3735469999999999,-5.90209,46.4612,22.8075,-42.941,-0.21561,0.0134429,-0.11972,270.2,4.0,52.1701,4.42721,1.2,1.10484,291.974,4.5378,175.475,64.6047,154.842,0.691627,-0.17818,242.778,1.00437,1.37976,4.76538848876953,22.0035419464111,4.57984590530396,22.0,-1154420.0,2768.8,pp-ro,1,1,-1,-1
1570534902.9,2019-10-08,13:41:42.900,14.0,10.0,19.479999542236303,16.1,-7.5,-3.5,49.4,23.8,-44.8,17.3441,-8.39308,-3.5055300000000003,-0.469589,-4.324380000000001,3.36614,46.3557,23.6686,-45.6744,0.0646224,-0.164844,-0.349346,270.2,4.0,52.1701,4.42721,1.2,1.10207,287.92400000000004,4.5378300000000005,174.715,66.1247,155.24200000000002,0.693368,-0.18725,242.895,0.989509,1.37393,4.625732421875,22.0035419464111,-35.0,22.0,-1154110.0,3445.62,pp-ro,1,1,-1,-1
1570534903.0,2019-10-08,13:41:43.000,14.0,10.0,19.2999992370605,15.8,-7.6,-3.5,49.3,24.2,-46.2,17.3441,-8.39308,-3.5055300000000003,-0.469589,-4.324380000000001,3.36614,46.3557,23.6686,-45.6744,0.0646224,-0.164844,-0.349346,254.1,3.0,52.1701,4.42721,1.2,1.09265,284.344,4.53786,173.898,68.0247,155.542,0.69453,-0.198346,243.024,0.975866,1.37127,4.57463836669922,22.0035419464111,-35.0,22.0,-1153690.0,2153.51,pp-ro,1,1,-1,-1
1570534903.1,2019-10-08,13:41:43.100,14.0,11.0,19.1200008392334,15.6,-7.8,-3.7,49.0,24.7,-47.4,17.3441,-8.39308,-3.5055300000000003,-0.469589,-4.324380000000001,3.36614,46.3557,23.6686,-45.6744,0.0646224,-0.164844,-0.349346,254.1,3.0,52.1701,4.42721,1.2,1.0932,280.621,4.53776,173.08,69.5447,155.942,0.696321,-0.207482,243.127,0.962051,1.35831,4.26807403564453,22.003026962280305,-35.0,22.0,-1153540.0,2891.86,pp-ro,1,1,-1,-1
1570534903.2,2019-10-08,13:41:43.200,14.0,9.0,19.020000457763697,15.0,-8.1,-4.0,48.6,24.9,-48.8,16.1831,-8.8101,-3.6123,-6.7312,-0.4882859999999999,-3.83526,45.7763,25.0524,-49.1729,0.0568179999999999,-0.171334,-0.228546,254.1,3.0,52.1701,4.42721,1.2,1.07547,270.874,4.53766,172.233,71.0647,156.24200000000002,0.697825,-0.216646,243.158,0.949623,1.32798,3.66857147216797,22.003026962280305,-35.0,22.0,-1153160.0,4030.15,pp-ro,1,1,-1,-1
1570534903.3,2019-10-08,13:41:43.300,14.0,11.0,18.7900009155273,14.6,-8.3,-4.3,48.5,24.6,-49.3,16.1831,-8.8101,-3.6123,-6.7312,-0.4882859999999999,-3.83526,45.7763,25.0524,-49.1729,0.0568179999999999,-0.171334,-0.228546,254.1,3.0,52.1701,4.42721,1.2,1.05386,263.254,4.53756,171.386,72.5847,156.642,0.699601,-0.2257809999999999,243.266,0.953533,1.30479,2.7114028930664102,22.003026962280305,-35.0,22.0,-1152850.0,2276.57,pp-ro,1,1,-1,-1
1570534903.4,2019-10-08,13:41:43.400,14.0,11.0,18.6499996185303,14.2,-8.8,-4.5,48.3,23.2,-49.8,15.4969,-8.95621,-4.03287,-8.718919999999999,-0.222617,-8.763010000000001,45.2889,25.1746,-50.992,-0.0574708,-0.0746539,0.0117617,254.1,3.0,52.1701,4.42721,1.2,1.06439,273.849,4.53746,170.48,74.4847,157.142,0.701386,-0.236983,243.526,0.971968,1.27867,1.3931655883789098,22.003026962280305,-35.0,22.0,-1152550.0,1661.28,pp-ro,1,1,-1,-1
1570534903.5,2019-10-08,13:41:43.500,14.0,10.0,18.4599990844727,14.0,-8.8,-4.3,48.5,21.6,-50.1,15.4969,-8.95621,-4.03287,-8.718919999999999,-0.222617,-8.763010000000001,45.2889,25.1746,-50.992,-0.0574708,-0.0746539,0.0117617,254.1,3.0,52.1701,4.42721,1.2,1.07437,278.756,4.53735,169.575,75.6247,157.542,0.703616,-0.244461,243.504,0.992641,1.28618,-0.273086547851562,22.003026962280305,-35.0,22.0,-1152490.0,1199.82,pp-ro,1,1,-1,-1
1570534903.6,2019-10-08,13:41:43.600,14.0,8.0,18.4200000762939,14.1,-8.8,-4.2,48.6,21.2,-50.2,15.4969,-8.95621,-4.03287,-8.718919999999999,-0.222617,-8.763010000000001,45.2889,25.1746,-50.992,-0.0574708,-0.0746539,0.0117617,254.1,3.0,52.1701,4.4272,1.2,1.08766,273.2,4.53725,169.078,76.3847,157.74200000000002,0.704619,-0.249191,243.525,0.999481,1.29655,-2.29049682617188,22.0035419464111,-35.0,22.0,-1152300.0,2768.8,pp-ro,1,1,-1,-1
1570534903.7,2019-10-08,13:41:43.700,14.0,9.0,18.5599994659424,14.3,-8.6,-3.8,49.0,20.7,-50.2,14.8868,-9.2296,-3.65552,4.06856,1.64444,9.57537,46.6907,23.2153,-49.8617,0.240037,-0.0385759,0.0602181,254.1,3.0,52.1701,4.4272,1.2,1.04888,253.602,4.53715,168.202,77.5247,158.24200000000002,0.707044,-0.2566469999999999,243.603,1.0104799999999998,1.3299299999999998,-4.38300323486328,22.003026962280305,-35.0,22.0,-1151820.0,4737.73,pp-ro,1,1,-1,-1
1570534903.8,2019-10-08,13:41:43.800,14.0,8.0,18.6499996185303,14.6,-8.5,-3.6,49.4,19.6,-50.2,14.9688,-9.17705,-3.3521400000000003,2.63041,0.911477,6.23901,46.9536,22.9051,-49.7347,-0.0932193,-0.0787212,0.257639,254.1,3.0,52.1701,4.4272,1.2,1.0245,248.903,4.53705,167.355,79.0448,158.542,0.708313,-0.265921,243.703,1.03007,1.35568,-6.48915863037109,22.0035419464111,-35.0,22.0,-1151450.0,1261.34,pp-ro,1,1,-1,-1
1570534903.9,2019-10-08,13:41:43.900,14.0,8.0,18.75,15.0,-8.4,-3.2,50.4,17.8,-49.8,15.0305,-9.0638,-3.11029,2.29243,4.76306,1.87879,47.2747,22.2993,-49.4985,-0.105588,-0.071249,0.1769619999999999,254.1,3.0,52.1701,4.4272,1.2,1.0339200000000002,251.632,4.53695,166.449,80.5648,158.942,0.709989,-0.275344,243.841,1.06313,1.39234,-8.60556030273438,22.003026962280305,-35.0,22.0,-1151370.0,1445.93,pp-ro,1,1,-1,-1
1570534904.0,2019-10-08,13:41:44.000,14.0,9.0,18.7000007629395,15.6,-8.3,-2.8,51.3,16.3,-48.8,15.0305,-9.0638,-3.11029,2.29243,4.76306,1.87879,47.2747,22.2993,-49.4985,-0.105588,-0.071249,0.1769619999999999,276.5,2.4,52.1701,4.4272,1.2,1.04223,258.534,4.53685,165.544,82.4648,159.24200000000002,0.710855,-0.286657,244.056,1.10123,1.43405,-10.7151412963867,22.003026962280305,-35.0,22.0,-1151160.0,2276.57,pp-ro,1,1,-1,-1
1570534904.1,2019-10-08,13:41:44.100,14.0,11.0,18.840000152587898,16.2,-8.3,-1.9,53.0,14.2,-47.4,15.6565,-8.817969999999999,-2.36289,4.567819999999999,-0.219878,7.075480000000001,48.86,20.5405,-47.7395,0.0585434999999999,0.00622577,0.3946719999999999,276.5,2.4,52.1701,4.4272,1.2,1.05331,263.891,4.53705,164.697,83.6048,159.542,0.71244,-0.2943909999999999,244.067,1.14907,1.48954,-12.8195953369141,22.003026962280305,-35.0,22.0,-1151030.0,1107.52,pp-ro,1,1,-1,-1
1570534904.2,2019-10-08,13:41:44.200,14.0,10.0,18.979999542236303,17.0,-7.9,-1.0,54.5,11.5,-46.1,16.5009,-8.602210000000001,-1.10993,7.69652,6.12093,11.4115,51.441,17.7022,-44.922,0.089701,0.058189,0.41785,276.5,2.4,52.1701,4.4272,1.2,1.06273,265.238,4.53725,163.85,85.5048,159.74200000000002,0.7127479999999999,-0.30583,244.285,1.20618,1.56047,-14.3983612060547,22.003026962280305,-35.0,22.0,-1150790.0,2738.04,pp-ro,1,1,-1,-1
1570534904.3,2019-10-08,13:41:44.300,14.0,10.0,19.2600002288818,17.8,-7.5,0.0,56.5,8.8,-44.0,17.5764,-7.771160000000001,0.519018,6.969339999999999,4.35571,14.3686,54.1687,13.9183,-41.4718,0.162195,0.0371644999999999,0.682614,276.5,2.4,52.1701,4.4272,1.2,1.06218,271.66900000000004,4.53744,163.061,87.0248,159.842,0.713026,-0.315293,244.36,1.2718,1.6307200000000002,-17.0302124023438,22.0035419464111,-35.0,22.0,-1150470.0,1292.11,pp-ro,1,1,-1,-1
1570534904.4,2019-10-08,13:41:44.400,14.0,9.0,19.2199993133545,18.6,-6.9,1.5,58.2,5.2,-42.2,17.5764,-7.771160000000001,0.519018,6.969339999999999,4.35571,14.3686,54.1687,13.9183,-41.4718,0.162195,0.0371644999999999,0.682614,276.5,2.4,52.1701,4.4272,1.2,1.08212,274.948,4.537640000000001,162.33100000000002,89.3049,159.74200000000002,0.711529,-0.328204,244.631,1.34833,1.72463,-19.1500244140625,22.003026962280305,-35.0,22.0,-1150280.0,2491.92,pp-ro,1,1,-1,-1
1570534904.5,2019-10-08,13:41:44.500,14.0,10.0,19.3500003814697,19.3,-6.1,3.2,60.0,1.1,-40.6,17.5764,-7.771160000000001,0.519018,6.969339999999999,4.35571,14.3686,54.1687,13.9183,-41.4718,0.162195,0.0371644999999999,0.682614,276.5,2.4,52.1701,4.4272,1.2,1.0760299999999998,273.644,4.53784,161.63,90.8249,159.542,0.710573,-0.337309,244.596,1.42701,1.82386,-21.2681350708008,22.003026962280305,-35.0,22.0,-1150090.0,3568.68,pp-ro,1,1,-1,-1
1570534904.6,2019-10-08,13:41:44.600,14.0,10.0,19.3500003814697,19.9,-4.9,4.8,61.6,-3.1,-37.9,18.3318,-7.234210000000001,1.99624,7.4753,1.86492,14.7512,56.2614,10.6482,-38.6512,0.169367,0.0817588,0.766841,276.5,2.4,52.1701,4.4272,1.2,1.06328,267.423,4.5380400000000005,161.046,92.7249,159.142,0.708183,-0.34796,244.663,1.5213299999999998,1.92771,-23.3896560668945,22.003026962280305,-35.0,22.0,-1149830.0,2399.63,pp-ro,1,1,-1,-1
1570534904.7,2019-10-08,13:41:44.700,14.0,10.0,19.6200008392334,20.3,-3.9,6.7,63.4,-7.6,-35.2,18.3318,-7.234210000000001,1.99624,7.4753,1.86492,14.7512,56.2614,10.6482,-38.6512,0.169367,0.0817588,0.766841,276.5,2.4,52.1701,4.4272,1.2,1.05885,263.04,4.53824,160.549,94.6249,158.642,0.70523,-0.358323,244.739,1.6195700000000002,2.0291200000000003,-24.983787536621104,22.003026962280305,-35.0,22.0,-1149560.0,2891.86,pp-ro,1,1,-1,-1
1570534904.8,2019-10-08,13:41:44.800,14.0,8.0,19.7600002288818,20.1,-2.5,8.7,64.8,-13.2,-32.4,19.5485,-4.53672,6.09842,4.98321,10.5851,17.9072,60.3122,0.207967,-30.8362,0.193135,0.1219619999999999,1.05813,276.5,2.4,52.1701,4.4272,1.2,1.05109,261.06,4.53843,160.19899999999998,96.905,157.942,0.700758,-0.370062,244.949,1.73478,2.1456,-27.6190490722656,22.003026962280305,-35.0,22.0,-1149220.0,1507.46,pp-ro,1,1,-1,-1
1570534904.9,2019-10-08,13:41:44.900,14.0,7.0,19.9300003051758,20.0,-0.9,10.5,65.5,-18.8,-28.8,19.2739,-1.7511599999999998,9.76811,-5.206119999999999,13.5627,19.8976,62.0571,-10.1407,-22.7104,0.249109,0.241081,1.10627,276.5,2.4,52.1701,4.4272,1.2,1.05331,256.974,4.53863,159.965,98.425,157.042,0.696388,-0.3778289999999999,244.823,1.85572,2.25528,-29.1926879882812,22.0035419464111,-35.0,22.0,-1149100.0,2338.1,pp-ro,1,1,-1,-1
1570534905.0,2019-10-08,13:41:45.000,14.0,7.0,20.2000007629395,19.7,0.9,12.2,66.5,-24.9,-24.6,19.0796,-0.841791,10.550999999999998,-4.05996,19.8954,16.8622,61.9206,-12.8996,-20.4295,0.141612,0.0852966,1.16995,275.8,3.5,52.1701,4.4272,1.2,1.03059,244.68400000000003,4.53883,159.936,100.705,156.042,0.69017,-0.388383,245.092,1.99035,2.36794,-31.0394287109375,22.003026962280305,-35.0,22.0,-1148720.0,3907.09,pp-ro,1,1,-1,-1
1570534905.1,2019-10-08,13:41:45.100,14.0,7.0,20.5400009155273,19.1,2.8,14.1,66.3,-31.1,-20.0,18.566,1.01259,12.109000000000002,-2.25559,13.7383,18.7525,61.0797,-18.4692,-14.8014,-0.0912331,0.223478,1.28475,275.8,3.5,52.1701,4.4272,1.2,1.01175,244.997,4.5389800000000005,160.05200000000002,102.605,154.942,0.68381,-0.3966639999999999,245.258,2.1266700000000003,2.4857,-32.852020263671896,22.003026962280305,-35.0,22.0,-1148510.0,1230.58,pp-ro,1,1,-1,-1
1570534905.2,2019-10-08,13:41:45.200,14.0,8.0,20.9200000762939,18.3,4.5,15.8,66.2,-37.5,-15.1,17.5829,3.63215,14.4879,-11.8463,16.7358,14.864,58.2992,-27.1747,-5.28632,0.0490136999999999,0.3547869999999999,1.42664,275.8,3.5,52.1701,4.4272,1.2,1.03946,256.172,4.53913,160.403,104.505,153.642,0.676293,-0.404182,245.472,2.26496,2.59017,-33.899978637695305,22.003026962280305,-35.0,22.0,-1148420.0,1107.52,pp-ro,1,1,-1,-1
1570534905.3,2019-10-08,13:41:45.300,14.0,8.0,20.9599990844727,17.2,6.8,17.7,65.0,-44.2,-8.9,17.5829,3.63215,14.4879,-11.8463,16.7358,14.864,58.2992,-27.1747,-5.28632,0.0490136999999999,0.3547869999999999,1.42664,275.8,3.5,52.1701,4.4272,1.2,1.06384,279.931,4.539280000000001,160.87,106.025,152.24200000000002,0.6687270000000001,-0.409543,245.557,2.41309,2.7135700000000003,-34.591232299804695,22.0035419464111,-35.0,22.0,-1148260.0,1353.64,pp-ro,1,1,-1,-1
1570534905.4,2019-10-08,13:41:45.400,14.0,8.0,20.8799991607666,15.5,8.9,19.7,61.9,-50.8,-1.7,17.5829,3.63215,14.4879,-11.8463,16.7358,14.864,58.2992,-27.1747,-5.28632,0.0490136999999999,0.3547869999999999,1.42664,275.8,3.5,52.1701,4.4272,1.2,1.11758,307.338,4.53943,161.658,107.925,150.542,0.658996,-0.415699,245.854,2.56163,2.83802,-34.9172210693359,22.0035419464111,-35.0,22.0,-1148350.0,-1045.99,pp-ro,1,1,-1,-1
1570534905.5,2019-10-08,13:41:45.500,14.0,10.0,20.9200000762939,13.7,11.0,20.9,55.8,-56.4,8.0,14.2528,8.43791,18.7854,-21.9588,22.2347,11.0947,47.9356,-42.0607,14.3052,0.0580896,0.181582,1.30779,275.8,3.5,52.1701,4.4272,1.2,1.14861,321.819,4.53958,162.564,109.445,148.842,0.6495569999999999,-0.4197359999999999,246.088,2.70717,2.94911,-34.9564819335938,22.004571914672898,-35.0,22.0,-1147860.0,4522.38,pp-ro,1,1,-1,-1
1570534905.6,2019-10-08,13:41:45.600,14.0,12.0,21.3700008392334,11.8,13.0,21.8,46.8,-61.6,21.3,14.2528,8.43791,18.7854,-21.9588,22.2347,11.0947,47.9356,-42.0607,14.3052,0.0580896,0.181582,1.30779,275.8,3.5,52.1701,4.4272,1.1,1.15027,327.456,4.5397300000000005,163.732,110.965,147.042,0.6392770000000001,-0.422963,246.461,2.86187,3.05301,-34.9564819335938,22.004056930542003,-35.0,22.0,-1147750.0,2215.04,pp-ro,1,1,-1,-1
1570534905.7,2019-10-08,13:41:45.700,14.0,10.0,21.7700004577637,9.0,14.6,22.4,33.2,-65.9,39.0,9.267,12.9364,20.8427,-24.1613,16.2856,10.7722,26.223000000000003,-53.0442,43.6084,-0.0992208,0.2209719999999999,1.40489,275.8,3.5,52.1701,4.4272,1.1,1.19571,347.58,4.53988,165.046,111.725,145.042,0.6291,-0.422496,246.495,3.01954,3.16753,-34.9581909179688,22.004056930542003,-23.018762588501,22.0,-1147610.0,2184.28,pp-ro,1,1,-1,-1
1570534905.8,2019-10-08,13:41:45.800,14.0,12.0,22.1700000762939,6.1,16.1,22.4,14.6,-67.2,61.4,9.267,12.9364,20.8427,-24.1613,16.2856,10.7722,26.223000000000003,-53.0442,43.6084,-0.0992208,0.2209719999999999,1.40489,275.8,3.5,52.1701,4.4272,1.1,1.22175,354.141,4.540030000000001,166.53599999999997,112.485,143.142,0.618915,-0.421699,246.732,3.17924,3.28214,-34.966720581054695,22.004571914672898,-23.0211448669434,22.0,-1147160.0,3722.5,pp-ro,1,1,-1,-1
