time,date,time_of_day,airspeed_temperature,airspeed_angle_of_attack,airspeed_apparent_windspeed,kite_0_vx,kite_0_vy,kite_0_vz,kite_0_roll,kite_0_pitch,kite_0_yaw,kite_1_vx,kite_1_vy,kite_1_vz,kite_1_ax,kite_1_ay,kite_1_az,kite_1_roll,kite_1_pitch,kite_1_yaw,kite_1_roll_rate,kite_1_pitch_rate,kite_1_yaw_rate,ground_upwind_direction,ground_wind_velocity,ground_pos_latitude,ground_pos_longitude,ground_pos_altitude,ground_tether_reelout_speed,ground_tether_force,est_upwind_direction,kite_pos_east,kite_pos_north,kite_height,kite_elevation,kite_azimuth,kite_distance,kite_heading,kite_course,kite_actual_steering,kite_actual_depower,kite_set_steering,kite_set_depower,ground_mech_energy,ground_mech_power,flight_phase,flight_phase_index,phase,pattern,pattern_section
1570533642.8,2019-10-08,13:20:42.800,14.0,8.0,15.6999998092651,12.2,-1.0,2.6,15.7,-3.7,-50.5,11.0691,-0.4420449999999999,3.05616,9.42581,11.0256,0.369592,18.9583,10.0938,-51.6134,0.0319442,0.191104,0.793854,268.2,7.2,52.1701,4.42721,3.8,-2.95935,93.8918,4.64249,41.4749,-13.3003,234.106,1.38685,0.380227,238.124,0.389526,1.22126,-34.4802856445312,22.062246322631804,-35.0,22.0,-912627.0,-8644.82,pp-riro,4,0,-1,-1
1570533642.9,2019-10-08,13:20:42.900,14.0,8.0,15.4700002670288,12.9,0.0,2.8,17.3,-4.6,-45.6,11.694,0.660872,3.3027800000000003,6.75093,10.2359,3.5807800000000003,20.6508,9.50275,-46.3538,0.179695,0.266131,0.937887,268.2,7.2,52.1701,4.42721,3.8,-2.9649,92.7229,4.64249,41.3873,-11.7803,233.906,1.38886,0.347199,237.832,0.5118590000000001,1.3361,-34.8933258056641,22.0298042297363,-35.0,22.0,-913276.0,-11936.6,pp-riro,4,0,-1,-1
1570533643.0,2019-10-08,13:20:43.000,14.0,8.0,15.2399997711182,13.5,1.1,3.1,19.2,-5.7,-40.4,11.694,0.660872,3.3027800000000003,6.75093,10.2359,3.5807800000000003,20.6508,9.50275,-46.3538,0.179695,0.266131,0.937887,266.7,7.5,52.1701,4.42721,3.8,-3.01864,96.7838,4.64245,41.4165,-10.6402,233.706,1.38983,0.321387,237.586,0.63273,1.44425,-34.965011596679695,22.008691787719695,-35.0,22.0,-914977.0,-11106.0,pp-riro,4,0,-1,-1
1570533643.1,2019-10-08,13:20:43.100,14.0,8.0,14.9399995803833,14.1,2.2,3.4,20.9,-7.0,-35.3,11.694,0.660872,3.3027800000000003,6.75093,10.2359,3.5807800000000003,20.6508,9.50275,-46.3538,0.179695,0.266131,0.937887,266.7,7.5,52.1701,4.42721,3.8,-3.03526,97.3706,4.64239,41.5041,-8.74014,233.506,1.39111,0.277523,237.327,0.770658,1.56146,-34.971832275390604,22.0009689331055,-35.0,22.0,-915728.0,-7352.71,pp-riro,4,0,-1,-1
1570533643.2,2019-10-08,13:20:43.200,14.0,9.0,14.6999998092651,14.7,3.3,3.7,22.2,-8.6,-30.4,12.7054,2.87184,3.91875,5.0587800000000005,10.1107,4.58141,24.4268,7.621360000000001,-34.7521,0.170703,0.1822599999999999,0.983585,266.7,7.5,52.1701,4.42721,3.8,-3.04745,95.4959,4.64234,41.7377,-7.6001,233.206,1.39085,0.250142,237.034,0.8893049999999999,1.65467,-34.9854888916016,22.0009689331055,-35.0,22.0,-916604.0,-7998.77,pp-riro,4,0,-1,-1
1570533643.3,2019-10-08,13:20:43.300,14.0,10.0,14.3999996185303,15.1,4.5,4.0,23.3,-10.0,-25.3,13.6999,5.04321,4.60909,3.5262300000000004,12.0514,5.01914,27.3649,4.61764,-23.2819,0.1656119999999999,0.25826,0.961795,266.7,7.5,52.1701,4.42721,3.8,-3.0590900000000003,94.2667,4.64229,42.059,-6.08004,233.006,1.3904,0.213642,236.85,1.02027,1.7593,-34.9923248291016,22.0009689331055,-35.0,22.0,-917136.0,-10859.9,pp-riro,4,0,-1,-1
1570533643.4,2019-10-08,13:20:43.400,14.0,10.0,14.2799997329712,15.6,5.7,4.3,24.5,-11.7,-20.2,13.8408,5.6363,4.76395,2.34977,10.2317,2.4321,27.9114,3.67185,-20.5095,0.126622,0.0679978999999999,0.968174,266.7,7.5,52.1701,4.42721,3.8,-3.09677,95.2096,4.6422300000000005,42.4971,-4.55998,232.606,1.38908,0.177022,236.501,1.15223,1.85533,-34.9906158447266,22.0009689331055,-35.0,22.0,-918817.0,-11967.4,pp-riro,4,0,-1,-1
1570533643.5,2019-10-08,13:20:43.500,14.0,10.0,14.210000038147,16.0,6.9,4.7,25.2,-13.6,-15.0,14.4326,7.29702,5.19902,4.17002,10.8384,2.43841,29.4819,0.539321,-12.2619,0.217136,0.21633,1.04089,266.7,7.5,52.1701,4.42721,4.0,-3.1145,96.5243,4.642180000000001,43.0812,-3.03992,232.306,1.38698,0.140629,236.287,1.28628,1.94817,-34.9923248291016,22.0009689331055,-35.0,22.0,-919308.0,-9167.82,pp-riro,4,0,-1,-1
1570533643.6,2019-10-08,13:20:43.600,14.0,10.0,14.210000038147,16.1,8.1,5.1,25.8,-15.6,-9.9,14.4326,7.29702,5.19902,4.17002,10.8384,2.43841,29.4819,0.539321,-12.2619,0.217136,0.21633,1.04089,266.7,7.5,52.1701,4.42721,4.0,-3.1278,99.6725,4.64213,43.753,-1.13985,231.906,1.38426,0.0962827,236.0,1.42662,2.05088,-34.9923248291016,22.0009689331055,-35.0,22.0,-920194.0,-7260.42,pp-riro,4,0,-1,-1
1570533643.7,2019-10-08,13:20:43.700,14.0,9.0,14.2799997329712,16.0,9.4,5.5,25.8,-17.6,-4.5,14.5557,7.86389,5.39348,1.16458,11.7818,4.330080000000001,29.7879,-0.507312,-9.42696,0.2461949999999999,0.190451,0.970535,266.7,7.5,52.1701,4.42721,4.0,-3.1289,96.7433,4.64207,44.5416,0.380214,231.406,1.38063,0.0617540999999999,235.654,1.56205,2.14966,-34.9974365234375,22.0009689331055,-35.0,22.0,-921008.0,-9167.82,pp-riro,4,0,-1,-1
1570533643.8,2019-10-08,13:20:43.800,14.0,9.0,14.2700004577637,15.8,10.6,5.7,25.9,-19.7,0.6,14.5006,9.63514,5.95831,-3.11904,12.5773,4.15651,30.177,-3.70262,-0.964259,0.0127702999999999,0.160314,0.928574,266.7,7.5,52.1701,4.42721,4.0,-3.14553,88.3275,4.64202,45.4762,1.90028,231.006,1.37626,0.0285810999999999,235.448,1.69082,2.24015,-34.9991455078125,22.0009689331055,-35.0,22.0,-921997.0,-11505.9,pp-riro,4,0,-1,-1
1570533643.9,2019-10-08,13:20:43.900,14.0,8.0,14.3400001525879,15.5,11.9,6.0,26.0,-21.2,6.0,14.3122,10.8192,6.21436,-3.10778,13.1484,4.13393,30.1781,-5.80334,4.59119,0.147855,0.267248,0.952936,266.7,7.5,52.1701,4.42721,4.0,-3.20315,85.2197,4.64197,46.4692,3.42034,230.506,1.37134,-0.0030755,235.169,1.82012,2.33348,-34.9974365234375,22.0009689331055,-35.0,22.0,-923764.0,-18427.9,pp-riro,4,0,-1,-1
1570533644.0,2019-10-08,13:20:44.000,14.0,8.0,14.3999996185303,15.1,13.0,6.3,25.5,-22.3,11.7,13.7585,12.5867,6.58759,-2.67059,12.6179,2.27541,29.7915,-8.46407,12.9856,0.1851539999999999,0.169678,0.937838,265.8,7.0,52.1701,4.42721,4.0,-3.27241,87.9432,4.64187,47.6375,4.9404,230.006,1.36551,-0.0328694999999999,234.94,1.95016,2.41753,-34.9974365234375,22.0009689331055,-35.0,22.0,-925660.0,-18920.2,pp-riro,4,0,-1,-1
1570533644.1,2019-10-08,13:20:44.100,14.0,8.0,14.5799999237061,14.7,14.1,6.7,25.1,-23.5,17.4,13.4234,13.5903,6.9229,-4.9419,6.755560000000001,3.71967,29.0595,-9.69139,18.8943,0.12965,0.355529,0.968265,265.8,7.0,52.1701,4.42721,4.0,-3.3300400000000003,94.5324,4.641769999999999,48.9226,6.46047,229.406,1.35892,-0.0607271,234.654,2.07755,2.49771,-34.9974365234375,22.0009689331055,-35.0,22.0,-927236.0,-14674.7,pp-riro,4,0,-1,-1
1570533644.2,2019-10-08,13:20:44.200,14.0,8.0,14.6999998092651,14.1,15.3,7.2,24.6,-24.9,23.4,12.9273,14.5171,7.3339,-6.56779,8.82826,3.9944,28.2888,-10.8845,25.0035,0.19422,0.288492,0.970629,265.8,7.0,52.1701,4.42721,4.0,-3.34887,100.267,4.64167,50.3538,7.980539999999999,228.806,1.35156,-0.0865156999999999,234.418,2.20731,2.58348,-34.9991455078125,22.0009689331055,-35.0,22.0,-928402.0,-10706.0,pp-riro,4,0,-1,-1
1570533644.3,2019-10-08,13:20:44.300,14.0,9.0,14.6999998092651,13.5,16.4,7.7,23.7,-26.2,29.3,12.4046,15.5799,7.73004,-7.03843,12.0089,5.35341,27.4391,-12.0163,31.1649,-0.0665063,0.2812659999999999,1.01833,265.8,7.0,52.1701,4.42721,4.0,-3.34444,103.707,4.64157,51.8433,9.50061,228.106,1.34372,-0.11048,234.117,2.33182,2.66146,-35.0025634765625,22.0009689331055,-35.0,22.0,-929226.0,-7291.18,pp-riro,4,0,-1,-1
1570533644.4,2019-10-08,13:20:44.400,14.0,9.0,14.8199996948242,12.8,17.7,8.0,23.0,-26.8,35.3,12.1428,16.1182,7.943,-7.37742,11.5315,7.95703,26.9551,-12.5237,34.2554,0.103595,0.369722,0.943681,265.8,7.0,52.1701,4.42721,4.0,-3.30122,112.941,4.6414800000000005,53.4789,10.6407,227.406,1.33546,-0.12554,233.852,2.446,2.73572,-35.0042724609375,22.0009689331055,-23.0044822692871,22.0,-929431.0,492.232,pp-riro,4,0,-1,-1
1570533644.5,2019-10-08,13:20:44.500,14.0,9.0,15.109999656677198,12.1,18.8,8.5,22.5,-27.6,41.5,11.4712,17.1381,8.29867,-9.1724,11.0148,4.859369999999999,25.8539,-13.3884,40.2334,0.0280401999999999,0.380262,0.938519,265.8,7.0,52.1701,4.42721,3.9,-3.28017,118.655,4.641380000000001,55.2314,11.7807,226.606,1.32656,-0.1391859999999999,233.538,2.56149,2.8012900000000003,-35.0042724609375,22.0009689331055,-22.838960647583,22.0,-929306.0,2522.69,pp-riro,4,0,-1,-1
1570533644.6,2019-10-08,13:20:44.600,14.0,10.0,15.3999996185303,11.7,19.4,8.7,21.7,-28.3,47.5,10.836,18.2285,8.69794,-7.04215,11.5913,5.88937,24.7788,-14.1095,46.317,0.0321411,0.3190409999999999,0.983504,265.8,7.0,52.1701,4.42721,3.9,-3.18819,133.752,4.64128,57.0714,13.3008,225.806,1.3168799999999998,-0.157907,233.287,2.67691,2.84702,-34.756790161132805,22.0009689331055,-22.7512474060059,22.0,-928433.0,11136.7,pp-riro,4,0,-1,-1
1570533644.7,2019-10-08,13:20:44.700,14.0,11.0,15.6899995803833,10.8,20.5,9.3,21.1,-28.8,50.8,10.4904,18.7306,8.97538,-5.43162,10.2644,3.54106,24.1144,-14.5295,49.5072,0.0835549999999999,0.301937,1.09483,265.8,7.0,52.1701,4.42721,3.9,-3.01365,147.511,4.64118,59.1743,14.4409,224.806,1.3062,-0.168201,232.912,2.74065,2.91226,-34.120162963867195,22.0009689331055,-22.095521926879897,22.0,-926502.0,21996.6,pp-riro,4,0,-1,-1
1570533644.8,2019-10-08,13:20:44.800,14.0,11.0,15.9700002670288,9.7,21.7,9.8,20.1,-29.1,57.3,9.20737,20.2348,9.70247,-10.2037,9.84887,3.93627,22.1457,-15.9724,58.7512,0.0991637,0.138626,1.05324,265.8,7.0,52.1701,4.42721,3.9,-2.79368,154.437,4.6410800000000005,60.1382,14.8209,224.306,1.30138,-0.170374,232.701,2.84575,2.97516,-33.1336364746094,22.0019989013672,-21.068675994873,22.0,-923929.0,27349.6,pp-riro,4,0,-1,-1
1570533644.9,2019-10-08,13:20:44.900,14.0,11.0,16.2399997711182,8.5,22.7,10.2,18.9,-30.1,63.9,8.21635,21.2315,10.1181,-10.8353,11.193,4.15405,20.7438,-16.9004,65.10300000000001,0.103364,0.2723489999999999,1.0876,265.8,7.0,52.1701,4.42721,3.9,-2.52274,156.387,4.64098,62.3871,15.9609,223.306,1.29004,-0.179108,232.406,2.95876,3.04153,-31.7886962890625,22.0019989013672,-20.3957405090332,22.0,-921149.0,26642.0,pp-riro,4,0,-1,-1
1570533645.0,2019-10-08,13:20:45.000,14.0,11.0,16.5100002288818,7.2,23.5,10.5,17.4,-30.7,70.5,6.52032,22.3734,10.4341,-11.0042,5.4844800000000005,4.76243,18.2228,-18.5175,74.4202,0.10945,0.0402355999999999,0.923439,257.5,7.3,52.1701,4.42721,3.9,-2.1088400000000003,161.972,4.6408,64.6361,17.101,222.306,1.27865,-0.187161,232.143,3.06921,3.10582,-30.0870513916016,22.0025119781494,-19.7642498016357,22.0,-917560.0,23504.1,pp-riro,4,0,-1,-1
1570533645.1,2019-10-08,13:20:45.100,14.0,10.0,16.7199993133545,5.9,24.3,10.7,15.9,-31.0,76.8,5.92643,22.7438,10.537,-10.3155,8.18242,0.413447,17.4365,-19.1129,77.4525,0.0584817,0.1703859999999999,0.95194,257.5,7.3,52.1701,4.42721,3.9,-1.97143,164.771,4.64059,67.0019,17.8611,221.206,1.26703,-0.188821,231.82,3.16817,3.16222,-27.528587341308604,22.0025119781494,-19.1423511505127,22.0,-916359.0,23596.4,pp-riro,4,0,-1,-1
1570533645.2,2019-10-08,13:20:45.200,14.0,9.0,16.9300003051758,4.5,24.6,10.9,14.4,-31.4,83.0,5.29829,23.0031,10.6195,-13.4197,5.00279,1.01219,16.5359,-19.5128,80.4317,-0.0602669999999999,0.1193859999999999,0.891009,257.5,7.3,52.1701,4.42721,3.9,-1.50101,164.46099999999998,4.64038,69.3969,18.2411,220.206,1.2558,-0.185131,231.602,3.25989,3.21168,-25.4190139770508,22.0025119781494,-18.513324737548803,22.0,-913220.0,19258.6,pp-riro,4,0,-1,-1
1570533645.3,2019-10-08,13:20:45.300,14.0,10.0,17.0300006866455,2.9,24.9,10.8,12.4,-31.3,89.3,4.63706,23.228,10.6652,-16.7052,4.87517,-0.0227355,15.7508,-20.0116,83.5664,-0.0291119,0.250136,1.0179,257.5,7.3,52.1701,4.42721,3.9,-1.35196,161.863,4.64017,71.9671,18.6212,219.106,1.24371,-0.181076,231.373,3.35245,3.26801,-24.4051895141602,22.0019989013672,-17.7882976531982,22.0,-912370.0,16858.9,pp-riro,4,0,-1,-1
1570533645.4,2019-10-08,13:20:45.400,14.0,9.0,17.2399997711182,1.5,25.0,10.5,10.2,-30.8,95.0,3.3358800000000004,23.4763,10.7177,-13.3695,3.9367,-1.25668,13.8754,-20.7737,89.3506,-0.123814,-0.0152799,0.909296,257.5,7.3,52.1701,4.42721,3.9,-0.925872,152.925,4.639959999999999,74.3913,19.0012,218.106,1.23232,-0.177749,231.226,3.4369,3.31716,-22.5721130371094,22.0025119781494,-17.2136211395264,22.0,-910639.0,9321.64,pp-riro,4,0,-1,-1
1570533645.5,2019-10-08,13:20:45.500,14.0,9.0,17.2399997711182,0.1,25.1,10.4,9.1,-29.9,99.9,1.31879,23.7251,10.357,-16.8755,1.81361,-2.78796,11.8372,-21.3077,97.2096,-0.110149,0.1110559999999999,0.803137,257.5,7.3,52.1701,4.42721,3.9,-0.683184,155.735,4.63975,76.9031,19.0012,217.106,1.22094,-0.169692,231.107,3.50609,3.36168,-20.5956649780273,22.0025119781494,-16.615646362304698,22.0,-909894.0,6768.19,pp-riro,4,0,-1,-1
1570533645.6,2019-10-08,13:20:45.600,14.0,9.0,17.3400001525879,-1.0,24.9,10.3,7.9,-29.2,104.1,-0.452269,23.8245,10.1705,-11.6867,4.4705,0.223202,9.88375,-20.9602,103.95,0.0754773,0.2167739999999999,0.584839,257.5,7.3,52.1701,4.42721,3.9,-0.4116829999999999,157.395,4.63954,79.3857,19.0013,216.206,1.20979,-0.162083,231.102,3.56496,3.39557,-19.185867309570305,22.0025119781494,-16.247390747070302,22.0,-909402.0,4368.56,pp-riro,4,0,-1,-1
1570533645.7,2019-10-08,13:20:45.700,14.0,9.0,17.2900009155273,-2.0,24.7,10.1,6.6,-28.5,108.4,-1.50801,23.6779,9.95033,-6.44079,-2.98646,-2.54961,8.691189999999999,-20.6986,108.063,-0.0253076,0.200825,0.638506,257.5,7.3,52.1701,4.42721,3.9,-0.283136,155.281,4.63933,81.8683,19.0013,215.206,1.19848,-0.155102,231.035,3.62598,3.42707,-17.9894180297852,22.0019989013672,-15.9692134857178,22.0,-909241.0,2953.39,pp-riro,4,0,-1,-1
1570533645.8,2019-10-08,13:20:45.800,14.0,9.0,17.3400001525879,-3.0,24.6,9.8,5.3,-27.5,112.4,-1.50801,23.6779,9.95033,-6.44079,-2.98646,-2.54961,8.691189999999999,-20.6986,108.063,-0.0253076,0.200825,0.638506,257.5,7.3,52.1701,4.42721,3.9,-0.0393398,147.966,4.63912,84.4094,19.0014,214.206,1.18692,-0.148253,231.02,3.68401,3.45949,-16.854415893554698,22.0025119781494,-15.7068548202515,22.0,-909173.0,92.2935,pp-riro,4,0,-1,-1
1570533645.9,2019-10-08,13:20:45.900,14.0,8.0,17.4400005340576,-3.9,24.2,9.5,3.8,-26.7,116.4,-1.98596,23.5686,9.81296,-14.4423,-5.70315,-1.73143,8.135010000000001,-20.4241,109.976,-0.0790679,0.152249,0.6120720000000001,257.5,7.3,52.1701,4.42721,3.9,0.179523,144.593,4.63891,86.8628,18.6214,213.306,1.1761700000000002,-0.1377799999999999,231.066,3.73858,3.4864,-16.502815246582,22.0025119781494,-15.4291658401489,22.0,-909287.0,-1476.7,pp-riro,4,0,-1,-1
1570533646.0,2019-10-08,13:20:46.000,14.0,8.0,17.3899993896484,-4.7,23.9,9.3,2.6,-25.8,119.8,-2.83522,23.4036,9.44394,-7.74661,-2.61027,0.102716,6.753010000000001,-19.7976,113.954,-0.198356,0.218723,0.507009,255.8,7.5,52.1701,4.42721,3.9,0.25377,152.487,4.63871,89.287,18.2414,212.406,1.16551,-0.12795,231.131,3.78526,3.51,-15.9566497802734,22.0025119781494,-15.2487554550171,22.0,-909246.0,1845.87,pp-riro,4,0,-1,-1
1570533646.1,2019-10-08,13:20:46.100,14.0,9.0,17.379999160766598,-5.5,23.6,9.3,1.0,-24.6,122.8,-4.44459,22.9006,9.06075,-10.999,-2.68218,0.0879862,3.70358,-18.7698,121.085,-0.125085,0.181247,0.5705020000000001,255.8,7.5,52.1701,4.42721,3.9,0.231606,159.293,4.63851,91.6528,17.8614,211.506,1.15505,-0.118689,231.201,3.82819,3.53351,-15.543609619140598,22.0025119781494,-15.0935573577881,22.0,-909246.0,0.0,pp-riro,4,0,-1,-1
1570533646.2,2019-10-08,13:20:46.200,14.0,9.0,17.379999160766598,-6.4,23.4,9.4,-0.4,-23.3,126.0,-5.30356,22.6992,8.987589999999999,-7.65105,-1.7312,3.16575,2.02349,-17.6196,124.187,-0.249329,0.240025,0.551144,255.8,7.5,52.1701,4.42721,3.9,0.3174889999999999,180.644,4.6383,94.1062,17.4815,210.506,1.14404,-0.1096859999999999,231.245,3.87544,3.55988,-15.2500457763672,22.003026962280305,-14.9392681121826,22.0,-909343.0,-553.761,pp-riro,4,0,-1,-1
1570533646.3,2019-10-08,13:20:46.300,14.0,10.0,17.379999160766598,-7.3,23.2,9.6,-2.1,-23.2,129.1,-6.15921,22.5027,9.1696,-17.5553,-0.5712,1.62326,0.4338399999999999,-16.9913,127.142,-0.175298,-0.152095,0.399758,255.8,7.5,52.1701,4.42721,3.9,0.326909,194.591,4.6381,96.4428,16.7215,209.506,1.13373,-0.0974888999999999,231.24400000000003,3.91223,3.58246,-15.0384063720703,22.003026962280305,-14.7508163452148,22.0,-909262.0,861.4060000000001,pp-riro,4,0,-1,-1
1570533646.4,2019-10-08,13:20:46.400,14.0,11.0,17.3299999237061,-8.2,23.0,9.7,-3.8,-22.1,132.0,-7.07245,22.4095,9.13466,-13.0432,-3.27782,0.190223,-1.81305,-16.4418,130.239,-0.114129,0.2062969999999999,0.321394,255.8,7.5,52.1701,4.42721,3.9,0.348518,204.511,4.6379,98.867,15.5815,208.406,1.12307,-0.0819253,231.194,3.94873,3.60239,-14.9257583618164,22.0035419464111,-14.5610036849976,22.0,-909261.0,-61.529,pp-riro,4,0,-1,-1
1570533646.5,2019-10-08,13:20:46.500,14.0,12.0,17.4300003051758,-9.2,22.8,9.9,-5.7,-21.3,135.0,-7.498019999999999,22.3194,9.18658,-4.78567,1.02545,3.1005700000000003,-3.02959,-15.929,131.571,-0.158592,0.146021,0.5271520000000001,255.8,7.5,52.1701,4.427219999999999,3.7,0.370127,216.991,4.6377,101.233,14.8215,207.306,1.11234,-0.0707846999999999,231.179,3.98915,3.6288,-14.7345962524414,22.0035419464111,-14.399765968322802,22.0,-909207.0,707.5830000000001,pp-riro,4,0,-1,-1
1570533646.6,2019-10-08,13:20:46.600,14.0,12.0,17.5799999237061,-10.2,22.6,10.2,-7.7,-20.7,137.9,-7.95205,22.2396,9.21118,-9.61148,4.29975,3.12035,-4.147869999999999,-15.5298,132.934,-0.482402,0.156467,0.33705,255.8,7.5,52.1701,4.427219999999999,3.7,0.38952,233.3,4.63742,103.54,14.0615,206.106,1.10158,-0.0600848,231.08,4.02741,3.65422,-14.4734573364258,22.0035419464111,-14.3002338409424,22.0,-909179.0,61.529,pp-riro,4,0,-1,-1
1570533646.7,2019-10-08,13:20:46.700,14.0,12.0,17.8299999237061,-11.2,22.2,10.4,-9.5,-20.1,140.6,-9.55331,21.9807,9.56163,-14.1663,-1.60152,-0.287993,-7.69666,-15.1703,137.314,-0.363113,-0.149777,0.398435,255.8,7.5,52.1701,4.427219999999999,3.7,0.43163,252.59,4.63729,105.818,13.3016,204.906,1.09089,-0.0500475,231.0,4.06308,3.68267,-14.3335037231445,22.0035419464111,-14.1854610443115,22.0,-909154.0,461.467,pp-riro,4,0,-1,-1
1570533646.8,2019-10-08,13:20:46.800,14.0,12.0,18.0699996948242,-12.3,21.6,10.6,-11.2,-19.7,143.2,-10.5786,21.5714,9.74055,-8.910039999999999,-1.61979,-2.73168,-10.2886,-14.6967,139.844,-0.353523,-0.05234,0.425813,255.8,7.5,52.1701,4.427219999999999,3.7,0.461551,265.68,4.63709,108.038,11.7815,203.706,1.0807,-0.0334191999999999,230.883,4.09031,3.711030000000001,-14.220855712890598,22.004056930542003,-13.8803071975708,22.0,-909049.0,892.17,pp-riro,4,0,-1,-1
1570533646.9,2019-10-08,13:20:46.900,14.0,11.0,18.409999847412102,-13.2,21.0,10.6,-13.0,-19.4,145.9,-11.6183,20.9612,9.95386,-11.9855,-6.34242,3.00715,-12.4514,-14.3918,142.519,-0.339441,-0.0425956,0.432384,257.8,7.1,52.1701,4.427219999999999,3.7,0.463767,268.753,4.636880000000001,110.199,10.6416,202.506,1.07048,-0.0208637,230.794,4.12177,3.73831,-14.082611083984402,22.0035419464111,-13.750376701355,22.0,-908988.0,1169.05,pp-riro,4,0,-1,-1
1570533647.0,2019-10-08,13:20:47.000,14.0,11.0,18.7900009155273,-14.1,20.4,10.5,-14.3,-18.7,148.1,-12.6368,20.3978,9.92716,-10.8955,-8.84481,-0.60614,-14.6431,-14.2067,144.939,-0.273378,0.01739,0.345359,257.8,7.1,52.1701,4.427219999999999,3.7,0.471524,274.1,4.636769999999999,112.273,9.50157,201.306,1.06052,-0.00886437,230.694,4.14915,3.76723,-13.8214721679688,22.0035419464111,-13.6204862594604,22.0,-908895.0,830.6410000000001,pp-riro,4,0,-1,-1
1570533647.1,2019-10-08,13:20:47.100,14.0,11.0,19.1200008392334,-14.9,19.5,10.4,-15.5,-18.4,150.3,-13.8431,19.2046,9.84386,-6.61395,-8.1219,-2.9759900000000004,-16.9018,-13.7844,148.286,-0.282811,-0.012394,0.313632,257.8,7.1,52.1701,4.427219999999999,3.7,0.481498,279.60900000000004,4.63665,114.289,7.981560000000001,200.106,1.05082,0.00595507,230.582,4.17109,3.79594,-13.748077392578098,22.0035419464111,35.0,22.0,-908721.0,1292.11,pp-riro,4,0,-1,-1
1570533647.2,2019-10-08,13:20:47.200,14.0,10.0,19.340000152587898,-15.6,18.8,10.2,-16.3,-17.9,152.2,-14.6291,18.4359,9.77743,-1.9335,-5.2272,-2.95916,-18.1624,-13.6986,150.349,0.0229978,-0.0537743,0.273808,257.8,7.1,52.1701,4.427219999999999,3.7,0.484268,281.731,4.63654,116.245,6.46156,198.906,1.04124,0.0202662999999999,230.474,4.1906,3.82032,-13.6132431030273,22.004056930542003,35.0,22.0,-908663.0,1045.99,pp-riro,4,0,-1,-1
1570533647.3,2019-10-08,13:20:47.300,14.0,9.0,19.7000007629395,-16.2,18.0,10.0,-16.8,-17.1,154.0,-15.1754,17.6515,9.55664,-3.09093,-1.76207,-3.9204,-18.9344,-12.9846,152.314,-0.0854535,-0.113076,0.4098489999999999,257.8,7.1,52.1701,4.427219999999999,3.7,0.864923,282.197,4.636419999999999,118.173,4.56155,197.806,1.03195,0.0373292,230.462,4.20886,3.84184,-13.3862457275391,22.004056930542003,35.0,22.0,-910321.0,-20304.6,pp-riro,4,0,-1,-1
1570533647.4,2019-10-08,13:20:47.400,14.0,9.0,19.9200000762939,-16.5,17.5,9.5,-17.2,-16.6,156.1,-15.1754,17.6515,9.55664,-3.09093,-1.76207,-3.9204,-18.9344,-12.9846,152.314,-0.0854535,-0.113076,0.4098489999999999,257.8,7.1,52.1701,4.427219999999999,3.7,1.24724,258.99,4.6363,119.984,3.42155,196.706,1.0229,0.0475174,230.437,4.23499,3.8589,-12.8127670288086,22.0035419464111,35.0,22.0,-911342.0,9383.17,pp-riro,4,0,-1,-1
1570533647.5,2019-10-08,13:20:47.500,14.0,8.0,20.1000003814697,-16.3,17.0,8.9,-17.4,-15.1,157.8,-15.4739,17.06,9.09196,-1.7487,-7.84268,-10.9337,-19.0356,-12.4196,154.238,0.1448559999999999,-0.0546425,0.432583,257.8,7.1,52.1701,4.427219999999999,3.5,0.936399,232.912,4.63615,121.736,1.90155,195.706,1.0142799999999998,0.0605582,230.487,4.2615300000000005,3.86073,-11.863800048828098,22.0035419464111,35.0,22.0,-909484.0,11167.5,pp-riro,4,0,-1,-1
1570533647.6,2019-10-08,13:20:47.600,14.0,7.0,20.1900005340576,-16.6,16.2,9.1,-17.2,-13.9,159.0,-15.4123,16.1969,8.6167,-3.63127,-7.4017,3.14986,-19.437,-11.9243,157.06799999999998,0.271652,-0.0170091,0.418435,257.8,7.1,52.1701,4.427219999999999,3.5,1.03835,258.094,4.63604,123.401,0.00153406,194.806,1.00614,0.0762453,230.602,4.27621,3.87145,-10.563232421875,22.003026962280305,35.0,22.0,-910279.0,-9075.52,pp-riro,4,0,-1,-1
1570533647.7,2019-10-08,13:20:47.700,14.0,9.0,20.1800003051758,-16.9,15.6,9.2,-17.5,-13.9,161.1,-15.6491,15.8321,8.66633,-7.35394,-10.8157,2.13721,-19.4816,-11.7953,158.007,0.0929483999999999,0.0346601999999999,0.465597,257.8,7.1,52.1701,4.427219999999999,3.5,1.08822,280.038,4.63596,124.979,-1.51847,193.806,0.998006,0.0885804999999999,230.614,4.2965800000000005,3.88246,-8.90766143798828,22.003026962280305,35.0,22.0,-909841.0,7045.07,pp-riro,4,0,-1,-1
1570533647.8,2019-10-08,13:20:47.800,14.0,9.0,20.270000457763697,-17.0,15.3,8.9,-17.6,-13.2,162.9,-16.0395,15.059,8.65249,-1.81897,-3.2608,-2.65352,-19.6517,-10.6219,160.982,-0.0363989,-0.0212211,0.201289,257.8,7.1,52.1701,4.427219999999999,3.5,1.09376,278.916,4.63584,126.614,-3.4184900000000003,192.806,0.989563,0.1034819999999999,230.688,4.31651,3.88451,-6.909027099609379,22.0035419464111,35.0,22.0,-909588.0,2061.22,pp-riro,4,0,-1,-1
1570533647.9,2019-10-08,13:20:47.900,14.0,9.0,20.229999542236303,-17.5,15.1,9.2,-17.6,-12.2,163.5,-16.0395,15.059,8.65249,-1.81897,-3.2608,-2.65352,-19.6517,-10.6219,160.982,-0.0363989,-0.0212211,0.201289,260.7,6.7,52.1701,4.427219999999999,3.5,1.09099,287.11400000000003,4.635730000000001,128.10399999999998,-4.93849,191.906,0.98185,0.1151359999999999,230.787,4.32468,3.88964,-4.796043395996089,22.003026962280305,35.0,22.0,-909353.0,4430.09,pp-riro,4,0,-1,-1
1570533648.0,2019-10-08,13:20:48.000,14.0,9.0,20.3099994659424,-17.7,14.9,9.6,-18.4,-12.1,164.7,-16.4844,14.8792,8.62326,-3.3252900000000003,-1.42032,0.381681,-20.0184,-10.8593,162.641,-0.0734679999999999,-0.0957273,0.153282,260.7,6.7,52.1701,4.427219999999999,3.5,1.10816,301.127,4.63563,129.681,-6.83851,190.906,0.973458,0.129394,230.887,4.331230000000001,3.88228,-2.69158935546875,22.0035419464111,35.0,22.0,-909286.0,-461.467,pp-riro,4,0,-1,-1
1570533648.1,2019-10-08,13:20:48.100,14.0,9.0,20.4899997711182,-17.6,15.0,9.8,-19.1,-11.9,165.1,-17.1346,14.6057,9.23942,-2.36052,-1.21673,2.53846,-21.0451,-11.0386,164.59799999999998,-0.0178512,-0.211089,-0.0540206,260.7,6.7,52.1701,4.427219999999999,3.5,1.13809,301.659,4.63551,131.141,-8.35851,189.906,0.965486,0.140453,230.938,4.32984,3.86505,-0.595664978027344,22.004056930542003,35.0,22.0,-909010.0,4737.73,pp-riro,4,0,-1,-1
1570533648.2,2019-10-08,13:20:48.200,14.0,10.0,20.6100006103516,-17.6,15.1,10.2,-20.0,-12.2,165.3,-17.1346,14.6057,9.23942,-2.36052,-1.21673,2.53846,-21.0451,-11.0386,164.59799999999998,-0.0178512,-0.211089,-0.0540206,260.7,6.7,52.1701,4.427219999999999,3.5,1.1065,298.448,4.63545,132.631,-10.2585,188.806,0.957009,0.154122,230.963,4.31881,3.84565,1.51579284667969,22.004056930542003,35.0,22.0,-908564.0,3476.39,pp-riro,4,0,-1,-1
1570533648.3,2019-10-08,13:20:48.300,14.0,11.0,20.6100006103516,-17.5,15.2,10.9,-21.1,-12.7,164.5,-17.5296,14.951,9.7521,-4.68848,0.0952184,4.91469,-23.0727,-12.314,165.38099999999997,-0.25904,-0.0343626,-0.280075,260.7,6.7,52.1701,4.427219999999999,3.5,1.12645,306.272,4.63535,134.091,-11.7785,187.706,0.948672,0.164605,230.982,4.29421,3.82188,3.61236572265625,22.0035419464111,35.0,22.0,-908452.0,953.699,pp-riro,4,0,-1,-1
1570533648.4,2019-10-08,13:20:48.400,14.0,11.0,20.6100006103516,-17.0,15.5,11.5,-22.4,-14.0,163.6,-17.6059,15.0674,10.0971,3.13403,3.36159,6.33394,-23.9744,-12.6334,165.169,-0.2450099999999999,-0.159466,-0.1182579999999999,260.7,6.7,52.1701,4.427219999999999,3.5,1.12312,299.784,4.63526,135.66899999999998,-13.6785,186.506,0.939494,0.177568,231.036,4.2586900000000005,3.78196,5.72426605224609,22.0035419464111,35.0,22.0,-907911.0,4830.02,pp-riro,4,0,-1,-1
1570533648.5,2019-10-08,13:20:48.500,14.0,10.0,20.6100006103516,-16.3,16.0,12.1,-23.2,-15.6,161.8,-17.2814,15.7145,11.1199,2.96148,5.38411,2.17361,-25.7589,-15.0288,164.065,-0.418187,-0.164455,-0.375879,260.7,6.7,52.1701,4.42721,3.5,1.11038,296.581,4.63516,137.217,-15.1985,185.306,0.930492,0.187491,231.079,4.2102,3.73472,7.83275604248047,22.003026962280305,35.0,22.0,-907729.0,3507.15,pp-riro,4,0,-1,-1
1570533648.6,2019-10-08,13:20:48.600,14.0,9.0,20.6900005340576,-15.6,16.4,13.0,-24.2,-18.0,159.6,-16.8357,16.2222,11.9487,1.3404200000000002,-1.22182,9.58488,-26.8537,-17.4497,162.53799999999998,-0.264148,-0.255663,-0.625309,260.7,6.7,52.1701,4.42721,3.5,1.1198,299.94,4.63507,138.82299999999998,-17.0985,183.906,0.920568,0.199822,231.053,4.14695,3.68439,9.93783569335938,22.0035419464111,35.0,22.0,-907345.0,3076.45,pp-riro,4,0,-1,-1
1570533648.7,2019-10-08,13:20:48.700,14.0,10.0,20.6499996185303,-14.6,17.1,13.8,-24.8,-20.3,156.2,-16.8357,16.2222,11.9487,1.3404200000000002,-1.22182,9.58488,-26.8537,-17.4497,162.53799999999998,-0.264148,-0.255663,-0.625309,260.7,6.7,52.1701,4.42721,3.5,1.11648,298.182,4.6349800000000005,140.459,-18.2385,182.606,0.911081,0.206492,231.098,4.07302,3.62576,12.0429229736328,22.003026962280305,35.0,22.0,-907038.0,2953.39,pp-riro,4,0,-1,-1
1570533648.8,2019-10-08,13:20:48.800,14.0,10.0,20.520000457763697,-13.5,17.7,14.6,-25.1,-23.0,152.8,-16.6269,16.5046,12.4735,9.72725,8.33494,13.7837,-27.2351,-18.8386,161.675,-0.100096,-0.215248,-0.486396,260.7,6.7,52.1701,4.42721,3.5,1.11703,298.057,4.63488,142.124,-19.3785,181.206,0.901211,0.2129719999999999,231.106,3.99653,3.56704,14.1480026245117,22.0035419464111,35.0,22.0,-906890.0,2953.39,pp-riro,4,0,-1,-1
1570533648.9,2019-10-08,13:20:48.900,14.0,10.0,20.3500003814697,-12.5,18.5,15.4,-23.8,-26.1,148.0,-14.803,18.0505,14.4309,9.92208,11.406,11.9217,-28.6487,-25.5147,156.42700000000002,-0.280744,-0.266605,-0.5493439999999999,261.8,6.5,52.1701,4.42721,3.5,1.1198,303.201,4.63479,143.964,-21.2785,179.706,0.890101,0.224294,231.241,3.89484,3.50589,16.256492614746097,22.0035419464111,35.0,22.0,-906602.0,2522.69,pp-riro,4,0,-1,-1
1570533649.0,2019-10-08,13:20:49.000,14.0,11.0,20.3500003814697,-10.9,19.2,16.5,-22.6,-29.8,142.6,-14.803,18.0505,14.4309,9.92208,11.406,11.9217,-28.6487,-25.5147,156.42700000000002,-0.280744,-0.266605,-0.5493439999999999,261.8,6.5,52.1701,4.42721,3.5,1.16413,333.583,4.6347,145.775,-22.0385,178.206,0.879624,0.22769,231.286,3.78872,3.43261,18.3717956542969,22.004571914672898,35.0,22.0,-906416.0,492.232,pp-riro,4,0,-1,-1
1570533649.1,2019-10-08,13:20:49.100,14.0,11.0,20.3899993896484,-9.1,19.9,17.4,-20.3,-33.4,136.3,-14.803,18.0505,14.4309,9.92208,11.406,11.9217,-28.6487,-25.5147,156.42700000000002,-0.280744,-0.266605,-0.5493439999999999,261.8,6.5,52.1701,4.42721,3.5,1.20125,344.69699999999995,4.63461,147.644,-23.1784,176.606,0.8684850000000001,0.233452,231.356,3.6731,3.3543800000000004,20.4836883544922,22.004571914672898,35.0,22.0,-906213.0,2861.1,pp-riro,4,0,-1,-1
1570533649.2,2019-10-08,13:20:49.200,14.0,12.0,20.5599994659424,-6.8,20.7,18.0,-16.5,-36.6,128.4,-11.6928,20.2161,17.278,19.258,5.05557,10.0626,-26.4781,-35.8519,144.952,-0.360598,-0.4263979999999999,-0.951281,261.8,6.5,52.1701,4.42721,3.5,1.19959,343.332,4.634519999999999,149.747,-24.3184,174.90599999999998,0.856302,0.2388159999999999,231.533,3.5437300000000005,3.26199,22.5921783447266,22.004571914672898,35.0,22.0,-905980.0,4337.79,pp-riro,4,0,-1,-1
1570533649.3,2019-10-08,13:20:49.300,14.0,12.0,20.729999542236303,-5.7,21.1,18.4,-14.3,-37.8,124.3,-8.57269,21.9595,18.7434,28.1503,15.59,9.7536,-21.9547,-41.7382,134.14700000000002,-0.0898291,-0.220244,-1.1741700000000002,261.8,6.5,52.1701,4.42721,3.5,1.19349,347.07800000000003,4.63443,151.762,-24.6983,174.106,0.8473780000000001,0.2392449999999999,232.281,3.48285,3.21998,24.7006683349609,22.004056930542003,35.0,22.0,-905592.0,3291.8,pp-riro,4,0,-1,-1
1570533649.4,2019-10-08,13:20:49.400,14.0,12.0,20.8099994659424,-3.1,21.6,19.3,-9.3,-40.5,115.1,-4.54526,23.2416,20.1137,22.7745,11.7428,7.800789999999999,-14.7472,-47.5849,120.518,-0.201208,-0.472778,-1.32868,261.8,6.5,52.1701,4.42721,3.5,1.21787,366.082,4.63434,153.865,-25.0783,172.305,0.835357,0.239575,232.363,3.35071,3.12734,26.8023529052734,22.004571914672898,35.0,22.0,-905390.0,1722.81,pp-riro,4,0,-1,-1
1570533649.5,2019-10-08,13:20:49.500,14.0,11.0,20.979999542236303,1.6,21.4,19.4,-0.1,-42.9,99.2,-4.54526,23.2416,20.1137,22.7745,11.7428,7.800789999999999,-14.7472,-47.5849,120.518,-0.201208,-0.472778,-1.32868,261.8,6.5,52.1701,4.42721,3.5,1.26109,379.092,4.63425,156.055,-25.0782,169.705,0.8209209999999999,0.237436,231.91,3.1425,2.96875,28.917663574218803,22.004571914672898,23.0211448669434,22.0,-905178.0,2738.04,pp-ro,1,1,-1,-1
1570533649.6,2019-10-08,13:20:49.600,14.0,12.0,21.1000003814697,3.1,21.3,19.3,3.5,-42.9,94.0,-4.54526,23.2416,20.1137,22.7745,11.7428,7.800789999999999,-14.7472,-47.5849,120.518,-0.201208,-0.472778,-1.32868,261.8,6.5,52.1701,4.42721,3.5,1.25389,372.904,4.63416,157.078,-25.0782,168.905,0.815387,0.236461,232.016,3.0768,2.91768,30.8132629394531,22.004571914672898,23.0211448669434,22.0,-904653.0,5629.9,pp-ro,1,1,-1,-1
1570533649.7,2019-10-08,13:20:49.700,14.0,14.0,21.2199993133545,5.9,20.8,19.0,10.4,-42.1,82.3,4.07032,23.3907,20.3856,37.8472,-0.6150399999999999,-3.17367,4.59969,-51.9809,89.7864,-0.255003,-0.125319,-1.18727,261.8,6.5,52.1701,4.42721,3.5,1.22397,353.94699999999995,4.63407,159.239,-24.6981,167.105,0.803561,0.232153,232.145,2.92905,2.8229,32.3597106933594,22.004056930542003,23.018762588501,22.0,-904094.0,5045.38,pp-ro,1,1,-1,-1
1570533649.8,2019-10-08,13:20:49.800,14.0,13.0,21.1800003051758,10.2,19.5,17.8,17.3,-40.3,70.8,4.07032,23.3907,20.3856,37.8472,-0.6150399999999999,-3.17367,4.59969,-51.9809,89.7864,-0.255003,-0.125319,-1.18727,261.8,6.5,52.1701,4.42721,3.5,1.2018,349.915,4.63398,161.196,-24.318,165.605,0.793266,0.2281,232.38,2.7781700000000003,2.66458,33.551910400390604,22.004571914672898,23.0211448669434,22.0,-903581.0,5045.38,pp-ro,1,1,-1,-1
1570533649.9,2019-10-08,13:20:49.900,14.0,13.0,21.090000152587898,11.5,18.9,17.4,24.0,-37.4,59.9,10.6492,21.9147,18.9466,22.3612,-9.07253,-14.0883,21.5934,-49.2825,62.2929,-0.2072929999999999,-0.403808,-1.44881,261.0,6.6,52.1701,4.42721,3.5,1.20735,353.167,4.63388,163.094,-23.1779,164.105,0.7834899999999999,0.219628,232.524,2.62814,2.61915,34.3813323974609,22.004571914672898,23.0211448669434,22.0,-903348.0,1568.99,pp-ro,1,1,-1,-1
1570533650.0,2019-10-08,13:20:50.000,14.0,13.0,21.0100002288818,13.9,17.7,16.1,29.8,-34.1,49.3,10.6492,21.9147,18.9466,22.3612,-9.07253,-14.0883,21.5934,-49.2825,62.2929,-0.2072929999999999,-0.403808,-1.44881,261.0,6.6,52.1701,4.42721,3.5,1.22009,356.141,4.633830000000001,165.02200000000002,-22.0378,162.605,0.773604,0.211292,232.719,2.47498,2.5197,34.8547973632812,22.004571914672898,22.191158294677702,22.0,-902929.0,5260.73,pp-ro,1,1,-1,-1
1570533650.1,2019-10-08,13:20:50.100,14.0,16.0,20.840000152587898,15.9,16.2,15.2,34.3,-29.4,40.2,13.6909,20.6687,17.8896,41.8419,-6.72697,-21.3166,29.0734,-46.5794,49.4545,-0.6538609999999999,-0.3029179999999999,-1.55153,261.0,6.6,52.1701,4.42721,3.5,1.21233,357.482,4.63376,166.71599999999998,-20.5177,161.305,0.76515,0.2010559999999999,232.883,2.32453,2.43381,34.972320556640604,22.004571914672898,20.7463207244873,22.0,-902609.0,2122.75,pp-ro,1,1,-1,-1
1570533650.2,2019-10-08,13:20:50.200,14.0,16.0,20.5400009155273,17.7,14.7,13.6,37.8,-24.6,31.9,17.7172,18.563,15.9742,31.3614,-18.2794,-19.6318,36.3782,-39.0445,33.884,-0.0638013,0.199596,-1.29394,261.0,6.6,52.1701,4.42721,3.5,1.2173200000000002,343.286,4.633719999999999,168.293,-18.9976,160.105,0.75731,0.191051,233.06,2.17853,2.33811,34.945068359375,22.004571914672898,19.0920429229736,22.0,-902191.0,5722.19,pp-ro,1,1,-1,-1
1570533650.3,2019-10-08,13:20:50.300,14.0,16.0,20.2800006866455,19.1,13.1,11.7,40.4,-19.5,24.3,18.7492,17.6573,15.1713,26.0692,-18.8299,-16.7284,37.9845,-36.4238,28.954,-0.0187399,-0.152006,-1.37796,261.0,6.6,52.1701,4.42721,3.5,1.16413,329.11300000000006,4.63366,169.782,-17.0975,158.905,0.749801,0.179062,233.172,2.03607,2.24216,34.522705078125,22.004571914672898,17.4150562286377,22.0,-901582.0,4860.79,pp-ro,1,1,-1,-1
1570533650.4,2019-10-08,13:20:50.400,14.0,12.0,19.75,20.1,11.5,10.1,42.6,-14.5,17.8,21.2793,14.9302,12.0277,24.5982,-29.4723,-21.2736,41.8609,-28.0753,17.2015,-0.167986,0.0721888999999999,-1.11281,261.0,6.6,52.1701,4.42721,3.5,1.18241,332.714,4.63361,171.067,-15.1974,158.005,0.743766,0.1673589999999999,233.368,1.90568,2.15743,33.729034423828104,22.004571914672898,15.911677360534698,22.0,-901217.0,2861.1,pp-ro,1,1,-1,-1
1570533650.5,2019-10-08,13:20:50.500,14.0,15.0,19.340000152587898,20.3,10.0,8.4,44.1,-9.6,12.0,21.2793,14.9302,12.0277,24.5982,-29.4723,-21.2736,41.8609,-28.0753,17.2015,-0.167986,0.0721888999999999,-1.11281,261.0,6.6,52.1701,4.42721,3.6,1.17743,331.36,4.63355,172.236,-13.6773,157.205,0.738241,0.158053,233.593,1.7818900000000002,2.08363,32.230255126953104,22.004571914672898,14.629261016845698,22.0,-900979.0,4491.62,pp-ro,1,1,-1,-1
1570533650.6,2019-10-08,13:20:50.600,14.0,14.0,19.0699996948242,20.6,8.5,6.5,45.0,-3.8,6.4,22.8062,10.2924,6.92938,14.4065,2.17416,-10.5987,44.0537,-13.3758,2.15136,-0.215005,-0.0279555,-1.88683,261.0,6.6,52.1701,4.42721,3.6,1.16524,329.011,4.6335,173.31599999999997,-11.3973,156.605,0.733717,0.144528,233.867,1.6508599999999998,1.99762,30.6395263671875,22.004571914672898,13.042012214660598,22.0,-900613.0,3445.62,pp-ro,1,1,-1,-1
1570533650.7,2019-10-08,13:20:50.700,14.0,12.0,19.020000457763697,20.8,7.2,4.9,46.0,1.3,1.6,22.7914,9.38385,6.0447,1.15732,-17.2774,-20.9905,44.2913,-10.433,-0.158816,0.147302,-0.2158989999999999,-1.08303,261.0,6.6,52.1701,4.42721,3.6,1.1741,329.326,4.63344,174.28,-9.49717,156.105,0.7297060000000001,0.133358,234.163,1.53621,1.91939,28.6945495605469,22.0050868988037,11.6094169616699,22.0,-900302.0,3691.74,pp-ro,1,1,-1,-1
1570533650.8,2019-10-08,13:20:50.800,14.0,13.0,19.020000457763697,21.1,5.8,3.2,45.8,6.3,-2.8,23.0854,8.71693,5.10123,6.066409999999999,-6.98225,-19.5656,44.3615,-7.42301,-2.45213,-0.20247,0.298409,-1.18046,261.0,6.6,52.1701,4.42721,3.6,1.16745,334.141,4.63339,175.03900000000002,-7.21709,155.805,0.726906,0.120182,234.448,1.4289,1.83048,26.586051940918,22.004571914672898,9.90457630157471,22.0,-899940.0,3168.74,pp-ro,1,1,-1,-1
1570533650.9,2019-10-08,13:20:50.900,14.0,16.0,18.9699993133545,21.3,4.3,1.7,45.9,10.3,-7.3,23.0568,7.02073,3.16437,-3.5051300000000003,-19.29,-13.7168,43.5103,-1.19671,-7.103210000000001,-0.61292,0.2209219999999999,-1.2294200000000002,261.0,6.6,52.1701,4.42721,3.6,1.21012,354.135,4.63333,175.74,-4.93701,155.605,0.72451,0.107114,234.781,1.3337,1.74305,23.956398010253896,22.004571914672898,8.21857261657715,22.0,-899604.0,2953.39,pp-ro,1,1,-1,-1
1570533651.0,2019-10-08,13:20:51.000,14.0,17.0,18.9200000762939,21.3,2.7,0.0,45.9,13.8,-11.2,23.0498,3.45744,-0.47393,0.172291,-23.0342,-16.1488,42.5629,7.701189999999999,-15.6495,0.145378,-0.0313165,-0.7713409999999999,257.2,6.2,52.1701,4.42721,3.6,1.21566,358.92,4.63326,176.266,-3.03694,155.505,0.722831,0.096313,235.076,1.25086,1.64297,21.8496170043945,22.004571914672898,6.259613037109379,22.0,-899419.0,3384.09,pp-ro,1,1,-1,-1
1570533651.1,2019-10-08,13:20:51.100,14.0,15.0,19.1100006103516,21.1,1.4,-1.2,46.1,16.8,-15.1,23.0498,3.45744,-0.47393,0.172291,-23.0342,-16.1488,42.5629,7.701189999999999,-15.6495,0.145378,-0.0313165,-0.7713409999999999,257.2,6.2,52.1701,4.42721,3.6,1.22895,360.025,4.63317,176.645,-0.756875,155.505,0.721833,0.0834654,235.342,1.1763,1.56912,19.737716674804695,22.004571914672898,4.78803014755249,22.0,-899107.0,3568.68,pp-ro,1,1,-1,-1
1570533651.2,2019-10-08,13:20:51.200,14.0,15.0,19.2900009155273,20.9,0.9,-2.3,46.2,19.7,-19.1,22.8057,2.02283,-1.95253,-0.0931966,-10.8691,-10.7247,42.705,11.3625,-19.4174,-0.2838739999999999,0.180398,-0.779149,257.2,6.2,52.1701,4.42721,3.6,1.2151,350.579,4.6331,176.908,1.14318,155.505,0.72109,0.0727827,235.541,1.10092,1.52086,17.637741088867198,22.004571914672898,3.8268868923187296,22.0,-898542.0,6029.84,pp-ro,1,1,-1,-1
1570533651.3,2019-10-08,13:20:51.300,14.0,11.0,19.4300003051758,20.5,-0.1,-3.1,46.5,22.2,-23.3,22.1624,0.543162,-3.68006,-5.95147,-9.73774,-12.407,42.4945,17.0929,-25.5515,0.13671,-0.0781825,-0.862776,257.2,6.2,52.1701,4.42721,3.6,1.20402,362.115,4.63301,177.113,3.4232400000000003,155.605,0.720754,0.0600143,235.783,1.03011,1.46708,16.5817947387695,22.0050868988037,2.7303500175476096,22.0,-898206.0,1815.1,pp-ro,1,1,-1,-1
1570533651.4,2019-10-08,13:20:51.400,14.0,11.0,19.4699993133545,19.9,-1.6,-3.9,46.0,24.1,-26.8,21.415,-1.01275,-4.56482,-17.965,-18.7163,-12.8045,41.9589,19.8799,-29.4348,0.167691,-0.116049,-0.410749,257.2,6.2,52.1701,4.42721,3.6,1.26331,382.098,4.63295,177.113,5.7033,155.705,0.720908,0.0472139,235.893,0.97512,1.39401,14.4630813598633,22.004571914672898,1.22379386425018,22.0,-898170.0,707.5830000000001,pp-ro,1,1,-1,-1
1570533651.5,2019-10-08,13:20:51.500,14.0,15.0,19.4699993133545,18.8,-2.3,-4.7,45.4,25.1,-29.6,20.2921,-2.04319,-5.56191,-15.9822,-6.51671,-8.21394,42.2301,22.0417,-31.8978,0.334134,-0.0451355,-0.267652,257.2,6.2,52.1701,4.42721,3.7,1.25112,357.584,4.63287,176.99599999999998,7.223330000000001,155.905,0.721717,0.0386954,235.979,0.936287,1.33479,12.351188659668,22.004571914672898,-0.030643470585346,22.0,-897535.0,8798.64,pp-ro,1,1,-1,-1
1570533651.6,2019-10-08,13:20:51.600,14.0,12.0,19.6499996185303,18.1,-3.0,-5.5,45.8,25.8,-31.1,20.2921,-2.04319,-5.56191,-15.9822,-6.51671,-8.21394,42.2301,22.0417,-31.8978,0.334134,-0.0451355,-0.267652,257.2,6.2,52.1701,4.42721,3.7,1.14861,327.047,4.63279,176.82,9.50338,156.105,0.722542,0.0258692999999999,236.061,0.919183,1.27965,10.2426986694336,22.004056930542003,-1.2162561416626,22.0,-896530.0,3384.09,pp-ro,1,1,-1,-1
1570533651.7,2019-10-08,13:20:51.700,14.0,11.0,19.5599994659424,17.6,-3.6,-5.9,46.1,26.6,-32.5,19.6322,-2.4228,-6.01764,-10.6004,-6.191669999999999,-8.16052,42.0258,23.0082,-32.9233,-0.0186960999999999,0.157917,-0.494213,257.2,6.2,52.1701,4.42721,3.7,1.1608,332.75199999999995,4.63269,176.528,11.0234,156.505,0.724382,0.0172944,236.173,0.899294,1.24185,8.12739562988281,22.004056930542003,-2.1076648235321,22.0,-896507.0,430.703,pp-ro,1,1,-1,-1
1570533651.8,2019-10-08,13:20:51.800,14.0,12.0,19.5699996948242,17.7,-4.2,-6.4,46.2,27.1,-34.0,18.531,-3.30902,-7.051139999999999,-4.0910400000000005,-5.2093300000000005,-1.5031,42.7099,25.3572,-34.3571,0.251283,0.135142,-0.369683,257.2,6.2,52.1701,4.42721,3.7,1.20347,351.195,4.632630000000001,176.148,13.3034,156.905,0.726272,0.00434189,236.272,0.884655,1.21477,6.03593444824219,22.004571914672898,-2.80366706848145,22.0,-896340.0,2430.39,pp-ro,1,1,-1,-1
1570533651.9,2019-10-08,13:20:51.900,14.0,13.0,19.7000007629395,17.7,-4.8,-6.6,46.3,27.2,-35.4,18.3185,-4.1820900000000005,-7.46612,-3.31797,-3.51535,0.668826,42.6238,27.2494,-36.1064,0.140209,0.0426064,-0.255715,257.2,6.3,52.1701,4.42721,3.7,1.22508,369.893,4.63255,175.769,14.8235,157.405,0.728577,-0.00433352,236.412,0.872821,1.19497,3.39947509765625,22.004571914672898,-3.3749635219574,22.0,-896069.0,2061.22,pp-ro,1,1,-1,-1
1570533652.0,2019-10-08,13:20:52.000,14.0,12.0,19.7000007629395,17.8,-5.5,-6.9,46.0,26.9,-36.9,18.3468,-4.45571,-7.591439999999999,3.60671,-3.82542,-4.20458,42.4877,27.6574,-36.8125,0.127027,-0.128723,-0.321602,257.2,6.3,52.1701,4.42721,3.7,1.26442,385.5,4.63244,175.243,16.7235,158.005,0.7314649999999999,-0.0152454,236.549,0.865683,1.1731200000000002,1.47832489013672,22.0050868988037,-4.04022979736328,22.0,-895864.0,2491.92,pp-ro,1,1,-1,-1
1570533652.1,2019-10-08,13:20:52.100,14.0,10.0,20.1399993896484,17.9,-5.8,-7.0,46.4,26.6,-37.6,18.4611,-4.8633,-7.781610000000001,-3.72952,-11.2992,0.819269,42.4695,28.0064,-37.1151,0.0170035999999999,0.163254,-0.00235735,257.2,6.3,52.1701,4.42721,3.7,1.28215,397.754,4.6323300000000005,174.65900000000002,18.6235,158.605,0.734453,-0.0262211,236.66,0.868122,1.17065,-0.204811096191406,22.0050868988037,-4.3360924720764205,22.0,-895445.0,4676.2,pp-ro,1,1,-1,-1
1570533652.2,2019-10-08,13:20:52.200,14.0,10.0,20.229999542236303,18.1,-6.2,-6.7,46.9,26.2,-38.5,18.707,-5.803380000000001,-7.697260000000001,1.26351,-2.69599,6.94325,42.9922,28.0773,-38.5088,0.1755799999999999,-0.228276,-0.0983512,257.2,6.3,52.1701,4.42721,3.7,1.29711,401.274,4.632219999999999,174.075,20.5236,159.205,0.7373770000000001,-0.0372448,236.79,0.869246,1.18138,-1.69141387939453,22.0056018829346,-4.37525320053101,22.0,-895140.0,2584.22,pp-ro,1,1,-1,-1
1570533652.3,2019-10-08,13:20:52.300,14.0,12.0,20.7000007629395,18.3,-6.1,-6.6,47.2,25.6,-39.1,19.1969,-6.13399,-7.33022,1.39251,0.0946654,4.24234,43.3974,27.8377,-39.0486,0.136601,-0.0685674,-0.0768988999999999,257.2,6.3,52.1701,4.42721,3.7,1.28381,382.788,4.63211,173.403,22.0436,159.705,0.740309,-0.0462218,236.77,0.874748,1.19814,-2.8878631591796897,22.0050868988037,-4.298242092132569,22.0,-894482.0,8060.3,pp-ro,1,1,-1,-1
1570533652.4,2019-10-08,13:20:52.400,14.0,10.0,20.9599990844727,18.4,-6.0,-6.2,47.8,24.7,-39.2,19.1969,-6.13399,-7.33022,1.39251,0.0946654,4.24234,43.3974,27.8377,-39.0486,0.136601,-0.0685674,-0.0768988999999999,257.2,6.3,52.1701,4.42721,3.7,1.22397,359.621,4.632,172.76,24.3236,160.205,0.742819,-0.0595425,236.862,0.8927709999999999,1.22572,-3.74807739257812,22.004571914672898,-4.00523853302002,22.0,-893640.0,4030.15,pp-ro,1,1,-1,-1
1570533652.5,2019-10-08,13:20:52.500,14.0,10.0,21.2099990844727,18.7,-5.9,-5.9,48.8,24.1,-38.6,19.1969,-6.13399,-7.33022,1.39251,0.0946654,4.24234,43.3974,27.8377,-39.0486,0.136601,-0.0685674,-0.0768988999999999,257.2,6.3,52.1701,4.4272,3.7,1.22286,359.30300000000005,4.63189,172.14700000000002,25.8436,160.705,0.745482,-0.0685718,236.915,0.91313,1.25121,-4.039939880371089,22.004571914672898,-3.75805020332336,22.0,-893428.0,4122.44,pp-ro,1,1,-1,-1
1570533652.6,2019-10-08,13:20:52.600,14.0,10.0,21.5799999237061,19.0,-5.9,-5.5,49.6,23.4,-37.9,20.2835,-5.71366,-5.75336,-0.492947,0.2092699999999999,3.1187,46.1164,25.2394,-37.809,0.1073269999999999,0.0272198,0.332359,257.2,6.3,52.1701,4.4272,3.7,1.22341,364.874,4.63178,171.563,27.7437,161.205,0.747846,-0.0797736,237.046,0.937425,1.27836,-4.38641357421875,22.004571914672898,-3.47854042053223,22.0,-893073.0,2861.1,pp-ro,1,1,-1,-1
1570533652.7,2019-10-08,13:20:52.700,14.0,9.0,21.8600006103516,19.2,-5.8,-5.0,50.4,22.3,-37.3,20.2835,-5.71366,-5.75336,-0.492947,0.2092699999999999,3.1187,46.1164,25.2394,-37.809,0.1073269999999999,0.0272198,0.332359,257.2,6.3,52.1701,4.4272,3.7,1.24447,370.674,4.63168,170.891,29.6437,161.70600000000002,0.750391,-0.0910981999999999,237.131,0.965167,1.30985,-4.30448913574219,22.004571914672898,-3.14395332336426,22.0,-892755.0,3937.85,pp-ro,1,1,-1,-1
1570533652.8,2019-10-08,13:20:52.800,14.0,10.0,22.1800003051758,19.2,-5.6,-4.4,51.2,21.3,-36.2,20.4729,-5.72451,-5.120480000000001,1.00403,3.72541,5.9669,46.8493,23.9029,-37.015,0.056576,-0.174228,0.2761429999999999,257.2,6.3,52.1701,4.4272,3.7,1.23893,372.199,4.63157,170.30700000000002,31.5437,162.106,0.752314,-0.102375,237.229,0.998022,1.3443,-3.8351287841796897,22.004056930542003,-2.71033644676208,22.0,-892316.0,3999.38,pp-ro,1,1,-1,-1
1570533652.9,2019-10-08,13:20:52.900,14.0,10.0,22.2999992370605,19.4,-5.4,-4.1,52.0,20.7,-35.0,20.519,-5.32219,-4.1901,-0.4595479999999999,6.54218,3.86623,47.9676,21.5299,-36.0171,-0.061478,-0.131078,0.3604969999999999,253.8,6.2,52.1701,4.4272,3.7,1.23837,363.545,4.63146,169.722,33.4437,162.406,0.753862,-0.1136809999999999,237.276,1.02755,1.37184,-3.3367462158203103,22.004571914672898,-2.39413285255432,22.0,-891642.0,6060.6,pp-ro,1,1,-1,-1
1570533653.0,2019-10-08,13:20:53.000,14.0,10.0,22.260000228881804,19.7,-5.2,-3.6,52.4,19.8,-34.1,20.8335,-5.15344,-3.7739,2.72911,-0.606294,3.68871,48.4562,20.1605,-35.2789,-0.019355,-0.17313,0.31301,253.8,6.2,52.1701,4.4272,3.7,1.21676,362.836,4.63136,169.167,35.3438,162.806,0.7555689999999999,-0.1249859999999999,237.429,1.05693,1.40771,-2.82471466064453,22.004571914672898,-1.94086897373199,22.0,-891160.0,3845.56,pp-ro,1,1,-1,-1
1570533653.1,2019-10-08,13:20:53.100,14.0,10.0,22.1100006103516,19.8,-5.2,-2.9,52.4,18.1,-33.8,21.0813,-5.24399,-3.19943,-1.55895,1.9864,4.360530000000001,48.4795,18.1994,-35.3867,-0.0598285999999999,-0.356523,0.230552,253.8,6.2,52.1701,4.4272,3.7,1.2322799999999998,372.883,4.63126,168.554,37.2438,163.006,0.756761,-0.13639,237.42,1.08863,1.44141,-2.47824096679688,22.0050868988037,-1.4947509765625,22.0,-891063.0,1845.87,pp-ro,1,1,-1,-1
1570533653.2,2019-10-08,13:20:53.200,14.0,11.0,21.8700008392334,19.9,-5.1,-2.4,52.1,16.7,-33.2,21.2683,-5.18574,-2.83796,4.533930000000001,-2.04998,7.064189999999999,48.9688,17.1569,-35.3924,-0.025761,0.176022,0.381806,253.8,6.2,52.1701,4.4272,3.7,1.27494,398.204,4.63117,167.99900000000002,39.5238,163.20600000000002,0.757472,-0.149888,237.533,1.12208,1.47259,-2.31268310546875,22.0050868988037,-1.0810250043869,22.0,-890905.0,1476.7,pp-ro,1,1,-1,-1
1570533653.3,2019-10-08,13:20:53.300,14.0,11.0,21.6700000762939,20.0,-5.1,-1.8,52.4,15.5,-32.5,21.3031,-5.097980000000001,-2.59222,6.47929,3.74137,2.80524,49.1838,16.2697,-34.9579,0.0454532,0.0846185,0.201602,253.8,6.2,52.1701,4.4272,3.7,1.30819,400.375,4.631069999999999,167.44400000000002,41.0439,163.306,0.758312,-0.15911,237.467,1.1515,1.5012,-1.71018981933594,22.0050868988037,-0.701428353786469,22.0,-890550.0,4799.26,pp-ro,1,1,-1,-1
1570533653.4,2019-10-08,13:20:53.400,14.0,13.0,21.4599990844727,20.0,-4.9,-1.7,52.2,14.1,-32.5,21.2823,-5.07541,-2.26873,2.3267,-0.469908,5.2,49.4715,15.6864,-34.4615,0.18104,-0.0772873999999999,0.304536,253.8,6.2,52.1701,4.4272,3.7,1.27661,389.34,4.63097,166.918,43.3239,163.406,0.758479,-0.1725809999999999,237.571,1.17787,1.52032,-1.20668792724609,22.0056018829346,-0.488816827535629,22.0,-889839.0,7137.36,pp-ro,1,1,-1,-1
1570533653.5,2019-10-08,13:20:53.500,14.0,12.0,21.2600002288818,19.8,-4.9,-0.9,52.0,12.6,-32.7,21.4961,-4.992319999999999,-1.52823,-1.50559,-1.49967,0.386038,49.6174,13.6951,-34.4589,-0.230578,-0.0573276999999999,0.450279,253.8,6.2,52.1701,4.4272,3.7,1.26885,390.094,4.63088,166.392,44.8439,163.406,0.758825,-0.181788,237.484,1.20009,1.55299,-0.648574829101562,22.0050868988037,0.0129150385037069,22.0,-889493.0,2153.51,pp-ro,1,1,-1,-1
1570533653.6,2019-10-08,13:20:53.600,14.0,13.0,21.0499992370605,19.6,-4.7,-0.4,51.9,12.2,-32.1,21.2251,-4.9967,-0.758993,3.44585,2.67312,2.21637,49.5766,11.667,-33.4788,0.0680136,-0.167367,-0.0351692,253.8,6.2,52.1701,4.4272,3.7,1.26109,374.165,4.630780000000001,165.86700000000002,47.124,163.406,0.7585310000000001,-0.195252,237.558,1.22187,1.58491,-0.503501892089844,22.0056018829346,-35.0,22.0,-888696.0,6645.13,pp-ro,1,1,-1,-1
1570533653.7,2019-10-08,13:20:53.700,14.0,13.0,20.7999992370605,19.6,-4.6,-0.1,51.9,11.5,-32.1,21.2315,-4.87328,-0.469517,-1.14166,6.16352,4.406680000000001,49.9655,11.5464,-33.4611,-0.24151,-0.0505015,-0.0666163,253.8,6.2,52.1701,4.4272,3.7,1.22064,352.124,4.63068,165.37,49.404,163.406,0.758065,-0.20865,237.675,1.2399,1.60832,-0.138252258300781,22.0056018829346,-35.0,22.0,-888066.0,6275.96,pp-ro,1,1,-1,-1
1570533653.8,2019-10-08,13:20:53.800,14.0,13.0,20.590000152587898,19.4,-4.5,0.2,51.9,11.2,-32.5,21.0283,-4.82329,0.203664,1.50958,0.573929,2.84829,49.5863,10.5649,-33.9814,-0.183699,-0.342161,-0.0900587,253.8,6.2,52.1701,4.4272,3.7,1.20347,347.44699999999995,4.63058,164.873,50.924,163.306,0.7578550000000001,-0.217817,237.582,1.24519,1.6273799999999998,-0.006828308105469,22.0056018829346,-35.0,22.0,-887770.0,5445.31,pp-ro,1,1,-1,-1
1570533653.9,2019-10-08,13:20:53.900,14.0,13.0,20.3700008392334,19.3,-4.4,0.5,51.5,10.3,-33.1,21.0154,-4.78671,0.4096439999999999,0.973893,1.82879,4.56773,49.5451,10.3494,-34.4351,-0.2024359999999999,0.00660073,-0.0575861,253.8,6.2,52.1701,4.4272,3.7,1.19183,342.76199999999994,4.63049,164.377,53.2041,163.20600000000002,0.756931,-0.231177,237.669,1.2583799999999998,1.6502599999999998,-0.314048767089844,22.0056018829346,-35.0,22.0,-887443.0,2399.63,pp-ro,1,1,-1,-1
1570533654.0,2019-10-08,13:20:54.000,14.0,13.0,20.1100006103516,19.0,-4.2,0.8,51.4,9.2,-33.0,20.8122,-4.7025,0.58719,-2.3990400000000003,2.12759,-0.319681,49.4866,9.83801,-34.4347,0.0064826,-0.285998,0.218416,258.3,6.2,52.1701,4.4272,3.7,1.1946,339.684,4.63041,163.90900000000002,54.7241,163.106,0.756536,-0.240285,237.623,1.27964,1.67262,-0.9967575073242192,22.0056018829346,-35.0,22.0,-887039.0,4922.32,pp-ro,1,1,-1,-1
1570533654.1,2019-10-08,13:20:54.100,14.0,13.0,19.979999542236303,19.0,-4.3,1.3,51.6,8.4,-32.4,20.7444,-4.57786,0.751688,-2.74582,6.73336,5.929209999999999,49.6922,9.4478,-34.2685,0.0284514999999999,-0.211412,0.1647,258.3,6.2,52.1701,4.4272,3.7,1.17853,336.796,4.63034,163.442,57.0041,163.006,0.7553810000000001,-0.2535679999999999,237.768,1.30628,1.6968299999999998,-2.04471588134766,22.0050868988037,-35.0,22.0,-886642.0,3168.74,pp-ro,1,1,-1,-1
1570533654.2,2019-10-08,13:20:54.200,14.0,13.0,19.9300003051758,19.2,-4.2,1.6,51.9,7.4,-32.6,20.7444,-4.57786,0.751688,-2.74582,6.73336,5.929209999999999,49.6922,9.4478,-34.2685,0.0284514999999999,-0.211412,0.1647,258.3,6.2,52.1701,4.4272,3.7,1.17909,324.495,4.63028,163.004,58.5242,162.906,0.754804,-0.262623,237.768,1.32269,1.71862,-3.44085693359375,22.0050868988037,-35.0,22.0,-886287.0,4799.26,pp-ro,1,1,-1,-1
1570533654.3,2019-10-08,13:20:54.300,14.0,14.0,19.8899993896484,19.2,-3.9,1.8,51.9,6.3,-32.8,20.3682,-4.5298300000000005,1.5763,-4.646,-1.18581,3.14857,50.0745,8.70543,-32.8777,-0.075508,-0.128861,0.203593,258.3,6.2,52.1701,4.4272,3.7,1.13975,316.233,4.63021,162.595,60.8042,162.806,0.7533449999999999,-0.275715,237.992,1.34328,1.74547,-4.70729064941406,22.0056018829346,-35.0,22.0,-885753.0,4183.97,pp-ro,1,1,-1,-1
1570533654.4,2019-10-08,13:20:54.400,14.0,13.0,19.7999992370605,19.4,-3.5,2.5,52.2,4.3,-32.2,20.4766,-3.71443,2.63607,2.43419,4.27915,9.16659,51.1168,6.06131,-32.1773,0.34752,0.170533,0.422426,258.3,6.2,52.1701,4.4272,3.7,1.17299,326.59,4.63015,162.39,61.5642,162.606,0.752512,-0.2801619999999999,237.911,1.37891,1.78856,-7.2640380859375,22.0050868988037,-35.0,22.0,-885501.0,2338.1,pp-ro,1,1,-1,-1
1570533654.5,2019-10-08,13:20:54.500,14.0,14.0,19.7600002288818,19.6,-3.1,3.4,53.0,2.0,-31.1,20.3328,-3.44573,3.14388,2.61637,6.597639999999999,8.07433,51.6418,5.5942300000000005,-31.1582,0.177027,-0.051571,0.2414929999999999,258.3,6.2,52.1701,4.4272,3.6,1.15305,316.155,4.63008,162.011,63.8442,162.406,0.750555,-0.293112,238.116,1.43056,1.84363,-9.38385009765625,22.0050868988037,-35.0,22.0,-885039.0,4645.44,pp-ro,1,1,-1,-1
1570533654.6,2019-10-08,13:20:54.600,14.0,13.0,19.7600002288818,20.1,-2.6,4.1,54.2,0.0,-29.9,20.5558,-2.99763,3.97141,1.16428,5.51602,9.14535,52.8375,3.84766,-29.288,0.149429,0.0828906,0.404882,258.3,6.2,52.1701,4.4272,3.6,1.1403,310.4,4.63001,161.689,65.3643,162.006,0.748567,-0.301831,238.037,1.47677,1.89044,-11.4934310913086,22.004571914672898,-35.0,22.0,-884824.0,4122.44,pp-ro,1,1,-1,-1
1570533654.7,2019-10-08,13:20:54.700,14.0,13.0,19.7999992370605,20.6,-1.9,5.2,55.3,-2.1,-28.2,20.7366,-2.6972,4.416919999999999,5.55962,6.32137,10.6605,52.9984,3.12931,-28.398000000000003,-0.046168,0.0771371,0.424407,258.3,6.2,52.1701,4.4272,3.6,1.13144,309.475,4.62995,161.45600000000002,67.6443,161.606,0.745475,-0.314341,238.24400000000003,1.53295,1.95732,-13.5859375,22.004571914672898,-35.0,22.0,-884345.0,2891.86,pp-ro,1,1,-1,-1
1570533654.8,2019-10-08,13:20:54.800,14.0,13.0,19.840000152587898,21.0,-1.2,6.7,56.5,-5.9,-26.9,21.1499,-1.9719,5.42342,3.77443,5.9713400000000005,12.6038,54.3233,0.638759,-26.4967,0.381875,0.0695051,0.588353,258.3,6.2,52.1701,4.4272,3.6,1.14196,315.845,4.62988,161.251,69.5444,161.006,0.7420439999999999,-0.324705,238.246,1.60493,2.0318,-15.6920928955078,22.004571914672898,-35.0,22.0,-884128.0,1999.69,pp-ro,1,1,-1,-1
1570533654.9,2019-10-08,13:20:54.900,14.0,13.0,19.8899993896484,20.9,-0.1,8.1,57.7,-10.6,-25.0,21.1499,-1.9719,5.42342,3.77443,5.9713400000000005,12.6038,54.3233,0.638759,-26.4967,0.381875,0.0695051,0.588353,258.3,6.2,52.1701,4.4272,3.6,1.15083,318.558,4.62982,161.134,71.8244,160.20600000000002,0.7372770000000001,-0.3367699999999999,238.304,1.69724,2.1180000000000003,-17.794845581054698,22.0050868988037,-35.0,22.0,-884002.0,2368.87,pp-ro,1,1,-1,-1
1570533655.0,2019-10-08,13:20:55.000,14.0,12.0,19.9699993133545,20.9,1.1,9.7,59.0,-15.6,-22.4,20.7378,0.561125,8.91113,-1.6484599999999998,13.0797,9.08944,57.3515,-9.20782,-20.0864,0.224763,0.0247919,0.998113,263.8,6.2,52.1701,4.4272,3.6,1.15415,320.405,4.62976,161.192,73.7244,159.406,0.732437,-0.346357,238.387,1.79988,2.20675,-19.9163665771484,22.0056018829346,-35.0,22.0,-883667.0,3384.09,pp-ro,1,1,-1,-1
1570533655.1,2019-10-08,13:20:55.100,14.0,12.0,20.1499996185303,20.4,2.4,11.5,59.7,-21.0,-19.1,20.7378,0.561125,8.91113,-1.6484599999999998,13.0797,9.08944,57.3515,-9.20782,-20.0864,0.224763,0.0247919,0.998113,263.8,6.2,52.1701,4.4272,3.6,1.15194,318.837,4.62972,161.309,76.0045,158.306,0.726018,-0.357671,238.449,1.91635,2.3075900000000003,-22.0378875732422,22.0050868988037,-35.0,22.0,-883386.0,2645.75,pp-ro,1,1,-1,-1
1570533655.2,2019-10-08,13:20:55.200,14.0,13.0,20.3199996948242,19.9,3.9,13.0,61.2,-26.8,-15.1,19.9362,2.43004,11.1883,-10.0698,14.0115,12.8632,58.3106,-16.4829,-13.7105,0.366228,0.250056,1.09739,263.8,6.2,52.1701,4.4272,3.6,1.1475,308.075,4.6296800000000005,161.601,78.2845,157.20600000000002,0.719104,-0.368423,238.657,2.0439,2.4031700000000003,-24.1611175537109,22.0050868988037,-35.0,22.0,-882997.0,4553.14,pp-ro,1,1,-1,-1
1570533655.3,2019-10-08,13:20:55.300,14.0,13.0,20.5799999237061,19.4,5.7,14.6,60.9,-31.2,-10.2,18.8888,4.69881,13.4923,-10.7953,15.094,8.05984,58.227,-23.918000000000003,-5.55389,0.0312614,0.0607626999999999,1.31519,263.8,6.2,52.1701,4.4272,3.6,1.10816,294.707,4.629630000000001,162.06799999999998,79.8046,156.006,0.712321,-0.374826,238.69,2.15729,2.50158,-26.272399902343803,22.004571914672898,-35.0,22.0,-882411.0,2676.51,pp-ro,1,1,-1,-1
1570533655.4,2019-10-08,13:20:55.400,14.0,13.0,20.7099990844727,18.1,7.3,16.4,60.9,-37.2,-5.6,17.842,6.299980000000001,15.0792,-10.2663,13.2445,18.669,57.1393,-29.2639,-0.0276075999999999,0.143056,0.308256,1.204,263.8,6.2,52.1701,4.4272,3.6,1.1126,297.577,4.62959,162.68200000000002,82.0846,154.606,0.703604,-0.384524,238.969,2.28752,2.61218,-28.3768615722656,22.004571914672898,-35.0,22.0,-882279.0,2553.45,pp-ro,1,1,-1,-1
1570533655.5,2019-10-08,13:20:55.500,14.0,12.0,20.8299999237061,16.5,8.9,18.0,60.2,-44.3,-1.0,17.842,6.299980000000001,15.0792,-10.2663,13.2445,18.669,57.1393,-29.2639,-0.0276075999999999,0.143056,0.308256,1.204,263.8,6.2,52.1701,4.4272,3.6,1.12257,307.505,4.62955,163.441,83.6047,153.006,0.694802,-0.3900119999999999,238.984,2.42508,2.71991,-30.3601379394531,22.0056018829346,-35.0,22.0,-882050.0,1999.69,pp-ro,1,1,-1,-1
1570533655.6,2019-10-08,13:20:55.600,14.0,13.0,21.0,14.5,10.6,19.1,57.5,-51.8,5.8,17.842,6.299980000000001,15.0792,-10.2663,13.2445,18.669,57.1393,-29.2639,-0.0276075999999999,0.143056,0.308256,1.204,263.8,6.2,52.1701,4.4272,3.6,1.14363,313.19,4.62951,164.405,84.7447,151.306,0.685645,-0.393084,238.96400000000003,2.57904,2.83022,-31.9969329833984,22.0056018829346,-35.0,22.0,-881860.0,2122.75,pp-ro,1,1,-1,-1
1570533655.7,2019-10-08,13:20:55.700,14.0,12.0,21.159999847412102,12.1,12.1,19.9,51.7,-57.7,16.9,12.2674,10.6696,18.31,-25.8712,11.429,11.5726,45.6136,-46.4039,25.396,0.283699,0.424156,1.38361,263.8,6.2,52.1701,4.4272,3.6,1.13919,305.628,4.62947,165.514,86.6448,149.506,0.674898,-0.399361,239.279,2.73884,2.9457,-33.261642456054695,22.0050868988037,-35.0,22.0,-881443.0,4891.55,pp-ro,1,1,-1,-1
1570533655.8,2019-10-08,13:20:55.800,14.0,13.0,21.3700008392334,9.9,13.9,20.5,42.3,-61.8,31.4,12.2674,10.6696,18.31,-25.8712,11.429,11.5726,45.6136,-46.4039,25.396,0.283699,0.424156,1.38361,263.8,6.2,52.1701,4.4272,3.6,1.10872,293.88,4.62943,166.799,87.4048,147.806,0.665462,-0.39973,239.391,2.88953,3.05458,-34.1935424804688,22.0050868988037,-35.0,22.0,-881025.0,3353.33,pp-ro,1,1,-1,-1
1570533655.9,2019-10-08,13:20:55.900,14.0,12.0,21.4799995422363,7.2,15.4,20.9,30.2,-63.9,48.3,8.9786,12.9302,18.9956,-18.5373,8.89216,6.422680000000001,32.3394,-51.507,45.0096,0.489911,0.5155390000000001,1.4796,263.8,6.2,52.1701,4.4272,3.6,1.1031799999999998,287.422,4.62938,168.201,88.1648,146.006,0.6554409999999999,-0.399807,239.546,3.03225,3.17028,-34.753372192382805,22.0050868988037,-23.0235271453857,22.0,-880721.0,3476.39,pp-ro,1,1,-1,-1
1570533656.0,2019-10-08,13:20:56.000,14.0,12.0,21.5599994659424,4.6,16.5,21.1,15.3,-64.4,67.5,7.743110000000001,13.4624,19.3384,-24.7663,11.7517,9.43089,27.5654,-52.3866,51.9595,0.2368829999999999,0.4401739999999999,1.30511,268.4,6.2,52.1701,4.4272,3.6,1.11038,304.797,4.62935,169.74900000000002,89.3049,144.205,0.644667,-0.40128,239.969,3.18193,3.27491,-34.9496459960938,22.0050868988037,-23.0235271453857,22.0,-880390.0,584.525,pp-ro,1,1,-1,-1
1570533656.1,2019-10-08,13:20:56.100,14.0,13.0,21.6800003051758,1.8,17.4,21.0,0.1,-63.5,86.5,3.88105,15.0891,19.6084,-28.5253,3.04852,-4.51947,10.7287,-53.6599,73.6352,0.1123069999999999,0.535615,1.53164,268.4,6.2,52.1701,4.4272,3.6,1.13531,315.285,4.62933,171.355,89.6849,142.405,0.634676,-0.399121,240.178,3.32894,3.3808,-34.872848510742195,22.0056018829346,-23.0259094238281,22.0,-880372.0,369.174,pp-ro,1,1,-1,-1
1570533656.2,2019-10-08,13:20:56.200,14.0,13.0,21.7999992370605,-0.8,17.9,20.4,-13.2,-60.5,104.7,3.88105,15.0891,19.6084,-28.5253,3.04852,-4.51947,10.7287,-53.6599,73.6352,0.1123069999999999,0.535615,1.53164,268.4,6.2,52.1701,4.4272,3.6,1.16468,324.485,4.62931,173.079,89.685,140.705,0.625212,-0.395011,240.411,3.48622,3.47744,-34.362518310546896,22.0056018829346,-23.0259094238281,22.0,-879967.0,3937.85,pp-ro,1,1,-1,-1
1570533656.3,2019-10-08,13:20:56.300,14.0,13.0,21.9599990844727,-3.5,18.7,19.3,-22.6,-55.0,117.9,3.88105,15.0891,19.6084,-28.5253,3.04852,-4.51947,10.7287,-53.6599,73.6352,0.1123069999999999,0.535615,1.53164,268.4,6.2,52.1701,4.4272,3.6,1.15969,323.087,4.62929,174.919,89.685,138.905,0.615172,-0.390684,240.696,3.64252,3.5862300000000005,-33.4835205078125,22.0056018829346,-23.0259094238281,22.0,-879773.0,3814.8,pp-ro,1,1,-1,-1
1570533656.4,2019-10-08,13:20:56.400,14.0,13.0,22.149999618530305,-6.1,18.7,18.1,-29.9,-49.8,128.5,0.0925256999999999,15.9137,19.1112,-22.6854,4.59045,-4.18886,-6.39647,-50.2415,96.6124,0.15041,0.4124109999999999,1.50771,268.4,6.2,52.1701,4.4272,3.6,1.16025,324.763,4.62925,176.729,89.305,137.305,0.6062960000000001,-0.384783,240.959,3.78548,3.68805,-32.242706298828104,22.0056018829346,-23.0259094238281,22.0,-879451.0,2984.16,pp-ro,1,1,-1,-1
