time,date,time_of_day,airspeed_temperature,airspeed_angle_of_attack,airspeed_apparent_windspeed,kite_0_vx,kite_0_vy,kite_0_vz,kite_0_roll,kite_0_pitch,kite_0_yaw,kite_1_vx,kite_1_vy,kite_1_vz,kite_1_ax,kite_1_ay,kite_1_az,kite_1_roll,kite_1_pitch,kite_1_yaw,kite_1_roll_rate,kite_1_pitch_rate,kite_1_yaw_rate,ground_upwind_direction,ground_wind_velocity,ground_pos_latitude,ground_pos_longitude,ground_pos_altitude,ground_tether_reelout_speed,ground_tether_force,est_upwind_direction,kite_pos_east,kite_pos_north,kite_height,kite_elevation,kite_azimuth,kite_distance,kite_heading,kite_course,kite_actual_steering,kite_actual_depower,kite_set_steering,kite_set_depower,ground_mech_energy,ground_mech_power,flight_phase,flight_phase_index,phase,pattern,pattern_section
1570536430.1,2019-10-08,14:07:10.100,14.0,10.0,14.1599998474121,12.4,-2.3,2.9,19.3,-2.9,-54.1,11.6362,-1.43354,3.46043,7.829919999999999,11.3056,1.87251,22.2835,11.4537,-53.217,0.0477933,0.116154,0.929604,264.6,6.9,52.1701,4.427230000000001,9.1,-2.92722,96.3077,4.52958,52.8074,-2.2798,236.575,1.3509799999999998,0.225958,242.407,0.6010310000000001,1.39901,-34.8557739257812,22.0092067718506,-35.0,22.0,-845045.0,-4337.79,pp-riro,4,0,-1,-1
1570536430.2,2019-10-08,14:07:10.200,14.0,9.0,13.8999996185303,13.3,-1.2,3.0,21.0,-4.2,-49.2,11.9514,-0.904604,3.56966,6.21291,13.6607,2.73667,23.392,10.6668,-50.322,0.397692,0.17289,1.08979,264.6,6.9,52.1701,4.427230000000001,9.1,-2.92611,90.8424,4.52956,52.5737,-0.759749,236.375,1.35192,0.197276,242.152,0.720222,1.51758,-34.971832275390604,22.0014839172363,-35.0,22.0,-845468.0,-8091.06,pp-riro,4,0,-1,-1
1570536430.3,2019-10-08,14:07:10.300,14.0,7.0,13.7700004577637,14.0,-0.4,3.2,22.8,-5.7,-44.4,12.684,0.108667,3.78944,5.56799,9.42882,1.08636,25.2937,8.99697,-44.7189,0.1184009999999999,0.110076,0.902247,264.6,6.9,52.1701,4.427230000000001,9.1,-2.97321,89.7198,4.52955,52.4277,0.380291,236.174,1.35235,0.175585,241.924,0.8313020000000001,1.59951,-34.971832275390604,22.0009689331055,-35.0,22.0,-846817.0,-14090.1,pp-riro,4,0,-1,-1
1570536430.4,2019-10-08,14:07:10.400,14.0,10.0,13.7700004577637,14.7,0.3,3.6,24.5,-7.4,-39.5,12.684,0.108667,3.78944,5.56799,9.42882,1.08636,25.2937,8.99697,-44.7189,0.1184009999999999,0.110076,0.902247,264.6,6.9,52.1701,4.427230000000001,9.1,-3.02584,104.21,4.52954,52.3692,1.90035,235.874,1.35218,0.146579,241.626,0.952406,1.67895,-34.973541259765604,22.0009689331055,-35.0,22.0,-848391.0,-6091.37,pp-riro,4,0,-1,-1
1570536430.5,2019-10-08,14:07:10.500,14.0,8.0,13.6499996185303,15.3,1.3,4.2,25.7,-9.3,-34.3,13.8709,1.78995,4.55216,4.34146,9.7567,5.07031,28.8021,5.4133,-33.4964,0.171786,0.22444,1.06986,264.6,6.9,52.1701,4.427230000000001,9.1,-3.02695,104.56,4.52953,52.3984,3.4204,235.674,1.3515700000000002,0.1176779999999999,241.453,1.07948,1.77551,-34.9940185546875,22.0009689331055,-35.0,22.0,-848548.0,-2984.16,pp-riro,4,0,-1,-1
1570536430.6,2019-10-08,14:07:10.600,14.0,10.0,13.5799999237061,15.7,2.5,4.5,26.6,-11.6,-29.0,14.327,2.77221,5.00075,2.47646,9.00953,3.8683,29.9696,3.3269,-27.6314,0.127154,0.165525,1.07602,264.6,6.9,52.1701,4.427230000000001,9.1,-3.02141,85.8867,4.52951,52.5736,4.56044,235.274,1.35015,0.0963478,241.12,1.20232,1.86887,-34.9974365234375,22.0009689331055,-35.0,22.0,-849746.0,-12152.0,pp-riro,4,0,-1,-1
1570536430.7,2019-10-08,14:07:10.700,14.0,9.0,13.5100002288818,15.9,3.7,4.8,27.3,-14.0,-23.8,14.6205,3.90031,5.21276,4.28476,10.6028,1.29989,30.7871,0.684958,-22.018,0.0464642,0.127272,1.00009,264.6,6.9,52.1701,4.427230000000001,8.7,-3.09012,78.9397,4.5295,52.8073,6.46052,234.974,1.34814,0.0611506,240.922,1.3377,1.97314,-34.9974365234375,22.0009689331055,-35.0,22.0,-851590.0,-19966.2,pp-riro,4,0,-1,-1
1570536430.8,2019-10-08,14:07:10.800,14.0,10.0,13.710000038147,16.2,5.0,5.1,28.3,-16.3,-18.2,14.6396,4.46065,5.37334,0.72556,11.2131,2.31551,31.1409,-0.514733,-19.2732,0.169847,0.114626,0.999245,264.6,6.9,52.1701,4.427230000000001,8.7,-3.13666,80.5498,4.52949,53.187,7.980580000000001,234.574,1.34542,0.033963,240.661,1.47139,2.06855,-34.9991455078125,22.0009689331055,-35.0,22.0,-852701.0,-22919.5,pp-riro,4,0,-1,-1
1570536430.9,2019-10-08,14:07:10.900,14.0,8.0,13.8999996185303,16.3,6.2,5.5,28.3,-18.2,-12.6,14.7484,5.05468,5.50765,1.08437,9.20395,1.93298,31.341,-1.71522,-16.5615,0.117624,0.1987789999999999,1.07457,264.6,6.9,52.1701,4.427230000000001,8.7,-3.2303,85.6472,4.52948,53.6835,9.88065,234.074,1.34169,0.000895049,240.355,1.60858,2.16443,-34.9991455078125,22.0009689331055,-35.0,22.0,-854812.0,-20796.8,pp-riro,4,0,-1,-1
1570536431.0,2019-10-08,14:07:11.000,14.0,8.0,14.0299997329712,16.3,7.4,6.0,28.5,-20.1,-7.1,15.0129,6.71559,6.03979,0.5975159999999999,8.64396,4.908869999999999,31.7601,-4.92465,-7.84347,0.0900608,0.248252,1.05155,264.6,6.9,52.1701,4.427230000000001,8.7,-3.3317,88.4545,4.52947,54.2968,11.0207,233.674,1.338,-0.0173272,240.153,1.72856,2.24527,-34.9991455078125,22.0009689331055,-35.0,22.0,-857443.0,-17843.4,pp-riro,4,0,-1,-1
1570536431.1,2019-10-08,14:07:11.100,14.0,8.0,14.0900001525879,16.0,8.8,6.4,28.4,-21.9,-1.4,14.9689,7.86993,6.54535,-3.49517,13.5879,6.95908,31.7089,-6.9371,-1.7626,0.0167237,0.231577,1.04567,266.5,7.4,52.1701,4.427230000000001,8.7,-3.36827,87.3642,4.5294300000000005,55.0562,12.9208,233.074,1.33276,-0.0475577,239.837,1.86224,2.34956,-34.9991455078125,22.0009689331055,-35.0,22.0,-858444.0,-17443.5,pp-riro,4,0,-1,-1
1570536431.2,2019-10-08,14:07:11.200,14.0,8.0,14.1499996185303,15.8,10.1,6.7,28.2,-23.1,4.1,14.7499,9.07697,6.9097100000000005,-3.00527,12.6159,1.87802,31.3255,-8.864230000000001,3.981,0.15303,0.27785,1.00986,266.5,7.4,52.1701,4.427230000000001,8.7,-3.46689,85.3359,4.52946,55.9324,14.4408,232.574,1.32734,-0.0697352,239.641,1.98081,2.43419,-34.9974365234375,22.0009689331055,-35.0,22.0,-861169.0,-21350.6,pp-riro,4,0,-1,-1
1570536431.3,2019-10-08,14:07:11.300,14.0,8.0,14.2799997329712,15.5,11.4,7.1,28.0,-24.5,9.5,14.396,10.9049,7.359610000000001,-4.36219,11.4189,4.84299,30.7088,-11.0351,12.49,0.0872921,0.34953,0.910852,266.5,7.4,52.1701,4.427230000000001,8.7,-3.49571,89.7609,4.52946,56.9254,15.9609,231.974,1.32125,-0.0904373999999999,239.389,2.09605,2.51732,-34.9974365234375,22.0009689331055,-35.0,22.0,-862271.0,-20858.3,pp-riro,4,0,-1,-1
1570536431.4,2019-10-08,14:07:11.400,14.0,8.0,14.5200004577637,15.3,12.6,7.7,27.8,-25.7,15.3,14.2603,11.432,7.57866,-2.98952,12.015,4.113980000000001,30.5417,-11.5901,15.0309,0.0971736,0.304417,0.896848,266.5,7.4,52.1701,4.427230000000001,8.7,-3.53837,103.666,4.52947,58.0937,17.861,231.274,1.31381,-0.115356,239.127,2.21965,2.59508,-34.9974365234375,22.0009689331055,-35.0,22.0,-863487.0,-10275.3,pp-riro,4,0,-1,-1
1570536431.5,2019-10-08,14:07:11.500,14.0,9.0,14.710000038147,14.9,13.8,8.3,27.3,-26.8,20.9,13.8878,13.1674,8.347539999999999,-3.50049,12.2077,4.988090000000001,29.396,-13.1881,24.3134,0.0266594,0.344271,0.921208,266.5,7.4,52.1701,4.427230000000001,8.7,-3.5223,115.957,4.52947,59.3496,19.001,230.574,1.30683,-0.126927,238.847,2.32573,2.66295,-34.9991455078125,22.0009689331055,-35.0,22.0,-863620.0,984.464,pp-riro,4,0,-1,-1
1570536431.6,2019-10-08,14:07:11.600,14.0,10.0,14.9399995803833,14.5,15.0,8.7,26.5,-28.0,26.8,13.3824,14.2359,8.720239999999999,-6.82647,12.8308,4.42894,28.3518,-14.344,30.4434,0.136346,0.2868699999999999,0.961816,266.5,7.4,52.1701,4.427230000000001,8.7,-3.40484,121.598,4.52948,60.7223,20.9011,229.774,1.29826,-0.148596,238.579,2.44498,2.73576,-34.9991455078125,22.0009689331055,-23.0044822692871,22.0,-862829.0,7875.71,pp-riro,4,0,-1,-1
1570536431.7,2019-10-08,14:07:11.700,14.0,11.0,15.3500003814697,13.8,16.3,9.0,25.8,-29.4,33.1,13.3824,14.2359,8.720239999999999,-6.82647,12.8308,4.42894,28.3518,-14.344,30.4434,0.136346,0.2868699999999999,0.961816,266.5,7.4,52.1701,4.427230000000001,8.3,-3.34444,124.691,4.52948,62.2411,22.0412,228.974,1.29005,-0.157441,238.304,2.55781,2.80582,-34.9974365234375,22.0009689331055,-23.0044822692871,22.0,-862293.0,10060.0,pp-riro,4,0,-1,-1
1570536431.8,2019-10-08,14:07:11.800,14.0,10.0,15.8100004196167,13.0,17.6,9.6,24.6,-30.4,39.8,12.4066,15.9597,9.21541,-7.404139999999999,10.1582,4.17702,26.3878,-16.0201,39.9396,0.157711,0.303635,1.06132,266.5,7.4,52.1701,4.427230000000001,8.3,-3.22975,134.491,4.52949,63.9643,23.9413,228.074,1.27984,-0.17525,238.08,2.68207,2.88522,-34.784088134765604,22.0009689331055,-23.0044822692871,22.0,-860950.0,14213.2,pp-riro,4,0,-1,-1
1570536431.9,2019-10-08,14:07:11.900,14.0,11.0,16.1399993896484,12.0,18.8,10.1,23.2,-31.4,46.3,12.4066,15.9597,9.21541,-7.404139999999999,10.1582,4.17702,26.3878,-16.0201,39.9396,0.157711,0.303635,1.06132,266.5,7.4,52.1701,4.427230000000001,8.3,-2.95492,149.455,4.52949,65.6875,25.0813,227.074,1.27051,-0.181849,237.711,2.79143,2.95495,-34.171356201171896,22.0009689331055,-22.9576950073242,22.0,-857802.0,23350.2,pp-riro,4,0,-1,-1
1570536432.0,2019-10-08,14:07:12.000,14.0,11.0,16.3500003814697,11.0,19.9,10.5,21.6,-32.2,53.2,10.6843,18.166,10.1827,-10.128,8.565010000000001,4.190169999999999,23.3264,-18.0807,53.0805,-0.000329918,0.280377,1.05038,266.5,7.4,52.1701,4.427230000000001,8.3,-2.85242,152.121,4.5295,67.5859,26.2214,226.074,1.26049,-0.1872049999999999,237.413,2.90386,3.01825,-33.201904296875,22.0009689331055,-22.2443027496338,22.0,-856584.0,25349.9,pp-riro,4,0,-1,-1
1570536432.1,2019-10-08,14:07:12.100,14.0,11.0,16.6800003051758,9.8,21.1,10.7,19.7,-32.6,60.6,9.59572,19.1853,10.4433,-10.0332,9.15695,3.59097,21.5356,-19.1139,59.7126,0.0381114,0.309082,1.0123799999999998,260.7,7.3,52.1701,4.427230000000001,8.3,-2.464,156.352,4.52951,69.6304,27.3614,224.974,1.24976,-0.1915319999999999,237.087,3.02106,3.08639,-31.880859375,22.0014839172363,-21.4481830596924,22.0,-852631.0,25442.2,pp-riro,4,0,-1,-1
1570536432.2,2019-10-08,14:07:12.200,14.0,10.0,16.9899997711182,8.4,22.0,10.9,17.7,-32.9,67.8,9.59572,19.1853,10.4433,-10.0332,9.15695,3.59097,21.5356,-19.1139,59.7126,0.0381114,0.309082,1.0123799999999998,260.7,7.3,52.1701,4.427230000000001,8.3,-2.2046900000000003,165.453,4.5295,71.7625,28.5015,223.974,1.2388,-0.195174,236.91,3.13346,3.15375,-30.2031097412109,22.0019989013672,-20.6725234985352,22.0,-850173.0,24888.5,pp-riro,4,0,-1,-1
1570536432.3,2019-10-08,14:07:12.300,14.0,10.0,17.3999996185303,7.0,22.8,11.2,15.5,-33.3,74.6,8.43834,20.1005,10.584,-10.0545,6.32327,4.84547,19.6116,-20.1131,66.3872,0.0301983,0.242565,1.04774,260.7,7.3,52.1701,4.427230000000001,8.3,-2.03681,170.58,4.5295,73.8947,28.8815,222.874,1.22881,-0.189702,236.574,3.23089,3.20953,-28.1908264160156,22.0019989013672,-19.8516941070557,22.0,-848822.0,25688.3,pp-riro,4,0,-1,-1
1570536432.4,2019-10-08,14:07:12.400,14.0,10.0,17.6000003814697,5.4,23.3,11.2,13.4,-32.9,81.2,6.49522,21.3067,10.9522,-13.5046,6.25888,0.8088420000000001,16.5504,-21.433000000000003,76.43,-0.00564176,0.173255,1.11297,260.7,7.3,52.1701,4.427230000000001,8.3,-1.54811,170.62599999999998,4.5295,76.2312,29.6416,221.674,1.2173200000000002,-0.187954,236.282,3.32846,3.27162,-26.605224609375,22.0025119781494,-19.0872402191162,22.0,-845220.0,22150.4,pp-riro,4,0,-1,-1
1570536432.5,2019-10-08,14:07:12.500,14.0,10.0,17.9500007629395,3.9,23.6,11.0,11.6,-32.8,87.4,6.49522,21.3067,10.9522,-13.5046,6.25888,0.8088420000000001,16.5504,-21.433000000000003,76.43,-0.00564176,0.173255,1.11297,260.7,7.3,52.1701,4.427230000000001,8.3,-1.36027,165.62599999999998,4.52949,78.5094,30.0216,220.574,1.20672,-0.182343,236.046,3.4161,3.32491,-24.6338958740234,22.0019989013672,-18.3677024841309,22.0,-844208.0,18827.9,pp-riro,4,0,-1,-1
1570536432.6,2019-10-08,14:07:12.600,14.0,10.0,18.1399993896484,2.3,23.8,10.7,9.6,-32.0,92.9,3.60755,22.2193,10.7849,-16.0684,5.10312,-3.97566,12.6937,-22.5005,88.5443,0.180373,0.0535482,0.755551,260.7,7.3,52.1701,4.427230000000001,8.3,-1.06439,157.765,4.52949,80.846,30.4017,219.573,1.19602,-0.176788,235.951,3.49476,3.3819,-22.4697036743164,22.0019989013672,-17.594800949096697,22.0,-842863.0,12059.7,pp-riro,4,0,-1,-1
1570536432.7,2019-10-08,14:07:12.700,14.0,10.0,18.340000152587898,1.2,23.9,10.5,7.9,-31.0,98.2,2.16145,22.5502,10.4938,-16.6985,3.12772,-4.22588,11.2288,-22.465,93.6918,0.0200097,0.1427109999999999,0.8152510000000001,260.7,7.3,52.1701,4.427230000000001,8.0,-0.6471680000000001,160.6,4.52949,83.2117,31.1618,218.573,1.18468,-0.175419,235.944,3.57505,3.42331,-20.9062957763672,22.0019989013672,-17.2955150604248,22.0,-841616.0,7075.83,pp-riro,4,0,-1,-1
1570536432.8,2019-10-08,14:07:12.800,14.0,10.0,18.4300003051758,0.0,23.9,10.2,6.4,-30.1,103.1,1.01718,22.5562,10.2315,-8.67581,2.08176,-2.92693,9.44183,-22.0146,98.7169,0.12437,0.164651,0.788674,260.7,7.3,52.1701,4.427230000000001,8.0,-0.511972,161.893,4.52948,85.5483,31.1618,217.573,1.17447,-0.166419,235.855,3.64311,3.46196,-19.5477066040039,22.0025119781494,-16.8022594451904,22.0,-841320.0,5876.02,pp-riro,4,0,-1,-1
1570536432.9,2019-10-08,14:07:12.900,14.0,8.0,18.6200008392334,-1.1,24.0,9.9,4.6,-29.0,107.5,-0.76069,22.8005,9.75927,-13.4759,1.04075,-7.426,6.93853,-21.2864,105.888,0.0880716,0.293442,0.622273,260.7,7.3,52.1701,4.427230000000001,8.0,-0.213876,159.68,4.52948,87.9433,31.1618,216.673,1.16419,-0.157628,235.908,3.70514,3.49746,-18.4365921020508,22.0025119781494,-16.3975105285645,22.0,-840984.0,2368.87,pp-riro,4,0,-1,-1
1570536433.0,2019-10-08,14:07:13.000,14.0,7.0,18.5699996948242,-2.0,23.5,9.7,2.8,-28.6,112.2,-1.27387,22.7416,9.50697,-9.64391,-2.35637,-5.18495,6.147819999999999,-20.7687,108.184,0.0555557,0.2127929999999999,0.727865,260.7,7.3,52.1701,4.427230000000001,8.0,0.178415,159.872,4.52948,90.3967,31.1619,215.673,1.15349,-0.149057,235.919,3.76906,3.52542,-17.325485229492198,22.0025119781494,-16.1883792877197,22.0,-841096.0,-2338.1,pp-riro,4,0,-1,-1
1570536433.1,2019-10-08,14:07:13.100,14.0,9.0,18.520000457763697,-2.9,23.3,9.2,0.8,-27.9,116.4,-2.48386,22.1382,9.07559,-9.81738,-2.81693,-5.69878,3.26345,-20.4785,114.692,-0.344584,0.1090329999999999,0.61223,262.3,6.8,52.1701,4.427230000000001,8.0,0.323584,159.042,4.52948,92.7333,30.4019,214.873,1.14448,-0.1338869999999999,235.996,3.82145,3.5500199999999995,-16.6530151367188,22.0019989013672,-15.789391517639196,22.0,-841290.0,-3814.8,pp-riro,4,0,-1,-1
1570536433.2,2019-10-08,14:07:13.200,14.0,10.0,18.3299999237061,-3.9,23.0,8.8,-0.6,-25.8,120.3,-2.48386,22.1382,9.07559,-9.81738,-2.81693,-5.69878,3.26345,-20.4785,114.692,-0.344584,0.1090329999999999,0.61223,262.3,6.8,52.1701,4.427230000000001,8.0,0.262081,157.15200000000002,4.52949,95.0406,30.4019,213.973,1.13444,-0.126698,236.096,3.8841,3.58636,-16.188766479492198,22.0019989013672,-15.4485130310059,22.0,-840998.0,2984.16,pp-riro,4,0,-1,-1
1570536433.3,2019-10-08,14:07:13.300,14.0,9.0,18.1399993896484,-5.1,22.7,9.0,-2.1,-24.5,123.7,-3.35997,21.9452,8.49629,-10.6956,-5.40981,-8.0201,1.65563,-19.3506,118.735,-0.0277792,0.377751,0.724112,262.3,6.8,52.1701,4.427230000000001,8.0,0.356829,186.158,4.5295,97.3188,30.0219,213.073,1.12492,-0.116335,236.162,3.93296,3.62379,-15.9788360595703,22.0025119781494,-14.986175537109402,22.0,-841194.0,-1107.52,pp-riro,4,0,-1,-1
1570536433.4,2019-10-08,14:07:13.400,14.0,9.0,17.9899997711182,-6.4,22.3,9.2,-3.6,-24.1,126.3,-4.43571,21.6271,8.56697,-14.1885,-4.38045,4.66037,-0.33358,-17.5861,122.443,-0.053337,0.184091,0.513786,262.3,6.8,52.1701,4.427230000000001,8.0,0.359045,195.618,4.52952,99.6262,29.262,212.173,1.11568,-0.1028039999999999,236.218,3.962,3.66276,-15.5077667236328,22.0025119781494,-14.4081869125366,22.0,-841071.0,2215.04,pp-riro,4,0,-1,-1
1570536433.5,2019-10-08,14:07:13.500,14.0,10.0,17.840000152587898,-7.4,22.3,8.9,-5.2,-22.8,129.2,-5.80665,21.4431,8.79144,-25.9193,-9.57982,-1.45984,-1.88411,-17.1761,125.452,-0.00755706,-0.065015,0.289329,262.3,6.8,52.1701,4.427230000000001,8.0,0.324692,203.478,4.52953,101.875,28.882,211.273,1.10619,-0.0933958999999999,236.324,4.0048900000000005,3.69511,-15.1408081054688,22.003026962280305,-14.1098699569702,22.0,-841049.0,-922.935,pp-riro,4,0,-1,-1
1570536433.6,2019-10-08,14:07:13.600,14.0,11.0,17.8899993896484,-8.3,22.3,9.2,-7.3,-21.9,132.2,-7.3135,21.1834,8.46021,-9.18653,-0.998916,0.67873,-5.03485,-16.1457,129.455,-0.382579,0.00542774,0.4209239999999999,262.3,6.8,52.1701,4.427230000000001,8.0,0.394507,221.689,4.52954,104.124,28.122,210.273,1.09686,-0.0809423,236.32,4.04445,3.71463,-14.8950347900391,22.003026962280305,-13.9961671829224,22.0,-841042.0,953.699,pp-riro,4,0,-1,-1
1570536433.7,2019-10-08,14:07:13.700,14.0,11.0,17.8899993896484,-9.4,22.3,9.4,-8.9,-20.8,135.2,-8.314110000000001,21.269,8.66446,-10.3008,-2.88539,1.42574,-7.322760000000001,-15.5035,132.483,-0.565861,0.20617,0.5513680000000001,262.3,6.8,52.1701,4.427230000000001,7.8,0.431076,255.509,4.52956,106.344,27.362,209.273,1.08758,-0.0690033999999999,236.332,4.086069999999999,3.74184,-14.2805938720703,22.0035419464111,-13.7624788284302,22.0,-841021.0,-769.112,pp-riro,4,0,-1,-1
1570536433.8,2019-10-08,14:07:13.800,14.0,11.0,18.0300006866455,-10.4,21.6,9.5,-10.6,-20.0,138.3,-9.23835,21.0265,8.862739999999999,-2.8205400000000003,-5.90732,4.45622,-10.328,-14.6289,135.67,-0.4789899999999999,0.093401,0.461563,262.3,6.8,52.1701,4.427230000000001,7.8,0.462105,264.459,4.52957,108.593,25.842,208.173,1.0786,-0.0508079,236.212,4.12195,3.76813,-14.0177536010742,22.003026962280305,-13.3803386688232,22.0,-841003.0,338.409,pp-riro,4,0,-1,-1
1570536433.9,2019-10-08,14:07:13.900,14.0,10.0,18.1800003051758,-11.7,21.0,9.3,-12.5,-19.0,140.9,-9.7427,20.7021,8.88389,-8.20523,-4.22854,0.690541,-11.3517,-14.634,137.356,-0.15849,-0.0692548,0.520777,262.3,6.8,52.1701,4.427230000000001,7.8,0.469308,275.1,4.52958,110.754,25.082,207.173,1.06939,-0.0399046999999999,236.254,4.15824,3.81385,-13.7395477294922,22.003026962280305,-12.8518648147583,22.0,-840879.0,1199.82,pp-riro,4,0,-1,-1
1570536434.0,2019-10-08,14:07:14.000,14.0,9.0,18.3700008392334,-12.7,20.3,9.3,-14.1,-18.6,143.4,-11.1403,20.0451,8.747119999999999,-13.3715,-11.067,2.85201,-13.4082,-13.84,139.738,-0.413293,0.0361473999999999,0.381461,262.3,6.8,52.1701,4.427230000000001,7.8,0.489255,281.704,4.5296,112.886,23.942,205.973,1.06011,-0.0262016999999999,236.096,4.18618,3.84608,-13.5978851318359,22.0035419464111,-12.5520172119141,22.0,-840733.0,1353.64,pp-riro,4,0,-1,-1
1570536434.1,2019-10-08,14:07:14.100,14.0,10.0,18.659999847412102,-13.5,19.9,9.1,-16.0,-17.8,145.7,-12.1544,19.44,8.67118,-6.05818,-5.48797,-1.06577,-15.3563,-13.3571,142.072,-0.21055,0.0478881999999999,0.469991,269.8,5.7,52.1701,4.427230000000001,7.8,0.489255,286.125,4.52961,114.931,22.422,204.873,1.05155,-0.00989364,235.976,4.21215,3.86732,-13.420379638671902,22.004056930542003,-12.378833770752,22.0,-840660.0,1292.11,pp-riro,4,0,-1,-1
1570536434.2,2019-10-08,14:07:14.200,14.0,12.0,19.0799999237061,-14.3,19.5,9.2,-16.9,-16.7,147.9,-12.8504,18.9226,8.67433,-4.75919,-6.26386,2.1621900000000003,-17.3236,-13.0977,144.482,-0.0730623,-0.164551,0.514138,269.8,5.7,52.1701,4.427230000000001,7.8,0.523054,303.27,4.52961,116.917,20.902,203.873,1.04329,0.0058748,235.946,4.239730000000001,3.88504,-12.759857177734402,22.004056930542003,35.0,22.0,-840550.0,922.935,pp-riro,4,0,-1,-1
1570536434.3,2019-10-08,14:07:14.300,14.0,9.0,19.3999996185303,-14.9,18.7,9.3,-18.0,-15.8,150.6,-12.8504,18.9226,8.67433,-4.75919,-6.26386,2.1621900000000003,-17.3236,-13.0977,144.482,-0.0730623,-0.164551,0.514138,269.8,5.7,52.1701,4.427230000000001,7.8,0.5335810000000001,308.63,4.5296,118.874,19.382,202.672,1.0346,0.0211635,235.76,4.27365,3.90381,-12.4236221313477,22.0035419464111,35.0,22.0,-840485.0,1261.34,pp-riro,4,0,-1,-1
1570536434.4,2019-10-08,14:07:14.400,14.0,11.0,19.7099990844727,-15.1,18.1,9.2,-19.3,-14.7,153.0,-14.1277,17.6443,8.88592,-4.85955,-8.530710000000001,2.05009,-20.0841,-11.2732,149.231,-0.110641,-0.00463872,0.543447,269.8,5.7,52.1701,4.427230000000001,7.8,0.673764,306.657,4.5296,120.685,18.242,201.572,1.02633,0.0327748,235.646,4.30812,3.91279,-12.3416976928711,22.0035419464111,35.0,22.0,-841178.0,-15997.5,pp-riro,4,0,-1,-1
1570536434.5,2019-10-08,14:07:14.500,14.0,11.0,19.8899993896484,-15.1,17.8,8.5,-19.8,-12.6,155.0,-14.2696,17.0445,8.7192,-0.120241,-2.54845,-3.1579900000000003,-21.1367,-10.7303,151.959,-0.0344292,0.077114,0.474574,269.8,5.7,52.1701,4.427230000000001,7.8,1.19959,246.537,4.52959,122.466,16.722,200.572,1.01851,0.0470941999999999,235.599,4.34339,3.91659,-11.974739074707,22.0035419464111,35.0,22.0,-842508.0,19966.2,pp-riro,4,0,-1,-1
1570536434.6,2019-10-08,14:07:14.600,14.0,10.0,20.020000457763697,-15.2,17.2,7.9,-19.8,-11.4,157.2,-14.2988,16.7213,8.03036,1.11268,-2.12707,-9.45546,-21.7215,-8.81862,154.112,-0.02586,0.21247,0.49027,269.8,5.7,52.1701,4.427230000000001,7.8,1.02339,216.207,4.52959,124.248,14.822,199.672,1.011,0.064071,235.64,4.37187,3.92667,-11.2544784545898,22.003026962280305,35.0,22.0,-841294.0,23319.5,pp-riro,4,0,-1,-1
1570536434.7,2019-10-08,14:07:14.700,14.0,8.0,19.8899993896484,-15.4,16.7,8.0,-19.5,-11.5,158.1,-14.2845,16.4868,7.73785,-3.9609,-8.09883,-5.90533,-21.8733,-7.95432,154.879,-0.0502226,0.0964223,0.314237,269.8,5.7,52.1701,4.427219999999999,7.5,0.994578,235.42,4.52958,125.066,14.442,199.172,1.00711,0.0678428,235.626,4.38093,3.93903,-10.1706771850586,22.0035419464111,35.0,22.0,-841626.0,-6737.42,pp-riro,4,0,-1,-1
1570536434.8,2019-10-08,14:07:14.800,14.0,8.0,19.5699996948242,-15.7,16.0,8.2,-19.6,-11.6,159.1,-14.2845,16.4868,7.73785,-3.9609,-8.09883,-5.90533,-21.8733,-7.95432,154.879,-0.0502226,0.0964223,0.314237,269.8,5.7,52.1701,4.427219999999999,7.5,1.0655,274.581,4.52957,126.731,12.922,198.272,0.999719,0.0812008999999999,235.668,4.38324,3.94946,-8.73357391357422,22.003026962280305,35.0,22.0,-841501.0,2215.04,pp-riro,4,0,-1,-1
1570536434.9,2019-10-08,14:07:14.900,14.0,9.0,19.2999992370605,-16.1,15.7,7.8,-19.8,-11.0,159.5,-15.4357,14.8491,7.775869999999999,-6.363659999999999,0.0647809,-4.03319,-21.3375,-8.411669999999999,158.576,-0.0281098,-0.0749779,0.0230393,269.8,5.7,52.1701,4.427219999999999,7.5,1.0760299999999998,276.683,4.52957,128.25,11.022,197.472,0.993121,0.0970887,235.722,4.38115,3.962,-6.94486999511719,22.003026962280305,35.0,22.0,-841437.0,1199.82,pp-riro,4,0,-1,-1
1570536435.0,2019-10-08,14:07:15.000,14.0,9.0,19.2099990844727,-16.5,15.6,8.2,-19.4,-10.3,159.9,-15.625,14.7885,7.66287,0.134865,0.0683673,1.42899,-21.5302,-8.415280000000001,158.865,-0.312131,-0.0618564,0.0931856,269.8,5.7,52.1701,4.427219999999999,7.5,1.06882,278.144,4.52956,129.827,9.50199,196.672,0.986112,0.109766,235.85,4.3828,3.95922,-4.85919189453125,22.003026962280305,35.0,22.0,-840952.0,3445.62,pp-riro,4,0,-1,-1
1570536435.1,2019-10-08,14:07:15.100,14.0,10.0,19.340000152587898,-16.7,15.4,8.6,-19.4,-10.6,160.9,-16.2186,14.7317,8.2536,-0.209942,-0.5994,5.35909,-21.7077,-8.75482,160.20600000000002,-0.1117789999999999,-0.139639,0.153275,257.9,5.5,52.1701,4.427219999999999,7.5,1.07381,282.73400000000004,4.52956,131.316,7.60197,195.772,0.97919,0.125004,235.857,4.38184,3.95046,-2.76156616210938,22.003026962280305,35.0,22.0,-840909.0,830.6410000000001,pp-riro,4,0,-1,-1
1570536435.2,2019-10-08,14:07:15.200,14.0,10.0,19.6100006103516,-16.6,15.5,9.1,-19.9,-11.2,161.8,-16.242,14.8314,8.68929,7.852639999999999,7.425210000000001,4.186319999999999,-22.2062,-9.8154,161.309,-0.224057,-0.2096559999999999,0.0924522,257.9,5.5,52.1701,4.427219999999999,7.5,1.11315,290.438,4.52957,132.835,6.46197,194.772,0.971701,0.134218,235.845,4.38149,3.92938,-0.663932800292969,22.003026962280305,35.0,22.0,-840781.0,2491.92,pp-riro,4,0,-1,-1
1570536435.3,2019-10-08,14:07:15.300,14.0,9.0,19.7900009155273,-16.2,15.6,9.5,-20.7,-11.3,161.8,-16.0538,15.026,9.05589,-1.89551,0.8643270000000001,-0.8165819999999999,-22.7258,-10.8552,161.976,-0.118459,-0.279259,-0.0466735,257.9,5.5,52.1701,4.427219999999999,7.5,1.08046,270.24,4.52957,134.35399999999998,4.56196,193.772,0.96427,0.148874,235.838,4.36842,3.89646,1.4493789672851598,22.003026962280305,35.0,22.0,-840206.0,3322.56,pp-riro,4,0,-1,-1
1570536435.4,2019-10-08,14:07:15.400,14.0,10.0,19.9200000762939,-15.9,15.8,10.0,-21.7,-12.2,161.9,-16.0538,15.026,9.05589,-1.89551,0.8643270000000001,-0.8165819999999999,-22.7258,-10.8552,161.976,-0.118459,-0.279259,-0.0466735,257.9,5.5,52.1701,4.427219999999999,7.5,1.04334,251.666,4.52958,135.873,3.04195,192.672,0.956469,0.160424,235.782,4.35171,3.86552,3.54424285888672,22.0035419464111,35.0,22.0,-839749.0,4860.79,pp-riro,4,0,-1,-1
1570536435.5,2019-10-08,14:07:15.500,14.0,9.0,19.8799991607666,-15.3,15.9,10.4,-22.7,-13.3,161.4,-15.9084,15.3756,9.55478,4.32491,1.66708,6.0681,-23.8158,-11.7951,162.04399999999998,-0.0707559,-0.110613,-0.0561479,257.9,5.5,52.1701,4.427219999999999,7.5,1.0173,241.889,4.52959,137.362,1.14193,191.672,0.948964,0.174489,235.813,4.32249,3.82687,5.6595458984375,22.003026962280305,35.0,22.0,-839468.0,2276.57,pp-riro,4,0,-1,-1
1570536435.6,2019-10-08,14:07:15.600,14.0,8.0,19.8799991607666,-14.7,16.2,10.7,-23.5,-14.3,159.6,-15.9084,15.3756,9.55478,4.32491,1.66708,6.0681,-23.8158,-11.7951,162.04399999999998,-0.0707559,-0.110613,-0.0561479,257.9,5.5,52.1701,4.427219999999999,7.5,1.01619,240.303,4.52959,138.969,0.00194553,190.472,0.940478,0.182784,235.779,4.28067,3.79019,7.77143859863281,22.003026962280305,35.0,22.0,-839363.0,1968.93,pp-riro,4,0,-1,-1
1570536435.7,2019-10-08,14:07:15.700,14.0,8.0,19.8799991607666,-14.0,16.5,11.5,-24.2,-16.1,157.2,-15.9084,15.3756,9.55478,4.32491,1.66708,6.0681,-23.8158,-11.7951,162.04399999999998,-0.0707559,-0.110613,-0.0561479,257.9,5.5,52.1701,4.427219999999999,7.3,1.01563,239.421,4.52961,140.488,-1.51806,189.372,0.932496,0.1935849999999999,235.798,4.22092,3.74108,9.87992858886719,22.0025119781494,35.0,22.0,-839142.0,2430.39,pp-riro,4,0,-1,-1
1570536435.8,2019-10-08,14:07:15.800,14.0,9.0,19.9200000762939,-13.1,16.9,12.1,-25.0,-18.3,154.3,-15.153,16.0615,10.4704,3.38051,8.460989999999999,9.06419,-25.5162,-14.6608,160.30200000000002,-0.312967,-0.0664622,-0.4389119999999999,257.9,5.5,52.1701,4.427219999999999,7.3,1.01674,243.717,4.52961,142.094,-3.03805,188.272,0.924166,0.204158,235.894,4.15104,3.68678,11.9833145141602,22.003026962280305,35.0,22.0,-838871.0,1292.11,pp-riro,4,0,-1,-1
1570536435.9,2019-10-08,14:07:15.900,14.0,10.0,19.8299999237061,-12.0,17.4,12.8,-24.7,-20.5,150.7,-13.2549,17.516,12.3959,12.8556,9.70006,9.77339,-27.2302,-21.9062,154.60399999999998,-0.1210519999999999,-0.128065,-0.6782189999999999,257.9,5.5,52.1701,4.427219999999999,7.3,1.0245,245.383,4.52962,143.78799999999998,-4.17804,186.972,0.915019,0.2118219999999999,235.904,4.07439,3.62539,14.0866851806641,22.003026962280305,35.0,22.0,-838798.0,1476.7,pp-riro,4,0,-1,-1
1570536436.0,2019-10-08,14:07:16.000,14.0,10.0,19.7399997711182,-10.9,18.0,13.6,-24.7,-23.0,146.4,-12.3044,18.1372,13.2823,5.99647,6.47423,5.40035,-27.2623,-24.7,150.72799999999998,-0.566459,-0.173071,-0.940334,257.9,5.5,52.1701,4.427219999999999,7.3,1.02727,246.394,4.52962,145.482,-5.31802,185.672,0.905845,0.219305,235.939,3.98634,3.56255,16.1951751708984,22.003026962280305,35.0,22.0,-838548.0,2768.8,pp-riro,4,0,-1,-1
1570536436.1,2019-10-08,14:07:16.100,14.0,10.0,19.5100002288818,-9.5,18.5,14.5,-24.1,-25.7,141.6,-11.0941,18.9371,14.3455,16.6531,9.90749,11.1429,-27.2463,-28.2053,146.822,-0.405591,-0.286458,-0.880164,254.1,5.8,52.1701,4.427219999999999,7.3,1.0283799999999998,253.585,4.52963,147.205,-6.457999999999999,184.372,0.896553,0.226602,236.017,3.89107,3.4911,18.3036651611328,22.003026962280305,35.0,22.0,-838362.0,1292.11,pp-riro,4,0,-1,-1
1570536436.2,2019-10-08,14:07:16.200,14.0,11.0,19.3799991607666,-7.9,18.9,15.4,-22.9,-29.0,136.5,-10.4178,19.2792,14.8603,11.1244,6.10986,11.3606,-26.9647,-30.1614,144.761,-0.346117,-0.216179,-0.705343,254.1,5.8,52.1701,4.427219999999999,7.3,1.05664,266.714,4.52962,149.045,-7.217969999999999,182.871,0.8863850000000001,0.231156,236.027,3.79103,3.41731,20.4223785400391,22.0035419464111,35.0,22.0,-838273.0,1015.23,pp-riro,4,0,-1,-1
1570536436.3,2019-10-08,14:07:16.300,14.0,11.0,19.1499996185303,-6.2,19.3,16.1,-20.4,-32.4,129.8,-8.8303,19.8868,15.9659,7.50058,0.318397,8.33595,-25.7319,-33.8292,139.632,-0.0564005999999999,-0.456481,-1.1338,254.1,5.8,52.1701,4.427219999999999,7.3,1.07215,270.773,4.52962,150.827,-7.977930000000001,181.471,0.8766709999999999,0.235613,236.102,3.67162,3.34274,22.5359802246094,22.003026962280305,35.0,22.0,-838044.0,2768.8,pp-riro,4,0,-1,-1
1570536436.4,2019-10-08,14:07:16.400,14.0,11.0,19.0100002288818,-4.1,19.6,16.6,-17.3,-35.3,123.0,-6.908010000000001,20.5059,16.8361,19.8076,6.03185,2.58982,-23.9503,-38.1314,133.69899999999998,-0.264034,-0.3170179999999999,-1.15826,254.1,5.8,52.1701,4.427219999999999,7.3,1.05885,262.994,4.52961,152.725,-8.35788,179.87099999999998,0.8660979999999999,0.237444,236.111,3.56022,3.25808,24.644470214843803,22.0035419464111,35.0,22.0,-837618.0,2861.1,pp-riro,4,0,-1,-1
1570536436.5,2019-10-08,14:07:16.500,14.0,10.0,18.770000457763697,-1.9,20.0,17.3,-13.7,-38.2,114.8,-4.67312,21.0858,17.5879,29.6749,6.02623,7.31312,-20.8986,-41.7504,126.345,-0.270977,-0.304555,-1.00329,254.1,5.8,52.1701,4.427219999999999,7.3,1.05497,263.483,4.52961,154.71200000000002,-8.73783,178.271,0.855246,0.239201,236.205,3.43467,3.17061,26.7444458007812,22.003026962280305,35.0,22.0,-837464.0,3014.92,pp-riro,4,0,-1,-1
1570536436.6,2019-10-08,14:07:16.600,14.0,11.0,18.7199993133545,0.5,20.0,17.6,-9.0,-40.0,106.1,-2.2131,21.5908,18.356,24.8553,2.69307,7.77959,-17.1871,-45.1498,118.26,-0.177754,-0.300292,-1.0003,254.1,5.8,52.1701,4.427219999999999,7.3,1.05941,272.968,4.5296,156.668,-8.73777,176.671,0.844563,0.238503,236.292,3.3135800000000004,3.08102,28.8597412109375,22.0035419464111,23.0163822174072,22.0,-837280.0,1230.58,pp-riro,4,0,-1,-1
1570536436.7,2019-10-08,14:07:16.700,14.0,10.0,18.7199993133545,3.0,19.6,17.7,-3.1,-41.7,96.3,2.12549,21.5944,18.9626,28.1797,-6.409269999999999,3.84398,-8.806610000000001,-49.3349,103.834,0.267422,-0.0338145,-1.31702,254.1,5.8,52.1701,4.427219999999999,7.1,1.08988,279.845,4.52959,158.596,-8.7377,175.171,0.8342639999999999,0.237833,236.461,3.1825900000000003,2.98772,30.762145996093803,22.0035419464111,23.0163822174072,22.0,-837153.0,1876.63,pp-ro,1,1,-1,-1
1570536436.8,2019-10-08,14:07:16.800,14.0,10.0,18.7199993133545,5.5,19.0,17.4,3.3,-41.9,85.8,4.8879,21.0924,18.7758,31.481,-6.01814,2.72958,-1.62436,-51.1009,91.8863,-0.0421162,-0.131305,-1.16872,254.1,5.8,52.1701,4.427219999999999,7.1,1.07935,274.062,4.52959,160.553,-8.35763,173.571,0.823666,0.234809,236.588,3.04842,2.89305,32.320526123046896,22.0035419464111,23.0163822174072,22.0,-836768.0,4245.5,pp-ro,1,1,-1,-1
1570536436.9,2019-10-08,14:07:16.900,14.0,10.0,18.6700000762939,7.7,18.3,16.8,9.9,-41.2,75.0,4.8879,21.0924,18.7758,31.481,-6.01814,2.72958,-1.62436,-51.1009,91.8863,-0.0421162,-0.131305,-1.16872,254.1,5.8,52.1701,4.427219999999999,7.1,1.05941,262.60400000000004,4.52958,162.393,-7.59755,172.071,0.8137800000000001,0.229557,236.723,2.9110400000000003,2.80675,33.521240234375,22.003026962280305,23.0139999389648,22.0,-836496.0,2153.51,pp-ro,1,1,-1,-1
1570536437.0,2019-10-08,14:07:17.000,14.0,11.0,18.5300006866455,9.9,17.2,16.2,16.2,-39.4,64.7,4.8879,21.0924,18.7758,31.481,-6.01814,2.72958,-1.62436,-51.1009,91.8863,-0.0421162,-0.131305,-1.16872,254.1,5.8,52.1701,4.427219999999999,7.1,1.04611,253.568,4.52958,164.145,-6.83747,170.671,0.804453,0.2244429999999999,236.894,2.77431,2.71469,34.3609008789062,22.003026962280305,23.0139999389648,22.0,-836140.0,4060.91,pp-ro,1,1,-1,-1
1570536437.1,2019-10-08,14:07:17.100,14.0,11.0,18.2900009155273,11.9,16.2,15.5,22.3,-36.8,54.1,11.3615,19.0578,17.3917,22.3645,-15.3527,-10.4605,18.2447,-49.9104,60.2493,-0.6093350000000001,-0.0467668,-1.48653,262.3,7.6,52.1701,4.427219999999999,7.1,1.0278200000000002,252.11900000000003,4.52957,165.868,-6.07739,169.171,0.7949189999999999,0.219441,236.998,2.62604,2.62736,34.8394775390625,22.0035419464111,23.0163822174072,22.0,-835884.0,1661.28,pp-ro,1,1,-1,-1
1570536437.2,2019-10-08,14:07:17.200,14.0,12.0,18.1399993896484,13.8,15.1,14.6,26.9,-33.3,45.0,13.7381,18.0554,16.5365,15.7815,-4.24597,-11.8965,24.7246,-47.0359,48.8521,0.0132526,-0.0337468,-1.38325,262.3,7.6,52.1701,4.427219999999999,7.1,1.04334,254.131,4.52956,167.475,-4.55729,167.87099999999998,0.7863939999999999,0.210031,237.169,2.48937,2.54086,34.972320556640604,22.003026962280305,22.0546855926514,22.0,-835730.0,1999.69,pp-ro,1,1,-1,-1
1570536437.3,2019-10-08,14:07:17.300,14.0,13.0,17.9899997711182,15.5,13.7,13.8,31.4,-29.9,36.4,13.7381,18.0554,16.5365,15.7815,-4.24597,-11.8965,24.7246,-47.0359,48.8521,0.0132526,-0.0337468,-1.38325,262.3,7.6,52.1701,4.427219999999999,7.1,1.0427799999999998,259.907,4.52956,168.935,-3.41721,166.571,0.778249,0.203059,237.269,2.35488,2.45444,34.7849731445312,22.003026962280305,20.6101455688477,22.0,-835467.0,2522.69,pp-ro,1,1,-1,-1
1570536437.4,2019-10-08,14:07:17.400,14.0,13.0,17.8899993896484,16.9,12.2,12.7,34.8,-25.7,27.9,17.9884,15.2231,14.4784,8.273439999999999,-10.0672,-8.46291,34.8412,-38.8516,28.479,-0.472242,-0.0152819999999999,-1.4517,262.3,7.6,52.1701,4.427219999999999,7.1,1.0583,269.383,4.52955,170.308,-1.51712,165.271,0.77037,0.191749,237.321,2.21418,2.3706,34.1956939697266,22.0035419464111,19.1742820739746,22.0,-835353.0,799.877,pp-ro,1,1,-1,-1
1570536437.5,2019-10-08,14:07:17.500,14.0,13.0,17.840000152587898,18.0,10.9,11.3,37.4,-21.1,21.0,19.5862,13.5149,12.9624,16.6012,-9.3791,-15.6647,37.8731,-33.9829,20.5482,-0.2316489999999999,0.293465,-1.28222,262.3,7.6,52.1701,4.427219999999999,7.1,1.07437,265.072,4.52954,171.56400000000002,0.00296521,164.171,0.763382,0.182831,237.457,2.08435,2.2880700000000003,33.243621826171896,22.0035419464111,17.757398605346697,22.0,-835112.0,3414.86,pp-ro,1,1,-1,-1
1570536437.6,2019-10-08,14:07:17.600,14.0,13.0,17.7900009155273,19.0,9.4,10.0,39.7,-16.8,14.5,19.5862,13.5149,12.9624,16.6012,-9.3791,-15.6647,37.8731,-33.9829,20.5482,-0.2316489999999999,0.293465,-1.28222,262.3,7.6,52.1701,4.427219999999999,7.1,1.02339,247.093,4.52953,172.673,1.90305,163.071,0.756774,0.171836,237.512,1.9625,2.20393,32.6356201171875,22.0035419464111,16.2842292785645,22.0,-834561.0,2399.63,pp-ro,1,1,-1,-1
1570536437.7,2019-10-08,14:07:17.700,14.0,14.0,17.7900009155273,19.6,8.1,8.5,41.0,-12.6,8.8,21.1818,10.7601,10.7031,13.8097,-14.0018,-13.358,40.7925,-26.2277,9.5443,-0.388996,-0.4376239999999999,-1.43151,262.3,7.6,52.1701,4.42721,6.9,1.0245,246.246,4.52953,173.608,3.80313,162.171,0.7512300000000001,0.160961,237.599,1.85023,2.12554,30.7212829589844,22.003026962280305,14.8893623352051,22.0,-834478.0,1599.75,pp-ro,1,1,-1,-1
1570536437.8,2019-10-08,14:07:17.800,14.0,15.0,17.6399993896484,20.1,6.8,7.3,41.5,-8.4,3.9,22.0189,9.25607,8.932889999999999,9.4754,-19.6088,-24.8547,41.4692,-21.4231,3.70721,-0.2148219999999999,0.159659,-1.17606,262.3,7.6,52.1701,4.42721,6.9,1.02671,242.36,4.52952,174.455,5.70321,161.471,0.746499,0.150188,237.781,1.74656,2.05384,28.7967224121094,22.0035419464111,13.6007461547852,22.0,-834255.0,2707.28,pp-ro,1,1,-1,-1
1570536437.9,2019-10-08,14:07:17.900,14.0,14.0,17.5400009155273,20.3,6.2,6.6,42.4,-4.5,-0.5,22.2764,8.35535,8.211730000000001,3.32066,-21.0075,-11.232,41.7902,-18.5232,1.42733,-0.178852,0.421906,-1.10575,262.3,7.6,52.1701,4.42721,6.9,1.00289,232.645,4.52951,175.185,7.603280000000001,160.77,0.74205,0.139505,237.896,1.65209,2.01993,26.6882400512695,22.003026962280305,13.0644998550415,22.0,-833939.0,2953.39,pp-ro,1,1,-1,-1
1570536438.0,2019-10-08,14:07:18.000,14.0,13.0,17.3899993896484,20.3,5.2,5.3,42.9,-0.7,-4.5,22.5066,6.2653300000000005,5.88419,3.41299,-15.7738,-17.3485,42.0349,-11.5563,-5.23337,0.0396263,0.00952344,-0.7523880000000001,262.3,7.6,52.1701,4.42721,6.9,0.998456,230.139,4.5295,175.827,9.88336,160.27,0.738359,0.126735,238.117,1.56476,1.9595,24.0636978149414,22.003026962280305,11.9577732086182,22.0,-833651.0,2030.46,pp-ro,1,1,-1,-1
1570536438.1,2019-10-08,14:07:18.100,14.0,11.0,17.4400005340576,20.4,3.7,3.6,43.3,2.6,-8.2,22.5366,5.09206,4.61245,7.00143,-11.4912,-8.160689999999999,42.0317,-6.95843,-9.39707,-0.4389109999999999,0.178989,-1.0167,266.2,8.0,52.1701,4.42721,6.9,0.996794,231.544,4.52949,176.35299999999998,11.7834,159.87,0.735306,0.116176,238.323,1.48588,1.86345,21.950096130371104,22.003026962280305,10.1288051605225,22.0,-833550.0,2030.46,pp-ro,1,1,-1,-1
1570536438.2,2019-10-08,14:07:18.200,14.0,12.0,17.479999542236303,20.3,2.9,2.5,43.6,5.8,-11.7,22.4732,3.94872,3.2993900000000003,0.157314,-6.39712,-6.79717,42.3243,-2.49859,-12.8308,-0.221301,0.13802,-0.902113,266.2,8.0,52.1701,4.42721,6.9,1.00289,234.088,4.52957,176.762,14.0635,159.47,0.7324470000000001,0.1034279999999999,238.481,1.41213,1.80951,20.8975524902344,22.003026962280305,9.12852096557617,22.0,-833403.0,1353.64,pp-ro,1,1,-1,-1
1570536438.3,2019-10-08,14:07:18.300,14.0,11.0,17.6800003051758,20.1,2.6,2.1,43.8,7.4,-13.4,21.9482,2.3809400000000003,1.66897,-4.29355,-9.21551,-9.01226,42.2318,3.14961,-17.9732,-0.0582747,-0.0566992,-0.984222,266.2,8.0,52.1701,4.42721,6.9,1.00954,238.341,4.5296400000000006,177.141,15.5835,159.37,0.730721,0.0950043,238.79,1.37726,1.79279,18.7958755493164,22.003026962280305,8.84266757965088,22.0,-833106.0,2030.46,pp-ro,1,1,-1,-1
1570536438.4,2019-10-08,14:07:18.400,14.0,10.0,17.7800006866455,20.0,1.8,1.2,44.3,11.6,-18.3,21.9482,2.3809400000000003,1.66897,-4.29355,-9.21551,-9.01226,42.2318,3.14961,-17.9732,-0.0582747,-0.0566992,-0.984222,266.2,8.0,52.1701,4.42721,6.9,1.01009,240.002,4.52971,177.433,17.8636,158.97,0.728064,0.0823757,238.9,1.27465,1.74256,16.6805725097656,22.0035419464111,7.92173957824707,22.0,-833013.0,1753.58,pp-ro,1,1,-1,-1
1570536438.5,2019-10-08,14:07:18.500,14.0,13.0,17.8299999237061,20.1,1.0,0.1,44.6,12.8,-19.6,21.7755,1.60582,0.5193220000000001,-6.79387,-7.13655,-10.0184,42.3264,6.771610000000001,-20.7938,0.191779,0.1562059999999999,-0.670954,266.2,8.0,52.1701,4.42721,6.9,1.0245,248.414,4.529780000000001,177.521,19.0036,158.87,0.7271810000000001,0.0759637,238.987,1.24844,1.67893,14.0986175537109,22.0035419464111,6.670161247253421,22.0,-832885.0,1230.58,pp-ro,1,1,-1,-1
1570536438.6,2019-10-08,14:07:18.600,14.0,14.0,17.8299999237061,20.2,-0.3,-1.1,45.9,15.2,-23.4,21.6071,0.590345,-0.477068,2.9169400000000003,-7.66867,-12.3052,42.3534,9.77402,-23.5565,0.189828,-0.0222115,-0.636193,266.2,8.0,52.1701,4.42721,6.9,1.04832,267.517,4.52985,177.667,22.0437,158.67,0.725184,0.0590932,239.223,1.18498,1.60211,12.1161499023438,22.0035419464111,5.18009853363037,22.0,-832764.0,1045.99,pp-ro,1,1,-1,-1
1570536438.7,2019-10-08,14:07:18.700,14.0,13.0,17.8299999237061,20.0,-0.8,-1.5,46.1,16.1,-24.4,21.576,-0.387923,-1.38097,-6.3141300000000005,-10.7971,-11.0039,42.8128,12.3207,-25.8876,0.0567924,0.2172909999999999,-0.446685,266.2,8.0,52.1701,4.4272,6.7,1.10761,297.868,4.52994,177.667,23.1837,158.67,0.724785,0.0526878,239.331,1.16624,1.57415,9.88162994384766,22.0035419464111,4.62139129638672,22.0,-832679.0,922.935,pp-ro,1,1,-1,-1
1570536438.8,2019-10-08,14:07:18.800,14.0,13.0,17.9300003051758,20.1,-1.7,-2.1,47.3,17.4,-26.4,21.0715,-1.8713,-2.36482,-0.595964,-9.08326,-10.9747,43.8692,15.49,-28.7165,0.287076,-0.00927622,-0.285108,266.2,8.0,52.1701,4.4272,6.7,1.12312,302.584,4.53,177.55,25.4638,158.67,0.724249,0.0399463,239.476,1.13515,1.53123,8.15805053710938,22.0035419464111,3.75296425819397,22.0,-832589.0,1722.81,pp-ro,1,1,-1,-1
1570536438.9,2019-10-08,14:07:18.900,14.0,13.0,18.0799999237061,20.2,-2.3,-2.6,47.9,18.3,-28.0,21.0715,-1.8713,-2.36482,-0.595964,-9.08326,-10.9747,43.8692,15.49,-28.7165,0.287076,-0.00927622,-0.285108,266.2,8.0,52.1701,4.4272,6.7,1.127,302.189,4.530069999999999,177.40400000000002,27.7439,158.77,0.7240270000000001,0.0271895,239.687,1.11378,1.50269,6.70356750488281,22.0035419464111,3.15796995162964,22.0,-832244.0,4091.68,pp-ro,1,1,-1,-1
1570536439.0,2019-10-08,14:07:19.000,14.0,11.0,18.3199996948242,19.9,-3.3,-3.0,48.9,18.2,-29.8,21.234,-2.28615,-2.63128,2.7339900000000004,-6.283440000000001,-2.97437,44.6016,16.1071,-29.4054,0.225604,-0.0468078,-0.38475,266.2,8.0,52.1701,4.4272,6.7,1.12202,312.941,4.53016,177.141,29.2639,158.87,0.72439,0.0185105,239.74,1.09963,1.45947,6.02742004394531,22.004056930542003,2.24760913848877,22.0,-831969.0,1907.4,pp-ro,1,1,-1,-1
1570536439.1,2019-10-08,14:07:19.100,14.0,10.0,18.5599994659424,19.8,-4.1,-3.2,50.2,18.0,-30.5,20.7303,-3.93056,-3.5975,3.2727,-6.71683,-5.89909,46.624,17.8419,-31.7535,0.284267,0.0137790999999999,-0.0740835,268.2,8.0,52.1701,4.4272,6.7,1.1813,331.001,4.53021,176.732,31.5439,158.97,0.724749,0.00555242,239.793,1.10253,1.43484,4.813079833984379,22.0035419464111,1.69886410236359,22.0,-831740.0,3353.33,pp-ro,1,1,-1,-1
1570536439.2,2019-10-08,14:07:19.200,14.0,10.0,18.7000007629395,19.5,-4.5,-3.4,51.0,18.2,-30.8,20.7303,-3.93056,-3.5975,3.2727,-6.71683,-5.89909,46.624,17.8419,-31.7535,0.284267,0.0137790999999999,-0.0740835,268.2,8.0,52.1701,4.4272,6.7,1.17355,321.877,4.53029,176.294,33.444,159.07,0.725301,-0.00534096,239.794,1.10386,1.41865,3.47100830078125,22.0035419464111,1.3132187128067,22.0,-831481.0,4768.5,pp-ro,1,1,-1,-1
1570536439.3,2019-10-08,14:07:19.300,14.0,9.0,18.9300003051758,19.1,-4.6,-3.1,52.3,17.8,-31.4,20.5808,-4.32902,-3.6517,0.8207260000000001,-7.756,-1.8383,47.0035,18.1943,-31.9789,0.051309,0.0609621999999999,-0.0952245,268.2,8.0,52.1701,4.4272,6.7,1.12922,297.819,4.53037,175.826,35.724000000000004,159.27,0.725978,-0.0184337,239.913,1.11044,1.42982,2.4865875244140603,22.0035419464111,1.4620478153228798,22.0,-830915.0,5660.67,pp-ro,1,1,-1,-1
1570536439.4,2019-10-08,14:07:19.400,14.0,10.0,19.0699996948242,19.1,-4.6,-3.0,53.2,18.2,-31.6,19.8195,-4.89016,-3.54633,-3.54184,-1.85727,1.59131,49.9695,19.5693,-31.929,0.251892,0.0807066,0.00307734,268.2,8.0,52.1701,4.4272,6.7,1.08766,280.398,4.53045,175.388,37.624,159.47,0.726713,-0.0293815999999999,240.015,1.11048,1.44075,1.6316146850585902,22.0035419464111,1.60693800449371,22.0,-830365.0,2461.16,pp-ro,1,1,-1,-1
1570536439.5,2019-10-08,14:07:19.500,14.0,9.0,19.2999992370605,18.7,-4.8,-2.9,53.5,18.6,-31.7,19.6155,-5.11022,-3.33425,-7.48568,-3.50595,-1.85276,50.5986,20.0572,-31.9653,0.139589,-0.0694883999999999,0.0189931,268.2,8.0,52.1701,4.4272,6.7,1.07935,272.328,4.53055,174.921,39.5241,159.67,0.727468,-0.0403841999999999,240.113,1.1117,1.44,1.35570526123047,22.0035419464111,1.51671063899994,22.0,-830016.0,3907.09,pp-ro,1,1,-1,-1
1570536439.6,2019-10-08,14:07:19.600,14.0,10.0,19.3899993896484,18.3,-5.0,-2.7,53.5,18.3,-31.8,19.1396,-5.22084,-3.07223,-8.771510000000001,-2.33737,1.64118,50.6188,19.5447,-32.5642,-0.125862,-0.127969,0.2201659999999999,268.2,8.0,52.1701,4.4272,6.7,1.05664,265.39,4.53062,174.395,41.8041,159.87,0.7280760000000001,-0.0534973,240.249,1.12297,1.44425,1.3437805175781203,22.003026962280305,1.53413867950439,22.0,-829710.0,2461.16,pp-ro,1,1,-1,-1
1570536439.7,2019-10-08,14:07:19.700,14.0,11.0,19.2600002288818,18.0,-5.1,-2.6,53.8,17.3,-31.6,18.6907,-5.29269,-2.9424,1.47728,-0.784461,-2.455,50.8317,18.9146,-32.5947,-0.0604707,-0.0421416,-0.0200875999999999,268.2,8.0,52.1701,4.4272,6.3,1.05497,259.61400000000003,4.5307,173.86900000000003,43.3241,159.97,0.7288020000000001,-0.0625116999999999,240.204,1.14368,1.44647,1.49024963378906,22.003026962280305,1.50867545604706,22.0,-829603.0,2091.99,pp-ro,1,1,-1,-1
1570536439.8,2019-10-08,14:07:19.800,14.0,12.0,18.979999542236303,18.0,-5.0,-2.6,53.6,17.0,-31.5,18.5734,-5.29929,-2.90633,-4.24741,-1.09022,-6.759639999999999,51.0383,18.4502,-32.3155,0.0504564,0.0766776,0.258312,268.2,8.0,52.1701,4.4272,6.3,1.0389,248.776,4.53078,173.34400000000002,44.8441,160.17,0.729798,-0.0715403,240.236,1.15457,1.4557,1.5941467285156203,22.0035419464111,1.60083103179932,22.0,-829232.0,4183.97,pp-ro,1,1,-1,-1
1570536439.9,2019-10-08,14:07:19.900,14.0,12.0,18.75,18.2,-5.3,-2.4,53.4,16.5,-31.7,18.5734,-5.29929,-2.90633,-4.24741,-1.09022,-6.759639999999999,51.0383,18.4502,-32.3155,0.0504564,0.0766776,0.258312,268.2,8.0,52.1701,4.4272,6.3,1.04001,262.518,4.53086,172.78900000000002,47.1242,160.37,0.730282,-0.0847227,240.406,1.16724,1.46543,1.49024963378906,22.003026962280305,1.73922336101532,22.0,-829008.0,-153.822,pp-ro,1,1,-1,-1
1570536440.0,2019-10-08,14:07:20.000,14.0,12.0,18.5100002288818,18.3,-5.7,-2.2,52.8,16.0,-32.0,18.8801,-5.70028,-2.58325,3.86791,-4.035159999999999,5.57375,50.4519,17.6436,-32.2233,-0.126859,-0.170085,-0.0407153,268.2,8.0,52.1701,4.4272,6.3,1.07991,276.757,4.53094,172.204,49.0242,160.57,0.7310479999999999,-0.095901,240.5,1.17741,1.46924,1.44596862792969,22.003026962280305,1.73866939544678,22.0,-828907.0,1722.81,pp-ro,1,1,-1,-1
1570536440.1,2019-10-08,14:07:20.100,14.0,11.0,18.3199996948242,18.4,-5.8,-1.9,52.5,15.3,-32.5,19.0492,-6.00369,-2.34181,3.04001,-2.3634,-0.515726,50.0042,16.8538,-32.6244,0.0133516,-0.0571442,0.00669959,275.2,7.8,52.1701,4.4272,6.3,1.08101,276.946,4.53102,171.562,50.5442,160.67,0.731897,-0.10514,240.423,1.18642,1.4851299999999998,1.67588806152344,22.003026962280305,1.97308588027954,22.0,-828615.0,3137.98,pp-ro,1,1,-1,-1
1570536440.2,2019-10-08,14:07:20.200,14.0,12.0,18.1299991607666,18.3,-6.0,-1.8,52.0,14.8,-33.2,19.1109,-6.21439,-2.07716,-3.4197,-0.866749,4.1597800000000005,49.6439,16.2375,-33.0864,-0.0970251999999999,-0.0321109,0.0363164,275.2,7.8,52.1701,4.4272,6.3,1.07547,272.518,4.53114,170.919,52.8243,160.77,0.732085,-0.118501,240.522,1.19335,1.49003,1.73039245605469,22.003026962280305,2.04722785949707,22.0,-828468.0,2922.63,pp-ro,1,1,-1,-1
1570536440.3,2019-10-08,14:07:20.300,14.0,11.0,17.979999542236303,18.1,-6.1,-1.6,51.6,14.4,-33.5,19.1109,-6.21439,-2.07716,-3.4197,-0.866749,4.1597800000000005,49.6439,16.2375,-33.0864,-0.0970251999999999,-0.0321109,0.0363164,275.2,7.8,52.1701,4.4272,6.3,1.045,251.86,4.53126,170.27599999999998,54.3443,160.87,0.7328319999999999,-0.1278089999999999,240.472,1.2009999999999998,1.49786,1.9143371582031203,22.0035419464111,2.13022255897522,22.0,-827934.0,3999.38,pp-ro,1,1,-1,-1
1570536440.4,2019-10-08,14:07:20.400,14.0,10.0,17.9899997711182,17.8,-6.1,-1.4,51.2,13.9,-34.3,18.9984,-6.38093,-1.95652,-0.828291,-2.3862,3.62993,49.342,15.9467,-33.3713,-0.0178563,-0.144387,-0.018109,275.2,7.8,52.1701,4.4272,6.3,1.01452,238.132,4.53138,169.634,55.8643,160.87,0.733229,-0.137132,240.366,1.204,1.50755,2.134033203125,22.003026962280305,2.28539538383484,22.0,-827613.0,2830.33,pp-ro,1,1,-1,-1
1570536440.5,2019-10-08,14:07:20.500,14.0,9.0,18.0799999237061,17.6,-6.0,-1.3,50.9,13.7,-34.9,18.4916,-6.53961,-1.4614,-4.2134,-1.32019,-1.41476,48.3007,15.0289,-35.1402,-0.103317,-0.149707,0.0571483,275.2,7.8,52.1701,4.4272,6.3,1.00511,233.083,4.5315,168.96200000000002,58.1443,160.97,0.7332850000000001,-0.150548,240.5,1.20842,1.52082,2.1476593017578103,22.003026962280305,2.5545222759246804,22.0,-827484.0,2399.63,pp-ro,1,1,-1,-1
1570536440.6,2019-10-08,14:07:20.600,14.0,10.0,18.1800003051758,17.3,-6.0,-1.3,50.7,13.3,-35.2,18.4916,-6.53961,-1.4614,-4.2134,-1.32019,-1.41476,48.3007,15.0289,-35.1402,-0.103317,-0.149707,0.0571483,275.2,7.8,52.1701,4.4272,6.3,0.996794,227.299,4.53164,168.29,60.0443,161.07,0.7336090000000001,-0.161888,240.563,1.21751,1.52404,2.23963165283203,22.0019989013672,2.5988438129425,22.0,-827240.0,2676.51,pp-ro,1,1,-1,-1
1570536440.7,2019-10-08,14:07:20.700,14.0,8.0,18.1800003051758,17.1,-6.0,-1.1,50.5,13.3,-35.5,17.9838,-6.479430000000001,-1.34584,0.624907,-1.60457,2.26406,47.9229,14.4066,-35.9315,0.100812,-0.1761619999999999,-0.0136431,275.2,7.8,52.17,4.42719,5.9,0.984604,225.029,4.53175,167.67700000000002,61.5644,161.17,0.734083,-0.171238,240.586,1.22017,1.5354,2.5274658203125,22.003026962280305,2.78948545455933,22.0,-827025.0,1938.16,pp-ro,1,1,-1,-1
1570536440.8,2019-10-08,14:07:20.800,14.0,9.0,18.229999542236303,16.9,-5.7,-1.0,50.5,13.0,-36.1,17.9838,-6.479430000000001,-1.34584,0.624907,-1.60457,2.26406,47.9229,14.4066,-35.9315,0.100812,-0.1761619999999999,-0.0136431,275.2,7.8,52.17,4.42719,5.9,0.990699,226.081,4.53188,167.063,63.0844,161.27,0.734516,-0.180548,240.62,1.22302,1.55314,2.6041030883789102,22.0025119781494,3.11475539207458,22.0,-826886.0,1507.46,pp-ro,1,1,-1,-1
1570536440.9,2019-10-08,14:07:20.900,14.0,8.0,18.1800003051758,16.8,-5.7,-0.9,50.7,13.4,-36.3,17.578,-6.19568,-1.01589,2.21327,2.94965,-0.0223707,47.93,14.0788,-37.2958,-0.0266851,0.0883333,-0.0765107,275.2,7.8,52.17,4.42719,5.9,0.992916,230.373,4.53199,166.421,64.9844,161.27,0.7342890000000001,-0.191873,240.68,1.22327,1.56339,2.81018829345703,22.003026962280305,-35.0,22.0,-826606.0,1784.34,pp-ro,1,1,-1,-1
1570536441.0,2019-10-08,14:07:21.000,14.0,11.0,18.229999542236303,16.9,-5.9,-1.0,50.8,14.0,-36.8,17.578,-6.19568,-1.01589,2.21327,2.94965,-0.0223707,47.93,14.0788,-37.2958,-0.0266851,0.0883333,-0.0765107,275.2,7.8,52.17,4.42719,5.9,0.996794,233.328,4.53215,165.80700000000002,66.5044,161.37,0.734628,-0.201214,240.739,1.21605,1.55986,3.0912017822265603,22.0025119781494,-35.0,22.0,-826541.0,1230.58,pp-ro,1,1,-1,-1
1570536441.1,2019-10-08,14:07:21.100,14.0,11.0,18.229999542236303,16.9,-6.2,-1.1,51.0,14.0,-37.8,17.5149,-6.20965,-0.977697,4.57963,-2.96591,-2.75529,47.9439,14.3738,-37.3242,0.0162760999999999,-0.0238195,-0.0927822,272.4,7.3,52.17,4.42719,5.9,1.0339200000000002,257.499,4.53223,165.165,68.4045,161.47,0.734596,-0.212492,240.897,1.21182,1.55293,3.060546875,22.003026962280305,-35.0,22.0,-826398.0,892.17,pp-ro,1,1,-1,-1
1570536441.2,2019-10-08,14:07:21.200,14.0,10.0,18.229999542236303,16.8,-6.5,-1.1,51.0,13.7,-38.7,17.5149,-6.20965,-0.977697,4.57963,-2.96591,-2.75529,47.9439,14.3738,-37.3242,0.0162760999999999,-0.0238195,-0.0927822,272.4,7.3,52.17,4.42719,5.9,1.06495,273.532,4.53228,164.493,69.9245,161.57,0.734991,-0.2218369999999999,240.94,1.21121,1.54747,2.63645935058594,22.0035419464111,-35.0,22.0,-826330.0,676.819,pp-ro,1,1,-1,-1
1570536441.3,2019-10-08,14:07:21.300,14.0,11.0,18.3299999237061,16.7,-6.8,-1.1,51.3,13.8,-39.4,17.5381,-6.35636,-0.970925,0.829234,-4.666,-0.524663,48.0299,14.7083,-37.4414,0.108463,-0.0275556,-0.114061,272.4,7.3,52.17,4.42719,5.9,1.07991,276.093,4.53233,163.792,71.8245,161.67,0.7349939999999999,-0.233197,241.08900000000003,1.20934,1.54336,1.86664581298828,22.003026962280305,-35.0,22.0,-826257.0,1384.4,pp-ro,1,1,-1,-1
1570536441.4,2019-10-08,14:07:21.400,14.0,11.0,18.5699996948242,16.7,-7.0,-1.2,51.5,13.7,-39.7,17.3679,-7.07475,-1.1131,-1.6487599999999998,-0.959933,0.6468729999999999,48.2018,14.5985,-39.8596,0.0801547,0.0286822,-0.0457868,272.4,7.3,52.17,4.42719,5.9,1.05608,261.248,4.532369999999999,163.062,73.3445,161.77,0.735442,-0.242661,241.118,1.2134200000000002,1.53894,0.739166259765625,22.003026962280305,-35.0,22.0,-825690.0,4368.56,pp-ro,1,1,-1,-1
1570536441.5,2019-10-08,14:07:21.500,14.0,10.0,18.7099990844727,16.6,-7.2,-1.2,51.6,12.7,-40.4,17.3679,-7.07475,-1.1131,-1.6487599999999998,-0.959933,0.6468729999999999,48.2018,14.5985,-39.8596,0.0801547,0.0286822,-0.0457868,272.4,7.3,52.17,4.42719,5.9,1.04057,261.588,4.532430000000001,162.332,75.2445,161.87,0.735402,-0.254081,241.278,1.22533,1.53825,-0.7492752075195309,22.003026962280305,-35.0,22.0,-825544.0,2922.63,pp-ro,1,1,-1,-1
1570536441.6,2019-10-08,14:07:21.600,14.0,11.0,18.7999992370605,16.9,-7.2,-1.0,51.9,12.1,-40.8,17.2267,-7.505039999999999,-1.22217,4.547219999999999,-4.43286,3.66877,48.6674,15.2644,-40.3199,0.0886459,-0.10036,-0.152606,272.4,7.3,52.17,4.42719,5.9,1.06716,274.607,4.5324800000000005,161.572,76.7646,161.97,0.735825,-0.263626,241.314,1.23453,1.5578,-2.59429931640625,22.003026962280305,-35.0,22.0,-825502.0,123.058,pp-ro,1,1,-1,-1
1570536441.7,2019-10-08,14:07:21.700,14.0,10.0,18.8899993896484,17.2,-7.3,-0.6,52.5,11.3,-40.6,17.2267,-7.505039999999999,-1.22217,4.547219999999999,-4.43286,3.66877,48.6674,15.2644,-40.3199,0.0886459,-0.10036,-0.152606,272.4,7.3,52.17,4.42719,5.3,1.09099,281.16900000000004,4.53253,160.813,78.6646,162.07,0.73574,-0.275082,241.486,1.25474,1.58294,-4.697044372558589,22.0035419464111,-35.0,22.0,-825248.0,3476.39,pp-ro,1,1,-1,-1
1570536441.8,2019-10-08,14:07:21.800,14.0,10.0,18.9899997711182,17.4,-7.1,-0.2,52.9,10.0,-40.7,17.1361,-7.59151,-1.04529,-0.3699119999999999,-1.71712,-4.06658,49.1475,14.4404,-40.4766,-0.146369,0.0158702,0.0483313,272.4,7.3,52.17,4.42719,5.3,1.08434,281.068,4.53258,160.053,80.1846,162.07,0.735757,-0.284623,241.481,1.27639,1.61465,-6.79979705810547,22.0035419464111,-35.0,22.0,-824879.0,2153.51,pp-ro,1,1,-1,-1
1570536441.9,2019-10-08,14:07:21.900,14.0,10.0,19.2199993133545,17.8,-7.0,0.3,54.0,8.6,-40.0,17.5286,-7.38543,0.0267303,-0.254033,4.34656,3.37558,50.6686,12.8472,-39.378,0.0759111,-0.116739,0.2993159999999999,272.4,7.3,52.17,4.42719,5.3,1.09099,284.409,4.53262,159.32299999999998,82.4646,162.07,0.734691,-0.297859,241.766,1.3115,1.65157,-8.91448974609375,22.003026962280305,-35.0,22.0,-824759.0,2368.87,pp-ro,1,1,-1,-1
1570536442.0,2019-10-08,14:07:22.000,14.0,10.0,19.4400005340576,18.3,-6.8,1.1,55.0,6.7,-38.9,17.6816,-7.310639999999999,0.370037,6.44431,1.83083,8.17197,51.0135,12.1712,-38.9365,0.039113,-0.0997478999999999,0.302367,272.4,7.3,52.17,4.42719,5.3,1.09487,286.252,4.53267,158.622,83.9846,162.07,0.7344579999999999,-0.307225,241.828,1.35511,1.7006599999999998,-11.0291900634766,22.003026962280305,-35.0,22.0,-824499.0,2338.1,pp-ro,1,1,-1,-1
1570536442.1,2019-10-08,14:07:22.100,14.0,10.0,19.7600002288818,18.8,-6.2,2.0,56.2,4.3,-38.0,17.6816,-7.310639999999999,0.370037,6.44431,1.83083,8.17197,51.0135,12.1712,-38.9365,0.039113,-0.0997478999999999,0.302367,272.8,7.1,52.17,4.42719,5.3,1.09099,277.886,4.532719999999999,157.95,85.8847,161.87,0.732996,-0.318363,241.922,1.40416,1.76598,-13.1319351196289,22.0035419464111,-35.0,22.0,-824189.0,3568.68,pp-ro,1,1,-1,-1
1570536442.2,2019-10-08,14:07:22.200,14.0,10.0,19.9400005340576,19.2,-5.6,3.0,57.3,1.4,-36.2,17.6816,-7.310639999999999,0.370037,6.44431,1.83083,8.17197,51.0135,12.1712,-38.9365,0.039113,-0.0997478999999999,0.302367,272.8,7.1,52.17,4.42719,5.3,1.06938,273.36,4.532769999999999,157.308,87.7847,161.67,0.7314039999999999,-0.329378,242.052,1.4703700000000002,1.83221,-15.2380981445312,22.0035419464111,-35.0,22.0,-823831.0,3384.09,pp-ro,1,1,-1,-1
1570536442.3,2019-10-08,14:07:22.300,14.0,9.0,20.1100006103516,19.9,-5.1,4.3,58.8,-1.5,-34.5,18.8775,-5.52995,3.68965,7.26113,6.516859999999999,12.1927,55.1256,5.15616,-32.413000000000004,0.121048,0.00782148,0.566652,272.8,7.1,52.17,4.42719,5.3,1.07769,280.73,4.53281,156.753,89.6847,161.37,0.729236,-0.3401079999999999,242.188,1.53534,1.9034,-17.3442535400391,22.003026962280305,-35.0,22.0,-823664.0,1138.29,pp-ro,1,1,-1,-1
1570536442.4,2019-10-08,14:07:22.400,14.0,10.0,20.2000007629395,20.3,-4.2,5.8,60.1,-5.6,-32.4,19.1522,-5.184830000000001,4.29988,8.506689999999999,6.71938,12.2889,55.7874,3.60966,-30.8984,0.198034,0.1121619999999999,0.809484,272.8,7.1,52.17,4.42719,5.3,1.10041,288.204,4.53286,156.285,91.5847,160.97,0.7265,-0.350538,242.331,1.62056,1.9898,-19.4640731811523,22.003026962280305,-35.0,22.0,-823470.0,2276.57,pp-ro,1,1,-1,-1
1570536442.5,2019-10-08,14:07:22.500,14.0,10.0,20.2900009155273,20.7,-3.2,7.4,60.6,-7.8,-31.2,19.1522,-5.184830000000001,4.29988,8.506689999999999,6.71938,12.2889,55.7874,3.60966,-30.8984,0.198034,0.1121619999999999,0.809484,272.8,7.1,52.17,4.42719,5.3,1.10373,294.589,4.5329,156.05100000000002,93.1048,160.67,0.724007,-0.358428,242.56,1.6687299999999998,2.0764,-21.583885192871104,22.003026962280305,-35.0,22.0,-823085.0,1845.87,pp-ro,1,1,-1,-1
1570536442.6,2019-10-08,14:07:22.600,14.0,9.0,20.409999847412102,20.9,-1.8,9.2,62.1,-14.8,-27.0,19.1522,-5.184830000000001,4.29988,8.506689999999999,6.71938,12.2889,55.7874,3.60966,-30.8984,0.198034,0.1121619999999999,0.809484,272.8,7.1,52.17,4.42719,5.3,1.1126,296.894,4.53299,155.584,95.7648,159.57,0.7179369999999999,-0.372288,242.569,1.81833,2.18181,-23.6934661865234,22.003026962280305,-35.0,22.0,-822976.0,2122.75,pp-ro,1,1,-1,-1
1570536442.7,2019-10-08,14:07:22.700,14.0,10.0,20.4599990844727,20.8,-0.2,11.0,62.8,-20.4,-23.7,19.3493,-4.79122,4.92367,3.34437,8.68057,10.4966,56.5529,1.94624,-29.3294,0.383766,0.152314,0.817071,272.8,7.1,52.17,4.42719,5.0,1.1198,300.072,4.53299,155.467,98.0448,158.67,0.712147,-0.38323,242.815,1.93635,2.28894,-24.7516632080078,22.003026962280305,-35.0,22.0,-822656.0,3537.92,pp-ro,1,1,-1,-1
1570536442.8,2019-10-08,14:07:22.800,14.0,10.0,20.6299991607666,20.4,1.2,12.9,63.5,-26.3,-20.3,19.6905,-1.90323,8.9644,-0.940929,16.0739,12.5487,58.4174,-8.96371,-21.1594,0.0531468,0.198746,1.12945,272.8,7.1,52.17,4.42719,5.0,1.11869,304.355,4.53304,155.467,99.9449,157.67,0.706286,-0.391993,242.938,2.05671,2.38892,-27.9228515625,22.0035419464111,-35.0,22.0,-822412.0,1999.69,pp-ro,1,1,-1,-1
1570536442.9,2019-10-08,14:07:22.900,14.0,10.0,20.7099990844727,20.0,2.1,13.9,63.4,-29.6,-18.4,19.6905,-1.90323,8.9644,-0.940929,16.0739,12.5487,58.4174,-8.96371,-21.1594,0.0531468,0.198746,1.12945,272.8,7.1,52.17,4.42719,5.0,1.14086,309.796,4.53308,155.642,101.845,156.97,0.7009489999999999,-0.400122,243.385,2.12538,2.4498900000000003,-28.9742279052734,22.0035419464111,-35.0,22.0,-822178.0,2830.33,pp-ro,1,1,-1,-1
1570536443.0,2019-10-08,14:07:23.000,14.0,10.0,20.75,18.6,5.2,16.3,61.3,-38.4,-9.7,18.0709,3.08435,14.067,-15.5698,12.0829,10.5985,56.4239,-26.1921,-6.5943,0.124897,0.473309,1.64408,272.8,7.1,52.17,4.42719,5.0,1.13365,310.959,4.53313,156.02200000000002,103.745,155.07,0.691364,-0.407543,243.213,2.33098,2.61888,-30.8551025390625,22.0035419464111,-35.0,22.0,-821834.0,3137.98,pp-ro,1,1,-1,-1
1570536443.1,2019-10-08,14:07:23.100,14.0,9.0,20.9200000762939,18.0,6.3,17.0,60.5,-42.0,-3.4,18.0709,3.08435,14.067,-15.5698,12.0829,10.5985,56.4239,-26.1921,-6.5943,0.124897,0.473309,1.64408,271.8,6.7,52.17,4.42719,5.0,1.14086,310.076,4.53317,156.606,105.645,154.27,0.684804,-0.414251,243.896,2.4404,2.67865,-32.391189575195305,22.004056930542003,-35.0,22.0,-821584.0,2922.63,pp-ro,1,1,-1,-1
1570536443.2,2019-10-08,14:07:23.200,14.0,11.0,21.25,15.4,9.5,19.3,55.7,-50.8,4.5,16.269000000000002,6.011,16.0635,-17.5226,17.6671,10.7708,51.4473,-34.7745,4.6761,0.137987,0.142897,1.43308,271.8,6.7,52.17,4.42719,5.0,1.14086,321.451,4.53322,157.394,107.165,152.07,0.673904,-0.418602,243.685,2.61731,2.85861,-33.562042236328104,22.004571914672898,-35.0,22.0,-821233.0,3168.74,pp-ro,1,1,-1,-1
1570536443.3,2019-10-08,14:07:23.300,14.0,10.0,21.6599998474121,13.4,11.4,20.2,49.8,-56.6,15.0,14.669,8.004760000000001,17.5953,-19.1899,22.4224,11.779000000000002,47.2327,-40.3538,12.6093,0.136548,0.134536,1.36484,271.8,6.7,52.17,4.42719,5.0,1.1813,341.01,4.53327,158.416,108.685,150.369,0.6641060000000001,-0.422196,243.966,2.76887,2.9689,-34.3847045898438,22.004571914672898,-35.0,22.0,-821168.0,492.232,pp-ro,1,1,-1,-1
1570536443.4,2019-10-08,14:07:23.400,14.0,10.0,21.940000534057603,10.7,13.1,21.0,39.8,-61.5,29.0,12.6179,9.82966,18.7045,-19.1402,22.6976,10.7505,40.8509,-45.6882,22.7262,0.196409,0.269102,1.50916,271.8,6.7,52.17,4.42719,5.0,1.20845,346.69300000000004,4.53332,159.585,109.445,148.66899999999998,0.655101,-0.4220689999999999,244.025,2.92224,3.08908,-34.847244262695305,22.004571914672898,-35.0,22.0,-820847.0,4737.73,pp-ro,1,1,-1,-1
1570536443.5,2019-10-08,14:07:23.500,14.0,10.0,22.3299999237061,8.3,14.9,21.3,25.8,-64.1,46.4,9.13386,12.2348,19.7511,-22.4531,6.891780000000001,3.16379,27.5922,-51.4338,41.7052,0.0448176,0.395636,1.55492,271.8,6.7,52.17,4.42719,5.0,1.1901700000000002,338.44300000000004,4.53336,160.928,110.965,146.869,0.644358,-0.424633,244.503,3.07177,3.20121,-34.9496459960938,22.004571914672898,-23.0211448669434,22.0,-820252.0,2830.33,pp-ro,1,1,-1,-1
1570536443.6,2019-10-08,14:07:23.600,14.0,10.0,22.4500007629395,7.0,15.6,21.3,17.8,-64.7,56.8,7.93721,13.0019,19.7727,-27.2762,14.4099,-0.800657,21.9955,-52.486,49.0707,0.0572108,0.513324,1.4452200000000002,271.8,6.7,52.17,4.42719,5.0,1.17909,330.14300000000003,4.53342,161.687,111.345,146.069,0.63968,-0.4240899999999999,244.697,3.1518900000000003,3.25474,-34.965011596679695,22.004056930542003,-23.018762588501,22.0,-819764.0,5445.31,pp-ro,1,1,-1,-1
1570536443.7,2019-10-08,14:07:23.700,14.0,11.0,22.5200004577637,4.3,17.0,21.1,3.1,-63.5,75.5,5.57531,14.2711,19.9243,-18.4099,10.4716,0.139168,10.8851,-52.6398,63.8618,0.0423421999999999,0.210709,1.3894,271.8,6.7,52.17,4.42719,4.8,1.1608,326.156,4.53346,163.235,111.725,144.269,0.630145,-0.421284,244.83,3.2967800000000005,3.36418,-34.8387145996094,22.004056930542003,-23.018762588501,22.0,-819515.0,4676.2,pp-ro,1,1,-1,-1
