time,date,time_of_day,airspeed_temperature,airspeed_angle_of_attack,airspeed_apparent_windspeed,kite_0_vx,kite_0_vy,kite_0_vz,kite_0_roll,kite_0_pitch,kite_0_yaw,kite_1_vx,kite_1_vy,kite_1_vz,kite_1_ax,kite_1_ay,kite_1_az,kite_1_roll,kite_1_pitch,kite_1_yaw,kite_1_roll_rate,kite_1_pitch_rate,kite_1_yaw_rate,ground_upwind_direction,ground_wind_velocity,ground_pos_latitude,ground_pos_longitude,ground_pos_altitude,ground_tether_reelout_speed,ground_tether_force,est_upwind_direction,kite_pos_east,kite_pos_north,kite_height,kite_elevation,kite_azimuth,kite_distance,kite_heading,kite_course,kite_actual_steering,kite_actual_depower,kite_set_steering,kite_set_depower,ground_mech_energy,ground_mech_power,flight_phase,flight_phase_index,phase,pattern,pattern_section
1570536954.3,2019-10-08,14:15:54.300,15.0,11.0,15.25,13.0,-3.3,2.9,21.7,-8.1,-49.5,11.7105,-2.41742,3.34741,7.802969999999999,5.72558,1.60116,25.7161,5.47749,-47.2375,0.221493,0.2150929999999999,1.04885,251.7,4.8,52.1701,4.42721,1.4,-2.42356,120.952,4.432519999999999,47.3747,10.2606,238.624,1.37039,0.0665753,243.497,0.953135,1.57925,-34.975250244140604,22.0009689331055,-35.0,22.0,-731153.0,6983.54,pp-riro,4,0,-1,-1
1570536954.4,2019-10-08,14:15:54.400,15.0,8.0,15.0100002288818,13.8,-2.0,3.1,22.5,-10.3,-44.5,12.178,-1.87488,3.5727,8.17832,11.8326,3.54549,26.4619,4.55484,-44.1833,0.0740274,0.184565,1.09999,251.7,4.8,52.1701,4.42721,1.4,-2.31828,94.6899,4.43241,47.141000000000005,11.4006,238.424,1.37012,0.0426384999999999,243.307,1.07229,1.70622,-34.9906158447266,22.0009689331055,-35.0,22.0,-730899.0,-2984.16,pp-riro,4,0,-1,-1
1570536954.5,2019-10-08,14:15:54.500,15.0,7.0,14.890000343322802,14.3,-0.4,3.4,23.6,-12.5,-39.2,12.775,-0.5120600000000001,3.85601,3.0564400000000003,16.3201,1.18071,27.4579,2.40579,-38.3286,0.0962031999999999,0.0377957,0.963037,251.7,4.8,52.1701,4.42721,1.4,-2.32881,90.9669,4.43229,46.9657,13.3007,238.224,1.36869,0.00406719,243.173,1.21185,1.85976,-34.9889068603516,22.0009689331055,-35.0,22.0,-731322.0,-7998.77,pp-riro,4,0,-1,-1
1570536954.6,2019-10-08,14:15:54.600,15.0,5.0,14.9499998092651,14.9,0.9,3.5,24.3,-14.1,-34.0,13.2382,0.8033680000000001,4.13266,3.82121,13.384,2.68079,28.6076,0.012808,-33.1937,0.335408,0.0108201,1.04483,251.7,4.8,52.1701,4.42721,1.4,-2.39585,92.3218,4.432169999999999,46.9657,14.4408,238.024,1.36722,-0.0180761,243.042,1.33087,1.96649,-34.9923248291016,22.0009689331055,-35.0,22.0,-732780.0,-9413.93,pp-riro,4,0,-1,-1
1570536954.7,2019-10-08,14:15:54.700,15.0,5.0,15.0699996948242,15.3,2.2,3.9,25.3,-15.2,-28.9,13.9569,2.6783,4.55494,3.27496,9.29624,6.16087,30.0041,-2.52832,-25.2483,0.288504,0.258617,0.834966,251.7,4.8,52.1701,4.4272,1.0,-2.41691,92.8005,4.43205,47.0825,15.9608,237.824,1.36473,-0.0465629,242.96400000000003,1.45218,2.07723,-34.9906158447266,22.0009689331055,-35.0,22.0,-733270.0,-9444.7,pp-riro,4,0,-1,-1
1570536954.8,2019-10-08,14:15:54.800,15.0,6.0,14.9499998092651,15.5,3.4,4.3,25.7,-16.7,-24.1,13.9569,2.6783,4.55494,3.27496,9.29624,6.16087,30.0041,-2.52832,-25.2483,0.288504,0.258617,0.834966,251.7,4.8,52.1701,4.4272,1.0,-2.48728,87.8334,4.43194,47.3162,17.4809,237.524,1.36154,-0.0734427,242.821,1.56789,2.17722,-35.0025634765625,22.0009689331055,-35.0,22.0,-734717.0,-9967.69,pp-riro,4,0,-1,-1
1570536954.9,2019-10-08,14:15:54.900,15.0,6.0,14.6499996185303,15.6,4.7,4.7,26.4,-17.9,-19.0,14.2286,4.4248,5.1536800000000005,-2.32473,13.3207,2.98688,30.729,-4.7228,-17.1468,-0.0994036,0.323583,0.98301,251.7,4.8,52.1701,4.4272,1.0,-2.50944,85.0015,4.43182,47.6958,19.0009,237.224,1.35766,-0.0985369,242.716,1.68515,2.27822,-35.0076751708984,22.0009689331055,-35.0,22.0,-735381.0,-13474.8,pp-riro,4,0,-1,-1
1570536955.0,2019-10-08,14:15:55.000,15.0,6.0,14.4700002670288,15.5,5.9,5.0,26.6,-19.6,-13.5,14.2153,5.55425,5.40175,-0.135969,9.14126,3.13246,30.7781,-6.23505,-11.7496,0.116752,0.2646679999999999,0.91852,251.7,4.8,52.1701,4.4272,1.0,-2.58756,82.7964,4.4317,48.1924,20.901,236.924,1.35261,-0.12853,242.677,1.81526,2.37743,-35.0076751708984,22.0009689331055,-35.0,22.0,-736957.0,-16735.9,pp-riro,4,0,-1,-1
1570536955.1,2019-10-08,14:15:55.100,15.0,6.0,14.4099998474121,15.7,7.1,5.2,26.7,-20.5,-8.3,14.2153,5.55425,5.40175,-0.135969,9.14126,3.13246,30.7781,-6.23505,-11.7496,0.116752,0.2646679999999999,0.91852,251.7,4.8,52.1701,4.4272,1.0,-2.66624,89.7762,4.43158,48.7473,22.041,236.524,1.34835,-0.143836,242.499,1.9217,2.45078,-35.0093841552734,22.0009689331055,-35.0,22.0,-738640.0,-16305.2,pp-riro,4,0,-1,-1
1570536955.2,2019-10-08,14:15:55.200,15.0,7.0,14.4099998474121,15.8,8.3,5.7,26.8,-21.8,-2.7,14.2567,7.16605,5.785159999999999,0.901967,11.8753,2.44083,30.7903,-8.47517,-3.89854,0.0876582,0.290877,0.956216,250.2,5.8,52.1701,4.4272,1.0,-2.71888,97.8238,4.43147,49.5067,23.9411,236.124,1.34198,-0.169521,242.443,2.04575,2.53431,-35.0076751708984,22.0009689331055,-35.0,22.0,-739689.0,-8706.35,pp-riro,4,0,-1,-1
1570536955.3,2019-10-08,14:15:55.300,15.0,8.0,14.3400001525879,15.6,9.4,6.2,26.5,-23.3,2.7,14.2934,8.18015,6.0881,0.0239700999999999,13.3087,6.873589999999999,30.6204,-9.49068,1.92297,0.237776,0.316232,0.937403,250.2,5.8,52.1701,4.4272,1.0,-2.73495,98.9342,4.43136,50.3244,25.4612,235.624,1.33586,-0.187356,242.28,2.15853,2.60987,-35.0076751708984,22.0009689331055,-35.0,22.0,-740407.0,-5845.25,pp-riro,4,0,-1,-1
1570536955.4,2019-10-08,14:15:55.400,15.0,8.0,14.3999996185303,15.4,10.8,6.6,26.1,-24.9,8.6,14.2112,9.8112,6.754589999999999,-2.43943,12.52,3.84741,29.4088,-11.4653,10.9129,0.0121176,0.307899,1.00873,250.2,5.8,52.1701,4.4272,1.0,-2.75268,101.851,4.43124,51.2883,27.3613,235.024,1.3283200000000002,-0.208923,242.106,2.28221,2.69746,-35.0076751708984,22.0009689331055,-35.0,22.0,-741452.0,-5506.84,pp-riro,4,0,-1,-1
1570536955.5,2019-10-08,14:15:55.500,15.0,9.0,14.6499996185303,15.1,12.2,6.9,25.5,-26.1,14.7,13.9058,10.9772,7.04765,-1.96726,12.1015,3.33316,28.4741,-12.8974,16.7177,0.136211,0.244157,0.988538,250.2,5.8,52.1701,4.4272,1.0,-2.74326,108.114,4.43112,52.3981,28.5013,234.324,1.32154,-0.216911,241.797,2.3934,2.77001,-35.0059814453125,22.0009689331055,-23.0044822692871,22.0,-741920.0,-2676.51,pp-riro,4,0,-1,-1
1570536955.6,2019-10-08,14:15:55.600,15.0,9.0,15.0699996948242,14.7,13.5,7.4,24.8,-27.4,20.9,13.9058,10.9772,7.04765,-1.96726,12.1015,3.33316,28.4741,-12.8974,16.7177,0.136211,0.244157,0.988538,250.2,5.8,52.1701,4.4272,1.0,-2.70614,116.154,4.43101,53.654,30.0214,233.624,1.31346,-0.228753,241.578,2.50882,2.8424,-35.0059814453125,22.0009689331055,-23.0044822692871,22.0,-741992.0,1138.29,pp-riro,4,0,-1,-1
1570536955.7,2019-10-08,14:15:55.700,15.0,9.0,15.3000001907349,14.2,14.9,7.9,23.7,-28.7,27.1,13.7709,11.6218,7.188060000000001,-4.20465,11.0685,3.54629,28.0797,-13.4657,19.8106,0.121541,0.317938,0.989278,250.2,5.8,52.1701,4.4272,0.8,-2.66901,120.635,4.43089,55.0268,31.5414,232.924,1.30494,-0.238983,241.405,2.62118,2.91567,-34.9496459960938,22.0009689331055,-23.0044822692871,22.0,-741792.0,4060.91,pp-riro,4,0,-1,-1
1570536955.8,2019-10-08,14:15:55.800,15.0,9.0,15.5900001525879,13.4,16.1,8.3,22.5,-29.6,33.7,12.65,14.5484,8.14667,-7.2001100000000005,14.3568,5.92854,24.9216,-16.2953,35.7178,0.0857753999999999,0.343754,0.978682,250.2,5.8,52.1701,4.4272,0.8,-2.56873,128.727,4.43077,56.4871,33.0615,232.124,1.29596,-0.2479199999999999,241.175,2.73604,2.9878,-34.5366058349609,22.0009689331055,-23.0044822692871,22.0,-741036.0,8121.83,pp-riro,4,0,-1,-1
1570536955.9,2019-10-08,14:15:55.900,15.0,8.0,15.9799995422363,12.7,17.4,8.6,20.8,-30.4,40.7,12.3132,15.0429,8.32881,-8.07992,11.1853,2.42154,24.0423,-16.8362,38.948,0.0863927,0.236083,1.0794700000000002,250.2,5.8,52.1701,4.4272,0.8,-2.3554,135.311,4.43066,58.1519,34.5816,231.224,1.28614,-0.254764,240.919,2.85361,3.0539,-33.7651519775391,22.0009689331055,-22.2987403869629,22.0,-739243.0,12798.0,pp-riro,4,0,-1,-1
1570536956.0,2019-10-08,14:15:56.000,15.0,10.0,16.4200000762939,11.7,18.5,8.9,19.3,-31.1,47.5,11.5627,16.1656,8.505980000000001,-8.387089999999999,11.1785,3.49272,22.2805,-17.8381,45.434,0.0323277,0.320867,0.975705,250.2,5.8,52.1701,4.4272,0.8,-2.1925,139.287,4.430540000000001,59.9043,35.7216,230.324,1.27676,-0.255855,240.653,2.9613400000000003,3.1172,-32.638671875,22.0009689331055,-21.4285888671875,22.0,-737896.0,13074.9,pp-riro,4,0,-1,-1
1570536956.1,2019-10-08,14:15:56.100,15.0,10.0,16.7900009155273,10.6,19.4,9.2,17.0,-31.6,54.5,10.695,17.0924,8.72935,-9.78549,8.54945,0.417828,20.4176,-18.6611,52.021,0.0950646,0.232918,1.02633,250.2,5.8,52.1701,4.4272,0.8,-2.10995,142.384,4.43042,61.7152,36.4817,229.424,1.26793,-0.251907,240.364,3.0662700000000003,3.17293,-31.1606140136719,22.0009689331055,-20.566089630127,22.0,-737158.0,13844.0,pp-riro,4,0,-1,-1
1570536956.2,2019-10-08,14:15:56.200,15.0,11.0,17.1000003814697,9.3,20.2,9.3,15.2,-31.7,61.4,9.122,18.2352,9.06492,-14.2625,9.2589,0.464727,17.7131,-19.9802,61.7251,0.150924,0.152588,0.92392,243.9,5.6,52.1701,4.4272,0.8,-1.89773,147.24,4.4303,63.7012,37.6217,228.524,1.25771,-0.2513869999999999,240.201,3.17165,3.23602,-29.3207092285156,22.0009689331055,-19.7104358673096,22.0,-735722.0,14982.3,pp-riro,4,0,-1,-1
1570536956.3,2019-10-08,14:15:56.300,15.0,10.0,17.3600006103516,8.1,21.0,9.3,13.3,-31.2,67.9,7.98044,18.9846,9.0194,-8.114180000000001,4.84218,-0.209839,15.8903,-20.3117,67.9428,0.063028,0.1743579999999999,0.915061,243.9,5.6,52.1701,4.4272,0.8,-1.57304,140.063,4.43016,65.6873,38.7618,227.524,1.24735,-0.250872,239.968,3.2707900000000003,3.29437,-27.226486206054695,22.0009689331055,-18.9664325714111,22.0,-733652.0,11598.2,pp-riro,4,0,-1,-1
1570536956.4,2019-10-08,14:15:56.400,15.0,8.0,17.4599990844727,6.9,21.5,9.4,11.6,-30.9,73.8,6.95162,19.7303,9.0388,-11.8408,4.20843,-0.608522,14.3264,-20.4676,73.7384,0.025574,0.118924,0.87539,243.9,5.6,52.1701,4.4272,0.8,-1.39352,139.898,4.43001,67.7318,39.5219,226.624,1.23766,-0.245826,239.808,3.35666,3.34277,-24.6680297851562,22.0009689331055,-18.2855033874512,22.0,-732663.0,9352.4,pp-riro,4,0,-1,-1
1570536956.5,2019-10-08,14:15:56.500,15.0,8.0,17.5100002288818,5.8,22.1,9.4,9.9,-30.1,79.4,6.46887,19.987,9.05692,-9.04332,1.25079,-0.356256,13.4125,-20.542,76.4808,0.157493,0.187506,0.870257,243.9,5.6,52.1701,4.4272,0.8,-1.19626,148.02700000000002,4.429869999999999,69.9515,40.2819,225.624,1.22722,-0.239957,239.629,3.43811,3.38741,-22.8400726318359,22.0009689331055,-17.7021217346191,22.0,-731768.0,9106.29,pp-riro,4,0,-1,-1
1570536956.6,2019-10-08,14:15:56.600,15.0,9.0,17.4599990844727,4.7,22.6,9.2,8.8,-29.4,84.5,5.940519999999999,20.247,9.06018,-8.100439999999999,3.86573,-2.87045,12.5292,-20.581,79.0334,-0.0476783,0.166209,0.832033,243.9,5.6,52.1701,4.4272,0.8,-0.978509,156.388,4.42973,72.1421,40.6619,224.724,1.21773,-0.23059,239.497,3.50909,3.42751,-21.1793823242188,22.0009689331055,-17.0865325927734,22.0,-730815.0,9444.7,pp-riro,4,0,-1,-1
1570536956.7,2019-10-08,14:15:56.700,15.0,8.0,17.4099998474121,3.3,22.6,9.4,7.5,-29.1,89.2,5.940519999999999,20.247,9.06018,-8.100439999999999,3.86573,-2.87045,12.5292,-20.581,79.0334,-0.0476783,0.166209,0.832033,243.9,5.6,52.1701,4.4272,0.8,-0.853841,160.435,4.4295800000000005,74.391,41.042,223.824,1.20801,-0.221347,239.407,3.57315,3.47305,-19.7815322875977,22.0009689331055,-16.3860969543457,22.0,-730358.0,8767.88,pp-riro,4,0,-1,-1
1570536956.8,2019-10-08,14:15:56.800,15.0,10.0,17.2999992370605,2.1,22.7,9.1,6.3,-28.5,93.5,3.16114,21.141,8.852139999999999,-10.6679,0.533558,-0.0900161,9.01116,-20.0512,91.2315,0.120077,0.22275,0.527379,243.9,5.6,52.1701,4.4272,0.8,-0.5607310000000001,165.079,4.4294400000000005,76.7568,41.802,222.824,1.19699,-0.215742,239.352,3.63512,3.51778,-18.5611877441406,22.0009689331055,-15.8699340820312,22.0,-729634.0,6829.72,pp-riro,4,0,-1,-1
1570536956.9,2019-10-08,14:15:56.900,15.0,8.0,17.2000007629395,0.9,22.6,8.8,5.0,-27.5,97.1,2.00233,21.2569,8.64754,-9.47255,-1.40458,-2.97498,7.816889999999999,-19.7982,95.1041,0.376421,-0.107765,0.799357,243.9,5.6,52.1701,4.4272,0.8,-0.274271,154.13,4.4293,79.0057,41.8021,221.924,1.18791,-0.203565,239.248,3.68252,3.55619,-17.4278869628906,22.0009689331055,-15.2274408340454,22.0,-729223.0,2861.1,pp-riro,4,0,-1,-1
1570536957.0,2019-10-08,14:15:57.000,15.0,8.0,17.0400009155273,0.0,22.4,8.3,3.6,-26.1,100.3,0.881351,21.1211,8.20174,-10.3921,-1.1066,-5.814080000000001,7.037089999999999,-19.488,98.5621,-0.0407702,0.172768,0.579673,243.9,5.6,52.1701,4.4272,0.8,0.0609491,124.776,4.42915,81.2255,41.8021,221.024,1.17887,-0.192058,239.158,3.726480000000001,3.5850800000000005,-16.547195434570302,22.0009689331055,-14.8006153106689,22.0,-729180.0,-307.645,pp-riro,4,0,-1,-1
1570536957.1,2019-10-08,14:15:57.100,15.0,8.0,16.9400005340576,-0.7,22.2,8.0,2.6,-24.9,103.6,0.0601494,20.9401,7.73273,-4.804119999999999,-0.67786,-6.6719100000000005,5.89896,-18.5983,101.609,0.00330846,0.150344,0.331153,243.9,5.6,52.1701,4.4272,0.8,0.109154,120.168,4.42901,83.5328,41.8021,220.124,1.16948,-0.180611,239.123,3.7718,3.60542,-15.7091674804688,22.0009689331055,-14.5752019882202,22.0,-729200.0,-369.174,pp-riro,4,0,-1,-1
1570536957.2,2019-10-08,14:15:57.200,15.0,8.0,16.879999160766598,-1.5,22.0,8.0,1.5,-24.0,106.4,-0.641099,20.6834,7.58707,-7.69344,-6.381469999999999,4.269,5.06845,-17.8412,104.396,0.0526472,0.131099,0.43559,231.7,6.6,52.1701,4.4272,0.8,0.18728,123.558,4.42886,85.6942,41.8022,219.324,1.16071,-0.170319,239.152,3.80958,3.6294,-15.0418167114258,22.0009689331055,-14.2866992950439,22.0,-729235.0,-399.9380000000001,pp-riro,4,0,-1,-1
1570536957.3,2019-10-08,14:15:57.300,15.0,8.0,16.7800006866455,-2.3,21.9,8.1,0.3,-23.3,109.0,-1.46726,20.7758,7.566489999999999,-9.08453,0.965007,-0.6393949999999999,3.75568,-17.4156,107.19,-0.0141247,0.184885,0.46983,231.7,6.6,52.1701,4.4272,0.8,0.243242,136.037,4.42868,87.9723,41.0422,218.524,1.15275,-0.152811,239.116,3.8373,3.64623,-14.806282043457,22.0009689331055,-13.9150123596191,22.0,-729257.0,123.058,pp-riro,4,0,-1,-1
1570536957.4,2019-10-08,14:15:57.400,15.0,9.0,16.620000839233402,-2.9,21.9,8.1,-1.0,-22.4,111.5,-1.46726,20.7758,7.566489999999999,-9.08453,0.965007,-0.6393949999999999,3.75568,-17.4156,107.19,-0.0141247,0.184885,0.46983,231.7,6.6,52.1701,4.4272,0.8,0.2493369999999999,149.915,4.4285,90.1629,41.0422,217.624,1.14362,-0.143371,239.111,3.87171,3.66271,-14.3676376342773,22.0009689331055,-13.8428134918213,22.0,-729235.0,-215.351,pp-riro,4,0,-1,-1
1570536957.5,2019-10-08,14:15:57.500,15.0,10.0,16.4599990844727,-3.5,21.9,8.3,-2.2,-22.1,114.2,-2.30738,20.7387,7.55625,-1.60568,-4.5721,2.20045,1.76583,-16.151,110.931,-0.0679504,0.0443531999999999,0.443864,231.7,6.6,52.1701,4.4272,0.8,0.268176,153.931,4.428319999999999,92.3826,40.6622,216.724,1.13494,-0.1305599999999999,239.076,3.90341,3.67434,-14.0962600708008,22.0009689331055,-13.7647151947021,22.0,-729235.0,0.0,pp-riro,4,0,-1,-1
1570536957.6,2019-10-08,14:15:57.600,15.0,10.0,16.3999996185303,-4.1,21.8,8.5,-3.9,-21.7,116.8,-2.91624,20.6823,7.7325,-3.6402,-1.48502,-0.169476,0.222478,-16.0727,113.725,-0.204259,-0.0274154,0.438716,231.7,6.6,52.1701,4.4272,0.8,0.270392,160.215,4.42813,94.544,40.2822,215.724,1.12622,-0.118521,238.952,3.93472,3.68672,-13.8521957397461,22.0009689331055,-13.708535194397,22.0,-729194.0,369.174,pp-riro,4,0,-1,-1
1570536957.7,2019-10-08,14:15:57.700,15.0,10.0,16.3500003814697,-4.8,21.6,8.6,-5.6,-21.3,119.3,-3.63037,20.6667,7.796869999999999,-4.645519999999999,-0.56212,-1.12103,-1.5797,-15.5329,116.15,-0.212157,0.0587134,0.484625,231.7,6.6,52.1701,4.4272,0.9,0.279812,160.28,4.42795,96.7053,39.9023,214.724,1.11744,-0.106899,238.852,3.96488,3.70489,-13.8163528442383,22.0009689331055,-13.567053794860804,22.0,-729181.0,153.822,pp-riro,4,0,-1,-1
1570536957.8,2019-10-08,14:15:57.800,15.0,10.0,16.3999996185303,-5.2,21.5,8.7,-7.4,-20.7,121.5,-4.62619,20.4192,8.05832,-7.20525,-4.95522,-1.0265,-3.9491,-15.3565,119.508,-0.0784378999999999,-0.0725143,0.417321,231.7,6.6,52.1701,4.4272,0.9,0.265405,154.607,4.42777,98.925,39.5223,213.624,1.10821,-0.0954711999999999,238.712,3.99188,3.71057,-13.7258911132812,22.0009689331055,-13.7263307571411,22.0,-729106.0,430.703,pp-riro,4,0,-1,-1
1570536957.9,2019-10-08,14:15:57.900,15.0,9.0,16.4500007629395,-5.9,21.2,8.8,-8.4,-20.7,122.7,-4.62619,20.4192,8.05832,-7.20525,-4.95522,-1.0265,-3.9491,-15.3565,119.508,-0.0784378999999999,-0.0725143,0.417321,231.7,6.6,52.1701,4.4272,0.9,0.264851,154.194,4.42759,101.057,39.1423,213.224,1.10056,-0.0847337,239.18400000000003,4.00058,3.73024,-13.587646484375,22.0009689331055,-13.5401449203491,22.0,-729093.0,246.116,pp-riro,4,0,-1,-1
1570536958.0,2019-10-08,14:15:58.000,15.0,10.0,16.3999996185303,-6.6,21.1,8.9,-10.0,-20.7,125.0,-4.95937,20.3811,8.03662,-4.23481,-1.92512,-0.01119,-4.94514,-15.3638,120.645,-0.045534,0.0172736,0.394855,231.7,6.6,52.1701,4.4272,0.9,0.269838,157.861,4.42741,102.167,38.7623,212.124,1.09511,-0.0776403,238.615,4.0292,3.75174,-13.6303100585938,22.0009689331055,-13.2820615768433,22.0,-729065.0,276.88,pp-riro,4,0,-1,-1
1570536958.1,2019-10-08,14:15:58.100,15.0,10.0,16.3999996185303,-7.8,20.5,8.9,-11.8,-20.4,127.8,-6.06246,20.0831,8.257530000000001,-7.68735,-4.3221300000000005,-0.0779427,-7.556789999999999,-15.2612,123.627,-0.175076,-0.0486901,0.275368,231.7,6.6,52.1701,4.4272,0.9,0.279258,164.06799999999998,4.42712,105.321,37.2423,210.524,1.08294,-0.0546166999999999,238.327,4.05316,3.78434,-13.657623291015598,22.0009689331055,-12.8471994400024,22.0,-729042.0,184.587,pp-riro,4,0,-1,-1
1570536958.2,2019-10-08,14:15:58.200,15.0,10.0,16.2900009155273,-8.4,20.0,9.1,-13.1,-20.8,129.3,-6.91215,19.7705,8.272960000000001,-11.0123,-6.87219,-0.3271679999999999,-8.86014,-15.1774,125.382,-0.238402,0.0248492999999999,0.204649,235.9,5.1,52.1701,4.4272,0.9,0.288677,165.487,4.42703,107.366,36.4823,209.524,1.07473,-0.0421973,238.241,4.06179,3.79977,-13.3589324951172,22.0009689331055,-12.795710563659698,22.0,-729010.0,430.703,pp-riro,4,0,-1,-1
1570536958.3,2019-10-08,14:15:58.300,15.0,11.0,16.229999542236303,-8.7,19.9,9.0,-14.0,-20.8,130.6,-7.291530000000001,19.5849,8.35056,-9.57692,-6.24409,0.7804770000000001,-9.54703,-15.2204,126.259,0.0566571,-0.0616539999999999,0.2231719999999999,235.9,5.1,52.1701,4.4272,0.9,0.282582,162.17,4.42685,109.323,35.7224,208.424,1.06656,-0.030287,238.051,4.07066,3.80356,-13.1592407226562,22.0009689331055,-13.011326789856,22.0,-728962.0,461.467,pp-riro,4,0,-1,-1
1570536958.4,2019-10-08,14:15:58.400,15.0,13.0,16.229999542236303,-9.2,19.6,8.9,-14.4,-20.5,131.2,-8.235330000000001,19.0521,8.36368,-6.730289999999999,-4.3958,-2.13211,-11.3385,-15.9894,128.40200000000002,0.0240323,-0.0791966,0.274352,235.9,5.1,52.1701,4.4272,0.9,0.282028,165.482,4.42667,110.257,35.3424,208.024,1.06291,-0.0244808,238.075,4.07676,3.82291,-12.809356689453098,22.0009689331055,-12.7493867874146,22.0,-728917.0,184.587,pp-riro,4,0,-1,-1
1570536958.5,2019-10-08,14:15:58.500,15.0,11.0,16.3400001525879,-9.7,19.3,9.0,-15.4,-20.3,132.7,-8.94663,18.5945,8.390360000000001,-6.12459,0.550304,5.16769,-12.7923,-16.398,130.393,0.090404,0.0393138,0.183441,235.9,5.1,52.1701,4.4272,0.9,0.294772,171.232,4.42649,112.244,34.5824,207.024,1.05475,-0.0129781,238.02,4.0904300000000005,3.8348,-12.7547378540039,22.0009689331055,-12.8506498336792,22.0,-728889.0,338.409,pp-riro,4,0,-1,-1
1570536958.6,2019-10-08,14:15:58.600,15.0,10.0,16.3899993896484,-10.1,18.9,9.1,-15.8,-20.7,134.4,-9.39226,18.1813,8.55028,-2.76921,-5.08599,-1.5257,-13.493,-16.2387,132.12,-0.00794413,-0.0515978,0.265885,235.9,5.1,52.1701,4.4272,0.9,0.300313,174.463,4.42632,114.142,33.4424,206.024,1.04723,0.00106114,237.892,4.10034,3.8421,-12.7496185302734,22.0009689331055,35.0,22.0,-728858.0,276.88,pp-riro,4,0,-1,-1
1570536958.7,2019-10-08,14:15:58.700,15.0,10.0,16.6599998474121,-10.5,18.4,9.1,-16.6,-20.8,136.2,-9.60354,17.9435,8.56916,-5.0404,-4.26567,-1.1874,-13.8526,-16.197,133.016,0.0287242,-0.08019,0.2144,235.9,5.1,52.1701,4.4272,0.9,0.302529,171.864,4.4261,115.953,32.3024,205.024,1.0399200000000002,0.0145977999999999,237.746,4.1143,3.85301,-12.83154296875,22.0009689331055,35.0,22.0,-728838.0,369.174,pp-riro,4,0,-1,-1
1570536958.8,2019-10-08,14:15:58.800,15.0,10.0,16.7099990844727,-10.9,18.0,9.0,-17.1,-20.7,137.8,-9.79523,17.7157,8.63378,-4.9663,-9.19958,2.95133,-14.0158,-16.3093,133.845,0.209807,-0.0320766,0.1461829999999999,235.9,5.1,52.1701,4.4272,0.9,0.382317,160.249,4.42596,117.793,31.5424,204.124,1.03229,0.0247923,237.774,4.129519999999999,3.86711,-12.665985107421902,22.0009689331055,35.0,22.0,-729044.0,-5137.67,pp-riro,4,0,-1,-1
1570536958.9,2019-10-08,14:15:58.900,15.0,10.0,16.8199996948242,-11.1,17.7,8.8,-17.5,-20.3,139.2,-10.3178,17.1248,8.484630000000001,-4.67937,0.0713322,0.819283,-14.7076,-16.3937,136.292,-0.0420629,0.00171854,0.177774,235.9,5.1,52.1701,4.4272,0.9,0.628883,146.072,4.4257800000000005,119.545,30.0224,203.224,1.0256,0.0405621999999999,237.681,4.13967,3.86916,-12.1027450561523,22.0009689331055,35.0,22.0,-729696.0,-6583.6,pp-riro,4,0,-1,-1
1570536959.0,2019-10-08,14:15:59.000,15.0,8.0,16.7600002288818,-11.2,17.3,8.4,-17.4,-19.8,140.5,-10.3178,17.1248,8.484630000000001,-4.67937,0.0713322,0.819283,-14.7076,-16.3937,136.292,-0.0420629,0.00171854,0.177774,235.9,5.1,52.1701,4.4272,0.9,0.856057,115.899,4.42551,121.356,28.8824,202.224,1.01806,0.0532300999999999,237.605,4.15186,3.87531,-11.1879119873047,22.0009689331055,35.0,22.0,-730149.0,2276.57,pp-riro,4,0,-1,-1
1570536959.1,2019-10-08,14:15:59.100,15.0,7.0,16.6599998474121,-11.2,17.0,8.2,-17.6,-19.3,141.5,-10.5543,16.6025,8.05008,1.47354,-3.23056,-3.1274900000000003,-14.8011,-16.3553,138.275,-0.0394109,-0.10505,0.23305,235.9,5.1,52.1701,4.4272,0.9,0.816717,113.275,4.42542,123.021,28.1224,201.424,1.01111,0.062182,237.69,4.162719999999999,3.87619,-9.91465759277344,22.0009689331055,35.0,22.0,-729786.0,6983.54,pp-riro,4,0,-1,-1
1570536959.2,2019-10-08,14:15:59.200,15.0,5.0,16.5499992370605,-11.3,16.6,8.4,-17.5,-18.8,142.5,-10.6143,16.1545,7.86671,1.23445,-4.49405,2.06114,-14.6799,-16.4033,140.075,-0.050388,-0.0701189,0.284204,249.0,3.2,52.1701,4.4272,0.9,0.756877,125.41,4.42529,124.715,26.6024,200.524,1.00437,0.0769393,237.637,4.16898,3.87162,-8.28639984130859,22.0009689331055,35.0,22.0,-729701.0,-1261.34,pp-riro,4,0,-1,-1
1570536959.3,2019-10-08,14:15:59.300,15.0,9.0,16.4400005340576,-11.3,16.2,8.6,-17.8,-18.9,143.5,-10.7346,15.8047,8.13575,-1.83105,-0.698713,5.39481,-14.7462,-16.4182,141.21200000000002,-0.107457,-0.00715755,0.135116,249.0,3.2,52.1701,4.4272,0.9,0.839435,137.938,4.42521,126.351,25.4624,199.724,0.997701,0.0882807999999999,237.703,4.17291,3.86612,-6.30995178222656,22.0009689331055,35.0,22.0,-730032.0,-3476.39,pp-riro,4,0,-1,-1
1570536959.4,2019-10-08,14:15:59.400,15.0,10.0,16.3299999237061,-11.3,16.4,8.6,-17.7,-18.9,144.3,-10.7274,15.7169,8.25282,0.151589,-0.0347488,3.23683,-14.6319,-16.3886,141.846,0.0768582,-0.12075,0.179868,249.0,3.2,52.1701,4.4272,0.9,0.8449760000000001,127.982,4.42512,127.928,24.7024,198.824,0.990698,0.0965214,237.711,4.1774,3.85567,-4.20719909667969,22.0009689331055,35.0,22.0,-729762.0,4737.73,pp-riro,4,0,-1,-1
1570536959.5,2019-10-08,14:15:59.500,15.0,9.0,16.3299999237061,-11.3,16.7,8.6,-17.7,-18.5,144.8,-10.7452,16.0162,8.166080000000001,-3.07564,2.96667,-1.67267,-14.9639,-17.1302,143.192,-0.125358,0.0483491999999999,0.0990931,249.0,3.2,52.1701,4.4272,0.9,0.8228120000000001,140.714,4.4250300000000005,129.534,23.1824,198.024,0.984276,0.110265,237.761,4.17659,3.83882,-2.09079742431641,22.0009689331055,35.0,22.0,-729677.0,-2061.22,pp-riro,4,0,-1,-1
1570536959.6,2019-10-08,14:15:59.600,15.0,8.0,16.2800006866455,-11.6,17.2,9.2,-18.3,-18.5,145.1,-10.7826,16.2294,8.2375,-2.14338,2.85431,0.343653,-15.2647,-17.3746,143.458,0.0249491,-0.2464239999999999,-0.0665175,249.0,3.2,52.1701,4.4272,0.9,0.856611,158.084,4.42494,131.25799999999998,22.0424,197.024,0.976683,0.121065,237.766,4.17184,3.82313,0.005111694335938,22.0009689331055,35.0,22.0,-729750.0,-1384.4,pp-riro,4,0,-1,-1
1570536959.7,2019-10-08,14:15:59.700,15.0,10.0,16.3299999237061,-11.5,17.6,9.8,-18.8,-18.5,145.2,-10.7826,16.2294,8.2375,-2.14338,2.85431,0.343653,-15.2647,-17.3746,143.458,0.0249491,-0.2464239999999999,-0.0665175,249.0,3.2,52.1701,4.42719,0.9,0.94471,202.01,4.42486,132.952,21.2824,196.124,0.969171,0.128802,237.894,4.16681,3.79737,2.10848999023438,22.0009689331055,35.0,22.0,-729872.0,-738.3480000000001,pp-riro,4,0,-1,-1
1570536959.8,2019-10-08,14:15:59.800,15.0,11.0,16.4899997711182,-11.3,17.7,10.5,-19.8,-19.5,145.2,-10.9809,16.5058,8.499410000000001,-1.7532,4.30197,6.42885,-15.7364,-17.7739,143.822,-0.229113,-0.204242,0.0404709,249.0,3.2,52.1701,4.42719,0.9,0.961333,210.638,4.42477,134.704,20.1424,195.024,0.961155,0.139189,237.877,4.149290000000001,3.76969,4.211875915527339,22.0009689331055,35.0,22.0,-729819.0,1045.99,pp-riro,4,0,-1,-1
1570536959.9,2019-10-08,14:15:59.900,15.0,11.0,16.7000007629395,-10.8,17.8,11.2,-20.8,-20.8,144.7,-10.9809,16.5058,8.499410000000001,-1.7532,4.30197,6.42885,-15.7364,-17.7739,143.822,-0.229113,-0.204242,0.0404709,249.0,3.2,52.1701,4.42719,0.9,0.973523,218.851,4.42468,136.457,18.6224,193.924,0.953269,0.152074,237.852,4.12003,3.72931,6.32376861572266,22.0009689331055,35.0,22.0,-729697.0,953.699,pp-riro,4,0,-1,-1
1570536960.0,2019-10-08,14:16:00.000,15.0,10.0,16.9599990844727,-10.1,17.9,11.6,-21.6,-21.5,142.9,-11.0176,17.8051,10.5375,-2.75814,4.21264,7.4972,-19.4023,-21.3474,144.76,-0.4298909999999999,-0.139897,-0.300654,249.0,3.2,52.1701,4.42719,0.9,0.953022,190.47,4.42459,138.151,17.8625,192.724,0.944933,0.159211,237.796,4.08271,3.69045,8.43907165527344,22.0009689331055,35.0,22.0,-729305.0,4153.21,pp-riro,4,0,-1,-1
1570536960.1,2019-10-08,14:16:00.100,15.0,10.0,17.120000839233402,-9.3,18.1,12.0,-22.5,-22.6,140.9,-10.1262,18.1945,11.4108,5.217890000000001,2.39577,5.88155,-20.809,-23.1988,142.69,-0.28763,0.0461336,-0.351484,249.0,3.2,52.1701,4.42719,0.9,0.921439,174.952,4.42451,139.874,17.1025,191.624,0.936721,0.166215,237.859,4.0394,3.64656,10.5441513061523,22.0009689331055,35.0,22.0,-729062.0,4368.56,pp-riro,4,0,-1,-1
1570536960.2,2019-10-08,14:16:00.200,15.0,9.0,17.120000839233402,-8.3,18.2,12.6,-23.6,-24.6,138.7,-10.1262,18.1945,11.4108,5.217890000000001,2.39577,5.88155,-20.809,-23.1988,142.69,-0.28763,0.0461336,-0.351484,249.4,3.9,52.1701,4.42719,0.9,0.8737879999999999,164.604,4.42442,141.685,15.9625,190.424,0.928092,0.175783,237.888,3.98384,3.59172,12.6492385864258,22.0009689331055,35.0,22.0,-728852.0,861.4060000000001,pp-riro,4,0,-1,-1
1570536960.3,2019-10-08,14:16:00.300,15.0,10.0,17.120000839233402,-7.2,18.4,13.1,-23.7,-26.5,135.5,-8.92028,18.6558,12.308,17.1002,6.20657,6.51639,-22.2212,-26.9918,140.14,-0.273988,-0.20751,-0.0754298,249.4,3.9,52.1701,4.42719,0.9,0.8992760000000001,177.178,4.42433,143.495,15.2025,189.124,0.919037,0.182513,237.886,3.91832,3.53551,14.7577285766602,22.0009689331055,35.0,22.0,-728855.0,30.7645,pp-riro,4,0,-1,-1
1570536960.4,2019-10-08,14:16:00.400,15.0,10.0,17.120000839233402,-6.0,18.5,13.6,-23.4,-28.3,131.3,-7.30496,19.1676,13.2712,4.15626,1.18435,1.67047,-22.9092,-31.0426,136.232,-0.4901609999999999,-0.0258884,-0.714947,249.4,3.9,52.1701,4.42719,0.9,0.918115,183.905,4.4242300000000006,145.306,14.4425,187.924,0.91022,0.1890869999999999,237.987,3.84092,3.47651,16.8696212768555,22.0009689331055,35.0,22.0,-728692.0,1538.22,pp-riro,4,0,-1,-1
1570536960.5,2019-10-08,14:16:00.500,15.0,9.0,17.2199993133545,-4.9,18.7,14.2,-22.2,-30.4,126.4,-6.14784,19.4888,13.9945,7.665,4.586790000000001,4.77634,-22.7338,-33.3042,131.935,-0.47767,-0.2853,-0.79327,249.4,3.9,52.1701,4.42719,0.9,0.917006,184.87,4.42414,147.088,14.0626,186.724,0.90137,0.192929,238.114,3.75491,3.4228400000000003,18.983230590820305,22.0009689331055,35.0,22.0,-728616.0,1445.93,pp-riro,4,0,-1,-1
1570536960.6,2019-10-08,14:16:00.600,15.0,10.0,17.3199996948242,-3.3,18.6,14.7,-20.9,-32.7,120.7,-5.54965,19.6149,14.329,13.0127,1.28299,5.83093,-22.4891,-35.0523,129.78799999999998,-0.611167,-0.389011,-0.721833,249.4,3.9,52.1701,4.42719,0.9,0.926426,195.357,4.42405,148.928,13.6826,185.324,0.891806,0.196721,238.142,3.65832,3.35151,21.090011596679695,22.0009689331055,35.0,22.0,-728539.0,461.467,pp-riro,4,0,-1,-1
1570536960.7,2019-10-08,14:16:00.700,15.0,11.0,17.370000839233402,-1.7,18.5,15.3,-18.3,-35.0,114.3,-3.12476,19.8221,15.531,12.6961,-0.3175739999999999,6.25024,-21.0671,-40.2914,122.142,-0.5227649999999999,-0.227812,-1.06565,249.4,3.9,52.1701,4.42719,0.9,0.956346,205.813,4.42396,150.71,13.3027,184.024,0.8826930000000001,0.200345,238.233,3.5546900000000003,3.27999,23.1985015869141,22.0009689331055,35.0,22.0,-728507.0,615.29,pp-riro,4,0,-1,-1
1570536960.8,2019-10-08,14:16:00.800,15.0,11.0,17.370000839233402,0.0,18.5,15.6,-15.1,-36.7,107.0,-1.27205,19.9372,16.1465,4.07482,-3.75083,4.28523,-18.264,-42.8724,114.962,-0.611364,-0.1277,-1.41508,249.4,3.9,52.1701,4.42719,0.9,0.956346,203.709,4.42387,152.55,13.3027,182.524,0.8727520000000001,0.201538,238.251,3.4464900000000003,3.20806,25.308692932128896,22.0009689331055,35.0,22.0,-728289.0,2584.22,pp-riro,4,0,-1,-1
1570536960.9,2019-10-08,14:16:00.900,15.0,11.0,17.3099994659424,1.9,18.2,15.8,-11.1,-38.3,98.5,-0.248263,20.0131,16.3368,20.7902,0.329373,4.18899,-16.6712,-44.2777,111.027,-0.472072,-0.169685,-1.1846,249.4,3.9,52.1701,4.42719,0.9,0.946373,203.66,4.423780000000001,154.36,13.3028,181.124,0.8631780000000001,0.202644,238.348,3.3248900000000003,3.12793,27.4154815673828,22.0009689331055,35.0,22.0,-728088.0,1538.22,pp-riro,4,0,-1,-1
1570536961.0,2019-10-08,14:16:01.000,15.0,10.0,17.2099990844727,3.8,17.7,16.0,-5.7,-39.8,89.4,-0.248263,20.0131,16.3368,20.7902,0.329373,4.18899,-16.6712,-44.2777,111.027,-0.472072,-0.169685,-1.1846,249.4,3.9,52.1701,4.42719,0.9,0.968536,214.519,4.423690000000001,156.113,13.6828,179.62400000000002,0.853417,0.20128,238.376,3.2007,3.04874,29.5052337646484,22.0009689331055,23.0044822692871,22.0,-727938.0,1199.82,pp-riro,4,0,-1,-1
1570536961.1,2019-10-08,14:16:01.100,15.0,11.0,17.1599998474121,5.7,17.2,16.0,0.1,-40.3,79.5,4.08524,19.4929,17.0285,21.4079,0.5722119999999999,-2.68282,-7.670889999999999,-49.6323,93.1256,-0.322995,-0.2800829999999999,-1.08196,249.4,3.9,52.1701,4.42719,0.9,0.972415,216.347,4.42359,157.894,14.0629,178.22400000000002,0.8438459999999999,0.199964,238.521,3.0696,2.96898,30.4385681152344,22.0009689331055,23.0044822692871,22.0,-727864.0,1415.17,pp-ro,1,1,-1,-1
1570536961.2,2019-10-08,14:16:01.200,15.0,12.0,17.2099990844727,7.7,16.4,15.7,6.4,-39.9,69.3,6.34258,18.9537,17.1227,24.4027,-8.04381,0.7189939999999999,-0.930324,-51.5544,81.5789,-0.537361,-0.100377,-1.17812,244.4,5.6,52.1701,4.42719,0.9,0.979064,221.099,4.4235,159.588,14.443,176.62400000000002,0.833994,0.198581,238.481,2.93468,2.88041,32.0582427978516,22.0009689331055,23.0044822692871,22.0,-727712.0,1507.46,pp-ro,1,1,-1,-1
1570536961.3,2019-10-08,14:16:01.300,15.0,11.0,17.2099990844727,9.6,15.5,15.4,12.8,-38.8,59.0,8.7631,18.0867,16.918,22.4035,-3.03841,-4.39055,6.64164,-51.9591,69.2841,-0.189216,-0.110991,-1.34272,244.4,5.6,52.1701,4.42719,0.9,0.989037,225.726,4.42339,161.282,15.203,175.12400000000002,0.8243159999999999,0.195018,238.561,2.79789,2.79517,33.318572998046896,22.0009689331055,23.0044822692871,22.0,-727569.0,1507.46,pp-ro,1,1,-1,-1
1570536961.4,2019-10-08,14:16:01.400,15.0,11.0,17.3099994659424,11.2,14.2,14.8,18.6,-36.7,49.0,10.9474,17.1927,16.6087,26.9078,-14.7835,-4.20576,14.3129,-50.9299,57.2271,-0.122564,0.055353,-1.01084,244.4,5.6,52.1701,4.42719,0.9,0.99347,229.847,4.42324,162.77200000000002,16.7231,173.72400000000002,0.815314,0.186764,238.651,2.66195,2.7139900000000003,34.224639892578104,22.0009689331055,23.0044822692871,22.0,-727312.0,1661.28,pp-ro,1,1,-1,-1
1570536961.5,2019-10-08,14:16:01.500,15.0,11.0,17.3600006103516,13.0,12.9,14.1,23.6,-33.9,40.0,12.9257,15.8468,15.9441,15.5444,-13.413,-2.09856,21.7383,-49.0718,44.7888,-0.521674,-0.204378,-1.37237,244.4,5.6,52.1701,4.42719,0.9,0.999011,231.766,4.42316,164.174,17.4832,172.324,0.8067979999999999,0.183134,238.651,2.52802,2.61771,34.7730560302734,22.0009689331055,22.3867702484131,22.0,-727242.0,1322.87,pp-ro,1,1,-1,-1
1570536961.6,2019-10-08,14:16:01.600,15.0,12.0,17.3500003814697,14.4,11.4,13.1,28.0,-30.5,31.2,15.835,13.6503,14.4367,11.5664,-11.4501,-9.53938,30.553,-43.5886,28.6609,-0.523411,-0.0458779,-1.30342,244.4,5.6,52.1701,4.42719,0.9,1.00234,229.384,4.42305,165.488,18.6233,170.924,0.7984100000000001,0.177274,238.638,2.39045,2.52548,34.9672241210938,22.0009689331055,20.858591079711896,22.0,-727036.0,2430.39,pp-ro,1,1,-1,-1
1570536961.7,2019-10-08,14:16:01.700,15.0,12.0,17.25,15.5,9.7,12.0,31.4,-26.6,23.6,15.835,13.6503,14.4367,11.5664,-11.4501,-9.53938,30.553,-43.5886,28.6609,-0.523411,-0.0458779,-1.30342,244.4,5.6,52.1701,4.42719,0.7,0.98128,220.752,4.4229400000000005,166.59799999999998,20.5233,169.72400000000002,0.790928,0.166876,238.709,2.2636,2.43495,34.8479919433594,22.0009689331055,19.280071258544897,22.0,-726670.0,2153.51,pp-ro,1,1,-1,-1
1570536961.8,2019-10-08,14:16:01.800,15.0,13.0,17.25,16.3,8.1,10.8,33.5,-22.5,17.0,17.3598,11.7405,13.1025,8.11703,-16.207,-4.01968,34.1407,-39.2867,20.0818,-0.658855,0.0776169999999999,-1.40277,244.4,5.6,52.1701,4.42719,0.7,0.980726,217.836,4.42283,167.532,21.6634,168.62400000000002,0.784499,0.160966,238.685,2.1414,2.34513,34.3251342773438,22.0009689331055,17.7239036560059,22.0,-726581.0,1692.05,pp-ro,1,1,-1,-1
1570536961.9,2019-10-08,14:16:01.900,15.0,14.0,17.2000007629395,17.0,6.6,9.5,35.0,-17.8,10.5,18.5112,9.7677,11.6301,8.97066,-24.0939,-10.9585,36.3288,-34.4166,12.6386,-0.549311,-0.0371898,-1.17135,244.4,5.6,52.1701,4.42719,0.7,0.946927,199.647,4.42272,168.37900000000002,23.1835,167.62400000000002,0.778455,0.152847,238.719,2.01309,2.25429,33.439483642578104,22.0009689331055,16.1132640838623,22.0,-726172.0,2891.86,pp-ro,1,1,-1,-1
1570536962.0,2019-10-08,14:16:02.000,15.0,14.0,17.1399993896484,17.3,5.2,8.3,36.1,-13.9,5.2,19.2877,7.941339999999999,10.1382,3.7709,-9.4858,-7.318339999999999,38.1791,-29.5167,5.97396,-0.4791899999999999,0.0104251,-1.17631,244.4,5.6,52.1701,4.42719,0.7,0.937507,194.56,4.42261,169.08,25.0835,166.824,0.7732399999999999,0.142505,238.846,1.909,2.17579,32.199615478515604,22.0009689331055,14.6961441040039,22.0,-726007.0,1507.46,pp-ro,1,1,-1,-1
1570536962.1,2019-10-08,14:16:02.100,15.0,14.0,17.0400009155273,17.3,4.5,7.8,36.6,-10.0,0.2,19.7487,6.34164,8.56429,6.46579,-23.6532,-11.9998,38.4133,-24.8792,0.290051,-0.416375,0.4056889999999999,-0.8780819999999999,244.4,5.6,52.1701,4.42719,0.7,0.931967,190.656,4.42249,169.66400000000002,27.3636,166.12400000000002,0.7684380000000001,0.129991,239.023,1.80924,2.14607,30.1405029296875,22.0009689331055,14.2239284515381,22.0,-725828.0,1907.4,pp-ro,1,1,-1,-1
1570536962.2,2019-10-08,14:16:02.200,15.0,14.0,16.8299999237061,17.6,2.9,6.1,37.1,-6.5,-4.7,20.0509,3.98885,6.64208,8.88649,-6.53405,-5.09096,39.1346,-18.2794,-7.35208,-0.0191552,-0.0209531,-1.25761,251.2,5.4,52.1701,4.42719,0.7,0.925872,187.832,4.42243,170.102,28.8837,165.524,0.764656,0.121765,239.097,1.71217,2.0338700000000003,28.1188812255859,22.0009689331055,12.0978260040283,22.0,-725737.0,1784.34,pp-ro,1,1,-1,-1
1570536962.3,2019-10-08,14:16:02.300,15.0,14.0,16.620000839233402,17.6,2.0,5.0,37.2,-3.3,-8.9,19.934,2.85033,5.37072,-2.11613,-8.0081,-13.7942,38.7542,-13.7698,-11.9081,-0.314145,0.0866198,-0.961387,251.2,5.4,52.1701,4.42719,0.7,0.919223,184.629,4.4224,170.453,30.4037,165.024,0.761394,0.11347,239.189,1.6271,1.96744,26.0103912353516,22.0009689331055,10.8660402297974,22.0,-725572.0,1630.52,pp-ro,1,1,-1,-1
1570536962.4,2019-10-08,14:16:02.400,15.0,14.0,16.3999996185303,17.8,1.3,3.8,37.6,0.0,-13.6,19.9581,2.29515,4.65348,-2.21308,-13.2336,-11.7254,38.5239,-11.7167,-14.2121,0.10457,0.0377194999999999,-0.949743,251.2,5.4,52.1701,4.42719,0.7,0.917006,182.959,4.42238,170.745,32.3038,164.62400000000002,0.758366,0.103023,239.371,1.53613,1.90105,23.9121170043945,22.0009689331055,9.61086654663086,22.0,-725428.0,1507.46,pp-ro,1,1,-1,-1
1570536962.5,2019-10-08,14:16:02.500,15.0,13.0,16.1900005340576,17.8,0.7,3.0,38.1,3.0,-17.8,20.0163,1.80706,4.03545,5.25905,-8.70598,-17.7973,38.422,-9.69168,-16.4356,-0.227473,0.126808,-1.01322,251.2,5.4,52.1701,4.42719,0.7,0.923655,190.383,4.42236,170.97799999999998,34.5838,164.324,0.7555430000000001,0.0904513999999999,239.65,1.45643,1.85596,21.8053283691406,22.0009689331055,8.7612771987915,22.0,-725281.0,430.703,pp-ro,1,1,-1,-1
1570536962.6,2019-10-08,14:16:02.600,15.0,12.0,16.1900005340576,17.6,0.3,2.1,38.0,4.7,-20.1,19.8384,0.4427779999999999,2.51254,-0.599683,-11.4123,-8.39812,38.0201,-3.47811,-22.6752,-0.275158,0.124171,-1.01557,251.2,5.4,52.1701,4.42719,0.7,0.931412,191.389,4.42234,171.06599999999997,36.1039,164.12400000000002,0.753811,0.0820514,239.799,1.41314,1.81192,19.693435668945305,22.0009689331055,7.91137170791626,22.0,-725235.0,861.4060000000001,pp-ro,1,1,-1,-1
1570536962.7,2019-10-08,14:16:02.700,15.0,12.0,16.1900005340576,16.9,-0.5,1.1,38.2,8.5,-25.1,19.3552,-0.443035,1.55306,-10.2162,-3.42204,-2.31724,38.1622,0.172238,-26.6244,-0.0605836,0.1629789999999999,-0.917929,251.2,5.4,52.1701,4.42719,0.6,0.929196,184.154,4.42231,171.12400000000002,37.6239,163.82399999999998,0.7518229999999999,0.0736545,239.86900000000003,1.31099,1.74645,17.579833984375,22.0009689331055,6.65061902999878,22.0,-725026.0,2522.69,pp-ro,1,1,-1,-1
1570536962.8,2019-10-08,14:16:02.800,15.0,10.0,16.2999992370605,16.5,-0.9,0.3,38.5,10.6,-27.8,19.3552,-0.443035,1.55306,-10.2162,-3.42204,-2.31724,38.1622,0.172238,-26.6244,-0.0605836,0.1629789999999999,-0.917929,251.2,5.4,52.1701,4.42719,0.6,0.8992760000000001,171.93099999999998,4.42229,171.095,39.5239,163.724,0.7504109999999999,0.0630730999999999,240.086,1.2596,1.70235,15.471343994140598,22.0009689331055,5.7734842300415,22.0,-724794.0,1815.1,pp-ro,1,1,-1,-1
1570536962.9,2019-10-08,14:16:02.900,15.0,10.0,16.2999992370605,16.4,-1.2,0.0,39.0,11.8,-29.1,18.3226,-1.27315,0.105502,-0.8439260000000001,-1.92046,-5.22801,38.1569,5.22353,-31.5544,-0.1817369999999999,0.149981,-0.96389,251.2,5.4,52.1701,4.42719,0.6,0.892073,174.03400000000002,4.42227,171.03599999999997,40.664,163.624,0.74953,0.0567019,240.166,1.23349,1.6805599999999998,13.3662567138672,22.0009689331055,5.34446954727173,22.0,-724592.0,1015.23,pp-ro,1,1,-1,-1
1570536963.0,2019-10-08,14:16:03.000,15.0,10.0,16.2999992370605,16.2,-2.0,-0.7,39.8,14.6,-32.5,17.7184,-2.19935,-0.981362,-0.87674,-4.80494,-5.12546,38.7293,9.7855,-34.9612,-0.00288032,0.170485,-0.567476,251.2,5.4,52.1701,4.42719,0.6,0.901492,178.97400000000002,4.42225,170.861,43.324,163.624,0.748215,0.0418119,240.506,1.16836,1.62489,11.2816162109375,22.0009689331055,4.2082028388977095,22.0,-724578.0,276.88,pp-ro,1,1,-1,-1
1570536963.1,2019-10-08,14:16:03.100,15.0,11.0,16.1900005340576,16.1,-2.3,-1.0,40.1,15.3,-33.5,17.5238,-2.50076,-1.26132,-4.12774,-4.59887,-9.96993,39.098,11.1522,-35.7706,0.299365,0.192863,-0.51378,251.2,5.4,52.1701,4.42719,0.6,0.920331,186.898,4.42223,170.773,44.0841,163.624,0.747922,0.0375241999999999,240.582,1.15072,1.60105,9.33321380615234,22.0009689331055,3.7207062244415297,22.0,-724512.0,922.935,pp-ro,1,1,-1,-1
1570536963.2,2019-10-08,14:16:03.200,15.0,12.0,16.129999160766598,15.9,-3.0,-1.7,41.0,16.7,-35.5,17.0184,-3.26149,-1.96088,-1.53779,-3.12454,-5.516780000000001,39.6955,14.7218,-38.602,0.271934,-0.0256559,-0.4141289999999999,232.2,5.9,52.1701,4.42719,0.6,0.931967,196.811,4.42214,170.423,46.3641,163.624,0.747229,0.0246266,240.762,1.1186,1.54738,7.57557678222656,22.0009689331055,2.6060233116149902,22.0,-724413.0,922.935,pp-ro,1,1,-1,-1
1570536963.3,2019-10-08,14:16:03.300,15.0,12.0,16.020000457763697,15.9,-3.3,-1.9,41.9,18.3,-37.3,17.0184,-3.26149,-1.96088,-1.53779,-3.12454,-5.516780000000001,39.6955,14.7218,-38.602,0.271934,-0.0256559,-0.4141289999999999,232.2,5.9,52.1701,4.42719,0.6,0.955238,208.863,4.422,170.218,47.1241,163.724,0.7475229999999999,0.0203125999999999,240.833,1.08069,1.52938,6.7989501953125,22.0009689331055,2.19953513145447,22.0,-724349.0,738.3480000000001,pp-ro,1,1,-1,-1
1570536963.4,2019-10-08,14:16:03.400,15.0,11.0,16.0799999237061,15.8,-4.0,-2.1,42.9,19.0,-39.0,16.9409,-3.8268,-2.35213,-3.99512,-4.78455,-4.11892,40.4192,16.7841,-40.0873,0.286016,0.0711166,-0.373737,232.2,5.9,52.1701,4.42719,0.6,0.972415,218.271,4.42185,169.868,49.0242,163.82399999999998,0.74732,0.00949727,241.033,1.05931,1.4988,5.347862243652339,22.0009689331055,1.5313445329666102,22.0,-724231.0,1415.17,pp-ro,1,1,-1,-1
1570536963.5,2019-10-08,14:16:03.500,15.0,11.0,16.129999160766598,15.8,-4.6,-2.5,43.7,19.3,-40.7,16.7349,-4.82002,-2.68906,1.65598,-3.8886,-2.08092,41.6067,18.8423,-42.3004,0.0611516999999999,0.00769266,-0.304856,232.2,5.9,52.1701,4.42719,0.6,0.995132,228.422,4.42171,169.4,50.5442,163.924,0.747682,0.000716008,241.086,1.0413,1.46432,3.8218536376953103,22.0009689331055,0.761307239532471,22.0,-724038.0,1568.99,pp-ro,1,1,-1,-1
1570536963.6,2019-10-08,14:16:03.600,15.0,10.0,16.3500003814697,15.6,-5.1,-2.7,44.9,19.4,-41.5,16.4359,-5.3049,-2.96272,0.0967512,-5.707380000000001,-0.119354,42.7386,19.4758,-43.2495,0.0724116,-0.0191184,-0.0386932,232.2,5.9,52.1701,4.42719,0.6,0.997902,234.248,4.42151,168.875,52.0642,164.12400000000002,0.7484649999999999,-0.00817396,241.176,1.0366799999999998,1.43949,2.7624969482421897,22.0009689331055,0.153571113944054,22.0,-723861.0,1507.46,pp-ro,1,1,-1,-1
1570536963.7,2019-10-08,14:16:03.700,15.0,10.0,16.4099998474121,15.5,-5.7,-2.8,45.9,19.4,-42.1,16.2345,-5.89987,-3.12662,-2.62047,-5.08211,-3.17635,43.5633,20.0384,-43.8456,0.210998,-0.157518,-0.194841,232.2,5.9,52.1701,4.42719,0.6,1.004,236.078,4.42143,168.32,53.9642,164.22400000000002,0.7486550000000001,-0.0192899,241.274,1.03718,1.41895,1.79681396484375,22.0009689331055,-0.343313246965408,22.0,-723810.0,984.464,pp-ro,1,1,-1,-1
1570536963.8,2019-10-08,14:16:03.800,15.0,10.0,16.5100002288818,15.4,-6.1,-2.8,46.8,19.0,-42.8,16.1853,-6.3663,-3.1537900000000003,-2.79336,-1.60146,-6.711689999999999,44.6796,20.1795,-44.137,0.249805,0.0216511,0.0990901,232.2,5.9,52.1701,4.42719,0.6,1.01508,236.447,4.42128,167.736,55.4842,164.424,0.749501,-0.0283502,241.348,1.03968,1.40893,0.9231033325195308,22.0009689331055,-0.664856493473053,22.0,-723613.0,2584.22,pp-ro,1,1,-1,-1
1570536963.9,2019-10-08,14:16:03.900,15.0,10.0,16.620000839233402,15.4,-6.4,-2.8,47.7,18.4,-43.0,16.0381,-6.72772,-3.1444,0.974926,-1.3487,0.6034649999999999,45.4952,20.0753,-44.562,0.1430529999999999,-0.107814,-0.000244769,232.2,5.9,52.1701,4.42719,0.6,1.0006700000000002,232.276,4.42108,167.093,57.0043,164.524,0.750157,-0.0375964,241.325,1.05077,1.4048,0.003402709960938,22.0009689331055,-0.858687162399292,22.0,-723280.0,1568.99,pp-ro,1,1,-1,-1
1570536964.0,2019-10-08,14:16:04.000,15.0,11.0,16.7800006866455,15.4,-6.7,-2.6,48.3,17.5,-43.5,15.9566,-6.845680000000001,-3.12511,0.765745,-0.270372,-1.44618,45.9526,19.8258,-44.5606,0.132329,-0.130825,-0.034739,232.2,5.9,52.1701,4.42719,0.6,1.00178,229.976,4.421,166.392,58.5243,164.72400000000002,0.751229,-0.0468226999999999,241.341,1.06175,1.40944,-0.534217834472656,22.0009689331055,-0.911841869354248,22.0,-723184.0,1845.87,pp-ro,1,1,-1,-1
1570536964.1,2019-10-08,14:16:04.100,15.0,12.0,16.9300003051758,15.2,-6.8,-2.5,48.8,16.6,-43.4,15.9566,-6.845680000000001,-3.12511,0.765745,-0.270372,-1.44618,45.9526,19.8258,-44.5606,0.132329,-0.130825,-0.034739,232.2,5.9,52.1701,4.42719,0.6,0.991807,223.248,4.42086,165.69099999999997,60.4243,164.924,0.751889,-0.0581622,241.463,1.08168,1.41361,-0.8653335571289059,22.0009689331055,-0.961553335189819,22.0,-722913.0,2891.86,pp-ro,1,1,-1,-1
1570536964.2,2019-10-08,14:16:04.200,15.0,11.0,16.9899997711182,15.1,-6.8,-2.3,49.2,15.7,-43.1,15.9568,-7.08075,-2.97623,-0.6356149999999999,-1.97322,0.603254,46.6247,19.2605,-44.4489,0.0105098,0.0388023,0.190978,232.3,6.4,52.1701,4.42719,0.6,0.972415,213.152,4.4207,164.96099999999998,61.9443,165.024,0.752637,-0.0675328,241.417,1.10276,1.42648,-0.9950485229492192,22.0009689331055,-0.8339204788208009,22.0,-722681.0,2091.99,pp-ro,1,1,-1,-1
1570536964.3,2019-10-08,14:16:04.300,15.0,10.0,17.0900001525879,15.2,-6.8,-2.2,49.8,15.0,-42.2,15.9568,-7.08075,-2.97623,-0.6356149999999999,-1.97322,0.603254,46.6247,19.2605,-44.4489,0.0105098,0.0388023,0.190978,232.3,6.4,52.1701,4.42719,0.6,0.948035,201.743,4.42054,164.26,63.0843,165.22400000000002,0.753951,-0.0748338,241.371,1.12745,1.43814,-0.964324951171875,22.0009689331055,-0.7663518786430359,22.0,-722321.0,2338.1,pp-ro,1,1,-1,-1
1570536964.4,2019-10-08,14:16:04.400,15.0,10.0,17.0900001525879,15.2,-6.8,-1.8,49.9,14.1,-41.9,15.6102,-7.09727,-2.59094,1.57994,1.53336,3.79518,47.7058,17.7898,-44.0991,-0.0387702,0.0936458,0.0236639,232.3,6.4,52.1701,4.42719,0.6,0.94471,200.908,4.42037,163.559,64.9844,165.324,0.7541439999999999,-0.0861753,241.468,1.15007,1.46326,-0.7919464111328121,22.0009689331055,-0.370535016059875,22.0,-722241.0,1507.46,pp-ro,1,1,-1,-1
1570536964.5,2019-10-08,14:16:04.500,15.0,10.0,17.0900001525879,15.4,-6.7,-1.6,50.0,13.1,-41.8,15.7135,-7.15618,-2.09934,3.99641,-0.913071,2.93792,48.4024,16.2315,-42.8688,0.00369929,-0.095141,0.0653977,232.3,6.4,52.1701,4.42719,0.6,0.945819,199.542,4.42021,162.858,66.5044,165.524,0.754981,-0.0955115,241.545,1.17001,1.48606,-0.684417724609375,22.0009689331055,-0.065187640488148,22.0,-722100.0,1507.46,pp-ro,1,1,-1,-1
1570536964.6,2019-10-08,14:16:04.600,15.0,10.0,17.0400009155273,15.5,-6.6,-1.4,50.3,12.5,-41.1,15.7135,-7.15618,-2.09934,3.99641,-0.913071,2.93792,48.4024,16.2315,-42.8688,0.00369929,-0.095141,0.0653977,232.3,6.4,52.1701,4.42719,0.6,0.945265,200.262,4.42004,162.127,68.4044,165.625,0.75513,-0.1069109999999999,241.653,1.19407,1.50811,-0.51885986328125,22.0009689331055,0.26635068655014,22.0,-721886.0,1292.11,pp-ro,1,1,-1,-1
1570536964.7,2019-10-08,14:16:04.700,15.0,11.0,17.0900001525879,15.7,-6.7,-1.1,50.1,12.1,-40.4,15.9586,-7.01042,-1.57828,1.30948,0.930615,-0.59414,48.6123,14.2943,-42.1886,0.0329584,-0.0942995,0.233787,232.3,6.4,52.1701,4.42719,0.5,0.948035,202.027,4.41988,161.39700000000002,69.5444,165.725,0.7560680000000001,-0.114338,241.558,1.21282,1.52634,0.015327453613281,22.0009689331055,0.4767685234546659,22.0,-721815.0,1445.93,pp-ro,1,1,-1,-1
1570536964.8,2019-10-08,14:16:04.800,15.0,10.0,17.0900001525879,15.8,-6.9,-1.0,50.3,11.2,-40.2,15.9586,-7.01042,-1.57828,1.30948,0.930615,-0.59414,48.6123,14.2943,-42.1886,0.0329584,-0.0942995,0.233787,232.3,6.4,52.1701,4.42719,0.5,0.952468,208.297,4.41971,160.696,71.4444,165.725,0.755728,-0.125756,241.645,1.23436,1.53313,0.1788330078125,22.0009689331055,0.5445199608802801,22.0,-721701.0,830.6410000000001,pp-ro,1,1,-1,-1
1570536964.9,2019-10-08,14:16:04.900,15.0,10.0,17.1900005340576,16.1,-6.9,-0.8,50.2,10.5,-40.0,16.3512,-7.31255,-1.03669,0.766353,-0.893267,-2.37476,48.4251,12.2066,-41.4234,-0.0186261,-0.0260309,0.0736299,232.3,6.4,52.1701,4.42719,0.5,0.970198,213.505,4.41955,159.937,72.9644,165.825,0.756223,-0.135164,241.664,1.25214,1.55343,0.3661727905273439,22.0009689331055,0.8138220906257629,22.0,-721603.0,1199.82,pp-ro,1,1,-1,-1
1570536965.0,2019-10-08,14:16:05.000,15.0,10.0,17.25,16.3,-7.0,-0.6,50.2,10.1,-40.0,16.3512,-7.31255,-1.03669,0.766353,-0.893267,-2.37476,48.4251,12.2066,-41.4234,-0.0186261,-0.0260309,0.0736299,232.3,6.4,52.1701,4.42719,0.5,0.97186,216.92,4.41938,159.236,74.8645,165.825,0.7557619999999999,-0.146559,241.782,1.26514,1.56939,0.509239196777344,22.0009689331055,1.07691752910614,22.0,-721400.0,2122.75,pp-ro,1,1,-1,-1
1570536965.1,2019-10-08,14:16:05.100,15.0,10.0,17.3500003814697,16.1,-7.0,-0.1,50.3,9.4,-40.1,16.5862,-7.45087,-0.420861,1.0438,-0.691321,3.35601,48.3667,10.8608,-41.6674,0.0695477,-0.0391006,0.0655684999999999,232.3,6.4,52.1701,4.42719,0.5,0.978509,224.727,4.41922,158.476,76.0045,165.825,0.756322,-0.15402,241.639,1.27791,1.59209,0.7987747192382809,22.0009689331055,1.39756321907043,22.0,-721313.0,430.703,pp-ro,1,1,-1,-1
1570536965.2,2019-10-08,14:16:05.200,15.0,9.0,17.5,16.2,-6.9,0.0,50.5,9.4,-40.0,16.775,-7.45741,-0.137664,2.17218,2.23371,3.18267,48.4929,10.715,-41.5843,-0.1008059999999999,0.0735612,0.0635027,234.7,7.5,52.1701,4.42719,0.5,0.999565,226.794,4.41911,157.717,77.5245,165.825,0.756376,-0.163629,241.625,1.28589,1.60802,1.03721618652344,22.0009689331055,1.61513423919678,22.0,-721188.0,1999.69,pp-ro,1,1,-1,-1
1570536965.3,2019-10-08,14:16:05.300,15.0,8.0,17.5499992370605,16.1,-6.9,0.2,50.3,9.4,-40.2,16.6505,-7.43986,0.102209,-0.528081,-0.667361,2.89092,48.4882,10.7439,-41.5469,-0.0444522,-0.0700035,0.0387222,234.7,7.5,52.1701,4.42719,0.5,0.977955,212.439,4.419,157.016,79.4245,165.725,0.7554489999999999,-0.174973,241.717,1.29149,1.6226200000000002,1.44256591796875,22.0009689331055,1.90794849395752,22.0,-720882.0,3291.8,pp-ro,1,1,-1,-1
1570536965.4,2019-10-08,14:16:05.400,15.0,8.0,17.5,15.9,-7.0,0.2,50.1,9.2,-40.5,16.6505,-7.43986,0.102209,-0.528081,-0.667361,2.89092,48.4882,10.7439,-41.5469,-0.0444522,-0.0700035,0.0387222,234.7,7.5,52.1701,4.42719,0.5,0.945265,197.399,4.4189,156.286,80.9445,165.725,0.755329,-0.184399,241.748,1.297,1.62251,1.5719985961914098,22.0009689331055,-35.0,22.0,-720628.0,2061.22,pp-ro,1,1,-1,-1
1570536965.5,2019-10-08,14:16:05.500,15.0,8.0,17.4500007629395,15.7,-7.2,0.0,49.7,9.0,-40.6,16.6505,-7.43986,0.102209,-0.528081,-0.667361,2.89092,48.4882,10.7439,-41.5469,-0.0444522,-0.0700035,0.0387222,234.7,7.5,52.1701,4.42719,0.5,0.934183,196.445,4.4188,155.497,82.8446,165.725,0.754803,-0.195927,241.883,1.30639,1.61161,1.89559173583984,22.0009689331055,-35.0,22.0,-720368.0,1322.87,pp-ro,1,1,-1,-1
1570536965.6,2019-10-08,14:16:05.600,15.0,9.0,17.3500003814697,15.5,-7.7,-0.1,49.3,8.5,-40.7,16.5443,-7.49098,0.194149,-0.0599458,-2.02555,2.60183,48.5706,10.5736,-41.8336,0.0587491999999999,-0.0714508,0.0661016,234.7,7.5,52.1701,4.42719,0.5,0.93917,199.303,4.41869,154.708,84.3646,165.725,0.754727,-0.205542,241.902,1.31815,1.59275,1.95520782470703,22.0009689331055,-35.0,22.0,-720325.0,830.6410000000001,pp-ro,1,1,-1,-1
1570536965.7,2019-10-08,14:16:05.700,15.0,10.0,17.25,15.3,-8.1,-0.2,49.1,7.1,-40.8,16.5443,-7.49098,0.194149,-0.0599458,-2.02555,2.60183,48.5706,10.5736,-41.8336,0.0587491999999999,-0.0714508,0.0661016,234.7,7.5,52.1701,4.42719,0.5,0.953022,207.705,4.41859,153.891,85.8846,165.725,0.754675,-0.215232,241.916,1.34122,1.57754,1.638427734375,22.0009689331055,-35.0,22.0,-720234.0,922.935,pp-ro,1,1,-1,-1
1570536965.8,2019-10-08,14:16:05.800,15.0,12.0,17.2999992370605,15.4,-8.2,-0.3,48.8,6.2,-40.8,15.879,-8.00159,-0.2516199999999999,-2.46386,-2.61203,0.0415013,47.9807,9.41805,-42.4056,-0.0194724,-0.1532589999999999,0.196455,234.7,7.5,52.1701,4.42719,0.5,0.969644,214.276,4.41849,153.043,87.4046,165.825,0.754949,-0.225002,241.991,1.35933,1.57857,0.967384338378906,22.0009689331055,-35.0,22.0,-720115.0,1415.17,pp-ro,1,1,-1,-1
1570536965.9,2019-10-08,14:16:05.900,15.0,11.0,17.2999992370605,15.6,-8.3,0.0,48.9,5.6,-41.3,15.6448,-8.40939,-0.376211,3.51335,-2.41189,-1.51127,47.5434,8.22763,-42.3967,-0.0617534999999999,-0.0181732,0.0478715,234.7,7.5,52.1701,4.42719,0.5,0.970752,213.566,4.41838,152.196,89.3046,165.825,0.7543300000000001,-0.236629,242.151,1.36899,1.59935,-0.054618835449219,22.0009689331055,-35.0,22.0,-719941.0,1845.87,pp-ro,1,1,-1,-1
1570536966.0,2019-10-08,14:16:06.000,15.0,10.0,17.2999992370605,15.7,-8.1,0.3,48.7,5.4,-42.0,15.7844,-8.64437,-0.426403,4.8064800000000005,-3.33042,-1.7048599999999998,47.2513,7.94767,-41.8751,-0.1192609999999999,0.0669077,0.0760139,234.7,7.5,52.1701,4.42719,0.5,0.96632,211.923,4.41828,151.379,90.4446,165.825,0.754678,-0.2444489999999999,242.061,1.36848,1.62584,-1.4371032714843797,22.0009689331055,-35.0,22.0,-719758.0,1784.34,pp-ro,1,1,-1,-1
1570536966.1,2019-10-08,14:16:06.100,15.0,10.0,17.25,15.8,-7.9,0.7,48.9,5.1,-43.0,15.8319,-8.774560000000001,-0.290652,0.758224,-2.80817,3.26904,47.0604,7.987260000000001,-41.8256,-0.166435,-0.117701,-0.0250212,234.7,7.5,52.1701,4.42719,0.5,0.964657,207.88,4.41817,150.532,91.9646,165.825,0.754505,-0.254205,242.106,1.36697,1.65775,-3.1882553100585898,22.0009689331055,-35.0,22.0,-719578.0,1876.63,pp-ro,1,1,-1,-1
1570536966.2,2019-10-08,14:16:06.200,15.0,10.0,17.0900001525879,16.0,-7.8,0.9,49.2,4.5,-43.5,15.8319,-8.774560000000001,-0.290652,0.758224,-2.80817,3.26904,47.0604,7.987260000000001,-41.8256,-0.166435,-0.117701,-0.0250212,240.2,7.7,52.1701,4.42719,0.5,0.946927,198.025,4.418080000000001,149.77200000000002,93.8647,165.825,0.753505,-0.265524,242.364,1.37647,1.6804,-4.72776794433594,22.0009689331055,-35.0,22.0,-719337.0,2430.39,pp-ro,1,1,-1,-1
1570536966.3,2019-10-08,14:16:06.300,15.0,9.0,16.9899997711182,16.2,-7.8,1.1,49.8,3.8,-43.5,16.2331,-8.32172,1.13962,-0.838578,-1.88996,-1.02073,47.9989,7.830889999999999,-43.1293,0.0559341,0.000708328,0.0160907,240.2,7.7,52.1701,4.42719,0.5,0.92975,191.842,4.418,148.954,95.0047,165.725,0.7534350000000001,-0.273371,242.236,1.39081,1.6968900000000002,-6.84758758544922,22.0009689331055,-35.0,22.0,-719063.0,1507.46,pp-ro,1,1,-1,-1
1570536966.4,2019-10-08,14:16:06.400,15.0,9.0,17.0400009155273,16.3,-7.7,1.7,50.6,2.7,-43.3,16.2331,-8.32172,1.13962,-0.838578,-1.88996,-1.02073,47.9989,7.830889999999999,-43.1293,0.0559341,0.000708328,0.0160907,240.2,7.7,52.1701,4.42719,0.5,0.931412,192.144,4.41792,148.166,96.9047,165.725,0.752396,-0.284775,242.504,1.41519,1.73368,-8.9605712890625,22.0009689331055,-35.0,22.0,-718999.0,1261.34,pp-ro,1,1,-1,-1
1570536966.5,2019-10-08,14:16:06.500,15.0,9.0,17.0900001525879,16.6,-7.4,2.2,51.5,1.0,-43.0,16.3932,-8.06737,1.91312,0.101407,3.96174,11.1212,49.6623,6.90845,-42.4091,0.244542,0.101453,0.271536,240.2,7.7,52.1701,4.42719,0.5,0.930304,191.626,4.41784,147.377,98.4247,165.525,0.751286,-0.29427,242.499,1.44718,1.7744799999999998,-11.0701446533203,22.0009689331055,-35.0,22.0,-718854.0,1415.17,pp-ro,1,1,-1,-1
1570536966.6,2019-10-08,14:16:06.600,15.0,10.0,17.3500003814697,17.2,-7.1,2.6,52.4,-0.2,-41.9,16.3932,-8.06737,1.91312,0.101407,3.96174,11.1212,49.6623,6.90845,-42.4091,0.244542,0.101453,0.271536,240.2,7.7,52.1701,4.42719,0.5,0.928642,188.502,4.41776,146.67600000000002,100.325,165.325,0.749325,-0.305274,242.717,1.48358,1.81447,-13.1728973388672,22.0009689331055,-35.0,22.0,-718704.0,1599.75,pp-ro,1,1,-1,-1
1570536966.7,2019-10-08,14:16:06.700,15.0,9.0,17.5,17.5,-6.9,3.5,53.6,-2.7,-40.9,16.8114,-7.48635,2.60155,0.244549,3.10855,0.771895,50.5714,5.3343,-40.7996,-0.0956294,0.0767621,0.293836,240.2,7.7,52.1701,4.42719,0.6,0.924763,191.505,4.41769,145.946,101.845,165.125,0.747984,-0.314561,242.773,1.53418,1.86419,-15.282470703125,22.0009689331055,-35.0,22.0,-718544.0,1476.7,pp-ro,1,1,-1,-1
1570536966.8,2019-10-08,14:16:06.800,15.0,9.0,17.6000003814697,17.8,-6.8,4.0,54.9,-5.9,-39.6,17.2773,-7.00165,3.84615,0.5479569999999999,1.40832,8.2946,52.4525,2.44402,-37.8569,0.0664143999999999,0.00737376,0.5129630000000001,240.2,7.7,52.1701,4.42719,0.6,0.940832,205.257,4.41761,145.216,103.745,164.725,0.745378,-0.325555,242.868,1.59881,1.89543,-17.3886337280273,22.0009689331055,-35.0,22.0,-718500.0,92.2935,pp-ro,1,1,-1,-1
1570536966.9,2019-10-08,14:16:06.900,15.0,10.0,17.8500003814697,18.3,-5.7,5.4,55.4,-7.2,-38.4,17.2773,-7.00165,3.84615,0.5479569999999999,1.40832,8.2946,52.4525,2.44402,-37.8569,0.0664143999999999,0.00737376,0.5129630000000001,240.2,7.7,52.1701,4.42719,0.6,0.975739,217.623,4.41753,144.923,104.505,164.625,0.744501,-0.329887,242.952,1.6329,1.9896,-19.5050354003906,22.0009689331055,-35.0,22.0,-718469.0,707.5830000000001,pp-ro,1,1,-1,-1
1570536967.0,2019-10-08,14:16:07.000,15.0,9.0,18.2399997711182,18.8,-5.1,6.7,57.3,-12.8,-34.8,17.6357,-5.97136,5.22936,1.63215,4.62156,9.29205,53.7721,-1.79876,-34.0514,0.147333,0.0785731,0.791135,240.2,7.7,52.1701,4.42719,0.6,0.984604,225.189,4.41741,144.047,107.545,163.825,0.739039,-0.346339,243.216,1.75942,2.06562,-21.619728088378896,22.0009689331055,-35.0,22.0,-718282.0,1999.69,pp-ro,1,1,-1,-1
1570536967.1,2019-10-08,14:16:07.100,15.0,9.0,18.8099994659424,19.1,-4.0,7.9,58.3,-17.1,-32.1,17.6357,-5.97136,5.22936,1.63215,4.62156,9.29205,53.7721,-1.79876,-34.0514,0.147333,0.0785731,0.791135,240.2,7.7,52.1701,4.42719,0.6,0.991807,227.073,4.41737,143.55100000000002,109.065,163.225,0.7357819999999999,-0.354702,243.196,1.8523,2.14779,-23.7344207763672,22.0009689331055,-35.0,22.0,-718168.0,984.464,pp-ro,1,1,-1,-1
1570536967.2,2019-10-08,14:16:07.200,15.0,7.0,19.1299991607666,19.1,-2.6,9.4,59.1,-21.9,-29.1,18.0291,-4.24753,7.661760000000001,2.81275,13.9942,12.8227,55.2455,-9.24348,-26.9449,0.12251,0.123432,0.94531,260.5,5.9,52.1701,4.42719,0.6,0.991807,231.747,4.41734,143.22899999999998,111.345,162.425,0.730219,-0.3657559999999999,243.504,1.95632,2.24966,-25.84912109375,22.0009689331055,-35.0,22.0,-717838.0,2368.87,pp-ro,1,1,-1,-1
1570536967.3,2019-10-08,14:16:07.300,15.0,7.0,19.3099994659424,18.7,-1.0,11.0,59.7,-27.4,-25.3,18.146,-3.54639,8.29101,-1.23546,13.5062,12.3472,55.4067,-11.4045,-24.8902,0.166914,0.249742,1.07399,260.5,5.9,52.1701,4.42719,0.6,0.994578,239.842,4.41737,143.054,112.865,161.525,0.725276,-0.372959,243.502,2.0743,2.35925,-27.9535751342773,22.0009689331055,-35.0,22.0,-717796.0,738.3480000000001,pp-ro,1,1,-1,-1
1570536967.4,2019-10-08,14:16:07.400,15.0,8.0,19.3999996185303,18.7,-0.1,11.8,59.9,-30.2,-22.9,17.7415,-2.07556,9.67877,-4.05432,14.2232,12.1694,55.3582,-16.4325,-20.3424,0.336858,0.17618,1.21351,260.5,5.9,52.1701,4.42719,0.6,1.0389,254.231,4.4174,142.995,114.385,161.025,0.721294,-0.379702,243.846,2.14043,2.4157,-29.9880523681641,22.0009689331055,-35.0,22.0,-717820.0,123.058,pp-ro,1,1,-1,-1
1570536967.5,2019-10-08,14:16:07.500,15.0,9.0,19.5400009155273,17.9,1.7,13.4,59.8,-35.3,-18.0,17.2266,-0.51775,11.2167,-3.11631,15.4225,14.6998,54.7266,-21.4308,-15.2211,-0.0282561,0.2841599999999999,1.29049,260.5,5.9,52.1701,4.42719,0.6,1.04666,257.013,4.41743,143.171,115.905,160.025,0.715268,-0.385579,244.008,2.26009,2.53143,-31.6862945556641,22.0025119781494,-35.0,22.0,-717556.0,3045.68,pp-ro,1,1,-1,-1
1570536967.6,2019-10-08,14:16:07.600,15.0,10.0,19.7999992370605,17.0,3.5,14.8,58.5,-41.3,-12.9,17.0214,0.425537,11.9661,-5.97406,19.4229,19.5882,54.0758,-23.9615,-12.1338,0.3725449999999999,0.36784,1.24326,260.5,5.9,52.1701,4.42719,0.6,1.04666,264.806,4.41745,143.287,117.425,158.825,0.7087319999999999,-0.3915869999999999,244.019,2.38927,2.64167,-33.036346435546896,22.0025119781494,-35.0,22.0,-717371.0,1230.58,pp-ro,1,1,-1,-1
1570536967.7,2019-10-08,14:16:07.700,15.0,11.0,20.020000457763697,16.2,5.5,16.1,56.3,-47.4,-5.8,15.0762,3.85751,14.6821,-9.12879,18.2909,11.831,49.5319,-34.5102,1.2180799999999998,0.119389,0.136404,1.36178,260.5,5.9,52.1701,4.42719,0.6,1.07437,274.573,4.41748,143.725,119.325,157.525,0.700573,-0.397982,244.356,2.5329200000000003,2.75048,-34.036529541015604,22.0019989013672,-35.0,22.0,-717264.0,1292.11,pp-ro,1,1,-1,-1
1570536967.8,2019-10-08,14:16:07.800,15.0,9.0,20.2000007629395,13.9,8.4,18.0,52.3,-53.1,2.5,15.0762,3.85751,14.6821,-9.12879,18.2909,11.831,49.5319,-34.5102,1.2180799999999998,0.119389,0.136404,1.36178,260.5,5.9,52.1701,4.42719,0.6,1.08101,284.872,4.41751,144.339,120.845,156.225,0.692704,-0.402155,244.629,2.67241,2.9226400000000003,-34.6748657226562,22.0025119781494,-35.0,22.0,-716883.0,2122.75,pp-ro,1,1,-1,-1
1570536967.9,2019-10-08,14:16:07.900,15.0,11.0,20.6299991607666,13.1,9.2,18.5,45.6,-58.3,13.7,12.6225,7.360760000000001,16.9434,-13.7997,17.7909,9.17047,38.4414,-44.5254,20.6225,0.0424981,0.304902,1.59411,260.5,5.9,52.1701,4.42719,0.6,1.09154,289.814,4.41754,145.127,122.365,154.725,0.683866,-0.405656,244.898,2.81896,2.97382,-34.941116333007805,22.0025119781494,-35.0,22.0,-716837.0,861.4060000000001,pp-ro,1,1,-1,-1
1570536968.0,2019-10-08,14:16:08.000,15.0,11.0,20.9599990844727,11.2,11.3,19.0,34.7,-62.4,28.7,10.8023,9.13418,17.7044,-23.4793,14.2522,12.0198,30.2865,-48.3074,32.1379,-0.0692623,0.2735849999999999,1.38356,260.5,5.9,52.1701,4.42719,0.6,1.1198,297.215,4.41756,146.149,123.505,153.125,0.674896,-0.4067949999999999,245.072,2.96992,3.09068,-34.9564819335938,22.0035419464111,-23.0163822174072,22.0,-716629.0,3107.21,pp-ro,1,1,-1,-1
