time,date,time_of_day,airspeed_temperature,airspeed_angle_of_attack,airspeed_apparent_windspeed,kite_0_vx,kite_0_vy,kite_0_vz,kite_0_roll,kite_0_pitch,kite_0_yaw,kite_1_vx,kite_1_vy,kite_1_vz,kite_1_ax,kite_1_ay,kite_1_az,kite_1_roll,kite_1_pitch,kite_1_yaw,kite_1_roll_rate,kite_1_pitch_rate,kite_1_yaw_rate,ground_upwind_direction,ground_wind_velocity,ground_pos_latitude,ground_pos_longitude,ground_pos_altitude,ground_tether_reelout_speed,ground_tether_force,est_upwind_direction,kite_pos_east,kite_pos_north,kite_height,kite_elevation,kite_azimuth,kite_distance,kite_heading,kite_course,kite_actual_steering,kite_actual_depower,kite_set_steering,kite_set_depower,ground_mech_energy,ground_mech_power,flight_phase,flight_phase_index,phase,pattern,pattern_section
1570537095.4,2019-10-08,14:18:15.400,15.0,8.0,15.4200000762939,9.5,-3.8,2.9,16.9,-3.3,-72.6,8.49555,-3.18118,3.26574,11.5703,3.76349,4.54241,19.5801,10.5182,-74.4436,0.0885818999999999,0.250198,0.801194,262.0,4.8,52.1701,4.42724,9.0,-2.68896,110.68,4.383369999999999,43.0812,12.1606,241.315,1.3873799999999998,0.053902,245.432,0.592517,1.51882,-33.7651519775391,22.0648212432861,-35.0,22.0,-719281.0,-1815.1,pp-riro,4,0,-1,-1
1570537095.5,2019-10-08,14:18:15.500,15.0,8.0,14.890000343322802,10.6,-3.0,3.2,18.4,-4.7,-68.0,9.9225,-2.05991,3.7419,10.0803,7.687130000000001,2.87781,22.4819,9.26443,-66.6091,0.212339,0.14975,0.8482120000000001,262.0,4.8,52.1701,4.42724,9.0,-2.6379900000000003,95.9992,4.3834,42.7306,13.3007,241.115,1.3872799999999998,0.0272313,245.233,0.703856,1.6491900000000002,-34.5161285400391,22.0318641662598,-35.0,22.0,-719549.0,-5291.49,pp-riro,4,0,-1,-1
1570537095.6,2019-10-08,14:18:15.600,15.0,9.0,14.5299997329712,11.4,-2.3,3.4,19.6,-5.7,-63.2,9.9225,-2.05991,3.7419,10.0803,7.687130000000001,2.87781,22.4819,9.26443,-66.6091,0.212339,0.14975,0.8482120000000001,262.0,4.8,52.1701,4.42724,9.0,-2.64574,90.9062,4.38342,42.4386,14.4407,240.815,1.38675,0.000985741,244.952,0.817682,1.75023,-34.906982421875,22.0097217559814,-35.0,22.0,-719990.0,-8798.64,pp-riro,4,0,-1,-1
1570537095.7,2019-10-08,14:18:15.700,15.0,9.0,14.4099998474121,12.3,-1.5,3.5,21.0,-7.4,-58.1,10.7696,-1.27469,3.87537,6.0755,10.6511,3.12213,24.0104,7.905939999999999,-61.5274,0.204293,0.13067,0.8221440000000001,262.0,4.8,52.1701,4.42724,9.1,-2.72498,89.7595,4.38342,42.2341,15.5808,240.515,1.3857700000000002,-0.0244671,244.692,0.937899,1.84908,-34.970123291015604,22.0009689331055,-35.0,22.0,-721906.0,-12705.7,pp-riro,4,0,-1,-1
1570537095.8,2019-10-08,14:18:15.800,15.0,8.0,14.3500003814697,13.1,-0.7,3.9,22.2,-9.1,-53.1,11.8708,-0.136423,4.249619999999999,6.5986,6.8361600000000005,3.00009,26.1852,5.34978,-53.4837,0.0724033,0.189697,0.998208,262.0,4.8,52.1701,4.42724,9.1,-2.75157,91.9245,4.38347,42.0588,17.1008,240.315,1.38407,-0.0572549999999999,244.566,1.06403,1.94961,-34.971832275390604,22.0009689331055,-35.0,22.0,-722647.0,-14028.6,pp-riro,4,0,-1,-1
1570537095.9,2019-10-08,14:18:15.900,15.0,8.0,14.2200002670288,13.9,0.1,4.3,23.0,-11.1,-48.0,12.2499,0.254583,4.39306,8.551739999999999,8.47378,3.71593,26.8792,4.54922,-50.5625,0.096324,0.273009,0.980215,262.0,4.8,52.1701,4.42724,9.1,-2.7942400000000003,91.7265,4.38349,42.0296,18.2409,239.915,1.3821,-0.0805711,244.251,1.18342,2.03298,-34.9889068603516,22.0009689331055,-35.0,22.0,-723685.0,-10552.2,pp-riro,4,0,-1,-1
1570537096.0,2019-10-08,14:18:16.000,15.0,8.0,14.1000003814697,14.5,1.3,4.7,23.8,-13.0,-42.8,12.577,0.672913,4.63403,5.95506,7.94429,4.6003300000000005,27.3349,3.6426,-47.6473,0.2043319999999999,0.151063,1.04137,262.0,4.8,52.1701,4.42724,9.1,-2.84521,85.0337,4.38351,42.0588,19.3809,239.615,1.37988,-0.1029289999999999,244.049,1.3033,2.13612,-34.9871978759766,22.0009689331055,-35.0,22.0,-724910.0,-13228.7,pp-riro,4,0,-1,-1
1570537096.1,2019-10-08,14:18:16.100,15.0,8.0,13.9099998474121,15.0,2.4,5.0,24.3,-14.7,-37.6,13.7509,2.65278,5.38972,4.17847,9.92566,3.6665,28.5706,-0.282543,-36.4352,-0.0515455,0.0905743,0.934409,262.0,4.8,52.1701,4.42724,9.1,-2.91891,78.6703,4.38354,42.234,21.281,239.215,1.37561,-0.137898,243.845,1.43529,2.2376400000000003,-34.9871978759766,22.0009689331055,-35.0,22.0,-726730.0,-19873.9,pp-riro,4,0,-1,-1
1570537096.2,2019-10-08,14:18:16.200,15.0,8.0,13.7799997329712,15.6,3.5,5.2,24.8,-16.3,-32.3,14.2232,3.71224,5.60036,2.11522,11.5969,5.14939,28.998,-2.30005,-31.2234,0.0209099999999999,0.238561,0.911599,262.3,5.2,52.1701,4.42724,9.1,-3.06906,82.77799999999999,4.38357,42.4969,22.421,238.815,1.37225,-0.156662,243.601,1.55177,2.31481,-34.9906158447266,22.0009689331055,-35.0,22.0,-729851.0,-20243.0,pp-riro,4,0,-1,-1
1570537096.3,2019-10-08,14:18:16.300,15.0,9.0,13.7799997329712,16.1,4.5,5.6,24.9,-18.0,-27.2,14.3987,4.2083,5.80175,4.16916,9.3583,3.75751,29.2504,-3.26335,-28.6217,0.120265,0.1096579999999999,0.894288,262.3,5.2,52.1701,4.42724,9.1,-3.12004,85.4813,4.38362,42.8474,24.3211,238.315,1.36693,-0.187503,243.355,1.67694,2.39568,-34.9991455078125,22.0009689331055,-35.0,22.0,-730884.0,-18889.4,pp-riro,4,0,-1,-1
1570537096.4,2019-10-08,14:18:16.400,15.0,9.0,13.7799997329712,16.5,5.6,6.1,25.0,-19.5,-22.2,14.9426,5.14291,6.18189,4.7023,8.295860000000001,4.06501,29.4583,-4.99681,-23.2284,0.00427748,0.2411989999999999,0.91533,262.3,5.2,52.1701,4.42724,9.1,-3.18985,89.2454,4.38367,43.3147,25.8411,237.815,1.36181,-0.209163,243.105,1.78983,2.47076,-34.9991455078125,22.0009689331055,-35.0,22.0,-732534.0,-15812.9,pp-riro,4,0,-1,-1
1570537096.5,2019-10-08,14:18:16.500,15.0,10.0,13.8400001525879,16.7,6.7,6.4,24.8,-21.0,-16.9,15.3859,6.16628,6.50099,2.6144,11.9721,2.84275,29.253,-6.561489999999999,-17.648,0.0945493999999999,0.21314,0.97006,262.3,5.2,52.1701,4.42724,9.1,-3.2375,90.9347,4.3837,43.8696,27.3612,237.315,1.35628,-0.228961,242.882,1.90512,2.5422700000000003,-35.0008544921875,22.0009689331055,-35.0,22.0,-734074.0,-14767.0,pp-riro,4,0,-1,-1
1570537096.6,2019-10-08,14:18:16.600,15.0,10.0,13.9700002670288,16.9,8.0,6.7,24.5,-22.4,-11.6,15.5269,7.26205,6.8788,-0.2425639999999999,11.7776,4.980519999999999,28.9141,-8.25376,-12.0857,0.126217,0.230305,0.990712,262.3,5.2,52.1701,4.42724,9.1,-3.30676,93.9835,4.38376,44.5413,28.8813,236.715,1.35019,-0.24663,242.594,2.01706,2.61712,-35.0076751708984,22.0009689331055,-35.0,22.0,-736032.0,-12859.6,pp-riro,4,0,-1,-1
1570537096.7,2019-10-08,14:18:16.700,15.0,9.0,14.2799997329712,17.2,9.3,7.0,24.3,-23.7,-5.8,15.671,8.39198,7.24302,1.61869,10.6192,2.52227,28.1567,-9.77219,-6.6944300000000005,0.0426344,0.218558,0.921243,262.3,5.2,52.1701,4.42724,9.1,-3.3317,98.5387,4.3838,45.3591,31.1614,236.115,1.34181,-0.273358,242.443,2.14473,2.69355,-35.0059814453125,22.0009689331055,-35.0,22.0,-737138.0,-10583.0,pp-riro,4,0,-1,-1
1570537096.8,2019-10-08,14:18:16.800,15.0,9.0,14.4700002670288,17.3,10.6,7.5,23.8,-25.0,-0.5,15.8685,9.61071,7.52243,2.58643,12.1333,2.76273,27.7349,-10.9665,-1.08227,0.0717855,0.297377,0.994652,262.3,5.2,52.1701,4.42724,9.1,-3.345,102.396,4.38385,46.323,32.6814,235.415,1.33448,-0.285878,242.145,2.24923,2.75778,-35.0042724609375,22.0009689331055,-35.0,22.0,-737609.0,-8860.17,pp-riro,4,0,-1,-1
1570537096.9,2019-10-08,14:18:16.900,15.0,9.0,14.6499996185303,17.4,11.9,7.9,23.4,-26.1,5.3,15.8685,9.61071,7.52243,2.58643,12.1333,2.76273,27.7349,-10.9665,-1.08227,0.0717855,0.297377,0.994652,262.3,5.2,52.1701,4.42724,9.1,-3.32837,113.643,4.3839,47.3452,34.5815,234.715,1.32601,-0.302332,241.927,2.36367,2.82124,-35.0042724609375,22.0009689331055,-23.0044822692871,22.0,-737912.0,-2215.04,pp-riro,4,0,-1,-1
1570537097.0,2019-10-08,14:18:17.000,15.0,9.0,14.7700004577637,17.1,13.3,8.4,22.6,-27.2,11.6,16.0405,10.7536,7.97647,-0.566706,12.4218,4.29046,26.7755,-12.1527,4.845280000000001,-0.0112236,0.265281,0.915405,262.3,5.2,52.1701,4.42724,9.1,-3.25468,123.948,4.38394,48.5719,36.1016,233.915,1.31763,-0.310728,241.617,2.47719,2.88769,-35.0042724609375,22.0019989013672,-23.0092449188232,22.0,-737380.0,8429.47,pp-riro,4,0,-1,-1
1570537097.1,2019-10-08,14:18:17.100,15.0,9.0,15.0100002288818,16.9,14.8,8.8,21.6,-28.3,17.9,15.8698,12.6082,8.64898,-0.0207029,15.8115,5.13284,25.3008,-13.8963,14.0535,0.267706,0.2923409999999999,1.0268700000000002,262.3,5.2,52.1701,4.42724,9.1,-3.0746,130.889,4.38399,49.9446,37.6216,233.115,1.30873,-0.317189,241.355,2.58753,2.94868,-34.9564819335938,22.0025119781494,-23.0116176605225,22.0,-735566.0,14828.5,pp-riro,4,0,-1,-1
1570537097.2,2019-10-08,14:18:17.200,15.0,10.0,15.3000001907349,16.5,16.2,9.2,21.0,-29.2,24.2,15.605,13.912,9.05953,-2.43586,13.0757,3.61923,23.984,-14.9285,20.3356,0.114565,0.175066,1.01099,264.0,5.1,52.1701,4.42724,9.1,-3.0059,133.29399999999998,4.38404,51.4049,39.5217,232.215,1.2985,-0.3270679999999999,241.098,2.6991,3.01161,-34.546844482421896,22.0025119781494,-23.0116176605225,22.0,-734787.0,15320.7,pp-riro,4,0,-1,-1
1570537097.3,2019-10-08,14:18:17.300,15.0,10.0,15.640000343322802,16.2,17.0,9.4,20.5,-29.4,27.3,15.44,14.6185,9.25907,-2.93765,15.6563,3.84296,23.5411,-15.5149,23.4868,0.120678,0.273864,1.01273,264.0,5.1,52.1701,4.42724,9.1,-2.85186,140.447,4.3841,53.0405,41.0418,231.715,1.2890700000000002,-0.330255,241.225,2.75178,3.04573,-33.77880859375,22.0025119781494,-23.0116176605225,22.0,-733206.0,16705.1,pp-riro,4,0,-1,-1
1570537097.4,2019-10-08,14:18:17.400,15.0,10.0,15.869999885559098,15.1,19.1,10.0,19.2,-30.3,36.8,14.4342,17.3036,10.0689,-6.11395,12.5891,4.53886,21.2527,-17.4136,35.9274,0.221482,0.230365,1.00007,264.0,5.1,52.1701,4.42724,9.1,-2.53603,153.24200000000002,4.38415,54.8514,42.9418,230.314,1.27708,-0.335975,240.61900000000003,2.90701,3.13717,-32.6557464599609,22.0025119781494,-23.0116176605225,22.0,-729972.0,23657.9,pp-riro,4,0,-1,-1
1570537097.5,2019-10-08,14:18:17.500,15.0,10.0,16.0900001525879,14.7,19.7,10.2,18.7,-30.5,39.8,13.7125,18.5679,10.4426,-7.60617,11.9966,0.8583149999999999,19.8863,-18.4203,42.1202,0.0651260999999999,0.0998126,1.01183,264.0,5.1,52.1701,4.42724,9.1,-2.2734,159.582,4.38421,55.786,43.7019,229.814,1.27169,-0.336345,240.492,2.95421,3.16336,-31.174255371093803,22.003026962280305,-22.72096824646,22.0,-727562.0,24457.8,pp-riro,4,0,-1,-1
1570537097.6,2019-10-08,14:18:17.600,15.0,10.0,16.3099994659424,13.8,21.1,10.6,16.8,-31.2,49.2,12.8913,19.8469,10.7851,-9.3859,12.5623,4.33967,18.8001,-19.332,48.2508,-0.00299341,0.197221,1.00375,264.0,5.1,52.1701,4.42724,9.1,-2.00412,163.344,4.38426,58.7943,45.982,228.21400000000003,1.2547,-0.335593,240.11,3.09911,3.21976,-29.3446044921875,22.003026962280305,-22.2637596130371,22.0,-725109.0,23965.5,pp-riro,4,0,-1,-1
1570537097.7,2019-10-08,14:18:17.700,15.0,10.0,16.5799999237061,12.8,22.2,10.8,15.6,-31.3,55.2,12.0063,20.882,11.0025,-10.0123,8.7559,2.07703,17.4866,-20.3287,54.0058,0.373181,0.163826,0.932549,264.0,5.1,52.1701,4.42725,9.4,-1.85673,163.373,4.38432,61.0432,47.122,227.114,1.24347,-0.329328,239.849,3.18538,3.26571,-27.356201171875,22.003026962280305,-21.6617736816406,22.0,-723981.0,22427.3,pp-riro,4,0,-1,-1
1570537097.8,2019-10-08,14:18:17.800,15.0,9.0,16.8899993896484,11.6,23.1,10.9,15.1,-31.4,57.9,12.0063,20.882,11.0025,-10.0123,8.7559,2.07703,17.4866,-20.3287,54.0058,0.373181,0.163826,0.932549,264.0,5.1,52.1701,4.42725,9.4,-1.55032,161.746,4.38437,62.1239,47.5021,226.614,1.2385,-0.324786,239.729,3.22246,3.31459,-25.5760345458984,22.003026962280305,-20.785203933715803,22.0,-722008.0,18889.4,pp-riro,4,0,-1,-1
1570537097.9,2019-10-08,14:18:17.900,15.0,10.0,17.1000003814697,10.3,23.9,10.9,13.2,-31.7,63.7,12.0063,20.882,11.0025,-10.0123,8.7559,2.07703,17.4866,-20.3287,54.0058,0.373181,0.163826,0.932549,264.0,5.1,52.1701,4.42725,9.4,-1.11094,158.945,4.38443,64.5189,49.0221,225.414,1.22571,-0.321791,239.536,3.3073900000000003,3.36567,-24.0365295410156,22.003026962280305,-20.2423496246338,22.0,-719850.0,12459.6,pp-riro,4,0,-1,-1
1570537098.0,2019-10-08,14:18:18.000,15.0,9.0,17.3099994659424,9.2,24.6,10.8,12.0,-31.4,69.4,9.34291,22.9146,11.0281,-10.1748,8.27006,-5.15143,14.1349,-22.2768,67.6589,0.102374,0.00994557,0.672892,264.0,5.1,52.1701,4.42725,9.4,-0.979064,158.73,4.38448,66.8846,50.1622,224.414,1.21418,-0.315584,239.482,3.38825,3.4055,-22.6693954467773,22.0035419464111,-19.805154800415,22.0,-719262.0,10890.6,pp-riro,4,0,-1,-1
1570537098.1,2019-10-08,14:18:18.100,15.0,9.0,17.3999996185303,8.0,25.1,10.7,10.4,-30.8,74.7,8.24238,23.5934,10.9531,-9.3998,4.95078,-1.28027,12.6508,-22.3061,72.9701,-0.0193088,0.135822,0.880453,264.0,5.1,52.1701,4.42725,9.4,-0.714766,156.857,4.38454,69.33800000000001,50.9223,223.414,1.20323,-0.305597,239.405,3.4603900000000003,3.4420300000000004,-21.2817916870117,22.003026962280305,-19.329397201538104,22.0,-718426.0,7814.18,pp-riro,4,0,-1,-1
1570537098.2,2019-10-08,14:18:18.200,15.0,8.0,17.5599994659424,6.8,25.4,10.7,8.9,-30.5,79.7,7.65675,23.8708,10.8833,-11.9392,3.27125,-2.88526,11.7917,-22.202,75.4649,-0.0790172,0.336543,0.740592,258.1,5.0,52.1701,4.42725,9.4,-0.437725,155.269,4.3846,71.87899999999999,51.6823,222.314,1.19182,-0.295588,239.293,3.5272900000000003,3.47577,-20.814132690429695,22.003026962280305,-18.942668914794897,22.0,-717907.0,4491.62,pp-riro,4,0,-1,-1
1570537098.3,2019-10-08,14:18:18.300,15.0,9.0,17.6100006103516,5.6,25.7,10.5,7.2,-30.0,84.3,5.9724900000000005,24.3619,10.611,-15.2571,6.049119999999999,-1.49293,9.53115,-21.8907,82.4454,0.00756121,0.0943628999999999,0.677976,258.1,5.0,52.1701,4.42725,9.4,-0.19005,155.225,4.38468,74.3908,52.0623,221.314,1.18147,-0.282882,239.216,3.58647,3.50811,-19.998291015625,22.003026962280305,-18.4833183288574,22.0,-717669.0,1661.28,pp-riro,4,0,-1,-1
1570537098.4,2019-10-08,14:18:18.400,15.0,8.0,17.7099990844727,4.5,25.8,10.2,5.6,-29.0,89.1,4.9490300000000005,24.5737,10.2946,-8.22096,0.780432,-2.94683,7.98855,-21.2843,86.8738,0.0768264999999999,0.182815,0.653167,258.1,5.0,52.1701,4.42725,9.4,0.0720307,153.248,4.38473,77.0487,53.2024,220.21400000000003,1.16877,-0.2766679999999999,239.293,3.65605,3.54205,-19.2814483642578,22.003026962280305,-18.2716484069824,22.0,-717690.0,-799.877,pp-riro,4,0,-1,-1
1570537098.5,2019-10-08,14:18:18.500,15.0,9.0,17.7000007629395,3.4,26.1,10.0,3.7,-28.1,93.3,4.9490300000000005,24.5737,10.2946,-8.22096,0.780432,-2.94683,7.98855,-21.2843,86.8738,0.0768264999999999,0.182815,0.653167,258.1,5.0,52.1701,4.42725,9.4,0.292556,153.001,4.3848,79.6189,53.5825,219.21400000000003,1.15814,-0.264775,239.301,3.71193,3.57217,-18.7318649291992,22.003026962280305,-17.9170780181885,22.0,-717933.0,-3014.92,pp-riro,4,0,-1,-1
1570537098.6,2019-10-08,14:18:18.600,15.0,9.0,17.7999992370605,2.4,26.3,9.9,2.1,-27.2,97.2,3.50328,25.0612,9.91063,-15.2874,-0.5247229999999999,1.07444,5.6382900000000005,-20.1521,93.3133,0.0809016,0.236828,0.554318,258.1,5.0,52.1701,4.42725,9.4,0.22662,172.362,4.38486,82.1891,53.5825,218.314,1.1484299999999998,-0.250214,239.347,3.76145,3.5950300000000004,-18.2778625488281,22.003026962280305,-17.6127147674561,22.0,-717720.0,-123.058,pp-riro,4,0,-1,-1
1570537098.7,2019-10-08,14:18:18.700,15.0,9.0,17.7999992370605,1.2,26.4,10.1,0.5,-26.5,101.3,2.45188,25.2164,9.83362,-13.3646,2.43256,2.23222,3.56781,-19.5617,97.4054,0.107779,0.259261,0.8466090000000001,258.1,5.0,52.1701,4.42725,9.6,0.282582,188.999,4.384930000000001,84.9345,53.9625,217.314,1.13714,-0.2385429999999999,239.481,3.81568,3.62486,-17.9057846069336,22.0035419464111,-17.3330039978027,22.0,-717857.0,-2522.69,pp-riro,4,0,-1,-1
1570537098.8,2019-10-08,14:18:18.800,15.0,10.0,17.8500003814697,0.0,26.5,10.4,-1.0,-25.3,104.8,1.26709,25.5027,10.0222,-10.8913,5.87707,0.532557,1.37831,-18.9537,101.15,-0.371555,0.177853,0.687673,258.1,5.0,52.1701,4.42725,9.6,0.38952,218.102,4.385,87.6216,53.9626,216.21400000000003,1.12658,-0.224607,239.453,3.86191,3.65159,-17.5968627929688,22.0035419464111,-17.0419521331787,22.0,-717832.0,2061.22,pp-riro,4,0,-1,-1
1570537098.9,2019-10-08,14:18:18.900,15.0,11.0,17.8999996185303,-1.1,26.7,10.4,-2.8,-24.4,108.4,0.108904,25.5876,10.1842,-6.92338,0.6339060000000001,-1.32869,-0.727646,-17.9988,104.997,-0.229127,0.103338,0.531791,258.1,5.0,52.1701,4.42725,9.6,0.367911,225.505,4.38506,90.2794,53.9626,215.113,1.11604,-0.211421,239.45,3.90905,3.67762,-17.392044067382802,22.003026962280305,-16.799049377441403,22.0,-717802.0,-553.761,pp-riro,4,0,-1,-1
1570537099.0,2019-10-08,14:18:19.000,15.0,11.0,18.090000152587898,-2.3,27.0,10.5,-4.7,-23.6,111.6,-0.438839,25.7316,10.1888,-11.1803,0.947693,3.8192,-1.73568,-17.7249,106.564,-0.306563,0.0590812,0.511491,258.1,5.0,52.1701,4.42725,9.6,0.401156,241.437,4.38513,92.9957,53.9627,214.013,1.10524,-0.198526,239.503,3.95006,3.70594,-17.0899505615234,22.004056930542003,-16.5504264831543,22.0,-717692.0,1199.82,pp-riro,4,0,-1,-1
1570537099.1,2019-10-08,14:18:19.100,15.0,12.0,18.2900009155273,-3.5,27.1,10.8,-6.5,-22.6,114.7,-2.28274,26.233,10.3728,-12.0932,2.80202,1.34571,-5.32988,-16.9703,111.413,-0.286869,0.125098,0.632494,258.1,5.0,52.1701,4.42725,9.6,0.414454,248.91,4.385190000000001,95.7119,53.5827,212.813,1.09488,-0.183166,239.419,3.98899,3.72943,-16.8373413085938,22.004056930542003,-16.3386573791504,22.0,-717693.0,-30.7645,pp-riro,4,0,-1,-1
1570537099.2,2019-10-08,14:18:19.200,15.0,11.0,18.479999542236303,-4.8,26.9,11.1,-8.6,-22.3,117.8,-3.5174800000000004,26.1665,10.619000000000002,-13.0207,-1.15237,0.574171,-7.72693,-16.4274,114.65,-0.3652559999999999,-0.054111,0.6290979999999999,256.8,5.4,52.1701,4.42725,9.6,0.456564,264.616,4.38525,98.3698,53.2027,211.613,1.08462,-0.168625,239.348,4.02419,3.75671,-16.584739685058597,22.004571914672898,-16.086116790771502,22.0,-717639.0,1015.23,pp-riro,4,0,-1,-1
1570537099.3,2019-10-08,14:18:19.300,15.0,12.0,18.6700000762939,-6.1,26.8,11.0,-10.8,-21.5,121.3,-4.81859,26.0615,10.6447,-16.5386,-1.27681,-2.50118,-10.1228,-16.1718,117.833,-0.369672,0.0455010999999999,0.571304,256.8,5.4,52.1701,4.42725,9.6,0.469862,277.43,4.385280000000001,101.174,52.8228,210.313,1.07359,-0.154066,239.286,4.06867,3.78716,-16.356033325195302,22.004571914672898,-15.8416023254395,22.0,-717567.0,553.761,pp-riro,4,0,-1,-1
1570537099.4,2019-10-08,14:18:19.400,15.0,12.0,18.8999996185303,-7.5,26.6,11.1,-12.4,-20.8,124.0,-5.43009,25.9857,10.6648,-7.406689999999999,-6.927230000000001,-1.94592,-11.3937,-15.7254,119.199,-0.301555,0.0241861,0.377256,256.8,5.4,52.1701,4.42725,9.6,0.503107,292.569,4.38532,103.861,51.6828,209.113,1.0643,-0.134673,239.137,4.09668,3.81463,-16.072708129882802,22.004056930542003,-15.4696865081787,22.0,-717434.0,1199.82,pp-riro,4,0,-1,-1
1570537099.5,2019-10-08,14:18:19.500,15.0,11.0,19.3199996948242,-8.7,26.2,11.0,-13.6,-20.2,126.5,-6.13507,25.8869,10.7121,-16.0629,-0.847721,2.8999,-12.4648,-15.4958,120.61,-0.252109,-0.137319,0.447409,256.8,5.4,52.1701,4.42725,9.6,0.5080939999999999,296.812,4.38536,106.489,50.9228,207.813,1.05424,-0.119025,238.997,4.12421,3.84194,-15.8371734619141,22.004056930542003,-15.2595043182373,22.0,-717377.0,1076.76,pp-riro,4,0,-1,-1
1570537099.6,2019-10-08,14:18:19.600,15.0,10.0,19.6299991607666,-9.9,25.9,11.0,-15.0,-19.2,129.0,-8.129719999999999,25.4581,10.7401,-9.03357,-0.16008,-2.79711,-15.4127,-14.7996,124.569,-0.14115,0.0277325,0.467254,256.8,5.4,52.1701,4.42725,9.6,0.52804,307.863,4.3854,109.118,50.1628,206.513,1.04406,-0.103914,238.895,4.15541,3.86805,-15.4821624755859,22.004056930542003,-15.1230974197388,22.0,-717273.0,1138.29,pp-riro,4,0,-1,-1
1570537099.7,2019-10-08,14:18:19.700,15.0,10.0,20.0300006866455,-11.0,25.4,11.0,-15.8,-18.2,131.4,-9.81754,24.8248,10.7064,-11.0567,-3.97482,0.36587,-17.8912,-13.6826,128.227,-0.109891,-0.0149661,0.360808,256.8,5.4,52.1701,4.42725,9.8,0.555191,319.266,4.38544,111.688,49.4028,205.313,1.03419,-0.0895045,238.89,4.186,3.89307,-15.3353805541992,22.004571914672898,-15.0346870422363,22.0,-717100.0,1384.4,pp-riro,4,0,-1,-1
1570537099.8,2019-10-08,14:18:19.800,15.0,10.0,20.340000152587898,-12.1,24.7,10.7,-16.6,-18.0,134.0,-11.0653,24.3258,10.6538,-13.8046,-5.59732,-5.58094,-18.7977,-13.1053,130.894,-0.0871557,0.0107514,0.4359159999999999,256.8,5.4,52.1701,4.42725,9.8,0.5568529999999999,321.358,4.38548,114.288,47.8828,204.013,1.0249700000000002,-0.0698371,238.696,4.20868,3.91921,-15.1305694580078,22.004571914672898,-14.8090209960938,22.0,-717005.0,1784.34,pp-riro,4,0,-1,-1
1570537099.9,2019-10-08,14:18:19.900,15.0,10.0,20.6399993896484,-13.2,24.0,10.5,-16.9,-17.3,136.3,-11.5464,23.9075,10.4978,-17.2094,-5.397959999999999,1.22221,-19.1447,-13.0983,132.32,-0.00223249,-0.105948,0.536852,256.8,5.4,52.1701,4.42725,9.8,0.562948,328.403,4.38551,116.712,46.7428,202.813,1.01587,-0.0540606,238.62,4.2344,3.94819,-15.0281600952148,22.004571914672898,-14.6312065124512,22.0,-716853.0,1353.64,pp-riro,4,0,-1,-1
1570537100.0,2019-10-08,14:18:20.000,15.0,10.0,20.8500003814697,-14.2,23.4,10.2,-17.6,-16.3,138.8,-12.0647,23.5344,10.3164,-0.374453,-0.139889,-5.00513,-19.5009,-12.8971,133.67600000000002,0.0686253,-0.0571276999999999,0.528593,256.8,5.4,52.1701,4.42725,9.8,0.5840029999999999,338.326,4.38555,119.107,45.6029,201.713,1.00698,-0.0388193,238.651,4.26619,3.97538,-14.8626022338867,22.0056018829346,-14.5217733383179,22.0,-716717.0,1538.22,pp-riro,4,0,-1,-1
1570537100.1,2019-10-08,14:18:20.100,15.0,10.0,21.1800003051758,-15.2,22.6,10.0,-17.4,-15.4,141.4,-13.7219,22.3268,9.99538,-9.48136,-3.89985,-4.85201,-20.0924,-11.7889,137.34,-0.0637723,-0.00847723,0.7463420000000001,256.8,5.4,52.1701,4.42725,9.8,0.597855,347.995,4.3855900000000005,121.414,44.0829,200.513,0.998512,-0.0214799,238.516,4.29697,4.00231,-14.6816864013672,22.0050868988037,-14.3895816802979,22.0,-716561.0,1538.22,pp-riro,4,0,-1,-1
1570537100.2,2019-10-08,14:18:20.200,15.0,10.0,21.4300003051758,-16.2,22.0,9.9,-17.7,-14.2,144.5,-13.7219,22.3268,9.99538,-9.48136,-3.89985,-4.85201,-20.0924,-11.7889,137.34,-0.0637723,-0.00847723,0.7463420000000001,274.4,5.6,52.1701,4.42725,9.8,0.6178020000000001,359.196,4.385669999999999,123.722,42.5629,199.413,0.990132,-0.004624,238.504,4.33819,4.02588,-14.458099365234402,22.0050868988037,-14.372633934021,22.0,-716402.0,1661.28,pp-riro,4,0,-1,-1
1570537100.3,2019-10-08,14:18:20.300,15.0,10.0,21.719999313354503,-17.1,21.0,9.6,-18.1,-12.9,147.6,-15.8248,20.4909,9.38553,-7.642339999999999,-10.8846,-1.1147,-21.1557,-8.979389999999999,144.733,0.0965108,0.0042839,0.488921,274.4,5.6,52.1701,4.42725,9.8,0.636087,365.045,4.3858,125.941,40.6628,198.312,0.982323,0.0142814999999999,238.417,4.37881,4.05392,-14.365936279296902,22.0056018829346,35.0,22.0,-716112.0,2307.34,pp-riro,4,0,-1,-1
1570537100.4,2019-10-08,14:18:20.400,15.0,9.0,21.9200000762939,-17.8,20.1,9.3,-18.4,-12.1,150.6,-16.23,20.0377,9.26776,-10.1336,-14.0979,-5.608140000000001,-21.3266,-8.4132,146.29,0.023986,-0.0110973999999999,0.329049,274.4,5.6,52.1701,4.42725,9.8,0.7474569999999999,364.47,4.386,128.015,39.1428,197.312,0.974683,0.0297834,238.437,4.41622,4.07886,-14.3591079711914,22.0050868988037,35.0,22.0,-716828.0,-17843.4,pp-riro,4,0,-1,-1
1570537100.5,2019-10-08,14:18:20.500,15.0,10.0,22.0799999237061,-18.2,19.2,8.7,-19.1,-10.6,153.7,-16.8688,19.0635,8.88081,-7.43993,-15.2736,-8.75346,-21.7434,-7.72261,149.643,-0.068858,-0.290556,0.286713,274.4,5.6,52.1701,4.42725,9.8,1.29434,348.737,4.38612,129.914,37.2428,196.312,0.96788,0.0470784,238.334,4.46027,4.10007,-14.178192138671902,22.0050868988037,35.0,22.0,-719562.0,-30333.8,pp-riro,4,0,-1,-1
1570537100.6,2019-10-08,14:18:20.600,15.0,9.0,22.0799999237061,-18.2,18.2,7.8,-19.4,-9.1,156.5,-16.8688,19.0635,8.88081,-7.43993,-15.2736,-8.75346,-21.7434,-7.72261,149.643,-0.068858,-0.290556,0.286713,274.4,5.6,52.1701,4.42725,9.8,1.32758,330.402,4.38619,131.841,35.3428,195.412,0.961075,0.0642905,238.364,4.50045,4.11963,-13.6371383666992,22.004571914672898,35.0,22.0,-718540.0,20581.4,pp-riro,4,0,-1,-1
1570537100.7,2019-10-08,14:18:20.700,15.0,8.0,22.030000686645497,-18.2,17.3,7.3,-20.0,-7.5,159.5,-16.8688,19.0635,8.88081,-7.43993,-15.2736,-8.75346,-21.7434,-7.72261,149.643,-0.068858,-0.290556,0.286713,274.4,5.6,52.1701,4.42725,10.0,1.03115,295.71,4.38631,133.65200000000002,33.4428,194.612,0.954765,0.0808893,238.443,4.54512,4.132680000000001,-12.730842590332,22.004571914672898,35.0,22.0,-716940.0,5599.14,pp-riro,4,0,-1,-1
1570537100.8,2019-10-08,14:18:20.800,15.0,7.0,21.8299999237061,-18.4,16.1,7.1,-20.6,-5.9,161.8,-17.2321,16.3016,6.951410000000001,-1.64903,-5.18213,-2.89211,-23.0509,-4.593430000000001,159.045,0.181635,0.133371,0.659563,274.4,5.6,52.1701,4.42725,10.0,1.16357,313.865,4.38644,135.317,31.9228,193.912,0.948763,0.0942721,238.604,4.5826400000000005,4.15595,-11.4712371826172,22.004571914672898,35.0,22.0,-717456.0,-1322.87,pp-riro,4,0,-1,-1
1570537100.9,2019-10-08,14:18:20.900,15.0,9.0,21.5900001525879,-18.3,15.4,6.7,-21.0,-4.3,163.9,-17.3602,15.7285,6.91668,0.628214,-14.3103,0.262214,-23.2525,-3.75529,160.42700000000002,-0.0605265,0.0953413999999999,0.578091,274.4,5.6,52.1701,4.42725,10.0,1.14252,312.027,4.38657,136.836,30.0228,193.212,0.943447,0.1098339999999999,238.655,4.61575,4.164,-9.85321807861328,22.004571914672898,35.0,22.0,-716686.0,2953.39,pp-riro,4,0,-1,-1
1570537101.0,2019-10-08,14:18:21.000,15.0,11.0,21.2999992370605,-18.6,14.8,6.3,-21.5,-3.2,165.4,-17.3528,14.9362,6.44442,2.77234,-8.16544,-2.79075,-23.5673,-2.53078,162.82,-0.271444,-0.179801,0.398447,274.4,5.6,52.1701,4.42725,10.0,1.14252,305.835,4.3867,138.384,28.1228,192.512,0.937922,0.125199,238.751,4.63558,4.181430000000001,-7.87677001953125,22.004056930542003,35.0,22.0,-716504.0,3537.92,pp-riro,4,0,-1,-1
1570537101.1,2019-10-08,14:18:21.100,15.0,10.0,20.9599990844727,-18.8,14.3,6.4,-22.3,-2.4,167.0,-17.9018,14.1378,5.98349,-1.32125,2.10909,-3.5039800000000003,-24.2737,-1.95948,166.06599999999997,0.077225,-0.1024809999999999,0.530343,274.4,5.6,52.1701,4.42725,10.0,1.13698,318.631,4.38689,139.815,26.2227,191.812,0.932675,0.1401,238.805,4.65412,4.18426,-5.76719665527344,22.004571914672898,35.0,22.0,-716045.0,492.232,pp-riro,4,0,-1,-1
1570537101.2,2019-10-08,14:18:21.200,15.0,10.0,20.659999847412102,-18.7,13.9,6.6,-23.0,-2.0,168.1,-18.1475,13.6789,6.17721,0.0559813999999999,-8.105960000000001,5.27609,-25.0239,-1.18309,167.452,-0.0779596999999999,-0.118522,0.167504,276.5,5.8,52.1701,4.42725,10.0,1.17078,319.849,4.38695,141.188,24.3227,191.212,0.927768,0.154839,238.93,4.66178,4.17529,-3.6781005859375,22.004571914672898,35.0,22.0,-715823.0,3568.68,pp-riro,4,0,-1,-1
1570537101.3,2019-10-08,14:18:21.300,15.0,10.0,20.3600006103516,-18.5,13.7,6.6,-24.0,-2.4,168.5,-18.2245,13.4299,6.17339,-3.2910699999999995,-0.909523,-4.73499,-25.73,-2.20573,168.85299999999998,0.0306994,-0.213576,0.103814,276.5,5.8,52.1701,4.42725,10.0,1.15914,313.166,4.38708,142.531,22.4227,190.512,0.922607,0.169336,238.983,4.6515,4.16341,-1.56169891357422,22.004056930542003,35.0,22.0,-715499.0,6091.37,pp-riro,4,0,-1,-1
1570537101.4,2019-10-08,14:18:21.400,15.0,10.0,20.1000003814697,-18.5,13.5,6.9,-25.2,-2.9,168.4,-18.2396,13.289,6.31827,-0.380473,1.03393,5.28825,-27.1567,-3.54327,169.643,-0.4164609999999999,-0.253409,0.162066,276.5,5.8,52.1701,4.42725,10.0,1.13254,309.509,4.3872,143.904,20.9027,189.712,0.916817,0.181006,239.031,4.63542,4.15255,0.550117492675781,22.004571914672898,35.0,22.0,-714993.0,1661.28,pp-riro,4,0,-1,-1
1570537101.5,2019-10-08,14:18:21.500,15.0,10.0,19.9699993133545,-18.1,13.5,7.4,-26.7,-4.2,168.2,-18.2396,13.289,6.31827,-0.380473,1.03393,5.28825,-27.1567,-3.54327,169.643,-0.4164609999999999,-0.253409,0.162066,276.5,5.8,52.1701,4.42725,10.0,1.14196,310.425,4.38732,145.189,18.6227,189.012,0.911834,0.197497,239.065,4.6056,4.11795,2.6466827392578103,22.004571914672898,35.0,22.0,-714682.0,3722.5,pp-riro,4,0,-1,-1
1570537101.6,2019-10-08,14:18:21.600,15.0,12.0,19.8799991607666,-17.7,13.5,7.7,-27.9,-6.1,167.2,-18.2856,13.265,6.83828,-0.87564,-1.52956,3.6143,-28.1029,-4.45816,169.817,0.0385490999999999,-0.281769,-0.0572356,276.5,5.8,52.1701,4.42725,10.0,1.13365,308.642,4.38745,146.504,17.1027,188.112,0.905825,0.208728,239.044,4.56252,4.09171,4.756874084472661,22.004571914672898,35.0,22.0,-714302.0,3660.97,pp-riro,4,0,-1,-1
1570537101.7,2019-10-08,14:18:21.700,15.0,12.0,19.659999847412102,-17.3,13.8,8.2,-29.0,-7.8,165.7,-17.8913,13.4442,7.356910000000001,1.17485,-1.1928,5.72379,-29.6561,-8.306610000000001,169.753,-0.0871243999999999,-0.259896,-0.262705,276.5,5.8,52.1701,4.42726,10.1,1.13753,313.073,4.387569999999999,147.81799999999998,15.2026,187.312,0.900142,0.2223929999999999,239.096,4.51294,4.05198,6.86536407470703,22.004571914672898,35.0,22.0,-714048.0,2091.99,pp-riro,4,0,-1,-1
1570537101.8,2019-10-08,14:18:21.800,15.0,12.0,19.340000152587898,-17.2,13.9,8.7,-29.7,-9.0,164.8,-17.8913,13.4442,7.356910000000001,1.17485,-1.1928,5.72379,-29.6561,-8.306610000000001,169.753,-0.0871243999999999,-0.259896,-0.262705,276.5,5.8,52.1701,4.42726,10.1,1.14584,314.244,4.38776,148.49,14.4426,186.911,0.8971610000000001,0.227673,239.152,4.48344,4.03217,8.97215270996094,22.004056930542003,35.0,22.0,-713914.0,2461.16,pp-riro,4,0,-1,-1
1570537101.9,2019-10-08,14:18:21.900,15.0,13.0,19.1100006103516,-16.5,14.3,9.5,-30.8,-11.4,162.3,-17.6195,14.1898,8.97825,6.65527,3.59478,6.344530000000001,-31.8696,-12.8023,166.08700000000002,-0.178427,-0.0355195,-0.650895,276.5,5.8,52.1701,4.42726,10.1,1.1297700000000002,305.226,4.38782,149.863,12.9226,185.911,0.8905379999999999,0.238552,239.142,4.4152,3.97806,11.068717956543,22.004571914672898,35.0,22.0,-713321.0,4430.09,pp-riro,4,0,-1,-1
1570537102.0,2019-10-08,14:18:22.000,15.0,14.0,19.0599994659424,-15.8,15.2,10.3,-30.9,-14.5,158.6,-17.6195,14.1898,8.97825,6.65527,3.59478,6.344530000000001,-31.8696,-12.8023,166.08700000000002,-0.178427,-0.0355195,-0.650895,276.5,5.8,52.1701,4.42726,10.1,1.12312,301.471,4.38794,151.29399999999998,11.0226,184.911,0.88376,0.251718,239.173,4.321969999999999,3.9123,13.1806182861328,22.004571914672898,35.0,22.0,-712991.0,3291.8,pp-riro,4,0,-1,-1
1570537102.1,2019-10-08,14:18:22.100,15.0,13.0,19.020000457763697,-15.1,15.7,11.5,-31.0,-17.8,155.3,-16.6693,15.5036,10.535,12.4403,12.1947,12.5444,-33.9243,-19.0703,162.014,-0.360045,-0.515632,-0.8661770000000001,276.5,5.8,52.1701,4.42726,10.1,1.12312,305.938,4.38807,152.754,9.88263,183.911,0.876655,0.259715,239.28,4.2368,3.85321,15.292510986328098,22.004571914672898,35.0,22.0,-712821.0,3291.8,pp-riro,4,0,-1,-1
1570537102.2,2019-10-08,14:18:22.200,15.0,9.0,19.2399997711182,-12.9,16.9,13.2,-30.5,-23.2,149.2,-15.357,16.8087,12.5875,16.6319,9.64621,16.9743,-34.0144,-24.6744,157.376,-0.230481,-0.0238109,-0.6599510000000001,283.7,6.8,52.1701,4.42726,10.1,1.14086,314.29200000000003,4.3882,155.149,7.602639999999999,182.011,0.864309,0.2752239999999999,239.285,4.08873,3.7216,17.3805618286133,22.004571914672898,35.0,22.0,-712643.0,1568.99,pp-riro,4,0,-1,-1
1570537102.3,2019-10-08,14:18:22.300,15.0,12.0,19.2399997711182,-12.1,16.7,13.5,-29.7,-25.1,146.6,-13.9958,17.5554,13.7686,20.0125,6.89967,17.8368,-33.4665,-28.6648,152.97799999999998,-0.4801899999999999,-0.449005,-0.7973,283.7,6.8,52.1701,4.42726,10.1,1.1464,307.747,4.38835,155.909,6.842639999999999,181.511,0.860655,0.280183,239.376,4.03192,3.68865,19.5129013061523,22.004571914672898,35.0,22.0,-712304.0,4307.03,pp-riro,4,0,-1,-1
1570537102.4,2019-10-08,14:18:22.400,15.0,9.0,19.1499996185303,-10.6,17.1,14.1,-27.2,-29.5,140.1,-13.0635,17.7203,14.2842,27.8552,11.9048,14.646,-32.825,-31.4418,150.168,-0.2351849999999999,-0.328687,-1.17267,283.7,6.8,52.1701,4.42726,10.1,1.11703,299.336,4.38849,157.60299999999998,5.70266,180.111,0.851625,0.287732,239.397,3.89974,3.61554,21.6230926513672,22.004571914672898,35.0,22.0,-711845.0,3568.68,pp-riro,4,0,-1,-1
1570537102.5,2019-10-08,14:18:22.500,15.0,13.0,19.0599994659424,-9.2,18.4,14.9,-24.3,-33.2,131.8,-11.7759,18.5528,15.0717,10.9677,3.48,17.0705,-30.0967,-36.2839,143.07399999999998,-0.590337,-0.268388,-1.22623,283.7,6.8,52.1701,4.42726,10.1,1.10484,292.7,4.38863,159.268,4.56268,178.81099999999998,0.842938,0.295116,239.5,3.75465,3.5346800000000003,23.738395690918,22.004571914672898,35.0,22.0,-711357.0,4030.15,pp-riro,4,0,-1,-1
1570537102.6,2019-10-08,14:18:22.600,15.0,16.0,19.2900009155273,-6.9,19.2,16.5,-21.4,-36.7,124.8,-9.86043,19.9213,16.241,22.4305,8.232439999999999,13.8054,-28.562,-40.7728,135.404,-0.706225,-0.31886,-1.34105,283.7,6.8,52.1701,4.42726,10.1,1.10761,305.333,4.388780000000001,161.078,3.80272,177.41099999999997,0.8334729999999999,0.300009,239.657,3.63429,3.4256300000000004,25.8315582275391,22.004571914672898,35.0,22.0,-711226.0,2461.16,pp-riro,4,0,-1,-1
1570537102.7,2019-10-08,14:18:22.700,15.0,14.0,19.6900005340576,-4.1,19.5,17.7,-16.7,-39.9,116.0,-5.58021,21.0253,18.5196,36.7018,12.4552,11.6398,-23.337,-47.0903,123.26,-0.132592,-0.295299,-1.2607700000000002,283.7,6.8,52.1701,4.42727,10.2,1.17521,358.47900000000004,4.38892,163.006,3.42277,175.81099999999998,0.8230629999999999,0.3024739999999999,239.775,3.49992,3.31157,27.929832458496104,22.0050868988037,35.0,22.0,-711423.0,-3630.21,pp-riro,4,0,-1,-1
1570537102.8,2019-10-08,14:18:22.800,15.0,14.0,20.1299991607666,-1.0,19.5,18.8,-11.3,-42.6,106.5,-2.17135,21.2978,19.787,34.5725,-3.4772199999999995,9.79264,-18.1576,-51.1887,113.084,-0.0347464,-0.516552,-1.1357700000000002,283.7,6.8,52.1701,4.42727,10.2,1.28436,384.492,4.38906,164.90400000000002,3.04282,174.21099999999998,0.8127489999999999,0.3049469999999999,239.9,3.36552,3.19178,29.9770050048828,22.0056018829346,35.0,22.0,-711417.0,3568.68,pp-riro,4,0,-1,-1
1570537102.9,2019-10-08,14:18:22.900,15.0,10.0,20.6499996185303,2.2,18.9,18.8,-4.8,-44.6,95.9,1.49092,20.971,20.0583,37.0996,-10.5321,-2.4982900000000003,-9.64639,-54.6391,100.558,0.0121427,-0.117497,-1.01712,283.7,6.8,52.1701,4.42727,10.2,1.24669,367.419,4.38921,166.774,3.04288,172.511,0.802222,0.304938,239.96400000000003,3.22781,3.07219,31.6767425537109,22.0056018829346,23.0259094238281,22.0,-710628.0,8060.3,pp-riro,4,0,-1,-1
1570537103.0,2019-10-08,14:18:23.000,15.0,10.0,20.9400005340576,5.8,17.8,18.0,2.2,-45.3,84.1,1.49092,20.971,20.0583,37.0996,-10.5321,-2.4982900000000003,-9.64639,-54.6391,100.558,0.0121427,-0.117497,-1.01712,283.7,6.8,52.1701,4.42727,10.2,1.21399,352.57800000000003,4.38935,168.614,3.42295,170.71099999999998,0.791475,0.30274,239.967,3.08347,2.93065,32.3988647460938,22.004571914672898,23.0211448669434,22.0,-710170.0,3476.39,pp-ro,1,1,-1,-1
1570537103.1,2019-10-08,14:18:23.100,15.0,10.0,21.229999542236303,9.0,16.8,17.4,9.2,-44.4,72.7,3.41131,20.5569,19.8657,36.7404,-8.89487,-9.44154,-4.85796,-55.844,93.3698,-0.977154,0.159464,-1.32859,283.7,6.8,52.1701,4.42727,10.2,1.19516,327.945,4.3895,170.278,4.1830300000000005,169.01,0.78151,0.298333,239.952,2.94467,2.80247,33.5757446289062,22.004056930542003,23.018762588501,22.0,-709586.0,7168.13,pp-ro,1,1,-1,-1
1570537103.2,2019-10-08,14:18:23.200,15.0,10.0,21.1900005340576,11.1,15.6,16.8,16.4,-42.6,61.0,8.95305,19.0661,18.7895,20.9462,-0.334636,-6.732810000000001,8.22992,-54.4642,72.1817,-0.401648,-0.155935,-1.54842,284.7,6.5,52.1701,4.42727,10.2,1.14418,323.931,4.38963,171.885,4.9431,167.51,0.772304,0.294005,240.05900000000003,2.79657,2.7103200000000003,34.4119873046875,22.004571914672898,23.0211448669434,22.0,-708944.0,1568.99,pp-ro,1,1,-1,-1
1570537103.3,2019-10-08,14:18:23.300,15.0,10.0,21.020000457763697,13.2,14.2,16.2,23.7,-39.2,48.8,13.1891,17.4337,17.8638,28.9272,-6.836760000000001,-5.11899,21.7222,-52.0136,51.5434,-0.860109,-0.215652,-1.60856,284.7,6.5,52.1701,4.42727,10.2,1.18352,331.422,4.38977,173.345,6.0831800000000005,166.01,0.76348,0.287544,240.094,2.62986,2.61501,34.868438720703104,22.004571914672898,23.0211448669434,22.0,-708830.0,1753.58,pp-ro,1,1,-1,-1
1570537103.4,2019-10-08,14:18:23.400,15.0,12.0,20.7199993133545,14.9,12.8,15.0,29.6,-35.1,38.0,15.434,15.7308,16.8046,21.3726,-7.89317,-15.7783,29.4621,-48.4404,38.1432,-0.777188,-0.220408,-1.70057,284.7,6.5,52.1701,4.42727,10.2,1.17964,323.473,4.3899,174.688,7.603269999999999,164.71,0.755534,0.278992,240.215,2.47002,2.52299,34.9842529296875,22.004571914672898,23.0211448669434,22.0,-708558.0,5168.43,pp-ro,1,1,-1,-1
1570537103.5,2019-10-08,14:18:23.500,15.0,13.0,20.4599990844727,16.4,11.6,13.6,34.3,-30.5,29.1,17.5516,14.0894,15.3661,17.064,-18.8472,-20.3319,35.3591,-42.9284,26.8831,-0.330011,0.131189,-1.83571,284.7,6.5,52.1701,4.42727,10.2,1.10706,293.036,4.39013,175.97400000000002,9.12335,163.51,0.748033,0.270465,240.386,2.32298,2.43349,34.7372894287109,22.004571914672898,21.9584884643555,22.0,-707725.0,4491.62,pp-ro,1,1,-1,-1
1570537103.6,2019-10-08,14:18:23.600,15.0,14.0,20.0300006866455,18.1,10.4,12.3,37.6,-25.5,21.5,17.5516,14.0894,15.3661,17.064,-18.8472,-20.3319,35.3591,-42.9284,26.8831,-0.330011,0.131189,-1.83571,284.7,6.5,52.1701,4.42727,10.2,1.09819,286.67,4.39017,177.113,10.6434,162.31,0.740917,0.262201,240.472,2.18286,2.33786,34.100311279296896,22.004571914672898,20.2556018829346,22.0,-707431.0,3107.21,pp-ro,1,1,-1,-1
1570537103.7,2019-10-08,14:18:23.700,15.0,13.0,19.6299991607666,19.1,8.7,10.7,40.6,-21.1,14.3,18.4286,13.4022,14.3172,28.9744,-6.214919999999999,-10.275,37.4098,-39.9319,22.2854,-0.381135,0.2129719999999999,-1.40621,284.7,6.5,52.1701,4.42727,10.2,1.10872,303.992,4.3903,178.19299999999998,12.1635,161.31,0.734554,0.253936,240.669,2.0518,2.2408900000000003,33.095458984375,22.004571914672898,18.5037002563477,22.0,-707203.0,1538.22,pp-ro,1,1,-1,-1
1570537103.8,2019-10-08,14:18:23.800,15.0,14.0,19.2600002288818,19.6,7.2,9.2,42.8,-16.1,8.4,21.2577,9.75518,11.0293,8.53166,-8.0068,-15.746,42.7309,-29.4289,6.51716,-0.0246682,0.163581,-1.1286,284.7,6.5,52.1701,4.42727,10.2,1.12867,309.97900000000004,4.39041,179.04,14.4436,160.41,0.728958,0.241525,240.822,1.92947,2.16076,31.74658203125,22.004056930542003,17.0419425964355,22.0,-707182.0,399.9380000000001,pp-ro,1,1,-1,-1
1570537103.9,2019-10-08,14:18:23.900,15.0,12.0,18.9400005340576,20.2,5.9,7.7,44.1,-10.6,3.1,21.8417,8.03922,9.25127,2.81887,-14.1171,-16.1206,43.6984,-23.0411,0.686379,-0.177172,-0.00210412,-1.41083,284.7,6.5,52.1701,4.42727,10.2,1.13421,288.986,4.39056,179.77,15.9636,159.71,0.724426,0.233256,240.997,1.8033,2.07621,29.552917480468803,22.004056930542003,15.4812641143799,22.0,-706832.0,5168.43,pp-ro,1,1,-1,-1
1570537104.0,2019-10-08,14:18:24.000,15.0,10.0,18.7999992370605,20.3,4.7,5.9,45.3,-6.4,-1.7,21.8417,8.03922,9.25127,2.81887,-14.1171,-16.1206,43.6984,-23.0411,0.686379,-0.177172,-0.00210412,-1.41083,284.7,6.5,52.1701,4.42727,10.2,1.04722,251.98,4.3907,180.442,18.2437,159.11,0.7201350000000001,0.220928,241.263,1.70154,1.99322,27.4682769775391,22.004056930542003,13.927703857421902,22.0,-706128.0,6399.01,pp-ro,1,1,-1,-1
1570537104.1,2019-10-08,14:18:24.100,15.0,9.0,18.6100006103516,20.2,3.9,4.5,46.2,-1.9,-5.6,22.2312,4.51412,4.7358400000000005,2.23535,-13.8168,-10.548,45.287,-9.10928,-10.3167,-0.298384,0.19418,-1.24861,284.7,6.5,52.1701,4.42727,10.2,1.0522,278.107,4.39092,180.938,20.5238,158.61,0.716566,0.2085179999999999,241.489,1.60579,1.93277,25.376823425293,22.004056930542003,12.8038654327393,22.0,-705942.0,-1630.52,pp-ro,1,1,-1,-1
1570537104.2,2019-10-08,14:18:24.200,15.0,11.0,18.4699993133545,20.9,2.7,3.6,47.1,2.9,-9.9,22.3716,3.72755,4.10812,0.141305,-8.92793,-12.3304,44.9969,-6.39851,-12.3074,-0.400069,0.0925488999999999,-1.13667,265.4,5.6,52.1701,4.42727,10.2,1.13254,309.017,4.3909,181.376,22.0439,158.31,0.713966,0.200545,241.754,1.4986,1.86228,23.2717361450195,22.004571914672898,11.4652433395386,22.0,-706026.0,30.7645,pp-ro,1,1,-1,-1
1570537104.3,2019-10-08,14:18:24.300,15.0,12.0,18.3199996948242,21.1,1.8,2.3,47.6,7.2,-13.8,22.8195,2.54318,2.74731,1.42718,-11.1606,-8.8918,45.6268,-0.8686809999999999,-16.2966,0.182491,0.257284,-1.09286,265.4,5.6,52.1701,4.42727,10.2,1.14861,319.443,4.3909,181.727,24.3239,158.01,0.7113079999999999,0.188426,242.04,1.40542,1.79591,21.159835815429695,22.004571914672898,10.1991157531738,22.0,-705695.0,3937.85,pp-ro,1,1,-1,-1
1570537104.4,2019-10-08,14:18:24.400,15.0,13.0,18.3700008392334,21.4,0.6,0.7,48.4,10.7,-17.7,22.7927,0.7680739999999999,0.522626,-0.660455,-8.65865,-17.2874,45.7487,5.77825,-22.3753,0.345259,0.124823,-0.9001870000000001,265.4,5.6,52.1701,4.42727,10.2,1.16634,336.028,4.39091,181.931,26.224,157.81,0.709432,0.178323,242.261,1.32174,1.70772,19.0462417602539,22.004571914672898,8.47714805603027,22.0,-705499.0,1353.64,pp-ro,1,1,-1,-1
1570537104.5,2019-10-08,14:18:24.500,15.0,11.0,18.3700008392334,21.4,-0.8,-0.5,49.3,13.1,-20.4,22.7927,0.7680739999999999,0.522626,-0.660455,-8.65865,-17.2874,45.7487,5.77825,-22.3753,0.345259,0.124823,-0.9001870000000001,265.4,5.6,52.1701,4.42727,10.2,1.1901700000000002,351.038,4.39088,182.019,28.884,157.71,0.707817,0.164138,242.564,1.26905,1.63126,16.9360427856445,22.0050868988037,6.96938705444336,22.0,-705445.0,1015.23,pp-ro,1,1,-1,-1
1570537104.6,2019-10-08,14:18:24.600,15.0,11.0,18.6499996185303,21.0,-2.0,-1.4,50.2,14.7,-23.0,22.5188,-0.7241489999999999,-0.907438,-2.35518,-20.1529,-15.4578,46.2256,9.21835,-25.0667,0.177398,-0.0324779,-0.510343,265.4,5.6,52.1701,4.42727,10.2,1.24502,381.092,4.39092,181.96,31.1641,157.609,0.7066640000000001,0.151847,242.737,1.22677,1.56876,15.348724365234402,22.0050868988037,5.732434272766111,22.0,-705337.0,1445.93,pp-ro,1,1,-1,-1
1570537104.7,2019-10-08,14:18:24.700,15.0,11.0,18.8899993896484,20.5,-2.7,-2.4,51.2,16.2,-25.0,22.5188,-0.7241489999999999,-0.907438,-2.35518,-20.1529,-15.4578,46.2256,9.21835,-25.0667,0.177398,-0.0324779,-0.510343,265.4,5.6,52.1701,4.4272800000000005,10.2,1.28215,384.076,4.39088,181.814,33.0641,157.609,0.706166,0.141613,242.879,1.19143,1.51422,13.247039794921902,22.0050868988037,4.63530588150024,22.0,-705035.0,4091.68,pp-ro,1,1,-1,-1
1570537104.8,2019-10-08,14:18:24.800,15.0,12.0,19.0699996948242,20.5,-3.6,-3.1,51.5,17.9,-27.4,21.4287,-3.39339,-3.4397800000000003,-3.46308,-16.1299,-9.131,48.2831,15.3165,-29.6456,0.213284,-0.0733965,-0.389743,265.4,5.6,52.1701,4.4272800000000005,10.2,1.24558,372.067,4.39093,181.551,35.3442,157.709,0.7060420000000001,0.129187,243.068,1.15049,1.46975,11.1692047119141,22.0050868988037,3.7192633152008097,22.0,-704346.0,6860.48,pp-ro,1,1,-1,-1
1570537104.9,2019-10-08,14:18:24.900,15.0,14.0,19.0300006866455,20.0,-4.3,-3.7,51.9,18.8,-29.4,21.0664,-4.18196,-4.2468900000000005,-6.22735,-9.97795,-16.7109,48.6358,16.7976,-31.6172,0.327469,-0.0280738,-0.164526,265.4,5.6,52.1701,4.4272800000000005,10.2,1.24447,378.309,4.39093,181.171,36.8642,157.809,0.706557,0.12072,243.076,1.12184,1.42705,9.23273468017578,22.0056018829346,2.82028079032898,22.0,-703969.0,2830.33,pp-ro,1,1,-1,-1
1570537105.0,2019-10-08,14:18:25.000,15.0,11.0,19.2099990844727,19.8,-4.9,-4.2,53.0,19.8,-31.0,20.6151,-4.84477,-4.67628,4.96687,-14.3313,-14.7284,49.133,18.4901,-33.6267,-0.0312659,-0.00912881,-0.44596,265.4,5.6,52.1701,4.4272800000000005,10.2,1.28159,404.704,4.3909400000000005,180.791,39.1442,158.009,0.706924,0.108227,243.279,1.09915,1.39685,7.45976257324219,22.0056018829346,2.16990613937378,22.0,-703734.0,2491.92,pp-ro,1,1,-1,-1
1570537105.1,2019-10-08,14:18:25.100,15.0,13.0,19.7099990844727,19.9,-6.2,-4.9,53.1,21.3,-32.5,20.4895,-5.78913,-5.2449,0.165747,-15.4344,-7.49805,49.5455,20.6783,-34.7429,0.185379,0.124029,-0.357902,265.4,5.6,52.1701,4.4272800000000005,10.2,1.33534,425.878,4.3909400000000005,180.236,41.0443,158.309,0.7082069999999999,0.0975411,243.376,1.07025,1.34471,5.86051177978516,22.0056018829346,1.04029130935669,22.0,-703557.0,2307.34,pp-ro,1,1,-1,-1
1570537105.2,2019-10-08,14:18:25.200,15.0,12.0,20.409999847412102,19.6,-7.2,-5.5,52.6,21.5,-34.6,20.4895,-5.78913,-5.2449,0.165747,-15.4344,-7.49805,49.5455,20.6783,-34.7429,0.185379,0.124029,-0.357902,272.8,6.3,52.1701,4.4272800000000005,10.2,1.35196,436.103,4.390969999999999,179.59400000000002,43.3243,158.709,0.7097359999999999,0.0847026,243.556,1.05216,1.30092,4.42475891113281,22.0061168670654,0.0597791410982609,22.0,-703010.0,6614.37,pp-ro,1,1,-1,-1
1570537105.3,2019-10-08,14:18:25.300,15.0,13.0,21.090000152587898,19.4,-7.9,-6.3,52.8,21.1,-35.8,20.1807,-7.3949,-6.26436,-8.06637,-6.67149,-10.9612,49.3089,21.6522,-37.2382,0.175021,-0.269233,-0.0967153,272.8,6.3,52.1701,4.4272800000000005,10.2,1.38742,455.819,4.39104,178.834,45.6043,159.209,0.7117939999999999,0.0716666,243.74,1.0518,1.26113,3.0826873779296897,22.0061168670654,-0.870827078819275,22.0,-702427.0,3907.09,pp-ro,1,1,-1,-1
1570537105.4,2019-10-08,14:18:25.400,15.0,11.0,21.7900009155273,19.2,-8.5,-6.1,52.7,21.0,-37.2,20.0183,-7.71691,-6.6643,-7.76006,-1.31847,-6.01231,49.074,21.5797,-38.0424,-0.0929778,-0.180518,-0.1905609999999999,272.8,6.3,52.1701,4.4272800000000005,10.2,1.39629,466.006,4.3911,178.017,47.1244,159.609,0.714134,0.0625102,243.692,1.04276,1.25508,1.82746887207031,22.0061168670654,-1.13763689994812,22.0,-702144.0,5199.2,pp-ro,1,1,-1,-1
1570537105.5,2019-10-08,14:18:25.500,15.0,12.0,22.3400001525879,19.1,-8.7,-6.1,52.3,20.9,-38.6,19.766,-8.80706,-6.70565,0.552657,-6.255319999999999,-1.27388,48.7374,21.6965,-39.6004,0.00174288,-0.146713,-0.111864,272.8,6.3,52.1701,4.4272800000000005,10.2,1.42621,475.961,4.39116,177.199,49.4044,160.109,0.716197,0.0493299,243.875,1.03633,1.25671,0.398536682128906,22.0061168670654,-1.24808502197266,22.0,-701832.0,2799.57,pp-ro,1,1,-1,-1
1570537105.6,2019-10-08,14:18:25.600,15.0,9.0,22.8099994659424,18.9,-8.7,-6.1,51.5,20.5,-39.9,19.6361,-9.01029,-6.715730000000001,-4.378080000000001,-0.425712,0.46763,48.5784,21.8509,-40.8075,0.0236064,-0.161263,-0.0839566,272.8,6.3,52.1701,4.4272800000000005,10.2,1.37911,445.045,4.39122,176.293,51.3044,160.609,0.7186859999999999,0.0379759999999999,243.94,1.03337,1.25981,-0.484725952148438,22.0061168670654,-1.3541864156723002,22.0,-700397.0,11136.7,pp-ro,1,1,-1,-1
1570537105.7,2019-10-08,14:18:25.700,15.0,8.0,23.1599998474121,18.3,-8.7,-5.7,51.7,20.8,-40.5,19.0845,-9.07553,-6.32886,-2.12085,-3.90555,0.728059,48.2033,21.9852,-41.8176,0.122922,0.126612,-0.09633,272.8,6.3,52.1701,4.4272800000000005,10.2,1.3503,426.839,4.39128,175.446,53.2044,161.009,0.72065,0.0266734,244.0,1.0302,1.2674299999999998,-1.07527160644531,22.0056018829346,-1.34417259693146,22.0,-699827.0,4399.32,pp-ro,1,1,-1,-1
1570537105.8,2019-10-08,14:18:25.800,15.0,8.0,23.2000007629395,18.2,-8.6,-5.6,51.7,20.7,-40.8,18.8906,-9.05076,-6.11107,-3.4683900000000003,1.60407,5.16275,48.3642,22.1665,-41.8408,-0.0009281389999999,0.0167626,-0.0541197999999999,272.8,6.3,52.1701,4.4272800000000005,10.2,1.31096,394.306,4.3913400000000005,174.628,54.7244,161.209,0.722169,0.0173668,243.881,1.03406,1.27716,-1.36883544921875,22.0050868988037,-1.26382076740265,22.0,-698989.0,9506.23,pp-ro,1,1,-1,-1
1570537105.9,2019-10-08,14:18:25.900,15.0,10.0,23.2700004577637,18.1,-7.9,-5.5,51.9,21.3,-40.9,18.8906,-9.05076,-6.11107,-3.4683900000000003,1.60407,5.16275,48.3642,22.1665,-41.8408,-0.0009281389999999,0.0167626,-0.0541197999999999,272.8,6.3,52.1701,4.4272800000000005,10.2,1.27494,383.133,4.391369999999999,173.81,57.0045,161.909,0.724543,0.00410553,244.283,1.03452,1.30487,-1.3517684936523402,22.0050868988037,-0.8907994031906129,22.0,-698462.0,9383.17,pp-ro,1,1,-1,-1
1570537106.0,2019-10-08,14:18:26.000,15.0,9.0,23.2700004577637,18.1,-8.2,-5.4,52.2,21.7,-40.9,18.8906,-9.05076,-6.11107,-3.4683900000000003,1.60407,5.16275,48.3642,22.1665,-41.8408,-0.0009281389999999,0.0167626,-0.0541197999999999,272.8,6.3,52.1701,4.4272800000000005,10.2,1.29267,410.706,4.39146,173.372,57.7645,162.209,0.725943,-0.0006854589999999,244.349,1.03282,1.30385,-1.15207672119141,22.0056018829346,-1.01377940177917,22.0,-698124.0,-184.587,pp-ro,1,1,-1,-1
1570537106.1,2019-10-08,14:18:26.100,15.0,10.0,23.2000007629395,18.5,-8.7,-5.1,52.5,21.5,-41.3,18.6639,-8.50608,-5.6864300000000005,-2.45203,-4.49728,-0.648896,48.517,22.888,-42.2065,0.0491883,-0.0147291,-0.097344,272.8,6.3,52.1701,4.4272800000000005,10.2,1.32814,426.64,4.39152,172.0,60.8045,162.909,0.728929,-0.0189353,244.582,1.04272,1.32235,-0.908004760742188,22.0056018829346,-0.891871333122253,22.0,-698060.0,1261.34,pp-ro,1,1,-1,-1
1570537106.2,2019-10-08,14:18:26.200,15.0,10.0,23.1599998474121,18.5,-9.2,-5.2,52.7,21.2,-41.7,19.1166,-9.22562,-5.29345,0.053848,-0.0491852,-0.720604,48.817,22.7336,-42.7034,0.117503,-0.0867886,-0.0211225,272.7,6.7,52.1701,4.4272800000000005,10.2,1.37135,450.483,4.39157,171.09400000000002,62.3245,163.309,0.731071,-0.0284935,244.596,1.04803,1.31292,-0.9506759643554692,22.0056018829346,-1.25720846652985,22.0,-697668.0,4799.26,pp-ro,1,1,-1,-1
1570537106.3,2019-10-08,14:18:26.300,15.0,10.0,23.1200008392334,18.6,-9.5,-4.9,53.0,20.5,-42.3,19.0743,-9.57813,-5.25731,-0.94552,-3.9636,0.133105,48.8278,22.5561,-43.2248,0.12472,0.000887654,0.146277,272.7,6.7,52.1701,4.4272800000000005,10.2,1.41402,465.08,4.3916,170.65599999999998,63.0845,163.509,0.732087,-0.0332955,244.61900000000003,1.05259,1.32106,-1.01894378662109,22.0061168670654,-1.18143260478973,22.0,-697021.0,5476.08,pp-ro,1,1,-1,-1
1570537106.4,2019-10-08,14:18:26.400,15.0,11.0,23.1599998474121,18.6,-9.5,-4.6,53.1,20.2,-43.5,19.3305,-10.117,-4.87579,0.921708,2.40953,6.91987,48.9669,21.4597,-44.4533,0.192871,-0.284437,0.0711538999999999,272.7,6.7,52.1701,4.4272800000000005,10.2,1.40127,467.57,4.39164,169.166,66.1246,164.109,0.734762,-0.0518571,244.789,1.05449,1.3435700000000002,-1.13671112060547,22.0061168670654,-0.987708687782288,22.0,-696324.0,6091.37,pp-ro,1,1,-1,-1
1570537106.5,2019-10-08,14:18:26.500,15.0,10.0,23.2399997711182,18.6,-9.5,-4.3,53.1,20.4,-44.1,19.2954,-10.181,-4.41261,-5.76525,-1.19629,-1.66793,48.6711,20.504,-46.166,0.1378599999999999,-0.0822226,0.0343213,272.7,6.7,52.1701,4.4272800000000005,10.2,1.41901,465.259,4.39168,168.67,67.2646,164.209,0.735183,-0.0587533,244.823,1.04961,1.3583,-1.23229217529297,22.0061168670654,-0.747359156608582,22.0,-695827.0,5629.9,pp-ro,1,1,-1,-1
1570537106.6,2019-10-08,14:18:26.600,15.0,10.0,23.2399997711182,18.5,-9.9,-4.1,52.4,19.6,-44.8,19.2954,-10.181,-4.41261,-5.76525,-1.19629,-1.66793,48.6711,20.504,-46.166,0.1378599999999999,-0.0822226,0.0343213,272.7,6.7,52.1701,4.4272800000000005,10.2,1.40737,459.261,4.39171,167.706,68.7846,164.609,0.737282,-0.0685475,244.852,1.05744,1.3596700000000002,-1.08721923828125,22.0061168670654,-0.919407308101654,22.0,-695400.0,8552.53,pp-ro,1,1,-1,-1
1570537106.7,2019-10-08,14:18:26.700,15.0,10.0,23.3099994659424,18.3,-9.6,-4.0,52.7,19.4,-45.0,19.2954,-10.181,-4.41261,-5.76525,-1.19629,-1.66793,48.6711,20.504,-46.166,0.1378599999999999,-0.0822226,0.0343213,272.7,6.7,52.1701,4.42729,10.2,1.37468,438.93,4.39175,166.65400000000002,71.0646,164.90900000000002,0.738436,-0.0824291,244.987,1.0669,1.3757,-0.928489685058594,22.0061168670654,-0.74238121509552,22.0,-694652.0,6860.48,pp-ro,1,1,-1,-1
1570537106.8,2019-10-08,14:18:26.800,15.0,10.0,23.350000381469695,18.0,-9.6,-4.0,52.9,19.0,-45.1,18.7059,-10.2315,-3.94574,-3.56172,3.11312,4.155480000000001,48.8859,20.0164,-46.8911,-0.0164419,0.0522768,0.00808342,272.7,6.7,52.1701,4.42729,10.2,1.33534,421.727,4.391780000000001,165.66099999999997,72.5846,165.30900000000003,0.74049,-0.0923494,245.029,1.07723,1.37608,-0.8533859252929691,22.0061168670654,-0.94888824224472,22.0,-693851.0,8060.3,pp-ro,1,1,-1,-1
1570537106.9,2019-10-08,14:18:26.900,15.0,10.0,23.3600006103516,18.1,-10.0,-3.7,52.7,18.8,-45.5,18.7059,-10.2315,-3.94574,-3.56172,3.11312,4.155480000000001,48.8859,20.0164,-46.8911,-0.0164419,0.0522768,0.00808342,272.7,6.7,52.1701,4.42729,10.2,1.34476,429.734,4.39182,164.639,74.4846,165.609,0.741837,-0.1042859999999999,245.113,1.08297,1.38649,-0.8772811889648441,22.0056018829346,-0.909015357494354,22.0,-693206.0,3291.8,pp-ro,1,1,-1,-1
1570537107.0,2019-10-08,14:18:27.000,15.0,10.0,23.3199996948242,17.9,-9.9,-3.6,52.5,18.3,-45.8,18.7332,-10.6055,-3.6221,0.396579,-1.76669,0.301627,48.6028,19.1552,-47.6712,-0.112005,-0.0957948,0.0533879,272.7,6.7,52.1701,4.42729,10.2,1.34919,432.343,4.39185,163.61700000000002,76.0047,165.90900000000002,0.743555,-0.1143329999999999,245.098,1.09221,1.39508,-0.8397369384765621,22.0061168670654,-0.940891087055206,22.0,-692933.0,5229.96,pp-ro,1,1,-1,-1
1570537107.1,2019-10-08,14:18:27.100,15.0,10.0,23.280000686645497,17.8,-9.9,-3.4,52.8,17.9,-45.9,18.3855,-10.5006,-3.30571,1.82514,-1.61842,3.25813,48.6246,18.3736,-47.986,-0.0886468,-0.0251477,-0.0544615,272.7,6.7,52.1701,4.42729,10.2,1.35085,430.948,4.39189,162.594,78.2847,166.30900000000003,0.744614,-0.128215,245.406,1.10533,1.40932,-0.9489669799804692,22.0061168670654,-0.8226851224899291,22.0,-692382.0,5537.61,pp-ro,1,1,-1,-1
1570537107.2,2019-10-08,14:18:27.200,15.0,10.0,23.2399997711182,18.0,-10.1,-3.0,52.7,17.6,-46.0,18.5258,-10.7045,-3.0716,-0.398941,-0.261205,-0.750023,48.4588,17.9242,-48.3356,-0.0367815,-0.257274,-0.031605,269.1,5.5,52.1701,4.42729,10.2,1.34587,434.49300000000005,4.39194,161.572,79.8047,166.609,0.746211,-0.1383329999999999,245.424,1.11463,1.42917,-0.957504272460938,22.0061168670654,-0.639085531234741,22.0,-691824.0,5752.96,pp-ro,1,1,-1,-1
1570537107.3,2019-10-08,14:18:27.300,15.0,10.0,23.1700000762939,18.0,-10.2,-2.9,52.8,16.8,-46.3,18.5588,-10.8384,-2.93572,2.6234900000000003,-8.39799,0.86266,48.5456,17.6196,-48.318000000000005,0.212115,-0.0876841,0.2219739999999999,269.1,5.5,52.1701,4.42729,10.2,1.37468,440.4330000000001,4.39202,160.52100000000002,81.7047,166.80900000000003,0.747053,-0.150455,245.495,1.12897,1.43822,-0.8209609985351559,22.0061168670654,-0.611518323421478,22.0,-691162.0,5445.31,pp-ro,1,1,-1,-1
1570537107.4,2019-10-08,14:18:27.400,15.0,11.0,23.0599994659424,17.9,-10.1,-2.6,52.8,16.3,-46.3,18.5588,-10.8384,-2.93572,2.6234900000000003,-8.39799,0.86266,48.5456,17.6196,-48.318000000000005,0.212115,-0.0876841,0.2219739999999999,269.1,5.5,52.1701,4.42729,10.2,1.36415,437.083,4.3921,159.44,83.2247,167.108,0.74868,-0.160792,245.505,1.14206,1.45635,-0.7253799438476559,22.0056018829346,-0.49156978726387,22.0,-690730.0,8060.3,pp-ro,1,1,-1,-1
1570537107.5,2019-10-08,14:18:27.500,15.0,11.0,22.9799995422363,17.9,-10.3,-2.3,53.0,15.7,-46.4,18.4466,-10.944,-2.40476,2.24966,-6.763139999999999,-1.04174,48.8093,16.36,-48.5449,-0.0138337,-0.145094,0.102695,269.1,5.5,52.1701,4.42729,10.2,1.3442,426.161,4.392180000000001,158.418,85.5047,167.308,0.748816,-0.174726,245.763,1.15772,1.47099,-0.609321594238281,22.0056018829346,-0.297524303197861,22.0,-690138.0,5229.96,pp-ro,1,1,-1,-1
1570537107.6,2019-10-08,14:18:27.600,15.0,11.0,22.899999618530305,17.7,-10.2,-2.0,53.2,15.0,-46.7,18.4466,-10.944,-2.40476,2.24966,-6.763139999999999,-1.04174,48.8093,16.36,-48.5449,-0.0138337,-0.145094,0.102695,269.1,5.5,52.1701,4.42729,10.2,1.31872,414.426,4.39226,157.33700000000002,87.0247,167.408,0.7497229999999999,-0.185099,245.67,1.16971,1.48736,-0.500083923339844,22.0056018829346,-35.0,22.0,-689229.0,5383.79,pp-ro,1,1,-1,-1
1570537107.7,2019-10-08,14:18:27.700,15.0,11.0,22.8299999237061,17.7,-10.0,-1.7,53.2,14.4,-46.7,18.2447,-10.9786,-1.88504,-6.48719,0.585806,-0.927207,49.1758,15.2486,-48.702,0.156942,-0.112091,0.176619,269.1,5.5,52.1701,4.42729,10.1,1.31816,409.384,4.39234,156.256,88.9248,167.608,0.750354,-0.1973359999999999,245.797,1.18543,1.51183,-0.2850341796875,22.0056018829346,-35.0,22.0,-688945.0,5106.9,pp-ro,1,1,-1,-1
1570537107.8,2019-10-08,14:18:27.800,15.0,10.0,22.6299991607666,17.7,-10.2,-1.5,53.5,14.0,-46.6,18.2447,-10.9786,-1.88504,-6.48719,0.585806,-0.927207,49.1758,15.2486,-48.702,0.156942,-0.112091,0.176619,269.1,5.5,52.1701,4.42729,10.1,1.30043,404.609,4.39242,155.234,90.4448,167.808,0.751302,-0.207583,245.84,1.19854,1.52043,-0.262840270996094,22.0056018829346,-35.0,22.0,-688332.0,6522.07,pp-ro,1,1,-1,-1
1570537107.9,2019-10-08,14:18:27.900,15.0,10.0,22.5200004577637,17.7,-10.0,-1.1,53.6,13.3,-46.9,18.0596,-10.7793,-1.54976,-4.96318,1.2447700000000002,-3.8189,49.1704,14.1444,-49.2882,0.159401,-0.204725,0.0103869,269.1,5.5,52.1701,4.42729,10.1,1.29932,403.533,4.3925,154.153,92.7248,167.908,0.7509560000000001,-0.221598,246.078,1.21319,1.54984,-0.61444091796875,22.0050868988037,-35.0,22.0,-687903.0,3722.5,pp-ro,1,1,-1,-1
1570537108.0,2019-10-08,14:18:28.000,15.0,11.0,22.399999618530305,17.6,-10.0,-0.9,53.6,12.1,-47.4,17.9821,-10.6512,-0.680179,2.65472,3.639780000000001,6.25577,50.2228,12.7307,-49.0956,-0.0889241,-0.160624,-0.0202666,269.1,5.5,52.1701,4.42729,10.1,1.28104,395.168,4.392580000000001,153.131,94.2448,168.00799999999998,0.751484,-0.2318909999999999,246.085,1.22892,1.5622,-1.33470153808594,22.0056018829346,-35.0,22.0,-687029.0,6675.89,pp-ro,1,1,-1,-1
1570537108.1,2019-10-08,14:18:28.100,15.0,10.0,22.3199996948242,17.7,-9.9,-0.5,54.0,11.7,-47.3,17.8848,-10.6082,-0.326368,-0.916463,-8.31061,-5.23592,49.9762,11.9262,-49.624,-0.0780408,-0.0887258,0.485386,269.1,5.5,52.1701,4.42729,10.1,1.2755,395.654,4.39265,152.109,95.7648,168.108,0.7519600000000001,-0.242153,246.106,1.24212,1.58826,-2.40313720703125,22.0056018829346,-35.0,22.0,-686835.0,3845.56,pp-ro,1,1,-1,-1
1570537108.2,2019-10-08,14:18:28.200,15.0,11.0,22.2000007629395,17.7,-9.8,0.0,53.8,10.7,-47.5,17.8848,-10.6082,-0.326368,-0.916463,-8.31061,-5.23592,49.9762,11.9262,-49.624,-0.0780408,-0.0887258,0.485386,268.0,5.1,52.1701,4.42729,10.1,1.29655,395.655,4.39271,151.05700000000002,97.6648,168.108,0.751584,-0.254258,246.205,1.26044,1.61746,-3.8334197998046897,22.0050868988037,-35.0,22.0,-686432.0,4891.55,pp-ro,1,1,-1,-1
1570537108.3,2019-10-08,14:18:28.300,15.0,12.0,22.0400009155273,17.9,-9.5,0.6,53.9,9.2,-47.4,17.9561,-10.4076,0.22837,-1.50704,3.17615,10.9163,50.8327,10.7938,-49.1335,0.191888,-0.154597,0.182115,268.0,5.1,52.1701,4.42729,10.1,1.27439,391.638,4.39273,150.093,99.1849,168.108,0.7515149999999999,-0.2642739999999999,246.223,1.28722,1.6580700000000002,-5.62894439697266,22.0056018829346,-35.0,22.0,-685852.0,5568.37,pp-ro,1,1,-1,-1
1570537108.4,2019-10-08,14:18:28.400,15.0,12.0,21.8799991607666,18.2,-9.0,1.3,54.5,7.2,-47.2,18.0179,-9.98578,0.858765,0.472703,4.54671,5.799580000000001,51.3813,9.79016,-48.749,0.0373060999999999,-0.00478913,0.117474,268.0,5.1,52.1701,4.42729,10.1,1.27494,389.29,4.39275,149.129,101.085,168.108,0.7508060000000001,-0.276059,246.41,1.32281,1.7108,-7.70780181884766,22.0056018829346,-35.0,22.0,-685158.0,5506.84,pp-ro,1,1,-1,-1
1570537108.5,2019-10-08,14:18:28.500,15.0,11.0,21.6800003051758,18.6,-8.5,2.3,54.8,4.5,-46.9,18.3146,-9.16901,2.21467,1.3585200000000002,1.39446,9.04755,52.7042,7.18739,-47.3317,0.0852458,0.0479495999999999,0.441194,268.0,5.1,52.1701,4.42729,10.1,1.26996,387.829,4.39278,148.253,102.985,167.908,0.749237,-0.28752,246.532,1.36848,1.7744799999999998,-9.81396484375,22.0066318511963,-35.0,22.0,-684942.0,4307.03,pp-ro,1,1,-1,-1
1570537108.6,2019-10-08,14:18:28.600,15.0,11.0,21.5599994659424,18.8,-7.9,3.5,55.9,1.8,-45.7,18.4436,-8.44815,3.38212,0.3141469999999999,10.7617,9.20106,54.0708,4.79554,-45.7823,0.158127,-0.0131796999999999,0.628031,268.0,5.1,52.1701,4.42729,10.1,1.27106,387.099,4.3928,147.406,104.885,167.708,0.7475390000000001,-0.29884,246.689,1.42527,1.84516,-11.9303665161133,22.0066318511963,-35.0,22.0,-684251.0,4799.26,pp-ro,1,1,-1,-1
1570537108.7,2019-10-08,14:18:28.700,15.0,12.0,21.4799995422363,19.4,-7.1,4.7,57.2,-1.1,-43.3,18.4436,-8.44815,3.38212,0.3141469999999999,10.7617,9.20106,54.0708,4.79554,-45.7823,0.158127,-0.0131796999999999,0.628031,268.0,5.1,52.1701,4.4272800000000005,9.9,1.26552,381.681,4.39283,146.588,107.165,167.408,0.744803,-0.311707,246.977,1.50034,1.92456,-14.031402587890598,22.0061168670654,-35.0,22.0,-684000.0,4614.67,pp-ro,1,1,-1,-1
1570537108.8,2019-10-08,14:18:28.800,15.0,12.0,21.4799995422363,19.8,-6.3,6.2,58.2,-5.1,-40.8,18.4994,-7.93082,3.94617,4.93527,7.105230000000001,15.3807,55.0746,3.68535,-44.6417,0.121172,0.192378,0.405974,268.0,5.1,52.1701,4.4272800000000005,9.9,1.24724,364.721,4.39285,145.887,108.685,166.908,0.742384,-0.32075,246.888,1.5881,2.00675,-16.1461029052734,22.0050868988037,-35.0,22.0,-683397.0,6583.6,pp-ro,1,1,-1,-1
1570537108.9,2019-10-08,14:18:28.900,15.0,13.0,21.5200004577637,20.0,-5.1,7.7,60.0,-10.4,-38.3,19.0885,-6.170669999999999,6.60353,-9.75794,12.8163,15.0397,57.8203,-2.35585,-38.1024,0.415802,0.213195,0.977867,268.0,5.1,52.1701,4.4272800000000005,9.9,1.2079,353.726,4.392869999999999,145.245,110.965,166.308,0.738242,-0.332867,247.118,1.69511,2.10132,-18.2693328857422,22.0056018829346,-35.0,22.0,-682857.0,4460.85,pp-ro,1,1,-1,-1
