time,date,time_of_day,airspeed_temperature,airspeed_angle_of_attack,airspeed_apparent_windspeed,kite_0_vx,kite_0_vy,kite_0_vz,kite_0_roll,kite_0_pitch,kite_0_yaw,kite_1_vx,kite_1_vy,kite_1_vz,kite_1_ax,kite_1_ay,kite_1_az,kite_1_roll,kite_1_pitch,kite_1_yaw,kite_1_roll_rate,kite_1_pitch_rate,kite_1_yaw_rate,ground_upwind_direction,ground_wind_velocity,ground_pos_latitude,ground_pos_longitude,ground_pos_altitude,ground_tether_reelout_speed,ground_tether_force,est_upwind_direction,kite_pos_east,kite_pos_north,kite_height,kite_elevation,kite_azimuth,kite_distance,kite_heading,kite_course,kite_actual_steering,kite_actual_depower,kite_set_steering,kite_set_depower,ground_mech_energy,ground_mech_power,flight_phase,flight_phase_index,phase,pattern,pattern_section
1570535271.3,2019-10-08,13:47:51.300,14.0,8.0,15.8100004196167,11.1,-2.1,2.2,20.4,-3.8,-58.2,9.93049,-1.2189299999999998,2.5882,11.0178,9.34652,4.226430000000001,22.816,10.1727,-58.1003,0.114879,0.21219,1.0641,263.0,7.5,52.1701,4.42724,6.7,-1.88166,115.368,4.55584,52.6321,7.980580000000001,239.968,1.35249,0.00606902,245.802,0.72707,1.57735,-34.562210083007805,22.0339241027832,-35.0,22.0,-1081450.0,184.587,pp-riro,4,0,-1,-1
1570535271.4,2019-10-08,13:47:51.400,14.0,8.0,15.640000343322802,12.1,-1.0,2.5,22.1,-5.8,-53.0,11.2907,0.274438,3.26557,10.0994,12.031,5.7944,25.7398,8.208,-48.7719,0.413968,0.2901579999999999,0.919052,263.0,7.5,52.1701,4.42724,6.7,-1.82127,115.573,4.55584,52.4276,9.50063,239.768,1.3521299999999998,-0.0227204,245.617,0.853834,1.70958,-34.9206390380859,22.016416549682603,-35.0,22.0,-1081160.0,4030.15,pp-riro,4,0,-1,-1
1570535271.5,2019-10-08,13:47:51.500,14.0,8.0,15.3000001907349,13.0,0.2,3.0,23.5,-7.3,-48.0,11.6924,0.933012,3.5208800000000005,4.81008,12.6798,4.61963,26.5473,7.5413,-45.8446,0.089325,0.225801,1.02587,263.0,7.5,52.1701,4.42724,6.7,-1.7786,110.302,4.55585,52.3692,10.2607,239.568,1.35162,-0.0369361999999999,245.44,0.961139,1.82345,-34.971832275390604,22.0025119781494,-35.0,22.0,-1081060.0,2122.75,pp-riro,4,0,-1,-1
1570535271.6,2019-10-08,13:47:51.600,14.0,8.0,15.0699996948242,13.6,1.4,3.3,25.3,-8.8,-42.6,12.3371,2.23868,3.89815,4.36848,12.1952,3.47415,28.4301,5.70935,-39.7966,0.12513,0.200856,0.998255,263.0,7.5,52.1701,4.42724,6.8,-1.7420400000000005,98.9345,4.55585,52.3984,11.4007,239.368,1.35041,-0.0576985,245.301,1.0822,1.92997,-34.975250244140604,22.0009689331055,-35.0,22.0,-1081220.0,-3045.68,pp-riro,4,0,-1,-1
1570535271.7,2019-10-08,13:47:51.700,14.0,8.0,14.890000343322802,14.3,2.8,3.6,27.0,-10.4,-37.1,12.3371,2.23868,3.89815,4.36848,12.1952,3.47415,28.4301,5.70935,-39.7966,0.12513,0.200856,0.998255,263.0,7.5,52.1701,4.42724,6.8,-1.7614299999999998,98.7439,4.55585,52.5736,13.3008,239.168,1.34782,-0.0912598999999999,245.239,1.21822,2.05104,-34.9889068603516,22.0009689331055,-35.0,22.0,-1081970.0,-4583.91,pp-riro,4,0,-1,-1
1570535271.8,2019-10-08,13:47:51.800,14.0,7.0,14.8299999237061,14.8,4.0,4.1,28.1,-12.7,-32.0,13.0763,4.01451,4.46879,3.45792,11.6348,4.99109,30.8428,2.94771,-31.3013,0.36558,0.226731,0.957335,263.0,7.5,52.1701,4.42724,6.8,-1.7658599999999998,100.048,4.55586,52.8656,14.4408,238.968,1.34536,-0.110126,245.171,1.33504,2.1409700000000003,-34.9889068603516,22.0009689331055,-35.0,22.0,-1082250.0,-4860.79,pp-riro,4,0,-1,-1
1570535271.9,2019-10-08,13:47:51.900,14.0,8.0,14.6499996185303,15.1,5.2,4.6,29.0,-14.6,-26.7,13.0763,4.01451,4.46879,3.45792,11.6348,4.99109,30.8428,2.94771,-31.3013,0.36558,0.226731,0.957335,263.0,7.5,52.1701,4.42724,6.8,-1.77971,97.8409,4.55586,53.2745,15.9609,238.668,1.34186,-0.1345589999999999,245.062,1.45918,2.23309,-34.9889068603516,22.0009689331055,-35.0,22.0,-1082640.0,-3814.8,pp-riro,4,0,-1,-1
1570535272.0,2019-10-08,13:47:52.000,14.0,8.0,14.4700002670288,15.4,6.6,4.9,29.6,-16.6,-21.6,13.8706,6.3898,5.43915,3.93139,11.1737,4.45716,33.103,-1.46791,-19.6744,0.121817,0.278362,1.06562,263.0,7.5,52.1701,4.42724,6.8,-1.81905,88.20700000000001,4.55587,53.8002,17.4809,238.368,1.33779,-0.157639,244.988,1.57856,2.32607,-34.9889068603516,22.0009689331055,-35.0,22.0,-1083590.0,-8398.71,pp-riro,4,0,-1,-1
1570535272.1,2019-10-08,13:47:52.100,14.0,7.0,14.3400001525879,15.5,7.8,5.3,30.4,-18.7,-16.2,13.9925,8.29968,5.9402,0.879684,11.8053,5.24068,33.8762,-4.92748,-11.2033,0.0855956,0.229756,1.00097,256.0,6.5,52.1701,4.42724,6.8,-1.88388,87.5162,4.55583,54.472,19.001,237.968,1.33295,-0.179066,244.861,1.70135,2.40732,-35.0059814453125,22.0009689331055,-35.0,22.0,-1084480.0,-9106.29,pp-riro,4,0,-1,-1
1570535272.2,2019-10-08,13:47:52.200,14.0,8.0,14.3400001525879,15.6,9.1,5.7,30.7,-20.8,-10.7,13.9925,8.29968,5.9402,0.879684,11.8053,5.24068,33.8762,-4.92748,-11.2033,0.0855956,0.229756,1.00097,256.0,6.5,52.1701,4.42724,6.8,-1.91602,88.5921,4.55577,55.2314,20.5211,237.568,1.32769,-0.199153,244.765,1.82363,2.48703,-35.0042724609375,22.0009689331055,-35.0,22.0,-1084950.0,-9475.46,pp-riro,4,0,-1,-1
1570535272.3,2019-10-08,13:47:52.300,14.0,8.0,14.4700002670288,15.6,10.4,6.2,30.7,-22.7,-5.1,14.0699,9.44759,6.38221,1.05168,9.20402,4.09384,34.2408,-7.309419999999999,-5.54185,0.124218,0.25811,1.04133,256.0,6.5,52.1701,4.42724,6.8,-1.98029,90.3705,4.55571,56.166,22.0411,237.068,1.32158,-0.217288,244.625,1.94385,2.5634900000000003,-35.0059814453125,22.0009689331055,-35.0,22.0,-1085850.0,-8890.94,pp-riro,4,0,-1,-1
1570535272.4,2019-10-08,13:47:52.400,14.0,8.0,14.460000038147,15.3,11.6,6.6,30.3,-24.6,0.6,13.9346,11.1948,6.94689,-2.74407,10.4296,4.61157,33.8591,-10.4716,3.5216300000000005,0.118267,0.3331179999999999,0.967062,256.0,6.5,52.1701,4.42724,6.8,-2.0562,90.3107,4.55566,57.159,23.9412,236.568,1.3146,-0.2399489999999999,244.55,2.06863,2.64425,-35.0042724609375,22.0009689331055,-35.0,22.0,-1087270.0,-9721.58,pp-riro,4,0,-1,-1
1570535272.5,2019-10-08,13:47:52.500,14.0,8.0,14.460000038147,15.1,12.9,7.0,29.8,-26.5,6.6,13.6422,12.3357,7.324260000000001,-3.66136,12.1043,2.95966,33.1342,-12.6288,9.61413,0.0454365,0.289022,1.05577,256.0,6.5,52.1701,4.42724,6.8,-2.10662,91.983,4.5556,58.2981,25.0813,235.968,1.30806,-0.249526,244.353,2.18431,2.70952,-35.0042724609375,22.0009689331055,-35.0,22.0,-1088210.0,-9752.34,pp-riro,4,0,-1,-1
1570535272.6,2019-10-08,13:47:52.600,14.0,8.0,14.460000038147,14.6,14.3,7.3,28.9,-28.3,13.1,13.4633,12.943,7.493289999999999,-3.90502,12.8566,2.69241,32.7729,-13.6515,12.7354,-0.0208065,0.280586,1.09209,256.0,6.5,52.1701,4.427230000000001,6.9,-2.12989,94.0797,4.555540000000001,59.6416,26.6013,235.368,1.30014,-0.262691,244.259,2.3093,2.78677,-35.0042724609375,22.0009689331055,-35.0,22.0,-1088600.0,-7814.18,pp-riro,4,0,-1,-1
1570535272.7,2019-10-08,13:47:52.700,14.0,9.0,14.5799999237061,14.1,15.6,7.7,27.9,-29.6,19.3,12.8337,14.7356,8.03364,-6.11459,13.5244,4.75528,31.0903,-16.2089,22.0889,0.1373359999999999,0.368576,1.0449,256.0,6.5,52.1701,4.427230000000001,6.9,-2.16258,99.8362,4.55548,61.0435,28.1214,234.668,1.29186,-0.2748219999999999,244.102,2.42458,2.85635,-35.0059814453125,22.0009689331055,-23.0044822692871,22.0,-1089350.0,-6706.66,pp-riro,4,0,-1,-1
1570535272.8,2019-10-08,13:47:52.800,14.0,10.0,14.7600002288818,13.6,16.8,8.2,26.7,-30.9,25.6,12.3477,15.9137,8.44697,-4.890280000000001,10.4678,4.80206,29.4932,-17.4987,28.5798,0.0676092,0.324523,1.0017200000000002,256.0,6.5,52.1701,4.427230000000001,6.9,-2.15206,113.1,4.55543,62.5915,29.6415,233.968,1.28301,-0.2853469999999999,244.002,2.53823,2.91834,-35.0059814453125,22.0009689331055,-23.0044822692871,22.0,-1089750.0,246.116,pp-riro,4,0,-1,-1
1570535272.9,2019-10-08,13:47:52.900,14.0,9.0,15.119999885559098,12.9,18.0,8.6,25.3,-32.1,32.2,12.3477,15.9137,8.44697,-4.890280000000001,10.4678,4.80206,29.4932,-17.4987,28.5798,0.0676092,0.324523,1.0017200000000002,256.0,6.5,52.1701,4.427230000000001,6.9,-2.11992,117.398,4.55537,64.2563,31.1615,233.168,1.27359,-0.29452,243.859,2.65313,2.98248,-34.8096923828125,22.0009689331055,-23.0044822692871,22.0,-1089710.0,738.3480000000001,pp-riro,4,0,-1,-1
1570535273.0,2019-10-08,13:47:53.000,14.0,10.0,15.4700002670288,12.2,19.3,9.1,23.6,-33.0,39.0,11.7846,16.9541,8.81225,-7.70506,7.936780000000001,3.76313,27.6435,-18.6037,35.0513,0.0680722,0.288568,1.0490000000000002,256.0,6.5,52.1701,4.427230000000001,6.9,-2.0429,127.116,4.55531,66.0671,32.3016,232.268,1.26416,-0.297666,243.632,2.76306,3.04012,-34.2362213134766,22.0009689331055,-23.0044822692871,22.0,-1089200.0,5814.49,pp-riro,4,0,-1,-1
1570535273.1,2019-10-08,13:47:53.100,14.0,10.0,15.9700002670288,11.4,20.4,9.4,21.7,-33.4,46.2,10.0314,19.6138,9.66015,-6.08512,9.55494,2.75915,22.5548,-21.1054,51.5982,-0.0821026999999999,0.2801099999999999,1.01762,255.6,6.2,52.1701,4.427230000000001,6.9,-1.82903,142.12,4.55523,67.9948,33.4417,231.367,1.2543,-0.299932,243.46,2.8757200000000003,3.09278,-33.2940826416016,22.0009689331055,-23.0044822692871,22.0,-1087680.0,12090.4,pp-riro,4,0,-1,-1
1570535273.2,2019-10-08,13:47:53.200,14.0,9.0,16.2999992370605,10.3,21.6,9.9,19.8,-33.9,53.0,10.0314,19.6138,9.66015,-6.08512,9.55494,2.75915,22.5548,-21.1054,51.5982,-0.0821026999999999,0.2801099999999999,1.01762,255.6,6.2,52.1701,4.427230000000001,6.9,-1.73816,145.726,4.55515,69.9809,34.5817,230.467,1.24422,-0.30173,243.328,2.98096,3.15456,-32.0105895996094,22.0009689331055,-23.0044822692871,22.0,-1087020.0,12521.1,pp-riro,4,0,-1,-1
1570535273.3,2019-10-08,13:47:53.300,14.0,10.0,16.6700000762939,9.1,22.6,10.1,17.6,-34.1,60.3,9.13059,20.6132,9.9828,-11.4731,8.05331,2.99815,20.3468,-21.7368,58.2911,0.00230856,0.267969,1.0758,255.6,6.2,52.1701,4.427230000000001,6.9,-1.51431,151.958,4.55508,72.2298,35.7218,229.467,1.23309,-0.3019719999999999,243.205,3.09101,3.21235,-30.3618316650391,22.0009689331055,-22.507661819458,22.0,-1085680.0,13536.4,pp-riro,4,0,-1,-1
1570535273.4,2019-10-08,13:47:53.400,14.0,10.0,17.0400009155273,7.8,23.6,10.3,15.6,-34.0,67.0,9.13059,20.6132,9.9828,-11.4731,8.05331,2.99815,20.3468,-21.7368,58.2911,0.00230856,0.267969,1.0758,255.6,6.2,52.1701,4.427230000000001,6.9,-1.28159,158.327,4.555,74.4788,36.4819,228.367,1.22245,-0.298087,242.96,3.18778,3.26757,-28.3922119140625,22.0009689331055,-21.7744331359863,22.0,-1084390.0,13044.1,pp-riro,4,0,-1,-1
1570535273.5,2019-10-08,13:47:53.500,14.0,10.0,17.3500003814697,6.5,24.4,10.4,13.7,-33.3,73.3,6.905760000000001,22.45,10.3319,-11.9636,11.5323,1.28525,15.7012,-22.6643,71.2413,-0.0547169999999999,0.274878,0.937958,255.6,6.2,52.1701,4.427230000000001,6.9,-0.8433129999999999,172.255,4.55492,76.8445,37.2419,227.367,1.2115200000000002,-0.293815,242.874,3.27849,3.31811,-26.5011138916016,22.0009689331055,-21.1483898162842,22.0,-1082620.0,11013.7,pp-riro,4,0,-1,-1
1570535273.6,2019-10-08,13:47:53.600,14.0,9.0,17.6499996185303,5.1,25.2,10.6,11.7,-32.6,79.5,5.016430000000001,23.6659,10.5153,-16.6907,5.57138,0.178838,12.7084,-22.7125,80.2261,0.0290015999999999,0.209326,0.772142,255.6,6.2,52.1701,4.427230000000001,7.1,-0.515297,181.592,4.55484,79.3563,38.382,226.267,1.1993,-0.292948,242.832,3.37099,3.37322,-25.6374816894531,22.0009689331055,-20.5838661193848,22.0,-1081790.0,7321.95,pp-riro,4,0,-1,-1
1570535273.7,2019-10-08,13:47:53.700,14.0,9.0,17.9500007629395,3.7,25.7,10.5,9.7,-31.9,85.2,5.016430000000001,23.6659,10.5153,-16.6907,5.57138,0.178838,12.7084,-22.7125,80.2261,0.0290015999999999,0.209326,0.772142,255.6,6.2,52.1701,4.427230000000001,7.1,-0.114141,186.033,4.55476,81.8681,38.762,225.167,1.18832,-0.284573,242.704,3.45002,3.41842,-23.7327194213867,22.0009689331055,-19.991519927978494,22.0,-1081450.0,1692.05,pp-riro,4,0,-1,-1
1570535273.8,2019-10-08,13:47:53.800,14.0,10.0,18.2399997711182,2.3,26.1,10.4,7.7,-31.3,90.7,3.69436,24.2213,10.5286,-13.3494,0.901627,2.90313,10.7151,-22.5306,85.6501,0.0919006,0.150314,0.791275,255.6,6.2,52.1701,4.427230000000001,7.1,0.0775715,186.347,4.55469,84.4092,39.1421,224.067,1.1772200000000002,-0.2765,242.617,3.5263400000000003,3.46256,-22.4389801025391,22.0009689331055,-19.4468898773193,22.0,-1081550.0,-1845.87,pp-riro,4,0,-1,-1
1570535273.9,2019-10-08,13:47:53.900,14.0,8.0,18.479999542236303,0.7,26.3,10.1,6.0,-30.5,96.0,3.02462,24.4321,10.4798,-14.578,2.83508,-3.13423,9.81876,-22.5462,88.3589,-0.0040567,0.11269,0.70985,255.6,6.2,52.1701,4.427230000000001,7.1,0.417778,182.83900000000003,4.55461,87.0962,39.1421,223.067,1.16633,-0.264583,242.645,3.59729,3.50977,-21.3364028930664,22.0009689331055,-18.752576828002898,22.0,-1081950.0,-2491.92,pp-riro,4,0,-1,-1
1570535274.0,2019-10-08,13:47:54.000,14.0,8.0,18.8600006103516,-0.6,26.6,9.9,4.4,-29.2,100.6,0.268326,24.9942,9.86952,-16.0096,4.34621,-3.33837,5.99731,-21.6257,98.469,0.188628,0.155098,0.654651,255.6,6.2,52.1701,4.427230000000001,7.1,0.272054,184.8,4.554530000000001,89.6957,39.1422,222.067,1.15571,-0.253617,242.675,3.661,3.54684,-20.3908538818359,22.0009689331055,-18.2848815917969,22.0,-1081500.0,3076.45,pp-riro,4,0,-1,-1
1570535274.1,2019-10-08,13:47:54.100,14.0,8.0,19.1800003051758,-2.1,26.5,10.2,3.2,-28.1,104.8,-0.5231,25.1296,9.6739,-13.8872,4.652419999999999,-1.52925,5.00534,-21.2572,100.81,-0.101676,0.139471,0.757965,251.3,4.9,52.1701,4.427230000000001,7.1,0.365694,220.58,4.5544400000000005,92.3243,39.1422,220.967,1.14477,-0.243046,242.657,3.71893,3.58747,-19.3531341552734,22.0009689331055,-17.7859325408936,22.0,-1081760.0,-3722.5,pp-riro,4,0,-1,-1
1570535274.2,2019-10-08,13:47:54.200,14.0,8.0,19.3199996948242,-3.4,26.0,10.4,1.1,-27.6,109.3,-1.95557,25.2078,9.93151,-10.0854,-2.41689,3.5167900000000003,2.92256,-20.1912,105.288,-0.167186,0.141029,0.670875,251.3,4.9,52.1701,4.427230000000001,7.1,0.433846,249.229,4.55432,94.9822,38.7622,219.967,1.13441,-0.229403,242.713,3.77638,3.61944,-18.6601791381836,22.0009689331055,-17.374334335327102,22.0,-1081660.0,2122.75,pp-riro,4,0,-1,-1
1570535274.3,2019-10-08,13:47:54.300,14.0,10.0,19.5,-4.4,25.7,10.1,-1.0,-26.3,113.7,-3.66879,24.4163,9.94922,-6.87775,-2.1426,0.202121,0.0128745,-19.4088,111.84,-0.3332219999999999,0.0786969,0.5974689999999999,251.3,4.9,52.1701,4.427230000000001,7.1,0.4211029999999999,241.402,4.55424,97.5524,38.7623,218.867,1.12359,-0.220074,242.738,3.84028,3.64878,-18.0679321289062,22.0009689331055,-17.1567497253418,22.0,-1081600.0,0.0,pp-riro,4,0,-1,-1
1570535274.4,2019-10-08,13:47:54.400,14.0,10.0,19.6399993896484,-5.7,25.4,9.9,-2.9,-24.3,117.9,-4.705369999999999,24.099,9.57328,-13.0033,-1.94576,-1.23585,-2.18228,-18.1652,116.044,-0.337861,0.287275,0.653546,251.3,4.9,52.1701,4.427230000000001,7.1,0.410021,229.881,4.55415,100.181,38.3823,217.867,1.11323,-0.207636,242.848,3.90333,3.6856,-17.5371246337891,22.0009689331055,-16.7101230621338,22.0,-1081450.0,1938.16,pp-riro,4,0,-1,-1
1570535274.5,2019-10-08,13:47:54.500,14.0,10.0,19.7199993133545,-6.9,24.9,10.0,-4.7,-23.6,121.7,-6.64324,23.7512,9.60747,-11.7605,-8.35898,-1.02746,-5.1286,-16.5209,121.889,-0.333831,0.0656949,0.500854,251.3,4.9,52.1701,4.427230000000001,7.1,0.381209,229.447,4.55405,102.693,37.2423,216.867,1.10419,-0.189565,242.825,3.9486,3.71278,-17.1821136474609,22.0009689331055,-16.2712726593018,22.0,-1081360.0,338.409,pp-riro,4,0,-1,-1
1570535274.6,2019-10-08,13:47:54.600,14.0,10.0,19.7199993133545,-8.1,24.5,9.7,-6.2,-22.0,124.8,-7.7978,23.1323,9.39039,-11.4711,-5.97671,-1.27981,-6.90221,-15.5379,125.157,-0.3775469999999999,0.156253,0.470029,251.3,4.9,52.1701,4.427230000000001,7.4,0.4205489999999999,246.524,4.55395,105.146,36.4823,215.767,1.09458,-0.17553,242.78,3.99278,3.74705,-16.702507019043,22.0009689331055,-15.8328256607056,22.0,-1081350.0,307.645,pp-riro,4,0,-1,-1
1570535274.7,2019-10-08,13:47:54.700,14.0,10.0,19.6700000762939,-9.2,23.9,9.6,-7.9,-20.5,127.9,-7.7978,23.1323,9.39039,-11.4711,-5.97671,-1.27981,-6.90221,-15.5379,125.157,-0.3775469999999999,0.156253,0.470029,251.3,4.9,52.1701,4.427230000000001,7.4,0.446036,259.866,4.5538300000000005,107.658,35.7224,214.767,1.0848799999999998,-0.161821,242.881,4.03724,3.778480000000001,-16.2143707275391,22.0009689331055,-15.4839248657227,22.0,-1081290.0,553.761,pp-riro,4,0,-1,-1
1570535274.8,2019-10-08,13:47:54.800,14.0,9.0,19.590000152587898,-10.4,23.5,9.7,-9.2,-19.6,131.1,-8.76362,22.6394,9.19755,-12.3357,-4.19348,-1.95296,-8.700239999999999,-14.454,128.217,-0.259318,0.0761146,0.565351,251.3,4.9,52.1701,4.427230000000001,7.4,0.460442,266.935,4.55375,110.082,34.9624,213.767,1.07542,-0.148888,242.975,4.08014,3.81032,-15.9959030151367,22.0009689331055,-15.1503505706787,22.0,-1081200.0,984.464,pp-riro,4,0,-1,-1
1570535274.9,2019-10-08,13:47:54.900,14.0,11.0,19.7600002288818,-11.5,23.1,9.5,-10.9,-18.5,134.1,-9.97763,22.2621,9.23049,-8.95647,-3.81552,-0.0863029,-10.6363,-13.4332,131.341,-0.0519954,0.0741943,0.7153,251.3,4.9,52.1701,4.427230000000001,7.4,0.4754029999999999,281.093,4.55365,112.39,33.8224,212.666,1.0665,-0.133581,242.904,4.1197,3.83976,-15.6221160888672,22.0009689331055,-14.7996654510498,22.0,-1081120.0,615.29,pp-riro,4,0,-1,-1
1570535275.0,2019-10-08,13:47:55.000,14.0,12.0,19.8899993896484,-12.6,22.7,9.6,-12.3,-17.6,136.8,-10.535,22.0946,9.18537,-2.5941,-5.60902,5.09471,-11.5941,-12.976,132.959,-0.150081,0.201988,0.6077170000000001,251.3,4.9,52.1701,4.427230000000001,7.4,0.508648,296.682,4.55354,114.726,32.6824,211.666,1.05759,-0.11867,242.967,4.15386,3.86594,-15.212493896484402,22.0009689331055,-14.545918464660598,22.0,-1081070.0,707.5830000000001,pp-riro,4,0,-1,-1
1570535275.1,2019-10-08,13:47:55.100,14.0,11.0,19.8999996185303,-13.6,22.1,9.7,-13.5,-17.1,139.6,-12.635,21.1512,9.26846,-7.49315,-8.933860000000001,2.53577,-14.9447,-11.5873,138.553,-0.0121847,-0.1936119999999999,0.343974,242.7,6.4,52.1701,4.427230000000001,7.4,0.530257,306.249,4.55344,116.975,31.5424,210.566,1.0486799999999998,-0.104438,242.933,4.1871,3.89179,-14.9052734375,22.0009689331055,-14.336934089660598,22.0,-1080960.0,1045.99,pp-riro,4,0,-1,-1
1570535275.2,2019-10-08,13:47:55.200,14.0,11.0,19.979999542236303,-14.5,21.5,9.7,-15.0,-16.5,142.5,-12.635,21.1512,9.26846,-7.49315,-8.933860000000001,2.53577,-14.9447,-11.5873,138.553,-0.0121847,-0.1936119999999999,0.343974,242.7,6.4,52.1701,4.427230000000001,7.4,0.535798,309.654,4.5533,119.195,29.6424,209.466,1.04046,-0.0846579,242.821,4.21793,3.911,-14.6390151977539,22.0009689331055,-14.124497413635302,22.0,-1080810.0,1568.99,pp-riro,4,0,-1,-1
1570535275.3,2019-10-08,13:47:55.300,14.0,10.0,20.0699996948242,-15.3,20.6,9.5,-16.3,-15.9,145.3,-12.635,21.1512,9.26846,-7.49315,-8.933860000000001,2.53577,-14.9447,-11.5873,138.553,-0.0121847,-0.1936119999999999,0.343974,242.7,6.4,52.1701,4.427230000000001,7.4,0.538568,309.816,4.55317,121.269,28.5024,208.366,1.03195,-0.0716221,242.765,4.25298,3.94056,-14.3727569580078,22.0009689331055,-13.8927335739136,22.0,-1080670.0,1415.17,pp-riro,4,0,-1,-1
1570535275.4,2019-10-08,13:47:55.400,14.0,10.0,20.3299999237061,-16.1,20.0,9.3,-17.3,-15.4,147.9,-14.821,19.3962,9.03156,-7.577739999999999,-5.57603,-3.75047,-18.4973,-10.8033,145.553,-0.065237,-0.00667921,0.437837,242.7,6.4,52.1701,4.427230000000001,7.4,0.5352439999999999,305.431,4.553030000000001,123.313,26.6024,207.266,1.02405,-0.0531135,242.638,4.27961,3.96119,-14.1167449951172,22.0009689331055,-13.7146663665771,22.0,-1080500.0,1845.87,pp-riro,4,0,-1,-1
1570535275.5,2019-10-08,13:47:55.500,14.0,10.0,20.590000152587898,-16.7,19.1,9.0,-17.9,-15.0,150.3,-14.821,19.3962,9.03156,-7.577739999999999,-5.57603,-3.75047,-18.4973,-10.8033,145.553,-0.065237,-0.00667921,0.437837,242.7,6.4,52.1701,4.427230000000001,7.4,0.518067,296.089,4.5528900000000005,125.329,25.0824,206.166,1.01583,-0.0380256,242.571,4.30526,3.9861,-13.8982772827148,22.0009689331055,-13.5764684677124,22.0,-1080310.0,1815.1,pp-riro,4,0,-1,-1
1570535275.6,2019-10-08,13:47:55.600,14.0,10.0,20.5799999237061,-17.1,18.2,8.7,-18.7,-14.4,152.3,-16.2577,17.725,8.616719999999999,-10.2639,-5.46711,-5.8276,-20.3348,-10.02,150.475,-0.2215929999999999,-0.1628,0.301637,242.7,6.4,52.1701,4.427230000000001,7.8,0.497566,287.592,4.55275,127.169,23.1824,205.166,1.00858,-0.0206810999999999,242.492,4.32497,4.0044900000000005,-13.6695709228516,22.0009689331055,-13.483172416687,22.0,-1080060.0,1568.99,pp-riro,4,0,-1,-1
1570535275.7,2019-10-08,13:47:55.700,14.0,6.0,20.7999992370605,-17.4,17.4,8.5,-19.1,-13.4,153.8,-16.6405,16.9183,8.33757,0.144561,-0.415085,-4.08305,-21.1651,-9.54306,152.356,-0.0656202,0.12132,0.410642,242.7,6.4,52.1701,4.427230000000001,7.8,0.49812,286.2,4.55262,128.98,21.6624,204.166,1.00107,-0.00662649,242.46400000000003,4.34382,4.02042,-13.5227890014648,22.0009689331055,-13.5564298629761,22.0,-1079950.0,1015.23,pp-riro,4,0,-1,-1
1570535275.8,2019-10-08,13:47:55.800,14.0,9.0,21.090000152587898,-17.7,16.6,8.4,-19.6,-12.9,155.9,-16.6405,16.9183,8.33757,0.144561,-0.415085,-4.08305,-21.1651,-9.54306,152.356,-0.0656202,0.12132,0.410642,242.7,6.4,52.1701,4.427230000000001,7.8,0.4986739999999999,283.064,4.55248,130.732,20.1424,203.166,0.993671,0.00703916,242.431,4.367290000000001,4.0359300000000005,-13.4988861083984,22.0009689331055,35.0,22.0,-1079870.0,1384.4,pp-riro,4,0,-1,-1
1570535275.9,2019-10-08,13:47:55.900,14.0,8.0,21.4200000762939,-17.9,16.1,8.1,-19.7,-11.9,157.8,-16.6405,16.9183,8.33757,0.144561,-0.415085,-4.08305,-21.1651,-9.54306,152.356,-0.0656202,0.12132,0.410642,242.7,6.4,52.1701,4.427230000000001,7.8,0.480389,277.161,4.55234,132.39700000000002,18.2423,202.266,0.986899,0.0231249,242.432,4.39055,4.04412,-13.5005950927734,22.0009689331055,35.0,22.0,-1079700.0,1722.81,pp-riro,4,0,-1,-1
1570535276.0,2019-10-08,13:47:56.000,14.0,8.0,21.7900009155273,-17.9,15.7,7.9,-20.3,-10.6,159.3,-16.878,16.145,8.21557,-3.5535,-8.3953,1.1816,-21.4593,-8.89798,154.06,0.0473735,-0.0396338,0.179575,242.7,6.4,52.1701,4.427230000000001,7.8,1.09985,273.717,4.5522,133.974,16.7223,201.366,0.980152,0.0360099,242.439,4.41367,4.04598,-13.119987487793,22.0009689331055,35.0,22.0,-1082670.0,-26580.5,pp-riro,4,0,-1,-1
1570535276.1,2019-10-08,13:47:56.100,14.0,8.0,21.8700008392334,-17.6,15.4,7.5,-20.4,-9.1,161.0,-17.0774,14.6502,7.52707,2.35054,-1.72945,-4.2116,-22.4891,-6.69373,159.89,-0.0941138,0.177517,0.285315,249.7,6.0,52.1701,4.427230000000001,7.8,1.11481,240.152,4.55209,135.493,14.4423,200.566,0.974043,0.0540603,242.474,4.4375,4.03664,-12.365592956543,22.0009689331055,35.0,22.0,-1081020.0,25534.5,pp-riro,4,0,-1,-1
1570535276.2,2019-10-08,13:47:56.200,14.0,7.0,21.9099998474121,-17.3,14.9,7.4,-20.8,-8.0,163.2,-17.0774,14.6502,7.52707,2.35054,-1.72945,-4.2116,-22.4891,-6.69373,159.89,-0.0941138,0.177517,0.285315,249.7,6.0,52.1701,4.427230000000001,7.8,0.943602,227.245,4.552,137.012,12.9223,199.766,0.967555,0.066349,242.581,4.4697,4.03184,-11.2630157470703,22.0009689331055,35.0,22.0,-1080310.0,14643.9,pp-riro,4,0,-1,-1
1570535276.3,2019-10-08,13:47:56.300,14.0,7.0,21.75,-17.4,14.6,7.5,-21.2,-7.8,164.1,-16.5768,14.18,7.093160000000001,-4.24092,-8.32554,3.49417,-22.9615,-4.96776,162.658,0.0554259,-0.0945251,0.337194,249.7,6.0,52.1701,4.427230000000001,7.8,1.09653,262.442,4.55191,137.684,11.7823,199.366,0.964695,0.0751096,242.574,4.47743,4.03295,-9.80542755126953,22.0009689331055,35.0,22.0,-1080990.0,1568.99,pp-riro,4,0,-1,-1
1570535276.4,2019-10-08,13:47:56.400,14.0,8.0,21.3799991607666,-17.6,14.3,7.6,-21.3,-7.3,166.0,-16.8554,13.7412,7.31482,-1.90211,-1.53329,3.19273,-23.4822,-4.41966,164.72299999999998,-0.0307617,0.0190409,0.376389,249.7,6.0,52.1701,4.427230000000001,7.8,1.07215,269.867,4.551819999999999,139.115,10.2623,198.466,0.958156,0.0869323,242.584,4.49986,4.03454,-7.98941802978516,22.0009689331055,35.0,22.0,-1080540.0,8767.88,pp-riro,4,0,-1,-1
1570535276.5,2019-10-08,13:47:56.500,14.0,9.0,21.1200008392334,-17.3,13.9,7.5,-22.0,-6.7,167.5,-16.9265,13.559,7.339069999999999,2.82036,0.671564,2.98871,-23.6105,-4.16556,165.56400000000002,-0.179393,-0.0950799,0.320773,249.7,6.0,52.1701,4.427230000000001,7.8,1.05386,265.139,4.55173,140.458,8.36224,197.666,0.952166,0.1011919999999999,242.632,4.51559,4.02632,-5.89349365234375,22.0009689331055,35.0,22.0,-1080410.0,-769.112,pp-riro,4,0,-1,-1
1570535276.6,2019-10-08,13:47:56.600,14.0,9.0,20.7900009155273,-17.6,13.6,7.5,-22.1,-6.4,168.2,-16.9265,13.559,7.339069999999999,2.82036,0.671564,2.98871,-23.6105,-4.16556,165.56400000000002,-0.179393,-0.0950799,0.320773,249.7,6.0,52.1701,4.42724,8.1,1.06882,273.085,4.55164,141.80200000000002,6.842230000000001,196.866,0.946025,0.112533,242.715,4.51938,4.03335,-3.79074859619141,22.0009689331055,35.0,22.0,-1080110.0,4060.91,pp-riro,4,0,-1,-1
1570535276.7,2019-10-08,13:47:56.700,14.0,10.0,20.6200008392334,-17.8,13.3,8.0,-23.0,-6.3,168.5,-16.7571,13.4152,7.24932,1.2976,-4.08068,-2.63922,-23.7235,-4.00691,166.601,-0.036775,-0.109955,0.18394,249.7,6.0,52.1701,4.42724,8.1,1.07935,279.819,4.55155,143.145,4.94221,196.065,0.939876,0.126326,242.81,4.51356,4.02581,-2.2034454345703103,22.0009689331055,35.0,22.0,-1080020.0,-215.351,pp-riro,4,0,-1,-1
1570535276.8,2019-10-08,13:47:56.800,14.0,10.0,20.229999542236303,-17.6,13.1,8.2,-23.4,-7.3,168.8,-17.5452,12.8408,7.80301,-1.6427200000000002,-7.52727,5.364719999999999,-25.3801,-5.1685,169.142,0.0278080999999999,-0.410688,-0.0986628999999999,249.7,6.0,52.1701,4.42724,8.1,1.09376,273.793,4.55146,144.372,3.4222,195.165,0.933758,0.13723,242.785,4.4989,4.01277,-0.104110717773438,22.0009689331055,35.0,22.0,-1079700.0,4983.85,pp-riro,4,0,-1,-1
1570535276.9,2019-10-08,13:47:56.900,14.0,9.0,19.8799991607666,-17.2,13.1,8.2,-24.1,-8.1,167.6,-17.6685,12.7759,7.91288,1.00449,0.524555,4.75022,-25.6408,-5.76072,169.635,-0.0523364,-0.1209079999999999,0.0356485999999999,249.7,6.0,52.1701,4.42724,8.1,1.0427799999999998,261.682,4.55137,145.628,1.14217,194.265,0.927514,0.153176,242.792,4.4612,3.98859,2.00289154052734,22.0009689331055,35.0,22.0,-1079250.0,3076.45,pp-riro,4,0,-1,-1
1570535277.0,2019-10-08,13:47:57.000,14.0,9.0,19.4699993133545,-17.1,13.2,8.9,-24.7,-8.8,165.8,-17.4199,12.847,8.07168,-0.659864,-0.368662,5.18274,-26.4989,-8.01823,168.333,0.0282106,-0.179796,-0.308611,249.7,6.0,52.1701,4.42724,8.1,1.04999,251.938,4.55128,146.91299999999998,-0.377837,193.265,0.92082,0.163682,242.766,4.42063,3.96142,4.104576110839839,22.0009689331055,35.0,22.0,-1078910.0,3845.56,pp-riro,4,0,-1,-1
1570535277.1,2019-10-08,13:47:57.100,14.0,12.0,19.2000007629395,-16.7,13.7,9.7,-25.6,-10.7,164.6,-17.4199,12.847,8.07168,-0.659864,-0.368662,5.18274,-26.4989,-8.01823,168.333,0.0282106,-0.179796,-0.308611,248.6,6.1,52.1701,4.42724,8.1,1.02505,242.873,4.55118,148.19799999999998,-2.27786,192.265,0.914057,0.176582,242.763,4.37439,3.91244,6.20625305175781,22.0009689331055,35.0,22.0,-1078700.0,4245.5,pp-riro,4,0,-1,-1
1570535277.2,2019-10-08,13:47:57.200,14.0,13.0,18.9699993133545,-15.8,14.7,10.2,-26.7,-12.6,163.5,-17.0003,13.7973,9.57985,10.1104,9.59406,7.97757,-28.2988,-11.6059,166.072,-0.155885,-0.303531,-0.154162,248.6,6.1,52.1701,4.42724,8.1,1.01175,248.433,4.551069999999999,149.571,-3.79786,191.265,0.906965,0.186704,242.834,4.33188,3.84522,8.31303405761719,22.0009689331055,35.0,22.0,-1078390.0,1015.23,pp-riro,4,0,-1,-1
1570535277.3,2019-10-08,13:47:57.300,14.0,11.0,18.9599990844727,-15.6,15.4,11.1,-27.1,-14.0,161.5,-16.3056,15.2754,10.6129,-4.0056,6.51736,9.84592,-29.9191,-14.7621,163.57399999999998,-0.415806,-0.2086989999999999,-0.392126,248.6,6.1,52.1701,4.42724,8.1,1.0389,263.409,4.55097,151.002,-4.93785,190.165,0.8994280000000001,0.1941119999999999,242.876,4.2843800000000005,3.80374,9.36387634277344,22.0009689331055,35.0,22.0,-1078400.0,-307.645,pp-riro,4,0,-1,-1
1570535277.4,2019-10-08,13:47:57.400,14.0,11.0,19.1499996185303,-15.3,15.9,12.3,-28.0,-17.1,159.0,-16.3809,15.9797,12.0033,2.74858,6.47484,9.97948,-31.006,-18.2004,162.1,-0.2476239999999999,-0.5062989999999999,-0.429885,248.6,6.1,52.1701,4.42724,8.1,1.0932,298.86400000000003,4.55086,152.52100000000002,-6.837860000000001,188.865,0.890967,0.206331,242.857,4.20937,3.75686,11.4740676879883,22.0009689331055,35.0,22.0,-1078420.0,-307.645,pp-riro,4,0,-1,-1
1570535277.5,2019-10-08,13:47:57.500,14.0,12.0,19.6000003814697,-14.5,16.5,13.2,-27.9,-20.7,155.7,-16.3809,15.9797,12.0033,2.74858,6.47484,9.97948,-31.006,-18.2004,162.1,-0.2476239999999999,-0.5062989999999999,-0.429885,248.6,6.1,52.1701,4.42724,8.1,1.18518,336.102,4.55075,154.069,-7.97784,187.665,0.8827360000000001,0.2133699999999999,242.938,4.12343,3.70253,13.5791549682617,22.0009689331055,35.0,22.0,-1078320.0,2984.16,pp-riro,4,0,-1,-1
1570535277.6,2019-10-08,13:47:57.600,14.0,11.0,20.0,-13.4,17.2,14.4,-27.4,-24.1,151.2,-16.3809,15.9797,12.0033,2.74858,6.47484,9.97948,-31.006,-18.2004,162.1,-0.2476239999999999,-0.5062989999999999,-0.429885,248.6,6.1,52.1701,4.42724,8.4,1.1813,336.369,4.55065,155.67600000000002,-9.87784,186.265,0.8736299999999999,0.225107,242.955,4.02117,3.63112,15.6944580078125,22.0009689331055,35.0,22.0,-1077930.0,3630.21,pp-riro,4,0,-1,-1
1570535277.7,2019-10-08,13:47:57.700,14.0,12.0,20.3099994659424,-11.8,18.0,15.4,-26.7,-27.8,145.8,-15.4984,17.178,13.8103,14.8745,7.84376,13.3246,-31.7741,-24.5631,157.83,-0.302086,-0.452388,-1.00314,248.6,6.1,52.1701,4.42724,8.4,1.18186,333.446,4.55054,157.34,-11.0178,184.865,0.86445,0.231757,243.007,3.91015,3.5502,17.7893218994141,22.0009689331055,35.0,22.0,-1077560.0,4030.15,pp-riro,4,0,-1,-1
1570535277.8,2019-10-08,13:47:57.800,14.0,10.0,20.520000457763697,-9.9,19.0,16.4,-24.5,-31.2,139.9,-12.7478,19.44,16.529,22.306,13.5417,11.5254,-30.3864,-33.7808,147.97799999999998,-0.2435909999999999,-0.0368651,-1.22427,248.6,6.1,52.1701,4.42724,8.4,1.17687,333.49,4.55044,159.122,-11.7778,183.265,0.854442,0.235835,242.991,3.79997,3.46101,19.9114379882812,22.0009689331055,35.0,22.0,-1077340.0,4276.26,pp-riro,4,0,-1,-1
1570535277.9,2019-10-08,13:47:57.900,14.0,11.0,20.909999847412102,-7.6,19.4,17.3,-21.8,-35.0,133.4,-11.6578,20.0525,16.9416,20.2498,12.6568,12.4211,-29.3871,-36.0382,144.993,-0.447144,-0.275954,-1.0669799999999998,248.6,6.1,52.1701,4.42724,8.4,1.18241,343.19699999999995,4.550330000000001,160.96200000000002,-12.5377,181.665,0.8442459999999999,0.2397929999999999,243.039,3.6825,3.3676800000000005,22.0233306884766,22.0009689331055,35.0,22.0,-1077060.0,2215.04,pp-riro,4,0,-1,-1
1570535278.0,2019-10-08,13:47:58.000,14.0,10.0,21.3600006103516,-5.1,19.4,18.2,-17.8,-38.4,124.4,-8.02719,21.0734,18.7728,27.2761,2.29178,14.8297,-25.081,-42.5316,134.232,-0.307715,0.186109,-1.08622,248.6,6.1,52.1701,4.42724,8.4,1.22009,347.405,4.55023,162.80200000000002,-13.6777,179.965,0.833677,0.245981,243.062,3.53905,3.26961,24.1352310180664,22.0009689331055,35.0,22.0,-1076670.0,4091.68,pp-riro,4,0,-1,-1
1570535278.1,2019-10-08,13:47:58.100,14.0,11.0,21.5699996948242,-2.3,19.6,18.4,-12.2,-41.3,113.8,-5.05057,21.5009,19.5485,30.1923,0.439221,7.90602,-20.6306,-46.6115,124.833,-0.223277,-0.139464,-1.26441,251.5,6.0,52.1701,4.42724,8.4,1.16468,312.945,4.55014,164.73,-14.0577,178.165,0.82275,0.247378,243.056,3.38769,3.16476,26.2539367675781,22.0009689331055,35.0,22.0,-1075980.0,7045.07,pp-riro,4,0,-1,-1
1570535278.2,2019-10-08,13:47:58.200,14.0,10.0,21.4799995422363,0.2,19.3,18.1,-6.4,-43.1,104.2,-3.3921,21.4061,19.6163,41.3976,-8.5002,2.58755,-17.7285,-48.5631,120.095,0.0518197,-0.34239,-1.14035,251.5,6.0,52.1701,4.42724,8.4,1.1331,301.798,4.55007,166.628,-14.0576,176.46400000000003,0.812289,0.2464869999999999,243.11,3.26085,3.07269,28.3675384521484,22.0009689331055,23.0044822692871,22.0,-1075620.0,6675.89,pp-riro,4,0,-1,-1
1570535278.3,2019-10-08,13:47:58.300,14.0,10.0,21.1900005340576,2.7,19.1,18.2,-0.1,-43.1,93.0,-2.00436,21.5075,19.4721,18.745,-3.96193,-3.40732,-13.9728,-50.6135,114.994,0.157069,-0.446437,-1.24894,251.5,6.0,52.1701,4.42724,8.4,1.10816,307.1,4.54999,168.498,-14.0575,174.764,0.80192,0.245632,243.17,3.11905,2.97955,30.3431701660156,22.0009689331055,23.0044822692871,22.0,-1075330.0,1199.82,pp-ro,1,1,-1,-1
1570535278.4,2019-10-08,13:47:58.400,14.0,11.0,20.8099994659424,5.1,18.4,18.5,6.3,-42.5,81.7,2.30782,21.3802,19.494,33.2086,-0.501584,-4.478940000000001,-3.23051,-53.1114,96.1271,0.0269634999999999,-0.153922,-1.08312,251.5,6.0,52.1701,4.42724,8.4,1.17521,325.269,4.549919999999999,170.308,-13.6774,173.06400000000002,0.791817,0.242608,243.194,2.9763,2.89235,32.340972900390604,22.0009689331055,23.0044822692871,22.0,-1075120.0,3784.03,pp-ro,1,1,-1,-1
1570535278.5,2019-10-08,13:47:58.500,14.0,11.0,20.340000152587898,7.6,17.7,18.0,13.4,-41.8,70.3,5.16981,20.9941,19.7751,35.0528,-14.1036,3.15447,4.63109,-53.8692,83.1586,-0.346929,-0.0611364,-1.45699,251.5,6.0,52.1701,4.42724,8.4,1.1630200000000002,320.822,4.5498400000000006,172.11900000000003,-13.2974,171.364,0.781713,0.2396489999999999,243.24400000000003,2.83203,2.79551,33.533172607421896,22.0009689331055,23.0044822692871,22.0,-1074830.0,5383.79,pp-ro,1,1,-1,-1
1570535278.6,2019-10-08,13:47:58.600,14.0,12.0,20.0699996948242,9.9,16.9,16.9,20.1,-39.9,59.8,5.16981,20.9941,19.7751,35.0528,-14.1036,3.15447,4.63109,-53.8692,83.1586,-0.346929,-0.0611364,-1.45699,251.5,6.0,52.1701,4.427230000000001,8.6,1.12756,301.643,4.54977,173.872,-12.1573,169.764,0.772227,0.232427,243.308,2.69575,2.70005,34.371124267578104,22.0009689331055,23.0044822692871,22.0,-1074230.0,4030.15,pp-ro,1,1,-1,-1
1570535278.7,2019-10-08,13:47:58.700,14.0,10.0,19.7199993133545,12.1,15.8,16.2,26.0,-36.9,49.9,5.16981,20.9941,19.7751,35.0528,-14.1036,3.15447,4.63109,-53.8692,83.1586,-0.346929,-0.0611364,-1.45699,251.5,6.0,52.1701,4.427230000000001,8.6,1.12035,303.147,4.54969,175.53599999999997,-11.3972,168.16400000000002,0.762901,0.227494,243.356,2.55485,2.60584,34.8479919433594,22.0009689331055,23.0044822692871,22.0,-1074030.0,3907.09,pp-ro,1,1,-1,-1
1570535278.8,2019-10-08,13:47:58.800,14.0,11.0,19.5799999237061,13.9,14.5,15.1,31.5,-33.4,40.6,9.4397,19.9585,18.6736,17.0964,-3.34964,-5.132000000000001,18.715,-52.036,62.3369,-0.542673,-0.0633952,-1.52884,251.5,6.0,52.1701,4.427230000000001,8.6,1.12922,309.499,4.54962,177.084,-10.2571,166.66400000000002,0.754258,0.220627,243.395,2.4151,2.51591,34.9655151367188,22.0009689331055,23.0018692016602,22.0,-1073850.0,1169.05,pp-ro,1,1,-1,-1
1570535278.9,2019-10-08,13:47:58.900,14.0,12.0,19.3999996185303,15.6,13.0,13.4,35.8,-28.9,32.1,14.637,17.5251,16.567,24.3933,-18.9055,-22.0623,31.9224,-45.1723,38.4915,-0.535165,0.0666046,-1.20994,251.5,6.0,52.1701,4.427230000000001,8.6,1.12368,298.408,4.54954,178.60299999999998,-8.73701,165.264,0.746031,0.2117239999999999,243.49,2.2728200000000003,2.41202,34.7781677246094,22.0009689331055,21.2004280090332,22.0,-1073270.0,5660.67,pp-ro,1,1,-1,-1
1570535279.0,2019-10-08,13:47:59.000,14.0,11.0,19.4899997711182,16.8,11.5,11.7,39.0,-24.0,25.4,15.8136,16.8132,15.7024,37.1192,-8.00371,-23.7208,34.8425,-43.3137,33.3417,-0.7675529999999999,-0.0434989,-1.55934,251.5,6.0,52.1701,4.427230000000001,8.6,1.0993,291.573,4.54947,179.859,-7.21692,164.06400000000002,0.739104,0.203023,243.553,2.14372,2.31662,34.3609008789062,22.0009689331055,19.5246257781982,22.0,-1072940.0,2522.69,pp-ro,1,1,-1,-1
1570535279.1,2019-10-08,13:47:59.100,14.0,11.0,19.4400005340576,17.8,9.9,10.5,41.7,-19.0,18.9,19.1534,13.2969,11.9605,3.918,-24.1078,-13.2629,41.4852,-31.6561,18.2516,-0.449346,-0.0987026999999999,-1.20156,252.1,6.1,52.1701,4.427230000000001,8.6,1.10429,291.606,4.54941,181.056,-5.31683,162.964,0.732641,0.192333,243.653,2.01445,2.2322,33.2214965820312,22.0009689331055,18.045497894287102,22.0,-1072830.0,1999.69,pp-ro,1,1,-1,-1
1570535279.2,2019-10-08,13:47:59.200,14.0,12.0,19.2999992370605,18.4,8.3,8.7,43.2,-13.7,12.9,19.1534,13.2969,11.9605,3.918,-24.1078,-13.2629,41.4852,-31.6561,18.2516,-0.449346,-0.0987026999999999,-1.20156,252.1,6.1,52.1701,4.427230000000001,8.6,1.10373,285.194,4.54936,182.078,-3.79676,161.964,0.726891,0.18388,243.719,1.88386,2.13538,31.903259277343803,22.0009689331055,16.3092403411865,22.0,-1072500.0,3845.56,pp-ro,1,1,-1,-1
1570535279.3,2019-10-08,13:47:59.300,14.0,11.0,18.9300003051758,18.7,7.2,7.0,44.4,-8.7,8.2,19.1534,13.2969,11.9605,3.918,-24.1078,-13.2629,41.4852,-31.6561,18.2516,-0.449346,-0.0987026999999999,-1.20156,252.1,6.1,52.1701,4.427230000000001,8.6,1.07215,273.451,4.5493,183.042,-2.27668,161.164,0.7218829999999999,0.175524,243.892,1.7707700000000002,2.05399,30.225662231445305,22.0009689331055,14.8571376800537,22.0,-1072090.0,3784.03,pp-ro,1,1,-1,-1
1570535279.4,2019-10-08,13:47:59.400,14.0,13.0,18.7000007629395,19.5,5.9,5.9,45.2,-3.8,3.4,19.1534,13.2969,11.9605,3.918,-24.1078,-13.2629,41.4852,-31.6561,18.2516,-0.449346,-0.0987026999999999,-1.20156,252.1,6.1,52.1701,4.427230000000001,8.6,1.07049,271.134,4.54925,183.831,0.0034044,160.564,0.717942,0.163124,244.079,1.65977,1.9743,29.2599792480469,22.0009689331055,13.3822507858276,22.0,-1071870.0,2368.87,pp-ro,1,1,-1,-1
1570535279.5,2019-10-08,13:47:59.500,14.0,12.0,18.6499996185303,19.9,4.4,4.3,45.4,0.4,-1.1,20.9388,9.80882,8.115160000000001,9.35094,-16.9059,-20.4168,43.9768,-20.5839,6.21478,-0.410125,0.408489,-0.996899,252.1,6.1,52.1701,4.427230000000001,8.6,1.08545,285.478,4.54919,184.502,1.90348,159.964,0.714255,0.152881,244.199,1.5597,1.87649,26.637145996093803,22.0009689331055,11.5508317947388,22.0,-1071590.0,922.935,pp-ro,1,1,-1,-1
1570535279.6,2019-10-08,13:47:59.600,14.0,10.0,18.7900009155273,19.8,2.7,2.8,45.5,3.7,-5.6,20.9388,9.80882,8.115160000000001,9.35094,-16.9059,-20.4168,43.9768,-20.5839,6.21478,-0.410125,0.408489,-0.996899,252.1,6.1,52.1701,4.427230000000001,8.6,1.0993,286.332,4.54914,185.028,3.80354,159.563,0.711531,0.142671,244.357,1.4715,1.7779599999999998,24.009201049804695,22.0009689331055,9.6686315536499,22.0,-1071510.0,1507.46,pp-ro,1,1,-1,-1
1570535279.7,2019-10-08,13:47:59.700,14.0,13.0,18.5100002288818,19.2,2.1,1.3,45.8,6.7,-9.1,21.6624,8.09705,6.33588,9.19811,-13.0087,-6.690639999999999,44.1416,-14.3377,1.35735,0.0497212,0.221856,-1.39091,252.1,6.1,52.1701,4.427230000000001,8.6,1.09154,278.759,4.54908,185.437,6.08361,159.16299999999998,0.709037,0.130512,244.452,1.4001,1.7143099999999998,21.9024124145508,22.0009689331055,8.47413635253906,22.0,-1071110.0,4860.79,pp-ro,1,1,-1,-1
1570535279.8,2019-10-08,13:47:59.800,14.0,11.0,18.3099994659424,19.2,1.2,0.4,45.9,10.4,-12.6,22.0091,7.320010000000001,5.60038,4.7814,-18.7442,-17.7616,44.0354,-11.7439,-1.0507799999999998,0.1024539999999999,0.284469,-0.977972,252.1,6.1,52.1701,4.427230000000001,8.6,1.06384,268.306,4.54903,185.787,7.60366,158.963,0.707335,0.122431,244.63,1.31704,1.6538700000000002,20.3253021240234,22.0009689331055,7.32397747039795,22.0,-1070770.0,2707.27,pp-ro,1,1,-1,-1
1570535279.9,2019-10-08,13:47:59.900,14.0,13.0,17.7800006866455,18.9,0.5,-0.3,46.0,13.6,-16.8,22.0091,7.320010000000001,5.60038,4.7814,-18.7442,-17.7616,44.0354,-11.7439,-1.0507799999999998,0.1024539999999999,0.284469,-0.977972,252.1,6.1,52.1701,4.427230000000001,8.6,1.06218,265.67900000000003,4.54897,186.05,9.88373,158.863,0.706044,0.110344,244.846,1.23554,1.61037,18.2168121337891,22.0009689331055,6.48771667480469,22.0,-1070530.0,2584.22,pp-ro,1,1,-1,-1
1570535280.0,2019-10-08,13:48:00.000,14.0,16.0,17.479999542236303,18.4,0.1,-1.4,46.1,16.1,-20.4,22.3653,5.64856,3.85664,-1.07295,-25.8948,-12.9884,43.9217,-6.43512,-5.63462,-0.230212,0.0515982,-0.8044279999999999,252.1,6.1,52.1701,4.427230000000001,8.6,1.05608,263.377,4.54891,186.196,11.7838,158.763,0.705055,0.100271,244.977,1.16893,1.5572700000000002,15.5769424438477,22.0009689331055,5.45410394668579,22.0,-1070240.0,2768.8,pp-ro,1,1,-1,-1
1570535280.1,2019-10-08,13:48:00.100,14.0,15.0,17.379999160766598,18.1,-0.5,-2.0,46.5,18.9,-23.1,22.3653,5.64856,3.85664,-1.07295,-25.8948,-12.9884,43.9217,-6.43512,-5.63462,-0.230212,0.0515982,-0.8044279999999999,256.5,6.3,52.1701,4.427230000000001,8.6,1.05386,265.413,4.54886,186.283,13.6838,158.863,0.704792,0.0902058999999999,245.207,1.1091799999999998,1.51626,13.4701538085938,22.0009689331055,4.629737854003911,22.0,-1070010.0,2122.75,pp-ro,1,1,-1,-1
1570535280.2,2019-10-08,13:48:00.200,14.0,14.0,17.120000839233402,18.0,-1.5,-2.8,46.6,21.4,-26.0,21.8197,3.20079,1.2708,15.251,0.665948,-15.4009,43.9474,-0.520762,-11.4881,-0.0179765,0.269856,-1.09654,256.5,6.3,52.1701,4.427230000000001,8.6,1.0716,276.518,4.54881,186.283,15.2039,158.963,0.704792,0.0821397,245.361,1.05007,1.4521700000000002,11.3599624633789,22.0009689331055,3.33572149276733,22.0,-1069840.0,1599.75,pp-ro,1,1,-1,-1
1570535280.3,2019-10-08,13:48:00.300,14.0,12.0,17.020000457763697,17.4,-2.1,-3.4,46.6,22.2,-28.8,20.1165,-0.0224541,-2.56888,-6.0498400000000006,-13.2865,-13.9697,43.0823,13.0139,-24.0305,0.168967,0.0588945,-0.787991,256.5,6.3,52.1701,4.427230000000001,8.6,1.09819,289.041,4.548769999999999,186.196,17.4839,159.16299999999998,0.705117,0.0699946,245.576,1.01604,1.40732,9.29234313964844,22.0009689331055,2.40594458580017,22.0,-1069580.0,2215.04,pp-ro,1,1,-1,-1
1570535280.4,2019-10-08,13:48:00.400,14.0,9.0,17.020000457763697,17.3,-2.6,-4.2,46.8,23.3,-30.4,19.962,-0.383978,-3.02517,-4.66798,-8.84454,-4.03036,43.0654,15.0765,-25.3681,0.132802,0.335432,-0.71973,256.5,6.3,52.1701,4.427230000000001,8.6,1.10373,291.555,4.548719999999999,185.991,19.004,159.463,0.706192,0.0618424,245.728,0.98957,1.36034,7.3677978515625,22.0009689331055,1.39957785606384,22.0,-1069450.0,2553.45,pp-ro,1,1,-1,-1
1570535280.5,2019-10-08,13:48:00.500,14.0,12.0,17.2800006866455,17.1,-3.5,-4.6,47.6,24.4,-32.0,18.6061,-3.03755,-5.27102,-1.58801,-6.7073100000000005,-3.98421,44.0976,23.0458,-32.3189,0.328306,0.0652284,-0.34833,256.5,6.3,52.1701,4.427230000000001,8.6,1.11149,299.686,4.54868,185.787,20.904,159.763,0.707122,0.0516660999999999,245.923,0.964569,1.31672,5.63399505615234,22.0009689331055,0.465567260980606,22.0,-1069190.0,2614.98,pp-ro,1,1,-1,-1
1570535280.6,2019-10-08,13:48:00.600,14.0,11.0,17.6800003051758,17.1,-3.8,-4.6,47.7,24.5,-33.6,18.6061,-3.03755,-5.27102,-1.58801,-6.7073100000000005,-3.98421,44.0976,23.0458,-32.3189,0.328306,0.0652284,-0.34833,256.5,6.3,52.1701,4.42724,8.3,1.13088,311.651,4.54863,185.436,22.424,160.16299999999998,0.708811,0.0434143,246.052,0.950258,1.31219,4.81648254394531,22.0009689331055,0.272068053483963,22.0,-1069030.0,1353.64,pp-ro,1,1,-1,-1
1570535280.7,2019-10-08,13:48:00.700,14.0,10.0,18.0699996948242,16.8,-4.3,-5.2,48.2,24.5,-34.4,18.1013,-4.43781,-5.69886,-4.76641,-1.84885,-1.33597,44.7135,24.7037,-35.1236,0.413389,-0.0996173,0.0603853,256.5,6.3,52.1701,4.42724,8.3,1.14529,314.188,4.54859,185.056,24.7041,160.66299999999998,0.710588,0.0310899999999999,246.31,0.949132,1.27374,3.37903594970703,22.0009689331055,-0.610982835292816,22.0,-1068550.0,4430.09,pp-ro,1,1,-1,-1
1570535280.8,2019-10-08,13:48:00.800,14.0,13.0,18.3600006103516,16.8,-4.7,-5.5,49.2,24.5,-35.2,18.0104,-4.525469999999999,-5.88405,-1.46092,-3.69345,-4.9002300000000005,44.9567,24.9562,-35.5008,0.149483,0.0774225,-0.0705591,256.5,6.3,52.1701,4.42724,8.3,1.14141,318.753,4.54854,184.618,26.2241,161.16299999999998,0.712725,0.0227215999999999,246.465,0.945319,1.25455,2.07102203369141,22.0009689331055,-1.12971246242523,22.0,-1068270.0,2030.46,pp-ro,1,1,-1,-1
1570535280.9,2019-10-08,13:48:00.900,14.0,11.0,18.75,17.0,-5.2,-5.5,49.5,24.2,-36.2,18.0234,-4.98636,-6.09463,2.0598400000000003,-5.73482,-3.14379,45.7599,25.8007,-35.424,0.231679,0.00222325,-0.0939258999999999,256.5,6.3,52.1701,4.42724,8.3,1.17133,333.13800000000003,4.5485,184.151,28.1241,161.66299999999998,0.71475,0.0123376,246.652,0.94404,1.2502,0.7085113525390621,22.0009689331055,-1.3507411479949998,22.0,-1068060.0,2676.51,pp-ro,1,1,-1,-1
1570535281.0,2019-10-08,13:48:01.000,14.0,12.0,19.25,17.1,-5.2,-5.6,49.7,23.8,-36.9,18.2633,-5.63818,-5.92507,-10.8503,0.63576,-3.12662,46.229,25.1548,-37.1275,-0.22853,-0.170457,0.0890673,256.5,6.3,52.1701,4.42724,8.3,1.17853,341.017,4.54845,183.654,29.6441,162.16299999999998,0.716956,0.0039021999999999,246.788,0.946086,1.2541,-0.1775054931640619,22.0009689331055,-1.42021095752716,22.0,-1067920.0,2707.28,pp-ro,1,1,-1,-1
1570535281.1,2019-10-08,13:48:01.100,14.0,11.0,19.840000152587898,17.3,-5.7,-5.5,50.3,23.2,-37.1,18.2936,-5.82147,-5.92402,-2.63358,-6.573110000000001,-2.32065,46.5942,24.6075,-37.3678,0.150308,-0.0155715,0.0931656999999999,254.3,6.4,52.1701,4.42724,8.3,1.2151,359.293,4.54849,183.099,31.5442,162.66299999999998,0.7191069999999999,-0.00670214,246.94,0.957838,1.25415,-0.8687515258789059,22.0009689331055,-1.57051372528076,22.0,-1067770.0,892.17,pp-ro,1,1,-1,-1
1570535281.2,2019-10-08,13:48:01.200,14.0,10.0,20.2800006866455,17.5,-5.9,-5.3,51.1,22.3,-37.3,18.2936,-5.82147,-5.92402,-2.63358,-6.573110000000001,-2.32065,46.5942,24.6075,-37.3678,0.150308,-0.0155715,0.0931656999999999,254.3,6.4,52.1701,4.42724,8.3,1.24004,369.097,4.54849,182.486,33.0642,163.16299999999998,0.721536,-0.0153437,247.015,0.971789,1.26576,-1.30909729003906,22.0009689331055,-1.51109480857849,22.0,-1067200.0,4337.79,pp-ro,1,1,-1,-1
1570535281.3,2019-10-08,13:48:01.300,14.0,10.0,20.7099990844727,17.7,-5.8,-5.1,51.5,21.8,-37.3,18.6899,-6.307119999999999,-5.60941,0.370654,-2.44925,0.8012,47.1949,24.1009,-37.1495,0.1106119999999999,0.0390428,0.224203,254.3,6.4,52.1701,4.42724,8.3,1.23671,365.286,4.5484800000000005,181.902,35.3442,163.563,0.7231609999999999,-0.0279999999999999,247.164,0.986293,1.28866,-1.5292739868164098,22.0009689331055,-1.18175959587097,22.0,-1066970.0,4368.56,pp-ro,1,1,-1,-1
1570535281.4,2019-10-08,13:48:01.400,14.0,10.0,21.0799999237061,17.7,-5.7,-4.7,52.1,21.9,-36.8,18.8758,-6.29522,-5.08426,5.3699,3.26353,-2.7384,48.0922,23.011,-37.2536,0.0757706,-0.0659781,-0.0338939,254.3,6.4,52.1701,4.42724,8.3,1.22341,353.958,4.5484800000000005,181.317,36.8642,163.963,0.725114,-0.0366719,247.222,0.996944,1.31246,-1.4866027832031203,22.0009689331055,-0.856613993644714,22.0,-1066450.0,5722.19,pp-ro,1,1,-1,-1
1570535281.5,2019-10-08,13:48:01.500,14.0,9.0,21.2900009155273,17.9,-5.8,-4.6,52.7,21.2,-36.5,18.8758,-6.29522,-5.08426,5.3699,3.26353,-2.7384,48.0922,23.011,-37.2536,0.0757706,-0.0659781,-0.0338939,254.3,6.4,52.1701,4.42724,8.3,1.19626,349.871,4.54851,180.704,38.7643,164.363,0.726893,-0.0474346,247.329,1.01609,1.32424,-1.38249206542969,22.0009689331055,-0.767449498176575,22.0,-1065990.0,3876.33,pp-ro,1,1,-1,-1
1570535281.6,2019-10-08,13:48:01.600,14.0,9.0,21.3700008392334,18.0,-6.1,-4.6,52.5,20.1,-36.4,19.0212,-6.3243,-4.47425,-2.09114,-3.25608,1.42499,48.6754,21.4275,-37.279,0.210836,-0.1815109999999999,0.14883,254.3,6.4,52.1701,4.427230000000001,8.0,1.21898,356.649,4.54851,180.06099999999998,40.2843,164.863,0.729215,-0.0562014,247.436,1.03632,1.32315,-1.24253082275391,22.0009689331055,-0.9798818230628972,22.0,-1065740.0,2799.57,pp-ro,1,1,-1,-1
1570535281.7,2019-10-08,13:48:01.700,14.0,11.0,21.4200000762939,18.0,-6.1,-4.5,52.7,19.7,-35.8,19.0623,-6.4359,-4.40329,-2.40193,-0.602101,1.8861,48.7857,20.7144,-36.8953,0.0934543,-0.0113095,0.511045,254.3,6.4,52.1701,4.427230000000001,8.0,1.22341,366.28,4.5485,179.769,41.0443,165.063,0.730133,-0.0605775999999999,247.482,1.05125,1.32978,-0.875579833984375,22.0009689331055,-0.926440060138702,22.0,-1065370.0,3384.09,pp-ro,1,1,-1,-1
1570535281.8,2019-10-08,13:48:01.800,14.0,11.0,21.4200000762939,18.2,-6.3,-4.3,53.0,18.9,-34.6,19.1463,-6.62845,-4.29737,1.79825,-1.7563400000000002,-1.3076299999999998,48.857,19.6807,-36.6059,0.194102,-0.0575099,0.376607,254.3,6.4,52.1701,4.427230000000001,8.0,1.26275,382.286,4.5485,179.09799999999998,43.3243,165.463,0.731692,-0.0734581,247.651,1.08394,1.34363,-0.7817001342773441,22.0009689331055,-0.797827303409576,22.0,-1064970.0,3660.97,pp-ro,1,1,-1,-1
1570535281.9,2019-10-08,13:48:01.900,14.0,11.0,21.4599990844727,18.7,-6.6,-4.1,53.2,18.2,-34.1,19.7038,-7.13133,-3.86825,5.06876,-1.68822,-0.00572678,49.2898,19.4041,-34.6084,-0.146313,0.0334419,0.125625,254.3,6.4,52.1701,4.427230000000001,8.0,1.26275,381.383,4.54851,178.396,44.8444,165.763,0.733448,-0.0823912,247.616,1.1044200000000002,1.35739,-0.9028854370117192,22.0009689331055,-0.685782432556152,22.0,-1064750.0,4337.79,pp-ro,1,1,-1,-1
1570535282.0,2019-10-08,13:48:02.000,14.0,11.0,21.4200000762939,18.9,-6.8,-3.9,53.1,17.4,-34.2,20.0663,-7.41569,-3.65114,-1.1353,1.88899,-1.40491,49.2659,18.5144,-34.6941,-0.183704,-0.124289,0.08398,254.3,6.4,52.1701,4.427230000000001,8.0,1.2561,375.131,4.54851,177.345,47.8844,166.16299999999998,0.735325,-0.0998429,247.698,1.1248200000000002,1.37401,-0.8311996459960941,22.0009689331055,-0.552342593669891,22.0,-1064250.0,4983.85,pp-ro,1,1,-1,-1
1570535282.1,2019-10-08,13:48:02.100,14.0,10.0,21.340000152587898,18.8,-6.8,-3.6,53.2,16.8,-34.4,20.0545,-7.435060000000001,-3.54156,-2.4599,-0.128413,0.541053,49.2497,17.9739,-34.9072,0.0528832,-0.215331,0.098095,255.8,6.7,52.1701,4.427230000000001,8.0,1.24447,377.802,4.54852,176.99400000000003,49.0244,166.463,0.736324,-0.106338,247.871,1.13419,1.38735,-0.6912460327148441,22.0009689331055,-0.389853984117508,22.0,-1063770.0,4153.21,pp-ro,1,1,-1,-1
1570535282.2,2019-10-08,13:48:02.200,14.0,11.0,21.2999992370605,18.8,-6.7,-3.0,53.1,16.6,-34.8,20.0545,-7.435060000000001,-3.54156,-2.4599,-0.128413,0.541053,49.2497,17.9739,-34.9072,0.0528832,-0.215331,0.098095,255.8,6.7,52.1701,4.427230000000001,8.0,1.2594299999999998,373.333,4.54853,176.293,50.9244,166.763,0.737647,-0.117346,247.957,1.13934,1.41934,-0.547874450683594,22.0009689331055,0.101587757468224,22.0,-1063490.0,3507.15,pp-ro,1,1,-1,-1
1570535282.3,2019-10-08,13:48:02.300,14.0,11.0,21.2199993133545,18.5,-6.4,-2.7,52.8,15.9,-35.4,19.856,-7.441110000000001,-2.53603,-4.09736,6.434130000000001,1.78207,49.145,16.038,-36.2609,0.142646,-0.166929,0.000972413,255.8,6.7,52.1701,4.427230000000001,8.0,1.22064,350.70300000000003,4.54854,175.592,52.8245,166.963,0.73861,-0.128371,247.991,1.14825,1.44194,-0.3840255737304689,22.0009689331055,0.43448543548584,22.0,-1062710.0,8460.23,pp-ro,1,1,-1,-1
1570535282.4,2019-10-08,13:48:02.400,14.0,10.0,21.1800003051758,18.3,-6.2,-2.5,52.8,15.4,-35.6,19.7754,-7.330010000000001,-2.35253,5.43771,1.37639,4.48527,49.2473,15.5334,-36.6952,0.288574,-0.154998,0.0396385999999999,255.8,6.7,52.1701,4.427230000000001,8.0,1.18684,339.153,4.54853,174.921,54.7245,167.263,0.739734,-0.13935,248.131,1.1594799999999998,1.45984,0.0357666015625,22.0009689331055,0.652640342712402,22.0,-1062120.0,2830.33,pp-ro,1,1,-1,-1
1570535282.5,2019-10-08,13:48:02.500,14.0,12.0,21.1000003814697,18.1,-6.3,-2.2,52.6,15.3,-35.1,19.5689,-7.0666,-2.12643,0.0376618,1.163,1.58992,48.9869,14.5609,-37.4557,-0.0935989,-0.110757,0.0677998,255.8,6.7,52.1701,4.427230000000001,8.0,1.19128,340.48800000000006,4.54856,174.24900000000002,56.6245,167.463,0.7405,-0.150367,248.219,1.1742,1.47236,0.229927062988281,22.0009689331055,0.796184062957764,22.0,-1061940.0,3568.68,pp-ro,1,1,-1,-1
1570535282.6,2019-10-08,13:48:02.600,14.0,11.0,21.0100002288818,18.0,-6.3,-2.0,52.8,14.6,-35.5,19.3295,-7.016719999999999,-2.06649,1.18702,-6.37946,1.90349,49.1296,14.2023,-37.4273,-0.00126497,0.041335,0.0708976,255.8,6.7,52.1701,4.427230000000001,7.7,1.18684,338.847,4.54857,173.577,58.1445,167.66299999999998,0.741534,-0.159407,248.235,1.1842,1.48459,0.6046142578125,22.0009689331055,0.904074788093567,22.0,-1061370.0,3907.09,pp-ro,1,1,-1,-1
1570535282.7,2019-10-08,13:48:02.700,14.0,12.0,20.840000152587898,17.9,-6.3,-1.9,52.9,14.1,-35.1,19.1699,-7.038189999999999,-1.96579,-3.44244,-0.139435,-1.05644,49.1384,14.2783,-37.3472,0.21428,0.195551,0.0603771999999999,255.8,6.7,52.1701,4.427230000000001,7.7,1.18906,341.636,4.54857,172.905,60.4246,167.863,0.741848,-0.1723859999999999,248.445,1.20403,1.49563,0.7698211669921879,22.0009689331055,1.05971992015839,22.0,-1061180.0,3476.39,pp-ro,1,1,-1,-1
1570535282.8,2019-10-08,13:48:02.800,14.0,12.0,20.6299991607666,17.8,-6.5,-1.8,52.9,14.1,-35.0,18.8754,-7.20091,-1.46949,-10.2481,-1.85529,-1.47461,49.4625,13.8788,-36.653,-0.10718,0.104076,0.2251639999999999,255.8,6.7,52.1701,4.427230000000001,7.7,1.19239,339.271,4.54858,172.262,61.9446,168.16299999999998,0.743004,-0.181392,248.576,1.21134,1.49764,0.8907470703125,22.0009689331055,0.937519967556,22.0,-1060860.0,3107.21,pp-ro,1,1,-1,-1
1570535282.9,2019-10-08,13:48:02.900,14.0,12.0,20.409999847412102,17.8,-6.7,-1.7,52.6,13.3,-36.0,18.8754,-7.20091,-1.46949,-10.2481,-1.85529,-1.47461,49.4625,13.8788,-36.653,-0.10718,0.104076,0.2251639999999999,255.8,6.7,52.1701,4.427230000000001,7.7,1.17687,327.75300000000004,4.54859,171.56099999999998,63.8446,168.263,0.743315,-0.192464,248.64,1.21688,1.50256,1.03721618652344,22.0009689331055,-35.0,22.0,-1060310.0,6060.6,pp-ro,1,1,-1,-1
1570535283.0,2019-10-08,13:48:03.000,14.0,12.0,20.2000007629395,17.7,-6.8,-1.6,52.2,12.1,-37.1,18.8335,-7.49863,-1.31168,3.33076,-2.43252,0.431241,49.3833,11.4494,-38.4969,0.1218549999999999,-0.139518,0.233096,255.8,6.7,52.1701,4.427230000000001,7.7,1.17465,338.65,4.5486,170.86,65.3646,168.463,0.7442310000000001,-0.201598,248.687,1.22475,1.50785,0.9605712890625,22.0009689331055,-35.0,22.0,-1059930.0,1199.82,pp-ro,1,1,-1,-1
1570535283.1,2019-10-08,13:48:03.100,14.0,12.0,19.8899993896484,17.4,-6.6,-1.3,52.2,11.6,-37.7,18.4096,-7.46585,-0.980062,-3.5671,1.65977,5.48804,49.5935,10.6068,-39.1804,0.05212,-0.120389,0.0136450999999999,253.1,6.3,52.1701,4.427230000000001,7.7,1.19737,344.175,4.54857,170.18900000000002,67.2647,168.662,0.7446520000000001,-0.212569,248.86900000000003,1.23129,1.52884,0.4905014038085939,22.0009689331055,-35.0,22.0,-1059860.0,1415.17,pp-ro,1,1,-1,-1
1570535283.2,2019-10-08,13:48:03.200,14.0,12.0,19.7600002288818,17.4,-6.6,-1.0,51.9,11.0,-38.0,18.3396,-7.40476,-0.736344,-3.74662,0.169349,0.862973,49.7718,10.6123,-39.0928,-0.0473952,0.0137894,0.189371,253.1,6.3,52.1701,4.427230000000001,7.7,1.1990299999999998,339.219,4.54852,169.488,68.7847,168.762,0.7451810000000001,-0.221683,248.874,1.2414,1.54689,-0.33282470703125,22.0009689331055,-35.0,22.0,-1059410.0,5199.2,pp-ro,1,1,-1,-1
1570535283.3,2019-10-08,13:48:03.300,14.0,12.0,19.6200008392334,17.5,-6.5,-0.7,52.2,10.4,-38.2,18.3396,-7.40476,-0.736344,-3.74662,0.169349,0.862973,49.7718,10.6123,-39.0928,-0.0473952,0.0137894,0.189371,253.1,6.3,52.1701,4.427230000000001,7.7,1.15637,323.821,4.54847,168.81599999999997,71.0647,168.862,0.744795,-0.23453,249.125,1.25541,1.57224,-1.5258560180664098,22.0009689331055,-35.0,22.0,-1058710.0,3261.04,pp-ro,1,1,-1,-1
1570535283.4,2019-10-08,13:48:03.400,14.0,11.0,19.5400009155273,17.5,-6.3,-0.3,52.6,9.5,-38.3,18.3396,-7.40476,-0.736344,-3.74662,0.169349,0.862973,49.7718,10.6123,-39.0928,-0.0473952,0.0137894,0.189371,253.1,6.3,52.1701,4.427230000000001,7.7,1.1608,323.91700000000003,4.548430000000001,168.115,72.5847,168.862,0.744927,-0.2436429999999999,249.09,1.27173,1.60101,-3.06878662109375,22.0009689331055,-35.0,22.0,-1058580.0,2584.22,pp-ro,1,1,-1,-1
1570535283.5,2019-10-08,13:48:03.500,14.0,12.0,19.3500003814697,17.8,-6.0,0.3,53.2,9.1,-38.1,18.3636,-7.24746,-0.452214,3.16092,3.3096400000000004,11.2121,49.9949,10.075,-39.8535,-0.00026806,-0.1093109999999999,-0.0871696,253.1,6.3,52.1701,4.427230000000001,7.7,1.15526,315.03700000000003,4.54838,167.472,74.4848,168.96200000000002,0.744749,-0.254482,249.285,1.28672,1.64592,-4.96672058105469,22.0009689331055,-35.0,22.0,-1058200.0,4583.91,pp-ro,1,1,-1,-1
1570535283.6,2019-10-08,13:48:03.600,14.0,11.0,19.2600002288818,18.2,-5.5,1.1,54.0,7.4,-38.0,18.4611,-6.50183,0.98842,-4.07179,2.75788,3.9283,51.4816,9.3231,-38.6043,0.239639,0.163161,0.336812,253.1,6.3,52.1701,4.427230000000001,7.4,1.11758,297.216,4.5483400000000005,166.859,76.0048,168.862,0.744278,-0.263371,249.265,1.31547,1.70423,-7.08312225341797,22.0009689331055,-35.0,22.0,-1057540.0,4030.15,pp-ro,1,1,-1,-1
1570535283.7,2019-10-08,13:48:03.700,14.0,11.0,19.3099994659424,18.4,-4.9,2.0,54.5,5.4,-38.0,18.6742,-5.94134,1.90857,0.977753,8.576830000000001,11.17,52.36,8.337660000000001,-37.7802,0.166567,0.0620135999999999,0.228861,253.1,6.3,52.1701,4.427230000000001,7.4,1.10761,295.296,4.54829,166.304,78.2848,168.662,0.742454,-0.275867,249.46400000000003,1.34955,1.76961,-9.18928527832031,22.0009689331055,-35.0,22.0,-1057360.0,3445.62,pp-ro,1,1,-1,-1
1570535283.8,2019-10-08,13:48:03.800,14.0,11.0,19.3099994659424,18.7,-4.6,2.8,54.7,2.4,-37.7,18.6742,-5.94134,1.90857,0.977753,8.576830000000001,11.17,52.36,8.337660000000001,-37.7802,0.166567,0.0620135999999999,0.228861,253.1,6.3,52.1701,4.427230000000001,7.4,1.11537,294.225,4.54825,165.778,79.8048,168.46200000000002,0.741379,-0.284513,249.461,1.3974799999999998,1.8174,-11.3090972900391,22.0009689331055,-35.0,22.0,-1056990.0,3076.45,pp-ro,1,1,-1,-1
1570535283.9,2019-10-08,13:48:03.900,14.0,10.0,19.4500007629395,18.5,-4.0,3.9,56.1,-0.4,-34.6,18.3406,-4.18653,4.19171,2.60685,7.14647,9.93146,55.7577,3.07344,-33.4293,0.39399,0.214558,0.571988,253.1,6.3,52.1701,4.427230000000001,7.4,1.10983,291.218,4.5482,165.28099999999998,81.7049,168.062,0.739149,-0.2949219999999999,249.477,1.47806,1.8861900000000005,-13.4152603149414,22.0009689331055,-35.0,22.0,-1056790.0,3753.27,pp-ro,1,1,-1,-1
1570535284.0,2019-10-08,13:48:04.000,14.0,12.0,19.4899997711182,19.1,-3.2,4.6,57.2,-3.4,-31.8,18.3535,-3.8072,4.66855,0.793898,6.34262,8.23436,56.2196,1.8501,-31.5825,0.0619626,0.324553,0.745586,253.1,6.3,52.1701,4.427230000000001,7.4,1.08711,275.768,4.54816,164.90200000000002,83.6049,167.662,0.736586,-0.305,249.586,1.5572,1.94659,-15.5316619873047,22.0009689331055,-35.0,22.0,-1056440.0,3630.21,pp-ro,1,1,-1,-1
1570535284.1,2019-10-08,13:48:04.100,14.0,12.0,19.5400009155273,19.5,-2.4,6.0,58.4,-7.2,-29.6,18.8084,-2.99926,5.52676,2.02856,9.00085,8.41511,56.9054,-1.40394,-28.5011,-0.0303745999999999,-0.0109169,0.871017,256.4,6.5,52.1701,4.427230000000001,7.4,1.0583,264.617,4.54816,164.58,85.5049,167.162,0.733537,-0.314927,249.682,1.6395,2.02767,-17.6292877197266,22.0009689331055,-35.0,22.0,-1056010.0,4153.21,pp-ro,1,1,-1,-1
1570535284.2,2019-10-08,13:48:04.200,14.0,12.0,19.5400009155273,19.3,-1.4,7.6,59.2,-13.0,-28.0,18.8084,-2.99926,5.52676,2.02856,9.00085,8.41511,56.9054,-1.40394,-28.5011,-0.0303745999999999,-0.0109169,0.871017,256.4,6.5,52.1701,4.427230000000001,7.4,1.05885,276.948,4.54818,164.317,87.405,166.562,0.730006,-0.324654,249.765,1.74128,2.12217,-19.7456893920898,22.0009689331055,-35.0,22.0,-1055870.0,738.3480000000001,pp-ro,1,1,-1,-1
1570535284.3,2019-10-08,13:48:04.300,14.0,12.0,19.5400009155273,19.1,0.0,9.1,60.2,-18.4,-24.8,18.6913,-1.55153,7.75595,-4.30114,11.9082,14.729,58.5433,-8.19195,-23.3354,0.226469,0.0527207,1.03766,256.4,6.5,52.1701,4.427230000000001,7.4,1.10872,291.617,4.5482,164.171,89.685,165.762,0.725078,-0.335798,249.945,1.85687,2.22611,-21.868919372558604,22.0009689331055,-35.0,22.0,-1055860.0,430.703,pp-ro,1,1,-1,-1
1570535284.4,2019-10-08,13:48:04.400,14.0,13.0,19.5400009155273,19.0,1.6,10.7,61.7,-22.7,-21.3,18.4228,-0.884092,8.38635,-2.1911400000000003,12.7533,14.3092,59.0849,-10.5036,-21.4618,0.396246,0.201524,0.916844,256.4,6.5,52.1701,4.427230000000001,7.4,1.10096,281.257,4.54821,164.2,91.205,164.862,0.720368,-0.342842,249.919,1.95737,2.33086,-23.445983886718803,22.0009689331055,-35.0,22.0,-1055440.0,5260.73,pp-ro,1,1,-1,-1
1570535284.5,2019-10-08,13:48:04.500,14.0,11.0,19.4400005340576,18.7,3.1,12.6,61.7,-27.2,-16.8,18.4228,-0.884092,8.38635,-2.1911400000000003,12.7533,14.3092,59.0849,-10.5036,-21.4618,0.396246,0.201524,0.916844,256.4,6.5,52.1701,4.427230000000001,7.4,1.06218,274.702,4.54823,164.405,93.1051,163.762,0.7141390000000001,-0.351125,250.031,2.07058,2.43646,-25.5640869140625,22.0009689331055,-35.0,22.0,-1055050.0,2830.33,pp-ro,1,1,-1,-1
1570535284.6,2019-10-08,13:48:04.600,14.0,13.0,19.4899997711182,18.0,4.7,14.3,60.7,-32.2,-11.7,17.5812,2.9286,12.4427,-6.25812,12.4652,17.4577,59.1687,-22.3018,-10.4978,0.159393,0.216519,1.18167,256.4,6.5,52.1701,4.427230000000001,7.2,1.08988,283.91200000000003,4.54825,164.755,95.0051,162.562,0.70725,-0.358927,250.193,2.1939,2.54153,-27.6702499389648,22.0009689331055,-35.0,22.0,-1055000.0,553.761,pp-ro,1,1,-1,-1
1570535284.7,2019-10-08,13:48:04.700,14.0,14.0,19.5300006866455,17.6,6.6,15.9,60.4,-38.8,-7.1,17.1866,3.64678,13.219,-10.2993,17.0767,10.0625,58.435,-24.7762,-7.412030000000001,0.346165,0.301154,1.33089,256.4,6.5,52.1701,4.427230000000001,7.2,1.0921,277.973,4.54826,165.25099999999998,96.9052,161.262,0.699712,-0.366233,250.408,2.3289,2.63934,-29.749099731445305,22.0009689331055,-35.0,22.0,-1054640.0,4922.32,pp-ro,1,1,-1,-1
