time,date,time_of_day,airspeed_temperature,airspeed_angle_of_attack,airspeed_apparent_windspeed,kite_0_vx,kite_0_vy,kite_0_vz,kite_0_roll,kite_0_pitch,kite_0_yaw,kite_1_vx,kite_1_vy,kite_1_vz,kite_1_ax,kite_1_ay,kite_1_az,kite_1_roll,kite_1_pitch,kite_1_yaw,kite_1_roll_rate,kite_1_pitch_rate,kite_1_yaw_rate,ground_upwind_direction,ground_wind_velocity,ground_pos_latitude,ground_pos_longitude,ground_pos_altitude,ground_tether_reelout_speed,ground_tether_force,est_upwind_direction,kite_pos_east,kite_pos_north,kite_height,kite_elevation,kite_azimuth,kite_distance,kite_heading,kite_course,kite_actual_steering,kite_actual_depower,kite_set_steering,kite_set_depower,ground_mech_energy,ground_mech_power,flight_phase,flight_phase_index,phase,pattern,pattern_section
1570534170.9,2019-10-08,13:29:30.900,14.0,8.0,15.0600004196167,13.3,-0.2,3.1,21.9,-5.7,-44.3,12.1169,-0.166867,3.45751,5.22231,11.6808,4.029669999999999,25.1449,8.99672,-46.3388,0.175066,0.252304,1.0843200000000002,257.4,5.0,52.1701,4.42725,-0.5,-2.82028,94.9364,4.58517,52.5737,-2.2798,232.918,1.3486,0.170525,238.788,0.782421,1.56524,-34.970123291015604,22.0009689331055,-35.0,22.0,-911506.0,-7291.18,pp-riro,4,0,-1,-1
1570534171.0,2019-10-08,13:29:31.000,14.0,9.0,14.7700004577637,13.8,0.8,3.5,23.4,-7.2,-39.5,12.7515,0.787559,3.85212,4.97534,11.5686,5.1335,26.8248,7.46788,-40.6615,0.204982,0.225991,1.00466,265.8,5.0,52.1701,4.42725,-0.5,-2.83912,94.3688,4.58512,52.5445,-0.759749,232.718,1.34871,0.141715,238.577,0.90122,1.66871,-34.9871978759766,21.9983940124512,-35.0,22.0,-911918.0,-7752.65,pp-riro,4,0,-1,-1
1570534171.1,2019-10-08,13:29:31.100,14.0,9.0,14.5299997329712,14.4,1.9,3.8,25.1,-8.9,-34.2,13.0137,1.38688,4.0257,3.65444,10.0634,5.34914,27.5922,6.67357,-37.924,0.08331,0.233878,0.91853,265.8,5.0,52.1701,4.42725,-0.5,-2.88234,91.1559,4.58509,52.6029,0.760306,232.418,1.34819,0.112831,238.298,1.02962,1.76957,-34.9871978759766,21.997879028320305,-35.0,22.0,-913481.0,-12582.7,pp-riro,4,0,-1,-1
1570534171.2,2019-10-08,13:29:31.200,14.0,9.0,14.3999996185303,14.8,3.1,4.1,26.1,-10.4,-29.2,13.8574,3.5482,4.7455300000000005,1.03716,10.4872,4.56441,30.1797,3.10897,-26.6325,0.0748654,0.2010009999999999,0.967705,265.8,5.0,52.1701,4.42725,-0.5,-2.90727,89.5525,4.58507,52.8073,2.28036,232.218,1.34699,0.0841544,238.157,1.15179,1.87203,-34.9871978759766,21.9983940124512,-35.0,22.0,-914114.0,-13074.9,pp-riro,4,0,-1,-1
1570534171.3,2019-10-08,13:29:31.300,14.0,8.0,14.3999996185303,15.1,4.2,4.5,27.0,-12.0,-24.1,14.1451,4.62631,5.00331,1.04439,10.2427,4.04097,31.0319,1.107,-21.399,0.261716,0.249737,0.955377,265.8,5.0,52.1701,4.42725,-0.5,-2.9588,88.7352,4.58504,53.0994,3.42041,231.918,1.34527,0.0630106,237.944,1.26833,1.95816,-34.9957275390625,21.997879028320305,-35.0,22.0,-915540.0,-13382.6,pp-riro,4,0,-1,-1
1570534171.4,2019-10-08,13:29:31.400,14.0,8.0,14.3999996185303,15.4,5.3,4.8,27.7,-14.2,-19.1,14.1451,4.62631,5.00331,1.04439,10.2427,4.04097,31.0319,1.107,-21.399,0.261716,0.249737,0.955377,265.8,5.0,52.1701,4.42725,-0.5,-3.00756,92.7861,4.58501,53.5082,4.94047,231.518,1.34273,0.0352933,237.672,1.39193,2.04418,-34.9974365234375,21.997879028320305,-35.0,22.0,-917094.0,-14274.7,pp-riro,4,0,-1,-1
1570534171.5,2019-10-08,13:29:31.500,14.0,8.0,14.3999996185303,15.7,6.5,5.2,28.1,-16.2,-13.8,14.1451,4.62631,5.00331,1.04439,10.2427,4.04097,31.0319,1.107,-21.399,0.261716,0.249737,0.955377,265.8,5.0,52.1701,4.42725,-0.5,-3.06352,92.9122,4.58499,54.034,6.84054,231.118,1.33936,0.00146226,237.449,1.52555,2.13735,-34.9974365234375,21.9983940124512,-35.0,22.0,-918617.0,-9967.69,pp-riro,4,0,-1,-1
1570534171.6,2019-10-08,13:29:31.600,14.0,8.0,14.3400001525879,15.7,7.7,5.6,28.2,-18.3,-8.5,14.4662,6.26209,5.50554,0.360828,10.3293,2.18003,31.72,-1.96339,-12.8906,0.0430065,0.130239,0.99911,265.8,5.0,52.1701,4.42725,-0.5,-3.07183,89.8166,4.5849400000000005,54.6765,7.980589999999999,230.718,1.33573,-0.0174981,237.243,1.64437,2.2188,-35.0042724609375,21.997879028320305,-35.0,22.0,-919285.0,-12828.8,pp-riro,4,0,-1,-1
1570534171.7,2019-10-08,13:29:31.700,14.0,9.0,14.3400001525879,15.6,9.0,6.0,28.3,-20.4,-3.0,14.4663,8.54364,6.18536,-3.05018,13.0254,2.99688,31.6485,-6.02946,-1.22236,-0.01266,0.206368,0.991361,265.8,5.0,52.1701,4.42725,-0.5,-3.12502,87.2475,4.58493,55.4359,9.88066,230.218,1.33091,-0.0489413,237.005,1.7779200000000002,2.31513,-35.0059814453125,21.9983940124512,-35.0,22.0,-920769.0,-17043.5,pp-riro,4,0,-1,-1
1570534171.8,2019-10-08,13:29:31.800,14.0,8.0,14.3999996185303,15.4,10.3,6.3,28.0,-21.9,2.6,14.4178,9.11254,6.36091,-1.4723700000000002,12.2904,3.43161,31.4267,-7.07477,1.62299,0.0719062999999999,0.237006,0.996929,265.8,5.0,52.1701,4.42725,-0.5,-3.1832,92.951,4.58491,56.3705,11.4007,229.618,1.32538,-0.0720855,236.711,1.9013400000000005,2.40125,-35.0059814453125,21.9983940124512,-35.0,22.0,-922304.0,-13628.7,pp-riro,4,0,-1,-1
1570534171.9,2019-10-08,13:29:31.900,14.0,9.0,14.5799999237061,15.2,11.6,6.9,27.8,-23.4,8.1,14.2038,10.9352,6.95277,-1.08752,11.8255,5.7314,30.8159,-9.48771,10.1889,0.0555194,0.303764,0.98204,265.8,5.0,52.1701,4.42725,-0.5,-3.21312,103.052,4.58488,57.3635,13.3008,229.118,1.31923,-0.100347,236.564,2.02664,2.49027,-35.0059814453125,21.997879028320305,-35.0,22.0,-923811.0,-8552.53,pp-riro,4,0,-1,-1
1570534172.0,2019-10-08,13:29:32.000,14.0,9.0,14.6999998092651,14.9,12.8,7.3,27.1,-24.8,13.6,14.2038,10.9352,6.95277,-1.08752,11.8255,5.7314,30.8159,-9.48771,10.1889,0.0555194,0.303764,0.98204,266.7,5.2,52.1701,4.42725,-0.5,-3.19872,108.01,4.58487,58.5026,14.4409,228.418,1.31286,-0.114482,236.233,2.13687,2.55983,-35.0059814453125,21.9983940124512,-35.0,22.0,-924053.0,-1353.64,pp-riro,4,0,-1,-1
1570534172.1,2019-10-08,13:29:32.100,14.0,9.0,15.0600004196167,14.5,14.2,7.8,26.5,-26.0,19.5,13.9356,12.1367,7.46461,-3.73435,11.5302,6.09755,30.1139,-10.938,16.2624,0.0740011999999999,0.28046,0.989396,266.7,5.2,52.1701,4.42725,-0.5,-3.176,110.555,4.58486,59.8169,15.9609,227.718,1.30534,-0.133231,235.984,2.2557400000000003,2.64047,-35.0042724609375,21.9983940124512,-35.0,22.0,-924175.0,-2430.39,pp-riro,4,0,-1,-1
1570534172.2,2019-10-08,13:29:32.200,14.0,9.0,15.289999961853,14.1,15.4,8.2,25.7,-27.2,25.2,13.204,14.4777,8.28327,-3.43765,8.791139999999999,5.30905,28.2457,-13.4857,27.6298,-0.0746251999999999,0.295303,0.988678,266.7,5.2,52.1701,4.42725,-0.5,-3.09123,125.475,4.58486,61.2481,17.480999999999998,227.018,1.29726,-0.150494,235.784,2.36859,2.70881,-35.0042724609375,21.9983940124512,-23.0,22.0,-923727.0,5045.38,pp-riro,4,0,-1,-1
1570534172.3,2019-10-08,13:29:32.300,14.0,9.0,15.5200004577637,13.5,16.6,8.7,25.0,-28.5,30.8,13.0202,15.0998,8.467410000000001,-4.11487,11.6352,5.057169999999999,27.6847,-14.0453,30.6077,-0.000314428,0.361584,0.929587,266.7,5.2,52.1701,4.42725,-0.5,-2.95603,136.378,4.58486,62.79600000000001,19.0011,226.118,1.2884,-0.166297,235.444,2.4774700000000003,2.77978,-35.0042724609375,21.998908996582,-23.0,22.0,-922343.0,16182.1,pp-riro,4,0,-1,-1
1570534172.4,2019-10-08,13:29:32.400,14.0,10.0,15.75,12.9,17.9,9.2,23.8,-29.4,37.3,12.743,15.6129,8.75285,-5.974880000000001,11.1315,4.52071,27.0705,-14.553,33.5725,0.0390435,0.268389,0.989626,266.7,5.2,52.1701,4.42725,-0.5,-2.87513,139.605,4.58486,64.49,20.5211,225.218,1.27889,-0.180544,235.167,2.59609,2.84828,-34.751663208007805,21.9994239807129,-23.0,22.0,-921379.0,18028.0,pp-riro,4,0,-1,-1
1570534172.5,2019-10-08,13:29:32.500,14.0,10.0,15.9099998474121,12.0,19.1,9.7,22.5,-30.1,43.8,11.7423,17.2877,9.37543,-6.51167,13.3969,2.29282,25.0864,-16.2023,42.6315,-0.0667688999999999,0.184797,0.994827,266.7,5.2,52.1701,4.42725,-0.5,-2.67899,143.843,4.58485,66.2717,21.6612,224.318,1.26945,-0.188375,234.904,2.7069,2.91538,-34.126983642578104,21.9994239807129,-23.0,22.0,-919447.0,18920.2,pp-riro,4,0,-1,-1
1570534172.6,2019-10-08,13:29:32.600,14.0,9.0,16.2399997711182,11.1,20.2,10.1,21.1,-31.0,50.3,10.5351,18.8704,9.98234,-9.28024,9.31058,6.05944,22.6506,-17.6636,52.1359,-0.0152294999999999,0.291936,1.03347,266.7,5.2,52.1701,4.42725,-0.5,-2.47287,149.434,4.58486,68.1701,22.8013,223.318,1.25939,-0.195242,234.602,2.81603,2.97622,-33.1438903808594,21.9994239807129,-23.0,22.0,-917443.0,20489.1,pp-riro,4,0,-1,-1
1570534172.7,2019-10-08,13:29:32.700,14.0,10.0,16.5699996948242,9.9,21.2,10.5,19.6,-31.9,57.1,10.5351,18.8704,9.98234,-9.28024,9.31058,6.05944,22.6506,-17.6636,52.1359,-0.0152294999999999,0.291936,1.03347,266.7,5.2,52.1701,4.42725,-0.5,-2.10385,156.588,4.58485,70.2438,24.3213,222.219,1.24798,-0.205784,234.322,2.9314400000000003,3.04666,-31.8125915527344,21.9994239807129,-22.7044525146484,22.0,-914259.0,21504.4,pp-riro,4,0,-1,-1
1570534172.8,2019-10-08,13:29:32.800,14.0,10.0,16.7800006866455,8.6,22.1,10.8,17.6,-32.3,63.6,8.97668,20.2374,10.4736,-11.6222,5.57532,6.18691,20.1214,-19.1472,61.6628,-0.0979173,0.249984,1.10834,266.7,5.2,52.1701,4.42725,-0.5,-1.97143,156.834,4.58485,72.3759,25.0814,221.11900000000003,1.23732,-0.206051,234.01,3.0312,3.1073,-30.1160583496094,21.9994239807129,-21.9606285095215,22.0,-913141.0,21104.4,pp-riro,4,0,-1,-1
1570534172.9,2019-10-08,13:29:32.900,14.0,9.0,16.9899997711182,7.2,22.8,11.0,16.1,-32.8,69.8,7.712000000000001,21.0571,10.763,-9.59158,6.14283,3.48464,18.4019,-20.1471,68.2028,-0.136102,0.0862243999999999,1.07094,266.7,5.2,52.1701,4.42725,-0.5,-1.6954900000000002,156.033,4.58485,74.5957,25.8414,220.019,1.22629,-0.2059389999999999,233.753,3.12513,3.16676,-28.1037750244141,21.9994239807129,-21.259601593017603,22.0,-911186.0,18058.8,pp-riro,4,0,-1,-1
1570534173.0,2019-10-08,13:29:33.000,14.0,8.0,17.0900001525879,5.9,23.4,11.1,14.4,-32.9,76.0,7.712000000000001,21.0571,10.763,-9.59158,6.14283,3.48464,18.4019,-20.1471,68.2028,-0.136102,0.0862243999999999,1.07094,269.7,5.1,52.1701,4.42725,-0.5,-1.30874,159.799,4.58485,76.8446,26.6015,218.919,1.21514,-0.2057159999999999,233.534,3.21806,3.22019,-26.1597518920898,21.9994239807129,-20.696704864502,22.0,-909035.0,14182.4,pp-riro,4,0,-1,-1
1570534173.1,2019-10-08,13:29:33.100,14.0,9.0,17.1900005340576,4.6,23.8,11.2,12.6,-32.4,81.8,5.21355,22.2821,10.9848,-14.5672,6.71272,0.6629619999999999,15.299,-21.8479,79.6179,0.0595964,0.157364,0.917757,269.7,5.1,52.1701,4.42725,-0.5,-1.15305,161.254,4.58487,79.152,27.3616,217.819,1.20374,-0.205294,233.364,3.3049,3.27064,-25.2756423950195,21.9994239807129,-20.2136268615723,22.0,-908373.0,13105.7,pp-riro,4,0,-1,-1
1570534173.2,2019-10-08,13:29:33.200,14.0,10.0,17.1900005340576,3.2,24.1,11.2,10.9,-32.2,87.6,4.6082,22.4946,11.0019,-15.1096,8.61695,-0.249111,14.5135,-22.0094,82.2999,0.0911184,0.0668298,0.812661,269.7,5.1,52.1701,4.42725,-0.5,-0.8782209999999999,157.963,4.58488,81.6346,28.1216,216.61900000000003,1.1915,-0.204236,233.192,3.39074,3.32312,-23.684928894043,21.9994239807129,-19.7291355133057,22.0,-907281.0,10121.5,pp-riro,4,0,-1,-1
1570534173.3,2019-10-08,13:29:33.300,14.0,7.0,17.1900005340576,2.0,24.1,11.1,8.9,-32.0,93.2,2.80784,22.7993,10.9281,-11.300999999999998,-1.81184,-1.22141,12.0268,-22.3276,90.5062,-0.0422104,0.0211828,0.918977,269.7,5.1,52.1701,4.42725,-0.5,-0.601179,149.555,4.5849,84.0295,28.1217,215.519,1.18072,-0.195448,233.024,3.46675,3.35976,-22.0361862182617,21.9994239807129,-19.3028984069824,22.0,-906572.0,6060.6,pp-riro,4,0,-1,-1
1570534173.4,2019-10-08,13:29:33.400,14.0,7.0,17.1900005340576,0.8,23.9,10.7,7.0,-31.5,98.6,2.80784,22.7993,10.9281,-11.300999999999998,-1.81184,-1.22141,12.0268,-22.3276,90.5062,-0.0422104,0.0211828,0.918977,269.7,5.1,52.1701,4.42725,-0.5,-0.382871,140.92600000000002,4.58491,86.3953,28.5017,214.519,1.1697,-0.191172,233.012,3.54428,3.40147,-20.9575042724609,21.9994239807129,-18.921283721923803,22.0,-906193.0,2984.16,pp-riro,4,0,-1,-1
1570534173.5,2019-10-08,13:29:33.500,14.0,8.0,17.2900009155273,-0.2,23.8,10.4,5.6,-30.5,103.4,1.07576,22.7016,10.4765,-14.24,-1.46338,-3.61995,9.67094,-22.3588,98.3055,0.0691721,0.135932,0.725477,269.7,5.1,52.1701,4.42725,-0.5,-0.109154,134.821,4.58493,88.8779,28.5017,213.419,1.15852,-0.182854,232.936,3.61133,3.4328800000000004,-20.0819244384766,21.9994239807129,-18.6646709442139,22.0,-906011.0,584.525,pp-riro,4,0,-1,-1
1570534173.6,2019-10-08,13:29:33.600,14.0,8.0,17.3400001525879,-1.4,23.5,10.2,4.0,-29.6,108.1,-0.498777,22.5039,10.0049,-5.5301800000000005,-1.77797,-3.92318,7.318689999999999,-21.4898,105.116,0.25281,0.415139,0.613885,269.7,5.1,52.1701,4.42725,-0.6,-0.0332449,134.885,4.5849400000000005,91.2437,28.5018,212.519,1.14811,-0.175312,233.028,3.67775,3.47282,-19.3377685546875,21.9994239807129,-18.2344055175781,22.0,-906004.0,123.058,pp-riro,4,0,-1,-1
1570534173.7,2019-10-08,13:29:33.700,14.0,8.0,17.2900009155273,-2.4,23.2,10.0,2.6,-28.7,112.1,-1.07971,22.3869,9.92729,-8.859869999999999,-2.23199,-3.841380000000001,6.62712,-21.0692,107.329,0.184239,0.321555,0.726521,269.7,5.1,52.1701,4.42725,-0.6,0.119128,136.915,4.58495,93.5803,28.5018,211.519,1.13761,-0.168206,233.045,3.73451,3.50647,-18.6806640625,21.9994239807129,-17.9624881744385,22.0,-906050.0,-707.5830000000001,pp-riro,4,0,-1,-1
1570534173.8,2019-10-08,13:29:33.800,14.0,8.0,17.229999542236303,-3.4,22.8,9.8,1.1,-27.7,116.0,-2.11942,22.0628,9.71186,-8.88738,-1.90238,-5.4332400000000005,5.25384,-20.2321,111.516,0.1188109999999999,0.113595,0.58831,269.7,5.1,52.1701,4.42725,-0.6,0.258756,139.281,4.584969999999999,95.9461,28.1218,210.519,1.1274,-0.1576789999999999,233.055,3.78778,3.53818,-18.2249526977539,21.9994239807129,-17.6423950195312,22.0,-906183.0,-1445.93,pp-riro,4,0,-1,-1
1570534173.9,2019-10-08,13:29:33.900,14.0,8.0,17.129999160766598,-4.3,22.5,9.5,-0.1,-26.5,119.8,-2.97986,21.6166,9.46246,-10.2284,-3.1442900000000003,-3.1709,3.92245,-19.5359,115.336,0.192609,0.1212579999999999,0.465677,269.7,5.1,52.1701,4.42725,-0.6,0.219417,145.032,4.58499,98.2242,27.7419,209.61900000000003,1.1176700000000002,-0.147857,233.147,3.84171,3.5679199999999995,-18.0593948364258,21.9994239807129,-17.3704051971436,22.0,-906053.0,-30.7645,pp-riro,4,0,-1,-1
1570534174.0,2019-10-08,13:29:34.000,14.0,9.0,17.129999160766598,-5.2,22.2,9.6,-1.9,-25.4,123.2,-3.90174,21.3685,9.20702,-4.98855,-6.95138,3.27526,2.2225900000000003,-18.571,118.99,-0.116004,0.196042,0.562628,269.6,5.4,52.1701,4.42725,-0.6,0.251553,150.889,4.585,100.473,27.3619,208.61900000000003,1.10783,-0.13849,233.164,3.89,3.59568,-17.7214508056641,21.9994239807129,-17.174457550048803,22.0,-906091.0,-738.3480000000001,pp-riro,4,0,-1,-1
1570534174.1,2019-10-08,13:29:34.100,14.0,10.0,17.129999160766598,-6.2,22.0,9.7,-3.4,-24.6,126.5,-4.8288400000000005,21.2023,9.17443,-8.949819999999999,-3.32216,-3.79304,0.594198,-17.8986,122.428,-0.0045498,0.0243898,0.459692,269.6,5.4,52.1701,4.42725,-0.6,0.286461,171.866,4.58501,102.693,26.6019,207.719,1.0986200000000002,-0.12609,233.239,3.9328,3.62404,-17.390335083007802,21.9994239807129,-16.8700637817383,22.0,-906066.0,92.2935,pp-riro,4,0,-1,-1
1570534174.2,2019-10-08,13:29:34.200,14.0,10.0,17.129999160766598,-7.0,21.7,9.5,-5.3,-23.8,129.9,-6.169230000000001,20.8826,9.13058,-9.79334,-2.49717,-3.05969,-2.08582,-16.6007,127.509,-0.0187005999999999,0.17669,0.517513,269.6,5.4,52.1701,4.42725,-0.6,0.3080699999999999,176.0,4.585030000000001,104.913,25.8419,206.719,1.08917,-0.114141,233.253,3.97764,3.64842,-17.188941955566403,21.9994239807129,-16.692726135253903,22.0,-906050.0,338.409,pp-riro,4,0,-1,-1
1570534174.3,2019-10-08,13:29:34.300,14.0,10.0,17.129999160766598,-8.0,21.5,9.5,-7.3,-22.8,133.2,-7.08046,20.6905,9.03339,-10.0497,1.42388,-1.91186,-4.05739,-16.054000000000002,130.747,-0.0823963,0.146783,0.484041,269.6,5.4,52.1701,4.42725,-0.6,0.306962,178.43599999999998,4.58504,107.162,25.462,205.61900000000003,1.07902,-0.10592,233.262,4.02566,3.68121,-16.9602355957031,21.9994239807129,-16.5069446563721,22.0,-906018.0,615.29,pp-riro,4,0,-1,-1
1570534174.4,2019-10-08,13:29:34.400,14.0,11.0,17.1800003051758,-8.9,21.0,9.6,-8.9,-21.9,136.2,-8.01729,20.3615,9.12396,-5.06485,-0.00208347,-0.4277899999999999,-6.31712,-15.4193,133.662,-0.278471,0.128884,0.59692,269.6,5.4,52.1701,4.42725,-0.6,0.314719,187.275,4.58505,109.323,24.702,204.519,1.06948,-0.0948763999999999,233.216,4.066409999999999,3.70959,-16.7861404418945,21.9994239807129,-16.3232765197754,22.0,-905997.0,61.529,pp-riro,4,0,-1,-1
1570534174.5,2019-10-08,13:29:34.500,14.0,11.0,17.229999542236303,-9.7,20.6,9.6,-10.9,-21.0,139.3,-8.01729,20.3615,9.12396,-5.06485,-0.00208347,-0.4277899999999999,-6.31712,-15.4193,133.662,-0.278471,0.128884,0.59692,269.6,5.4,52.1701,4.42725,-0.6,0.338544,194.713,4.58506,111.397,23.942,203.419,1.06021,-0.0843709,233.156,4.1092900000000006,3.73484,-16.5130615234375,21.9994239807129,-16.220891952514602,22.0,-905976.0,307.645,pp-riro,4,0,-1,-1
1570534174.6,2019-10-08,13:29:34.600,14.0,11.0,17.379999160766598,-10.6,20.1,9.5,-12.7,-20.1,142.3,-8.89985,19.987,9.11026,-12.6391,-1.04803,1.13947,-8.37125,-14.8024,136.725,-0.256736,0.0519599,0.6632939999999999,269.6,5.4,52.1701,4.42725,-0.6,0.337436,196.612,4.58507,113.441,22.422,202.419,1.05177,-0.0678156,233.12,4.14581,3.76103,-16.325309753418,21.9994239807129,-15.9254875183105,22.0,-905920.0,492.232,pp-riro,4,0,-1,-1
1570534174.7,2019-10-08,13:29:34.700,14.0,11.0,17.5300006866455,-11.5,19.6,9.5,-14.5,-19.7,145.2,-9.73693,19.5298,9.03026,-9.49792,-4.611280000000001,-1.59831,-10.5759,-14.1358,139.542,-0.50631,0.0228629999999999,0.508517,269.6,5.4,52.1701,4.42725,-0.6,0.348518,204.774,4.5850800000000005,115.457,21.662,201.319,1.04259,-0.0581540999999999,233.085,4.18271,3.79228,-16.2126617431641,21.9994239807129,-15.7695550918579,22.0,-905851.0,492.232,pp-riro,4,0,-1,-1
1570534174.8,2019-10-08,13:29:34.800,14.0,11.0,17.6800003051758,-12.3,19.0,9.3,-16.1,-18.8,147.7,-11.1033,18.7652,8.99334,-6.44053,-4.6155800000000005,-1.92775,-13.4114,-13.3908,143.665,-0.190575,-0.0938601999999999,0.393201,269.6,5.4,52.1701,4.42725,-0.6,0.365694,213.896,4.5851,117.443,20.522,200.219,1.03372,-0.0457015999999999,233.027,4.21548,3.82178,-16.0129699707031,21.9994239807129,-15.5914077758789,22.0,-905818.0,338.409,pp-riro,4,0,-1,-1
1570534174.9,2019-10-08,13:29:34.900,14.0,10.0,17.8299999237061,-13.1,18.3,9.2,-17.2,-17.8,150.2,-11.9161,18.1552,8.87962,-10.8328,-3.66031,-1.1986,-15.4124,-12.8958,146.03799999999998,-0.0683023999999999,0.00498897,0.573153,269.6,5.4,52.1701,4.42725,-0.6,0.375114,218.543,4.58511,119.4,19.002,199.11900000000003,1.02511,-0.0305361,232.95,4.24701,3.84985,-15.8166961669922,21.9994239807129,-15.3967971801758,22.0,-905793.0,461.467,pp-riro,4,0,-1,-1
1570534175.0,2019-10-08,13:29:35.000,14.0,10.0,17.9699993133545,-13.9,17.6,9.1,-18.5,-17.2,152.6,-12.7459,17.4357,8.7628,-12.215,-10.2393,-2.37363,-16.8544,-12.2238,148.52,-0.307297,-0.030819,0.318445,266.9,5.0,52.1701,4.42725,-0.6,0.387858,226.583,4.5851,121.181,17.862000000000002,198.019,1.01683,-0.0190706,232.842,4.27687,3.88159,-15.5777435302734,21.9994239807129,-15.213809967041,22.0,-905742.0,492.232,pp-riro,4,0,-1,-1
1570534175.1,2019-10-08,13:29:35.100,14.0,10.0,18.1200008392334,-14.5,16.8,8.8,-19.3,-16.6,154.9,-13.0987,17.0851,8.70107,-7.64935,-6.393,-2.12323,-17.6335,-11.89,149.71200000000002,-0.1524309999999999,-0.0109405,0.35653,266.9,5.0,52.1701,4.42725,-0.6,0.400602,229.595,4.5850800000000005,122.875,15.962,197.019,1.00939,-0.00188338,232.74400000000003,4.30063,3.90734,-15.3968276977539,21.9994239807129,-14.999403953552198,22.0,-905635.0,953.699,pp-riro,4,0,-1,-1
1570534175.2,2019-10-08,13:29:35.200,14.0,10.0,18.2600002288818,-14.7,16.4,8.6,-19.9,-15.9,157.0,-13.436,16.6786,8.64931,-4.57835,-9.69769,0.55171,-18.1791,-11.4298,150.857,-0.114828,-0.0772143999999999,0.474208,266.9,5.0,52.1701,4.42725,-0.6,0.397277,228.926,4.58506,124.569,14.822,196.019,1.0015,0.00889051,232.724,4.32771,3.91638,-15.3285522460938,21.9994239807129,35.0,22.0,-905584.0,984.464,pp-riro,4,0,-1,-1
1570534175.3,2019-10-08,13:29:35.300,14.0,9.0,18.3099994659424,-15.3,15.6,8.3,-19.9,-15.3,157.8,-13.9935,15.8518,8.355030000000001,-6.13654,-10.6414,-3.648,-18.9259,-11.1999,153.249,-0.0490226999999999,-0.0670583999999999,0.3256199999999999,266.9,5.0,52.1701,4.42725,-0.6,0.396723,230.759,4.58504,126.117,13.302,195.519,0.995394,0.0222575,233.046,4.33325,3.94714,-15.0298690795898,21.9994239807129,35.0,22.0,-905509.0,676.819,pp-riro,4,0,-1,-1
1570534175.4,2019-10-08,13:29:35.400,14.0,9.0,18.5,-15.9,14.9,8.1,-20.3,-14.4,159.8,-14.8443,14.6585,8.00065,-4.24153,-6.76147,-0.903245,-20.0055,-10.3561,156.079,0.073782,0.0213843,0.412253,266.9,5.0,52.1701,4.42725,-0.6,1.03447,223.187,4.58501,126.906,12.162,194.61900000000003,0.990872,0.0318217,232.658,4.3621300000000005,3.97789,-14.441032409668,21.9994239807129,35.0,22.0,-908266.0,-24303.9,pp-riro,4,0,-1,-1
1570534175.5,2019-10-08,13:29:35.500,14.0,9.0,18.4500007629395,-15.9,14.3,7.6,-20.8,-13.8,162.1,-15.0847,14.3134,7.88375,-0.506067,-4.53511,2.16888,-20.1766,-9.9125,157.203,-0.0320439,0.15487,0.447658,266.9,5.0,52.1701,4.42725,-0.6,1.11758,205.792,4.58499,128.33700000000002,11.022,193.719,0.983998,0.0417141,232.635,4.392119999999999,3.99332,-13.497184753418,21.9994239807129,35.0,22.0,-907766.0,9721.58,pp-riro,4,0,-1,-1
1570534175.6,2019-10-08,13:29:35.600,14.0,7.0,18.5499992370605,-15.8,13.9,6.9,-20.8,-13.1,164.0,-15.0363,13.5152,7.022469999999999,-0.54128,-10.004,-7.009760000000001,-20.0132,-9.2276,160.631,0.144439,-0.0825137,0.270622,266.9,5.0,52.1701,4.42725,-0.6,0.8477459999999999,176.165,4.584969999999999,129.739,9.50198,192.919,0.977524,0.0543003,232.681,4.41517,4.00315,-12.191497802734402,21.9994239807129,35.0,22.0,-906280.0,7352.71,pp-riro,4,0,-1,-1
1570534175.7,2019-10-08,13:29:35.700,14.0,7.0,18.5,-15.9,13.3,6.9,-20.5,-11.0,164.9,-14.9854,13.0326,6.71254,-3.52987,-5.64193,-2.79001,-20.1432,-8.782210000000001,162.14600000000002,0.140601,0.107607,0.303508,266.9,5.0,52.1701,4.42725,-0.6,0.977955,205.896,4.584919999999999,131.112,7.601960000000001,192.11900000000003,0.971164,0.0695388999999999,232.718,4.43545,4.00969,-10.5342178344727,21.9994239807129,35.0,22.0,-906798.0,2645.75,pp-riro,4,0,-1,-1
1570534175.8,2019-10-08,13:29:35.800,14.0,8.0,18.4500007629395,-15.9,12.6,7.2,-20.8,-10.4,166.4,-15.2514,12.1728,6.9887,0.724491,-2.92279,0.274602,-20.0747,-8.24047,164.968,0.113741,-0.0651114,0.373052,266.9,5.0,52.1701,4.42725,-0.6,0.955238,206.371,4.584919999999999,132.368,6.46196,191.419,0.965236,0.0786743,232.818,4.45496,4.01544,-8.52534484863281,21.9994239807129,35.0,22.0,-906558.0,4553.14,pp-riro,4,0,-1,-1
1570534175.9,2019-10-08,13:29:35.900,14.0,9.0,18.2600002288818,-15.7,12.3,6.9,-20.7,-10.0,168.2,-15.1743,12.0398,6.82977,3.90004,-0.5691430000000001,-4.8785300000000005,-20.273,-7.99454,165.896,0.0644348,-0.0312878,0.325604,266.9,5.0,52.1701,4.42725,-0.6,0.945265,193.01,4.5849,133.595,4.56193,190.61900000000003,0.95923,0.0933414,232.818,4.47229,4.0117400000000005,-6.42259979248047,21.9994239807129,35.0,22.0,-906447.0,769.112,pp-riro,4,0,-1,-1
1570534176.0,2019-10-08,13:29:36.000,14.0,8.0,18.1100006103516,-15.7,12.2,6.7,-20.9,-9.2,169.4,-15.0637,11.9227,6.71013,-3.23707,-2.91737,-2.03398,-20.481,-7.81981,166.71900000000002,-0.0329386999999999,-0.100933,0.28631,269.0,4.8,52.1701,4.42725,-0.6,0.924763,191.914,4.584890000000001,134.763,3.42193,189.919,0.953518,0.102111,232.899,4.4899,4.01173,-4.84382629394531,21.9994239807129,35.0,22.0,-906157.0,2922.63,pp-riro,4,0,-1,-1
1570534176.1,2019-10-08,13:29:36.100,14.0,9.0,17.9599990844727,-16.0,12.0,7.2,-21.2,-8.5,169.9,-15.2797,11.8731,6.67082,-3.46765,-3.34325,0.431435,-20.6714,-7.570419999999999,167.865,0.0154132,-0.115924,0.157291,269.0,4.8,52.1701,4.42725,-0.6,0.958008,204.842,4.5849,135.99,1.90192,189.11900000000003,0.947341,0.113521,232.944,4.49455,4.0071,-2.73255157470703,21.9994239807129,35.0,22.0,-906126.0,861.4060000000001,pp-riro,4,0,-1,-1
1570534176.2,2019-10-08,13:29:36.200,14.0,9.0,17.8600006103516,-15.9,11.9,7.5,-21.9,-8.7,170.3,-15.6518,11.7667,7.00315,-3.53364,3.19936,5.11331,-21.2978,-7.6971,169.00599999999997,-0.0872192,-0.104493,0.127157,269.0,4.8,52.1701,4.42725,-0.6,0.953576,202.567,4.58487,137.129,0.00189435,188.319,0.941413,0.1275,232.956,4.48675,3.989230000000001,-0.629798889160156,21.9994239807129,35.0,22.0,-905910.0,2184.28,pp-riro,4,0,-1,-1
1570534176.3,2019-10-08,13:29:36.300,14.0,10.0,17.6700000762939,-15.7,12.1,7.6,-22.6,-9.1,170.6,-15.5539,11.8702,7.29953,2.2193400000000003,-2.12648,-0.731014,-22.1857,-8.86163,169.822,-0.1590869999999999,-0.166368,-0.0804309,269.0,4.8,52.1701,4.42725,-0.6,0.945819,199.021,4.58486,138.268,-1.51812,187.519,0.93541,0.1385,232.989,4.47791,3.96633,1.47492218017578,21.9994239807129,35.0,22.0,-905799.0,2091.99,pp-riro,4,0,-1,-1
1570534176.4,2019-10-08,13:29:36.400,14.0,9.0,17.6200008392334,-15.6,12.4,7.9,-23.5,-9.1,169.8,-15.6303,12.203,7.53085,2.40245,6.99481,7.142460000000001,-23.2377,-9.5391,169.549,-0.209761,-0.11569,-0.0526405999999999,269.0,4.8,52.1701,4.42725,-0.6,0.939724,197.56,4.58486,139.436,-3.03813,186.719,0.929253,0.149314,233.057,4.45798,3.94002,3.5800018310546897,21.9994239807129,35.0,22.0,-905630.0,1630.52,pp-riro,4,0,-1,-1
1570534176.5,2019-10-08,13:29:36.500,14.0,9.0,17.4599990844727,-15.5,12.5,8.7,-24.5,-9.9,168.7,-15.6303,12.203,7.53085,2.40245,6.99481,7.142460000000001,-23.2377,-9.5391,169.549,-0.209761,-0.11569,-0.0526405999999999,269.0,4.8,52.1701,4.42725,-0.6,0.945819,199.616,4.58485,140.60399999999998,-4.55814,185.819,0.922786,0.159943,233.065,4.42594,3.90987,5.69020080566406,21.9994239807129,35.0,22.0,-905421.0,1599.75,pp-riro,4,0,-1,-1
1570534176.6,2019-10-08,13:29:36.600,14.0,10.0,17.3600006103516,-15.1,12.8,9.3,-25.9,-11.5,167.7,-15.6303,12.203,7.53085,2.40245,6.99481,7.142460000000001,-23.2377,-9.5391,169.549,-0.209761,-0.11569,-0.0526405999999999,269.0,4.8,52.1701,4.42725,-0.8,0.939724,194.31,4.58484,141.773,-6.07815,184.919,0.916266,0.17039,233.092,4.38732,3.8693,7.79528045654297,21.9994239807129,35.0,22.0,-905258.0,1661.28,pp-riro,4,0,-1,-1
1570534176.7,2019-10-08,13:29:36.700,14.0,10.0,17.2099990844727,-14.4,13.4,9.8,-27.0,-13.1,166.1,-15.6303,12.203,7.53085,2.40245,6.99481,7.142460000000001,-23.2377,-9.5391,169.549,-0.209761,-0.11569,-0.0526405999999999,269.0,4.8,52.1701,4.42725,-0.8,0.934737,191.417,4.58483,142.999,-7.598160000000001,183.919,0.909236,0.180636,233.094,4.34071,3.81361,9.90718078613281,21.9994239807129,35.0,22.0,-905159.0,1999.69,pp-riro,4,0,-1,-1
1570534176.8,2019-10-08,13:29:36.800,14.0,10.0,17.1499996185303,-14.0,13.9,10.6,-28.0,-14.7,163.7,-14.9938,13.7738,9.90923,-3.71906,3.4677,8.385580000000001,-27.1263,-16.3343,165.88,-0.355383,-0.0911807,-0.5185270000000001,269.0,4.8,52.1701,4.42725,-0.8,0.924763,187.642,4.58483,144.314,-8.73815,182.92,0.901941,0.1880349999999999,233.157,4.28558,3.76876,12.0139694213867,21.9994239807129,35.0,22.0,-904966.0,1784.34,pp-riro,4,0,-1,-1
1570534176.9,2019-10-08,13:29:36.900,14.0,9.0,17.1000003814697,-13.4,14.4,11.4,-28.7,-16.7,160.8,-14.9938,13.7738,9.90923,-3.71906,3.4677,8.385580000000001,-27.1263,-16.3343,165.88,-0.355383,-0.0911807,-0.5185270000000001,269.0,4.8,52.1701,4.42725,-0.8,0.921993,188.167,4.58482,145.687,-10.2582,181.72,0.893806,0.197863,233.135,4.218,3.71645,14.1173477172852,21.9994239807129,35.0,22.0,-904821.0,1353.64,pp-riro,4,0,-1,-1
1570534177.0,2019-10-08,13:29:37.000,14.0,10.0,17.0499992370605,-12.4,14.8,12.2,-29.6,-19.6,157.6,-13.8554,14.9352,11.8106,6.63795,2.7041,9.80704,-29.1008,-21.8336,161.32399999999998,-0.259937,-0.451152,-0.576611,264.0,4.9,52.1701,4.42725,-0.8,0.928642,191.288,4.5848,147.059,-11.3981,180.62,0.885993,0.204927,233.195,4.1401,3.65522,16.2309494018555,21.9994239807129,35.0,22.0,-904712.0,1015.23,pp-riro,4,0,-1,-1
1570534177.1,2019-10-08,13:29:37.100,14.0,10.0,17.0,-11.3,15.4,12.9,-29.5,-22.5,153.8,-13.3885,15.2795,12.2811,11.4805,1.86114,6.99021,-29.4378,-23.8468,160.036,-0.176399,-0.375742,-0.7251029999999999,264.0,4.9,52.1701,4.42725,-0.8,0.931412,191.989,4.58476,148.491,-12.5381,179.42,0.8776959999999999,0.211846,233.234,4.05524,3.58875,18.3428421020508,21.9994239807129,35.0,22.0,-904474.0,1815.1,pp-riro,4,0,-1,-1
1570534177.2,2019-10-08,13:29:37.200,14.0,10.0,17.0,-10.2,16.1,13.6,-29.2,-25.7,149.1,-11.8213,16.4598,13.5428,10.8289,5.97397,8.025160000000001,-29.8534,-29.413,154.453,-0.183356,-0.122387,-0.835274,264.0,4.9,52.1701,4.42725,-0.8,0.92975,192.149,4.58473,150.06799999999998,-14.0581,178.12,0.8685129999999999,0.2210489999999999,233.334,3.95512,3.5203,20.4547424316406,21.9994239807129,35.0,22.0,-904397.0,1507.46,pp-riro,4,0,-1,-1
1570534177.3,2019-10-08,13:29:37.300,14.0,10.0,17.0,-8.8,16.8,14.5,-27.9,-28.6,144.0,-10.56,17.3208,14.5873,16.4608,7.5712,16.3253,-29.6602,-32.966,150.22899999999998,-0.00532798,-0.177149,-0.954908,264.0,4.9,52.1701,4.42725,-0.8,0.937507,199.482,4.58467,151.616,-14.8181,176.82,0.8596379999999999,0.225123,233.393,3.85821,3.44469,22.5649261474609,21.9994239807129,35.0,22.0,-904296.0,830.6410000000001,pp-riro,4,0,-1,-1
1570534177.4,2019-10-08,13:29:37.400,14.0,10.0,17.0499992370605,-7.2,17.2,15.3,-25.7,-31.9,137.7,-9.86705,17.5989,15.0972,13.6788,7.99096,8.36196,-29.239,-35.078,147.762,-0.345751,-0.2333449999999999,-0.91065,264.0,4.9,52.1701,4.42725,-0.8,0.971306,217.154,4.58464,153.251,-15.5781,175.42,0.850197,0.229034,233.454,3.7445,3.36841,24.6734237670898,21.9994239807129,35.0,22.0,-904220.0,522.996,pp-riro,4,0,-1,-1
1570534177.5,2019-10-08,13:29:37.500,14.0,11.0,17.1000003814697,-5.4,17.7,16.0,-22.6,-35.2,130.1,-9.86705,17.5989,15.0972,13.6788,7.99096,8.36196,-29.239,-35.078,147.762,-0.345751,-0.2333449999999999,-0.91065,264.0,4.9,52.1701,4.42725,-0.8,0.979618,218.28,4.584630000000001,154.975,-15.958,173.82,0.840031,0.230355,233.42,3.6192,3.28758,26.7819137573242,21.9994239807129,35.0,22.0,-904158.0,1199.82,pp-riro,4,0,-1,-1
1570534177.6,2019-10-08,13:29:37.600,14.0,11.0,17.1499996185303,-3.4,18.1,16.5,-18.7,-38.0,121.8,-7.26103,18.6671,16.5098,22.7403,2.27505,9.42879,-26.558000000000003,-41.5924,139.05,-0.601043,-0.229511,-1.22123,264.0,4.9,52.1701,4.42725,-0.8,0.975739,219.31,4.58459,156.727,-17.098,172.32,0.8298049999999999,0.236443,233.55900000000003,3.4888,3.19893,28.8904113769531,21.9994239807129,35.0,22.0,-903860.0,1722.81,pp-riro,4,0,-1,-1
1570534177.7,2019-10-08,13:29:37.700,14.0,11.0,17.1499996185303,-1.2,18.3,17.0,-13.4,-40.4,112.3,-4.04996,19.4697,17.5585,19.2595,8.41257,1.56108,-21.5626,-47.9012,127.175,-0.37421,-0.436183,-1.44127,264.0,4.9,52.1701,4.42725,-0.8,0.980172,222.808,4.58456,158.53799999999998,-17.0979,170.72,0.8194950000000001,0.235246,233.606,3.35503,3.11083,30.7876892089844,21.9994239807129,35.0,22.0,-903798.0,1230.58,pp-riro,4,0,-1,-1
1570534177.8,2019-10-08,13:29:37.800,14.0,12.0,17.2000007629395,0.9,18.3,17.3,-7.0,-42.2,102.0,-4.04996,19.4697,17.5585,19.2595,8.41257,1.56108,-21.5626,-47.9012,127.175,-0.37421,-0.436183,-1.44127,264.0,4.9,52.1701,4.42725,-0.8,0.994024,231.304,4.58452,160.349,-17.0979,169.12,0.809191,0.234075,233.678,3.21801,3.02884,32.3307495117188,21.9994239807129,23.0,22.0,-903700.0,799.877,pp-ro,1,1,-1,-1
1570534177.9,2019-10-08,13:29:37.900,14.0,12.0,17.2999992370605,3.2,18.1,17.3,0.0,-42.9,90.9,-0.454226,19.9745,18.3626,24.9561,-1.27196,10.5985,-12.333,-52.5965,111.169,-0.465103,-0.0979273,-1.53485,264.0,4.9,52.1701,4.42725,-0.8,1.0112,238.09,4.58449,162.101,-17.0978,167.42,0.798773,0.232969,233.663,3.07614,2.93892,33.521240234375,21.9994239807129,23.0,22.0,-903440.0,2153.51,pp-ro,1,1,-1,-1
1570534178.0,2019-10-08,13:29:38.000,14.0,12.0,17.3999996185303,5.5,17.6,17.2,7.0,-42.6,79.6,2.22483,19.9606,18.5426,30.315,1.70084,0.7595109999999999,-4.38481,-54.8018,97.8697,-0.554392,-0.107303,-1.49995,269.5,5.1,52.1701,4.42725,-0.8,1.01009,239.554,4.58449,163.85299999999998,-16.7177,165.82,0.788773,0.229592,233.717,2.9344,2.84961,34.3574829101562,21.9994239807129,23.0,22.0,-903341.0,1876.63,pp-ro,1,1,-1,-1
1570534178.1,2019-10-08,13:29:38.100,14.0,13.0,17.5499992370605,7.9,17.0,16.9,14.4,-41.3,68.0,4.967,19.6459,18.4745,27.7499,-7.78171,2.44543,5.057580000000001,-55.1034,83.5367,-0.186977,0.0941226,-1.54388,269.5,5.1,52.1701,4.42725,-0.8,1.01951,243.258,4.58451,165.606,-15.9576,164.12,0.7785810000000001,0.223954,233.699,2.78726,2.7559,34.8343658447266,21.9994239807129,23.0,22.0,-903193.0,1476.7,pp-ro,1,1,-1,-1
1570534178.2,2019-10-08,13:29:38.200,14.0,13.0,17.6499996185303,10.0,16.1,16.3,20.8,-39.0,57.5,7.60553,19.1206,18.1288,27.4482,-12.8291,-1.89522,13.7208,-54.0753,69.44,-0.2494969999999999,0.0126094,-1.0386799999999998,269.5,5.1,52.1701,4.42725,-0.8,1.02505,247.062,4.58453,167.241,-15.1976,162.62,0.769333,0.2184969999999999,233.764,2.64644,2.66725,34.9620971679688,21.9994239807129,23.0,22.0,-902995.0,1999.69,pp-ro,1,1,-1,-1
1570534178.3,2019-10-08,13:29:38.300,14.0,13.0,17.7399997711182,11.9,15.0,15.3,26.0,-36.1,48.1,7.60553,19.1206,18.1288,27.4482,-12.8291,-1.89522,13.7208,-54.0753,69.44,-0.2494969999999999,0.0126094,-1.0386799999999998,269.5,5.1,52.1701,4.42725,-0.8,1.0283799999999998,247.556,4.58456,168.81799999999998,-14.4375,161.12,0.760249,0.213134,233.811,2.51191,2.57589,34.7832641601562,21.9994239807129,23.0,22.0,-902794.0,2091.99,pp-ro,1,1,-1,-1
1570534178.4,2019-10-08,13:29:38.400,14.0,13.0,17.8899993896484,13.8,13.8,14.4,30.1,-32.4,39.5,13.6711,16.410999999999998,15.8251,15.8789,-17.5728,-11.0566,31.1409,-46.1568,39.6004,-0.4850529999999999,0.153905,-1.42551,269.5,5.1,52.1701,4.42725,-0.8,1.02671,246.326,4.58458,170.308,-13.2974,159.62,0.751498,0.2057369999999999,233.795,2.3782,2.48336,34.1854858398438,21.9994239807129,22.3565006256104,22.0,-902564.0,2184.28,pp-ro,1,1,-1,-1
1570534178.5,2019-10-08,13:29:38.500,14.0,13.0,17.9400005340576,15.1,12.7,13.2,33.6,-28.4,31.8,15.5958,14.9431,14.6474,11.2656,-20.807,-10.845999999999998,34.9417,-41.4879,30.9617,-0.783026,0.0153021,-1.54284,269.5,5.1,52.1701,4.42725,-0.8,1.02339,242.659,4.58461,171.65099999999998,-11.7773,158.42,0.744162,0.196296,233.88,2.25054,2.40563,33.2351226806641,21.9994239807129,21.0478458404541,22.0,-902327.0,2614.98,pp-ro,1,1,-1,-1
1570534178.6,2019-10-08,13:29:38.600,14.0,13.0,18.0300006866455,16.2,11.6,11.9,36.4,-24.1,25.0,17.1713,13.6733,13.1518,12.8082,-9.61018,-16.7931,38.0049,-36.2551,23.1289,-0.0449305,0.0316442,-1.26177,269.5,5.1,52.1701,4.42725,-0.8,1.01452,241.548,4.584630000000001,172.907,-10.2572,157.32,0.7373569999999999,0.18702,233.991,2.12753,2.32849,32.621978759765604,21.9994239807129,19.738576889038104,22.0,-902102.0,1845.87,pp-ro,1,1,-1,-1
1570534178.7,2019-10-08,13:29:38.700,14.0,13.0,18.0799999237061,17.4,10.3,10.7,38.6,-19.4,18.5,17.81,12.9577,12.4115,9.4137,-22.5551,-6.48775,39.1082,-33.591,19.4159,-0.522674,0.164892,-1.56471,269.5,5.1,52.1701,4.42725,-0.8,1.02117,241.324,4.58466,174.134,-8.35715,156.32,0.730971,0.175699,234.155,2.00254,2.2448200000000003,30.7008361816406,21.9994239807129,18.278450012207,22.0,-901916.0,2061.22,pp-ro,1,1,-1,-1
1570534178.8,2019-10-08,13:29:38.800,14.0,13.0,18.1200008392334,18.1,9.2,9.4,40.3,-15.6,12.9,18.5113,12.1624,11.7467,4.47893,-18.2129,-8.08848,39.8443,-30.9383,16.2685,-0.125354,-0.0339709,-1.19933,269.5,5.1,52.1701,4.42725,-0.8,1.01397,239.768,4.5846800000000005,175.15599999999998,-6.83707,155.42,0.7253890000000001,0.166732,234.268,1.89631,2.17246,28.776290893554695,21.9994239807129,17.0316677093506,22.0,-901658.0,2368.87,pp-ro,1,1,-1,-1
1570534178.9,2019-10-08,13:29:38.900,14.0,13.0,18.2199993133545,18.7,8.2,8.0,41.5,-11.1,8.2,19.5642,10.7039,10.2735,10.8391,-14.4382,-10.3327,41.5029,-26.2144,9.68869,-0.280018,-0.00900328,-1.32962,269.5,5.1,52.1701,4.42725,-0.8,1.01619,241.148,4.58471,176.12,-4.93699,154.62,0.7202890000000001,0.155718,234.414,1.79182,2.10028,26.6643905639648,21.9994239807129,15.7662591934204,22.0,-901369.0,1907.4,pp-ro,1,1,-1,-1
1570534179.0,2019-10-08,13:29:39.000,14.0,12.0,18.270000457763697,19.2,7.1,6.7,42.3,-6.9,3.9,20.6742,8.83612,7.79179,7.556839999999999,-9.78443,-16.1272,42.4239,-18.3551,2.67451,-0.189591,0.288311,-1.11332,268.9,5.2,52.1701,4.42725,-0.8,1.01951,243.452,4.58473,176.99599999999998,-3.41693,153.92,0.715685,0.1469589999999999,234.586,1.69363,2.0263,24.5661239624023,21.9994239807129,14.4605007171631,22.0,-901179.0,1907.4,pp-ro,1,1,-1,-1
1570534179.1,2019-10-08,13:29:39.100,14.0,12.0,18.3199996948242,19.4,6.2,5.5,43.4,-3.3,0.0,20.9567,7.36569,6.43814,-2.04752,-14.9037,-11.2277,42.4863,-13.1341,-1.3161,-0.364135,-0.037422,-1.05008,268.9,5.2,52.1701,4.42725,-0.8,1.01951,245.304,4.58476,177.78400000000002,-1.13684,153.32,0.711634,0.134038,234.767,1.61027,1.96705,22.457633972168,21.9994239807129,13.4181184768677,22.0,-901076.0,2030.46,pp-ro,1,1,-1,-1
1570534179.2,2019-10-08,13:29:39.200,14.0,11.0,18.3600006103516,19.6,5.4,4.3,43.7,-1.5,-1.6,21.1759,6.31052,5.03768,1.3279299999999998,-8.35641,-9.57069,43.0764,-8.73498,-5.42206,0.275779,0.200888,-0.8598049999999999,268.9,5.2,52.1701,4.42725,-0.8,1.02671,245.029,4.58478,178.485,0.383218,153.12,0.7090529999999999,0.125471,235.166,1.57389,1.90525,20.3832092285156,21.9994239807129,12.278038978576696,22.0,-900907.0,1784.34,pp-ro,1,1,-1,-1
1570534179.3,2019-10-08,13:29:39.300,14.0,11.0,18.3099994659424,19.6,5.0,3.7,45.2,3.3,-6.5,21.1717,5.32298,3.72412,-5.36586,-11.6443,-16.32,43.237,-4.15179,-8.54424,-0.0264094,0.0573603,-0.832451,268.9,5.2,52.1701,4.42725,-0.8,1.01286,241.843,4.58481,179.128,2.6633,152.52,0.705286,0.1127259999999999,235.279,1.46299,1.88048,18.3019714355469,21.9994239807129,11.9316854476929,22.0,-900503.0,2430.39,pp-ro,1,1,-1,-1
1570534179.4,2019-10-08,13:29:39.400,14.0,11.0,18.2600002288818,19.8,3.8,2.3,45.9,6.7,-9.3,21.186,4.41201,2.46469,3.07465,-14.2423,-15.4547,44.0534,-0.130566,-11.6839,0.117282,0.384721,-0.7926890000000001,268.9,5.2,52.1701,4.42725,-0.8,1.01563,246.396,4.58483,179.653,4.563359999999999,152.12,0.70244,0.102153,235.45,1.39316,1.7970700000000002,15.9414138793945,21.9994239807129,10.3825960159302,22.0,-900430.0,1353.64,pp-ro,1,1,-1,-1
1570534179.5,2019-10-08,13:29:39.500,14.0,12.0,18.1700000762939,19.8,3.4,1.8,46.4,8.1,-10.9,21.0699,3.44386,1.52206,-4.82444,-17.4865,-14.559,44.629,3.40424,-14.3202,-0.1290849999999999,0.181833,-0.635271,268.9,5.2,52.1701,4.42725,-0.8,1.04888,262.915,4.58485,179.916,5.70339,152.02,0.701307,0.0958581,235.611,1.36066,1.7699599999999998,15.1409301757812,21.9994239807129,9.88709735870361,22.0,-900377.0,522.996,pp-ro,1,1,-1,-1
1570534179.6,2019-10-08,13:29:39.600,14.0,11.0,18.0699996948242,19.9,2.6,1.0,47.4,10.6,-13.6,21.0699,3.44386,1.52206,-4.82444,-17.4865,-14.559,44.629,3.40424,-14.3202,-0.1290849999999999,0.181833,-0.635271,268.9,5.2,52.1701,4.42725,-0.8,1.06827,273.81,4.58488,180.296,7.60345,151.72,0.699105,0.0853696,235.761,1.30404,1.72022,13.6183242797852,21.9994239807129,8.99158763885498,22.0,-900194.0,1876.63,pp-ro,1,1,-1,-1
1570534179.7,2019-10-08,13:29:39.700,14.0,11.0,18.0699996948242,20.0,1.8,0.0,48.3,12.8,-15.8,20.9918,2.14412,0.149526,2.5662700000000003,-11.2341,-12.2822,45.6734,8.3923,-17.8803,-0.162846,0.103994,-0.661304,268.9,5.2,52.1701,4.42725,-0.8,1.08157,279.757,4.58491,180.617,9.88352,151.52,0.69728,0.0728251,235.963,1.25852,1.66392,12.2234497070312,21.9994239807129,7.9520902633667,22.0,-900016.0,1784.34,pp-ro,1,1,-1,-1
1570534179.8,2019-10-08,13:29:39.800,14.0,11.0,18.1200008392334,20.1,0.9,-0.5,50.0,15.5,-18.9,20.7832,1.20768,-0.639516,-7.986610000000001,-12.5002,-5.22085,46.5573,11.2591,-19.9765,0.325698,0.116173,-0.542955,268.9,5.2,52.1701,4.42725,-0.8,1.09542,290.473,4.5849400000000005,180.909,12.9236,151.42,0.6956439999999999,0.0561503,236.269,1.1992,1.62625,10.6650772094727,21.9994239807129,7.28614139556885,22.0,-899787.0,2307.34,pp-ro,1,1,-1,-1
1570534179.9,2019-10-08,13:29:39.900,14.0,11.0,18.2600002288818,20.2,0.0,-0.9,50.5,16.0,-20.0,20.7497,0.364567,-1.35031,-4.4202900000000005,-11.0202,-10.2373,47.6168,13.5653,-21.7375,0.119296,-0.0695312,-0.428936,268.9,5.2,52.1701,4.42725,-0.8,1.11814,303.99,4.58496,180.997,14.0636,151.32,0.694852,0.0498957,236.337,1.18437,1.58622,9.47969055175781,21.9994239807129,6.5318107604980495,22.0,-899643.0,1076.76,pp-ro,1,1,-1,-1
1570534180.0,2019-10-08,13:29:40.000,14.0,11.0,18.3600006103516,20.2,-0.7,-1.5,51.4,16.9,-21.9,20.6983,-0.911579,-2.25924,-3.86683,-8.04776,-6.41317,48.6427,16.0565,-24.2967,0.293855,-0.0019766,-0.322621,269.9,5.4,52.1701,4.42725,-0.8,1.14307,315.959,4.58495,181.026,15.9637,151.32,0.694349,0.0394586,236.48,1.15805,1.54784,8.45098876953125,21.9994239807129,5.80152559280396,22.0,-899470.0,2091.99,pp-ro,1,1,-1,-1
1570534180.1,2019-10-08,13:29:40.100,14.0,12.0,18.5499992370605,20.1,-1.5,-2.0,52.3,17.8,-23.3,20.5474,-1.61279,-2.66198,-3.97973,-3.35998,-4.25369,49.4149,17.4489,-25.6475,-0.00746263,-0.153946,-0.181206,269.9,5.4,52.1701,4.42725,-0.8,1.15859,324.523,4.584969999999999,180.938,18.2437,151.32,0.694005,0.0269515,236.578,1.13881,1.5112,7.46657562255859,21.9994239807129,5.10548257827759,22.0,-899069.0,2676.51,pp-ro,1,1,-1,-1
1570534180.2,2019-10-08,13:29:40.200,14.0,11.0,18.7399997711182,20.0,-2.2,-2.4,52.8,18.4,-24.8,20.3781,-2.42716,-3.11374,-3.19323,-5.86875,-4.02257,49.6406,18.2275,-27.2745,0.152352,-0.0946831,-0.247732,269.9,5.4,52.1701,4.42725,-0.8,1.1630200000000002,326.382,4.584969999999999,180.85,20.1438,151.42,0.694024,0.0164935999999999,236.729,1.12094,1.48023,6.56731414794922,21.9994239807129,4.50424909591675,22.0,-898921.0,2799.57,pp-ro,1,1,-1,-1
1570534180.3,2019-10-08,13:29:40.300,14.0,11.0,18.9699993133545,19.7,-2.9,-2.8,53.1,18.6,-26.2,20.2227,-2.73811,-3.3496300000000003,-4.81306,-6.02457,-7.449330000000001,49.7334,18.3751,-27.9993,0.2039619999999999,-0.109791,-0.0480901,269.9,5.4,52.1701,4.42725,-0.8,1.17078,331.233,4.5849400000000005,180.617,22.0438,151.52100000000002,0.694381,0.00597598,236.784,1.10933,1.44752,5.69190216064453,21.9994239807129,3.85232472419739,22.0,-898439.0,3107.21,pp-ro,1,1,-1,-1
1570534180.4,2019-10-08,13:29:40.400,14.0,10.0,19.159999847412102,19.5,-3.3,-2.9,53.4,18.6,-27.3,20.2227,-2.73811,-3.3496300000000003,-4.81306,-6.02457,-7.449330000000001,49.7334,18.3751,-27.9993,0.2039619999999999,-0.109791,-0.0480901,269.9,5.4,52.1701,4.42725,-0.8,1.17188,329.925,4.58496,180.354,24.3238,151.621,0.694625,-0.00661144,236.871,1.10502,1.43737,5.099205017089839,21.9994239807129,3.66857361793518,22.0,-898283.0,3322.56,pp-ro,1,1,-1,-1
1570534180.5,2019-10-08,13:29:40.500,14.0,11.0,19.340000152587898,19.3,-3.7,-3.2,53.4,18.5,-28.3,19.8192,-3.50697,-3.75466,-1.31733,-3.86898,-5.11966,50.2231,18.9913,-29.1398,0.2407889999999999,-0.129133,-0.16815,269.9,5.4,52.1701,4.42725,-0.8,1.16856,325.309,4.58496,180.032,26.2239,151.821,0.6954199999999999,-0.0172172,236.957,1.10175,1.41814,4.39751434326172,21.9994239807129,3.26741623878479,22.0,-897898.0,4091.68,pp-ro,1,1,-1,-1
1570534180.6,2019-10-08,13:29:40.600,14.0,11.0,19.520000457763697,19.1,-4.0,-3.4,53.0,18.7,-29.1,19.5684,-4.01178,-4.04536,-3.10673,-6.76232,-1.87816,50.2747,19.5103,-30.0493,0.0789814,0.00168733,-0.1519059999999999,269.9,5.4,52.1701,4.42725,-0.9,1.15582,323.69,4.5849400000000005,179.68200000000002,28.5039,152.02100000000002,0.696078,-0.0298950999999999,237.083,1.09836,1.4069,3.86272430419922,21.9994239807129,3.04617810249329,22.0,-897525.0,2984.16,pp-ro,1,1,-1,-1
1570534180.7,2019-10-08,13:29:40.700,14.0,11.0,19.7399997711182,19.0,-4.3,-3.4,52.8,18.9,-30.1,19.5031,-4.33737,-3.97597,-6.29793,-3.54762,-3.5196,49.8458,19.5389,-31.0377,-0.0259343,-0.1400539999999999,-0.0332819,269.9,5.4,52.1701,4.42725,-0.9,1.16468,324.387,4.58496,179.30200000000002,30.0239,152.221,0.697078,-0.0384555,237.111,1.08997,1.4019700000000002,3.42672729492188,21.9994239807129,2.91529607772827,22.0,-897250.0,2984.16,pp-ro,1,1,-1,-1
1570534180.8,2019-10-08,13:29:40.800,14.0,11.0,19.9200000762939,18.8,-4.6,-3.5,52.7,19.2,-30.7,19.3601,-4.61978,-4.004,3.72689,-1.88494,5.84009,49.8263,19.9798,-31.352,-0.0858154,-0.0500068,-0.158673,269.9,5.4,52.1701,4.42725,-0.9,1.15803,322.785,4.58495,178.835,32.304,152.421,0.697913,-0.0512746999999999,237.187,1.08771,1.39442,3.05203247070312,21.9994239807129,2.7649378776550297,22.0,-896864.0,3722.5,pp-ro,1,1,-1,-1
1570534180.9,2019-10-08,13:29:40.900,14.0,11.0,20.0499992370605,18.7,-4.8,-3.5,52.6,19.3,-31.2,19.2637,-4.93001,-4.00332,1.4847,-3.80932,0.522447,49.4517,20.4455,-31.7592,0.104874,-0.0307445999999999,-0.1211039999999999,269.9,5.4,52.1701,4.42725,-0.9,1.15471,317.737,4.58495,178.36700000000002,33.824,152.721,0.699377,-0.0599692999999999,237.24,1.08638,1.3925299999999998,2.92599487304688,21.9994239807129,2.6653807163238503,22.0,-896368.0,3691.74,pp-ro,1,1,-1,-1
1570534181.0,2019-10-08,13:29:41.000,14.0,11.0,20.1399993896484,18.6,-5.0,-3.5,51.9,19.7,-31.9,19.2741,-5.0532,-3.95621,-3.32575,-3.7162,-0.927386,49.2631,20.4614,-32.272,-0.030575,-0.141372,-0.204309,268.2,5.4,52.1701,4.42725,-0.9,1.15027,317.402,4.58495,177.842,36.104,153.02100000000002,0.7005520000000001,-0.0728304999999999,237.374,1.08177,1.39327,2.92259216308594,21.9994239807129,2.66329455375671,22.0,-896167.0,3876.33,pp-ro,1,1,-1,-1
1570534181.1,2019-10-08,13:29:41.100,14.0,11.0,20.1000003814697,18.5,-5.3,-3.6,51.9,19.7,-32.6,19.1477,-5.20251,-3.97288,-7.548889999999999,-0.8893209999999999,-0.75062,49.123000000000005,20.4636,-32.6792,0.0687011999999999,-0.0806485,-0.316306,268.2,5.4,52.1701,4.42725,-0.9,1.15305,317.795,4.5849400000000005,177.345,37.6241,153.221,0.701678,-0.0815993999999999,237.368,1.07946,1.38452,2.70117950439453,21.9994239807129,2.45439004898071,22.0,-895765.0,2584.22,pp-ro,1,1,-1,-1
1570534181.2,2019-10-08,13:29:41.200,14.0,10.0,20.1000003814697,18.5,-5.4,-3.6,51.9,19.9,-33.3,19.1383,-5.48441,-3.96926,3.5455,-4.39313,3.62395,48.8327,20.5821,-33.1634,-0.0904853,0.0391898,-0.1774329999999999,268.2,5.4,52.1701,4.42725,-0.9,1.15249,324.22,4.58493,176.79,39.9041,153.52100000000002,0.7027909999999999,-0.094537,237.52,1.07741,1.38986,2.5751495361328103,21.9994239807129,2.55816388130188,22.0,-895399.0,3476.39,pp-ro,1,1,-1,-1
1570534181.3,2019-10-08,13:29:41.300,14.0,11.0,20.0499992370605,18.5,-5.7,-3.5,51.8,19.9,-34.5,19.1383,-5.48441,-3.96926,3.5455,-4.39313,3.62395,48.8327,20.5821,-33.1634,-0.0904853,0.0391898,-0.1774329999999999,268.2,5.4,52.1701,4.42725,-0.9,1.1574799999999998,328.807,4.584919999999999,176.14700000000002,41.8041,153.821,0.704292,-0.105547,237.563,1.07082,1.39194,2.40313720703125,21.9994239807129,2.55530190467834,22.0,-895288.0,2122.75,pp-ro,1,1,-1,-1
1570534181.4,2019-10-08,13:29:41.400,14.0,10.0,20.1000003814697,18.4,-5.9,-3.5,51.7,20.3,-35.1,19.2133,-6.15647,-3.72429,3.44652,-4.65011,-2.29961,48.4411,20.9045,-35.2437,-0.0335402,0.0190294999999999,-0.171244,268.2,5.4,52.1701,4.42725,-0.9,1.1813,328.63,4.58491,175.563,43.7041,154.121,0.7055779999999999,-0.116501,237.667,1.06614,1.39149,2.43549346923828,21.9994239807129,2.52234721183777,22.0,-895052.0,3445.62,pp-ro,1,1,-1,-1
1570534181.5,2019-10-08,13:29:41.500,14.0,10.0,20.1399993896484,18.1,-6.1,-3.5,51.6,20.4,-35.8,19.1319,-6.284680000000001,-3.62186,-1.62705,-2.34766,4.68129,48.4259,21.047,-35.6766,0.020664,-0.154972,-0.302458,268.2,5.4,52.1701,4.42725,-0.9,1.1536,321.528,4.5849,174.95,45.6042,154.421,0.7068810000000001,-0.1275089999999999,237.767,1.06407,1.38761,2.55471801757812,21.9994239807129,2.42344498634338,22.0,-894534.0,4830.02,pp-ro,1,1,-1,-1
1570534181.6,2019-10-08,13:29:41.600,14.0,10.0,20.1399993896484,17.9,-6.5,-3.6,51.5,20.3,-36.3,18.8293,-6.42948,-3.5829,-4.90736,-0.814034,-3.67268,48.3075,21.2465,-36.5584,-0.0434296999999999,-0.0885485,-0.0686123999999999,268.2,5.4,52.1701,4.42725,-0.8,1.14252,306.064,4.584890000000001,174.278,47.5042,154.721,0.708276,-0.138617,237.841,1.06685,1.37565,2.52405548095703,21.9994239807129,2.15871334075928,22.0,-894025.0,4307.03,pp-ro,1,1,-1,-1
1570534181.7,2019-10-08,13:29:41.700,14.0,10.0,20.1000003814697,17.5,-6.6,-3.5,51.4,20.0,-36.8,18.5115,-6.806710000000001,-3.6313,-6.28589,-3.27225,-2.74832,48.1752,21.1652,-37.0942,-0.0350673,-0.1310849999999999,-0.0871943,268.2,5.4,52.1701,4.42725,-0.8,1.12312,298.98900000000003,4.58488,173.577,49.4042,155.02100000000002,0.7096859999999999,-0.1497869999999999,237.91,1.07215,1.37639,2.42186737060547,21.9994239807129,2.15108895301819,22.0,-893764.0,4953.08,pp-ro,1,1,-1,-1
1570534181.8,2019-10-08,13:29:41.800,14.0,10.0,20.0100002288818,17.3,-6.6,-3.5,51.2,19.8,-37.5,18.5115,-6.806710000000001,-3.6313,-6.28589,-3.27225,-2.74832,48.1752,21.1652,-37.0942,-0.0350673,-0.1310849999999999,-0.0871943,268.2,5.4,52.1701,4.42725,-0.8,1.10207,288.877,4.58487,172.905,50.9242,155.321,0.711252,-0.158909,237.937,1.07253,1.37853,2.20386505126953,21.9994239807129,2.13467168807983,22.0,-893414.0,3322.56,pp-ro,1,1,-1,-1
1570534181.9,2019-10-08,13:29:41.900,14.0,10.0,19.8799991607666,17.1,-6.7,-3.5,51.1,19.8,-38.0,17.817,-7.061089999999999,-3.51657,-1.15929,-0.125506,0.5886,48.135,20.8123,-38.3569,0.187276,-0.0547669999999999,0.0784516,268.2,5.4,52.1701,4.42725,-0.8,1.09265,284.164,4.58486,172.175,52.8243,155.621,0.712625,-0.170166,238.018,1.07418,1.37896,2.14084625244141,21.9994239807129,2.1324155330658,22.0,-892962.0,2738.04,pp-ro,1,1,-1,-1
1570534182.0,2019-10-08,13:29:42.000,14.0,11.0,19.75,16.8,-6.8,-3.3,50.9,19.4,-38.7,17.817,-7.061089999999999,-3.51657,-1.15929,-0.125506,0.5886,48.135,20.8123,-38.3569,0.187276,-0.0547669999999999,0.0784516,270.1,5.0,52.1701,4.42725,-0.8,1.08933,282.882,4.58486,171.445,54.3443,155.922,0.71425,-0.179427,238.03,1.07709,1.38404,2.1357421875,21.9994239807129,2.17183780670166,22.0,-892810.0,2861.1,pp-ro,1,1,-1,-1
1570534182.1,2019-10-08,13:29:42.100,14.0,9.0,19.659999847412102,16.7,-6.8,-3.3,51.0,19.1,-39.3,17.4197,-7.25588,-3.28933,1.521,-2.00618,-2.13859,47.9146,20.3037,-39.5486,0.0155474,-0.0516478,-0.193776,270.1,5.0,52.1701,4.42725,-0.8,1.08766,282.01,4.5849,170.74400000000003,55.8643,156.322,0.716073,-0.188684,238.14,1.0799,1.38811,2.13744354248047,21.9994239807129,-35.0,22.0,-892579.0,2430.39,pp-ro,1,1,-1,-1
1570534182.2,2019-10-08,13:29:42.200,14.0,10.0,19.5300006866455,16.6,-7.0,-3.2,51.0,19.4,-39.6,17.4197,-7.25588,-3.28933,1.521,-2.00618,-2.13859,47.9146,20.3037,-39.5486,0.0155474,-0.0516478,-0.193776,270.1,5.0,52.1701,4.42725,-0.8,1.08877,282.557,4.584890000000001,170.013,57.7643,156.622,0.717276,-0.200019,238.268,1.08025,1.39144,2.1578826904296897,21.9994239807129,-35.0,22.0,-892294.0,3014.92,pp-ro,1,1,-1,-1
1570534182.3,2019-10-08,13:29:42.300,14.0,10.0,19.3500003814697,16.5,-7.3,-3.1,50.7,19.1,-40.6,17.2874,-7.31354,-3.1703900000000003,2.76795,-1.7729099999999998,1.7407400000000002,48.0058,20.4356,-39.9481,-0.135287,0.0696773999999999,-0.0330829,270.1,5.0,52.1701,4.42725,-0.8,1.08379,278.79900000000004,4.5849,169.283,59.2843,156.922,0.718761,-0.209364,238.319,1.07843,1.39048,1.93136596679688,21.9994239807129,-35.0,22.0,-891900.0,2461.16,pp-ro,1,1,-1,-1
1570534182.4,2019-10-08,13:29:42.400,14.0,10.0,19.2099990844727,16.4,-7.3,-3.0,50.6,18.7,-41.3,17.185,-7.594419999999999,-3.03308,0.849659,0.22154,1.25039,47.9462,20.3275,-40.6529,-0.0226502999999999,-0.170529,0.0973926,270.1,5.0,52.1701,4.42725,-0.8,1.08323,277.541,4.58491,168.495,61.1843,157.222,0.719997,-0.220835,238.438,1.08277,1.39998,1.32164001464844,21.9994239807129,-35.0,22.0,-891750.0,2922.63,pp-ro,1,1,-1,-1
1570534182.5,2019-10-08,13:29:42.500,14.0,11.0,19.1200008392334,16.4,-7.4,-2.9,50.9,18.3,-41.8,17.185,-7.594419999999999,-3.03308,0.849659,0.22154,1.25039,47.9462,20.3275,-40.6529,-0.0226502999999999,-0.170529,0.0973926,270.1,5.0,52.1701,4.42725,-0.8,1.0699299999999998,272.832,4.584919999999999,167.735,62.7044,157.52200000000002,0.72146,-0.230273,238.495,1.08807,1.40725,0.352546691894531,21.9994239807129,-35.0,22.0,-891332.0,2584.22,pp-ro,1,1,-1,-1
1570534182.6,2019-10-08,13:29:42.600,14.0,11.0,19.0699996948242,16.4,-7.5,-2.8,51.0,18.0,-42.2,16.9086,-7.771960000000001,-2.87941,-3.06145,1.46954,-0.0372770999999999,48.0514,19.8267,-41.9274,0.0729682,0.0628278,0.0441714999999999,270.1,5.0,52.1701,4.42725,-0.5,1.07326,273.213,4.5849400000000005,166.976,64.6044,157.822,0.722499,-0.241711,238.668,1.09472,1.41581,-0.972862243652344,21.9994239807129,-35.0,22.0,-891099.0,2399.63,pp-ro,1,1,-1,-1
1570534182.7,2019-10-08,13:29:42.700,14.0,10.0,18.9300003051758,16.5,-7.5,-2.4,51.1,17.0,-43.0,16.9086,-7.771960000000001,-2.87941,-3.06145,1.46954,-0.0372770999999999,48.0514,19.8267,-41.9274,0.0729682,0.0628278,0.0441714999999999,270.1,5.0,52.1701,4.42725,-0.5,1.07326,272.903,4.58495,166.187,66.1244,158.122,0.723938,-0.251241,238.732,1.10385,1.44044,-2.64891815185547,21.9994239807129,-35.0,22.0,-890962.0,2738.04,pp-ro,1,1,-1,-1
1570534182.8,2019-10-08,13:29:42.800,14.0,10.0,18.9300003051758,16.8,-7.3,-2.1,51.5,16.2,-43.3,16.9212,-7.897839999999999,-2.74982,-1.76253,-5.5757900000000005,0.0309692,48.1747,19.8187,-41.8847,-0.0559722,0.0160383,0.0275438,270.1,5.0,52.1701,4.42725,-0.5,1.06716,270.817,4.58496,165.398,68.0244,158.322,0.724616,-0.262755,238.851,1.11791,1.47219,-4.67656707763672,21.9994239807129,-35.0,22.0,-890714.0,2399.63,pp-ro,1,1,-1,-1
1570534182.9,2019-10-08,13:29:42.900,14.0,10.0,18.979999542236303,17.2,-7.4,-1.8,52.2,15.6,-42.8,17.0379,-7.872389999999999,-2.19512,5.3644300000000005,2.92884,3.81827,48.6513,19.0982,-42.5492,0.00891303,-0.113277,0.0789153,270.1,5.0,52.1701,4.42725,-0.5,1.06605,268.19,4.584969999999999,164.61,69.5444,158.52200000000002,0.72564,-0.272312,238.877,1.13775,1.49468,-6.78273010253906,21.9994239807129,-35.0,22.0,-890330.0,2953.39,pp-ro,1,1,-1,-1
1570534183.0,2019-10-08,13:29:43.000,14.0,10.0,19.1200008392334,17.4,-7.4,-1.2,52.6,14.1,-42.5,17.4175,-7.683160000000001,-1.38196,3.41831,1.94382,8.171,49.836000000000006,18.5091,-41.07899999999999,0.0778605,0.0145594,0.2082889999999999,271.1,5.1,52.1701,4.42725,-0.5,1.06051,267.073,4.58499,163.85,71.4445,158.722,0.726123,-0.2837699999999999,239.048,1.16771,1.52938,-8.89571380615234,21.9994239807129,-35.0,22.0,-890183.0,2799.57,pp-ro,1,1,-1,-1
1570534183.1,2019-10-08,13:29:43.100,14.0,9.0,19.2099990844727,17.7,-7.1,-0.6,53.2,11.5,-42.4,17.5245,-7.45481,-0.731969,-0.115741,5.34951,10.6529,50.569,16.8018,-40.4972,0.137407,-0.116989,0.363001,271.1,5.1,52.1701,4.42725,-0.5,1.0583,263.617,4.58499,163.062,72.9645,158.822,0.726734,-0.293353,239.034,1.20783,1.5733700000000002,-11.0018768310547,21.9994239807129,-35.0,22.0,-889970.0,2215.04,pp-ro,1,1,-1,-1
1570534183.2,2019-10-08,13:29:43.200,14.0,9.0,19.3999996185303,18.2,-6.5,0.0,54.3,9.4,-40.6,17.7617,-6.92678,-0.0663868999999999,5.4036800000000005,5.86535,6.11396,51.4472,14.5799,-39.1727,0.155925,0.0649341,0.4966489999999999,271.1,5.1,52.1701,4.42725,-0.5,1.0522,258.67900000000003,4.585030000000001,162.33100000000002,74.8645,158.922,0.7267100000000001,-0.304727,239.191,1.26369,1.63008,-13.108039855957,21.9994239807129,-35.0,22.0,-889681.0,3168.74,pp-ro,1,1,-1,-1
1570534183.3,2019-10-08,13:29:43.300,14.0,9.0,19.4899997711182,18.7,-6.2,0.9,55.5,6.9,-38.6,17.918,-6.64668,0.337935,3.56651,4.2510900000000005,11.0895,52.1895,13.8144,-37.9937,-0.0174502,0.219031,0.4007949999999999,271.1,5.1,52.1701,4.42725,-0.5,1.0378,255.177,4.58505,161.63,76.7645,158.922,0.726237,-0.316044,239.319,1.32711,1.68695,-15.214202880859402,21.9994239807129,-35.0,22.0,-889295.0,1753.58,pp-ro,1,1,-1,-1
1570534183.4,2019-10-08,13:29:43.400,14.0,9.0,19.4899997711182,19.3,-5.6,2.1,56.9,3.4,-37.0,17.918,-6.64668,0.337935,3.56651,4.2510900000000005,11.0895,52.1895,13.8144,-37.9937,-0.0174502,0.219031,0.4007949999999999,271.1,5.1,52.1701,4.42725,-0.5,1.04334,258.074,4.58506,161.017,78.6646,158.822,0.725171,-0.327109,239.456,1.39875,1.76302,-17.3169479370117,21.9994239807129,-35.0,22.0,-889196.0,1784.34,pp-ro,1,1,-1,-1
1570534183.5,2019-10-08,13:29:43.500,14.0,9.0,19.7099990844727,19.9,-4.8,3.5,58.2,0.0,-34.7,19.0169,-5.11415,3.18844,5.47414,9.03951,12.9661,55.1855,7.15221,-31.4961,0.363589,0.0293305,0.672691,271.1,5.1,52.1701,4.42725,-0.5,1.05553,266.426,4.58507,160.433,80.5646,158.52200000000002,0.723348,-0.338051,239.497,1.4776200000000002,1.84904,-19.431640625,21.9994239807129,-35.0,22.0,-889007.0,1815.1,pp-ro,1,1,-1,-1
1570534183.6,2019-10-08,13:29:43.600,14.0,9.0,19.6700000762939,20.5,-4.0,5.0,59.5,-4.1,-32.3,19.0169,-5.11415,3.18844,5.47414,9.03951,12.9661,55.1855,7.15221,-31.4961,0.363589,0.0293305,0.672691,271.1,5.1,52.1701,4.42725,-0.2,1.06716,270.777,4.5851,159.965,82.4646,158.222,0.72118,-0.348686,239.632,1.56674,1.93347,-21.5514602661133,21.9994239807129,-35.0,22.0,-888848.0,1661.28,pp-ro,1,1,-1,-1
1570534183.7,2019-10-08,13:29:43.700,14.0,9.0,19.7600002288818,20.9,-2.9,6.7,60.8,-9.0,-29.7,19.2703,-4.706580000000001,3.87245,5.25908,8.34833,12.2469,55.7714,5.42244,-30.1196,0.0900763,0.128829,0.821045,271.1,5.1,52.1701,4.42725,-0.2,1.07104,271.137,4.58512,159.586,84.3646,157.622,0.717804,-0.3590239999999999,239.645,1.66875,2.02914,-23.6695709228516,21.9994239807129,-35.0,22.0,-888577.0,3014.92,pp-ro,1,1,-1,-1
1570534183.8,2019-10-08,13:29:43.800,14.0,10.0,19.8899993896484,20.9,-1.6,8.5,61.9,-14.4,-26.2,19.2703,-4.706580000000001,3.87245,5.25908,8.34833,12.2469,55.7714,5.42244,-30.1196,0.0900763,0.128829,0.821045,271.1,5.1,52.1701,4.42725,-0.2,1.0716,279.431,4.58514,159.29399999999998,86.6447,156.922,0.713356,-0.3709119999999999,239.805,1.78839,2.1327700000000003,-25.7825546264648,21.9994239807129,-35.0,22.0,-888345.0,1938.16,pp-ro,1,1,-1,-1
1570534183.9,2019-10-08,13:29:43.900,14.0,9.0,20.1100006103516,20.6,0.0,10.5,62.7,-20.1,-22.6,19.3854,-4.23992,4.58731,-0.544579,8.51637,16.6596,56.531000000000006,3.55721,-28.3652,0.339459,0.146611,0.889444,271.1,5.1,52.1701,4.42725,-0.2,1.09985,285.98400000000004,4.58516,159.14700000000002,88.9247,156.122,0.708184,-0.382325,240.02,1.91192,2.24975,-27.8887176513672,21.9994239807129,-35.0,22.0,-888243.0,1230.58,pp-ro,1,1,-1,-1
1570534184.0,2019-10-08,13:29:44.000,14.0,9.0,20.3700008392334,20.0,1.5,12.1,63.1,-25.9,-18.7,18.8165,0.972514,11.2899,-11.2836,20.6814,15.4551,58.4332,-16.9646,-11.4718,0.3784619999999999,0.275949,1.13143,269.4,4.9,52.1701,4.42725,-0.2,1.08822,278.138,4.58517,159.20600000000002,90.8247,155.122,0.702353,-0.391213,240.122,2.03701,2.35171,-29.936843872070305,21.9994239807129,-35.0,22.0,-887852.0,4399.32,pp-ro,1,1,-1,-1
1570534184.1,2019-10-08,13:29:44.100,14.0,10.0,20.5400009155273,19.0,3.3,13.8,63.0,-32.2,-14.4,18.8165,0.972514,11.2899,-11.2836,20.6814,15.4551,58.4332,-16.9646,-11.4718,0.3784619999999999,0.275949,1.13143,269.4,4.9,52.1701,4.42725,-0.2,1.06384,267.057,4.58518,159.381,92.7248,154.023,0.6958989999999999,-0.399702,240.256,2.1703900000000003,2.46924,-31.6470336914062,21.9994239807129,-35.0,22.0,-887425.0,2430.39,pp-ro,1,1,-1,-1
1570534184.2,2019-10-08,13:29:44.200,14.0,11.0,20.5400009155273,17.8,5.0,15.2,61.8,-38.9,-8.8,18.8165,0.972514,11.2899,-11.2836,20.6814,15.4551,58.4332,-16.9646,-11.4718,0.3784619999999999,0.275949,1.13143,269.4,4.9,52.1701,4.42725,-0.2,1.06051,265.906,4.58519,159.79,94.6248,152.623,0.687924,-0.407446,240.375,2.31776,2.57866,-32.701828002929695,21.9994239807129,-35.0,22.0,-887153.0,2645.75,pp-ro,1,1,-1,-1
1570534184.3,2019-10-08,13:29:44.300,14.0,9.0,20.4899997711182,16.5,6.7,16.7,61.2,-45.3,-3.0,18.8165,0.972514,11.2899,-11.2836,20.6814,15.4551,58.4332,-16.9646,-11.4718,0.3784619999999999,0.275949,1.13143,269.4,4.9,52.1701,4.42725,-0.2,1.05608,263.92400000000004,4.5852,160.257,96.5248,151.32299999999998,0.680121,-0.414921,240.62,2.45721,2.68881,-34.0160522460938,21.9994239807129,-35.0,22.0,-887013.0,2614.98,pp-ro,1,1,-1,-1
1570534184.4,2019-10-08,13:29:44.400,14.0,10.0,20.5799999237061,15.8,7.9,17.3,59.3,-48.3,1.0,16.6703,4.32319,14.0549,-16.6267,16.2631,12.7725,55.6054,-28.7104,0.152136,0.384648,0.307651,1.39351,269.4,4.9,52.1701,4.42725,-0.2,1.06384,274.105,4.5852,161.016,98.0449,150.523,0.673796,-0.419758,241.239,2.53236,2.75193,-34.6509704589844,21.9994239807129,-35.0,22.0,-886710.0,1722.81,pp-ro,1,1,-1,-1
1570534184.5,2019-10-08,13:29:44.500,14.0,10.0,20.7000007629395,14.1,9.7,18.4,54.9,-53.9,9.8,13.8429,7.697210000000001,16.4271,-21.3706,22.0551,7.10332,48.1341,-40.1359,15.4743,-0.00770065,0.139701,1.20514,269.4,4.9,52.1701,4.42725,-0.2,1.07991,283.639,4.58521,161.98,99.1849,149.023,0.665279,-0.422254,241.418,2.67342,2.86077,-34.942825317382805,21.9994239807129,-35.0,22.0,-886662.0,953.699,pp-ro,1,1,-1,-1
