time,date,time_of_day,airspeed_temperature,airspeed_angle_of_attack,airspeed_apparent_windspeed,kite_0_vx,kite_0_vy,kite_0_vz,kite_0_roll,kite_0_pitch,kite_0_yaw,kite_1_vx,kite_1_vy,kite_1_vz,kite_1_ax,kite_1_ay,kite_1_az,kite_1_roll,kite_1_pitch,kite_1_yaw,kite_1_roll_rate,kite_1_pitch_rate,kite_1_yaw_rate,ground_upwind_direction,ground_wind_velocity,ground_pos_latitude,ground_pos_longitude,ground_pos_altitude,ground_tether_reelout_speed,ground_tether_force,est_upwind_direction,kite_pos_east,kite_pos_north,kite_height,kite_elevation,kite_azimuth,kite_distance,kite_heading,kite_course,kite_actual_steering,kite_actual_depower,kite_set_steering,kite_set_depower,ground_mech_energy,ground_mech_power,flight_phase,flight_phase_index,phase,pattern,pattern_section
1570535662.0,2019-10-08,13:54:22.000,14.0,8.0,14.1599998474121,11.8,-1.8,3.0,15.5,-7.4,-51.7,10.4537,-1.65178,3.27471,7.878819999999999,9.87536,3.09132,19.1835,7.1512,-54.1683,0.213425,0.2163389999999999,0.857876,269.4,4.0,52.1701,4.42724,-0.1,-3.02584,87.1974,4.51582,33.326,-8.3602,243.245,1.43047,0.442362,245.66,0.4340819999999999,1.21009,-34.6714477539062,22.0504035949707,-35.0,22.0,-1022050.0,-14674.7,pp-riro,4,0,-1,-1
1570535662.1,2019-10-08,13:54:22.100,14.0,6.0,14.0299997329712,12.4,-0.7,3.3,16.7,-8.2,-46.9,11.1084,-0.623689,3.58319,6.73464,8.451030000000001,3.26848,20.7214,6.22617,-48.8543,0.1832099999999999,0.205575,0.899439,271.5,4.3,52.1701,4.42724,-0.1,-3.08901,85.0616,4.5159400000000005,33.1215,-7.220160000000001,243.045,1.43221,0.411085,245.398,0.5523710000000001,1.33799,-34.9547729492188,22.0215663909912,-35.0,22.0,-1023640.0,-16120.6,pp-riro,4,0,-1,-1
1570535662.2,2019-10-08,13:54:22.200,14.0,7.0,13.6499996185303,13.0,0.4,3.6,18.3,-9.7,-41.8,11.1084,-0.623689,3.58319,6.73464,8.451030000000001,3.26848,20.7214,6.22617,-48.8543,0.1832099999999999,0.205575,0.899439,271.5,4.3,52.1701,4.42724,-0.1,-3.20703,76.1071,4.51615,33.0923,-6.08012,242.745,1.43307,0.377948,245.066,0.678982,1.45904,-34.968414306640604,22.0050868988037,-35.0,22.0,-1026550.0,-22458.1,pp-riro,4,0,-1,-1
1570535662.3,2019-10-08,13:54:22.300,14.0,8.0,13.390000343322802,13.5,1.6,3.9,19.4,-11.4,-36.7,11.3429,-0.0360802,3.84626,4.6891,10.5298,4.25741,21.6032,5.75957,-46.0823,0.14238,0.150396,0.94324,271.5,4.3,52.1701,4.42724,-0.1,-3.25634,72.7873,4.51636,33.1215,-4.56006,242.545,1.43381,0.3328489999999999,244.83900000000003,0.818343,1.5913,-34.971832275390604,22.0009689331055,-35.0,22.0,-1027910.0,-25934.5,pp-riro,4,0,-1,-1
1570535662.4,2019-10-08,13:54:22.400,14.0,7.0,13.0500001907349,13.8,2.7,4.2,20.8,-12.8,-31.6,11.3429,-0.0360802,3.84626,4.6891,10.5298,4.25741,21.6032,5.75957,-46.0823,0.14238,0.150396,0.94324,271.5,4.3,52.1701,4.42724,-0.1,-3.4585800000000004,73.2433,4.51657,33.2967,-3.42002,242.145,1.43344,0.298177,244.448,0.946819,1.70137,-34.9871978759766,22.0009689331055,-35.0,22.0,-1032290.0,-30456.8,pp-riro,4,0,-1,-1
1570535662.5,2019-10-08,13:54:22.500,14.0,8.0,12.9099998474121,14.2,3.8,4.5,21.9,-14.0,-26.4,11.3429,-0.0360802,3.84626,4.6891,10.5298,4.25741,21.6032,5.75957,-46.0823,0.14238,0.150396,0.94324,271.5,4.3,52.1701,4.42724,-0.1,-3.5860199999999995,74.7173,4.516780000000001,33.5596,-1.51994,241.846,1.43277,0.240873,244.168,1.09945,1.82581,-34.9889068603516,22.0009689331055,-35.0,22.0,-1035280.0,-29318.6,pp-riro,4,0,-1,-1
1570535662.6,2019-10-08,13:54:22.600,14.0,8.0,12.7700004577637,14.5,5.0,4.9,22.9,-15.3,-21.3,12.8915,4.393330000000001,5.1660900000000005,2.23104,10.8036,3.08876,27.124,0.179064,-23.2633,0.167817,0.242176,0.994063,271.5,4.3,52.1701,4.42724,-0.1,-3.71014,70.6869,4.51699,33.9393,-0.379898,241.446,1.43114,0.206701,243.82,1.22714,1.93043,-34.9974365234375,22.0009689331055,-35.0,22.0,-1038390.0,-31749.0,pp-riro,4,0,-1,-1
1570535662.7,2019-10-08,13:54:22.700,14.0,8.0,12.7700004577637,14.6,6.2,5.3,23.6,-16.8,-16.4,13.0639,4.94875,5.33368,2.86774,9.71761,2.47242,27.7031,-0.528927,-20.4088,0.0890488,0.218079,0.984247,271.5,4.3,52.1701,4.42724,0.0,-3.85309,67.3398,4.5172300000000005,34.4358,1.14016,241.046,1.42882,0.1622,243.496,1.36193,2.0438,-34.9991455078125,22.0009689331055,-35.0,22.0,-1041900.0,-36548.2,pp-riro,4,0,-1,-1
1570535662.8,2019-10-08,13:54:22.800,14.0,7.0,12.5600004196167,14.7,7.2,5.6,23.9,-18.3,-11.3,13.3261,6.5604,5.88879,1.8566,11.6407,3.80025,29.0529,-2.78173,-11.9731,0.173709,0.277421,0.8909100000000001,271.5,4.3,52.1701,4.42724,0.0,-3.93232,67.3294,4.517469999999999,35.0199,2.6602200000000003,240.546,1.42582,0.119098,243.096,1.49833,2.13925,-34.9991455078125,22.0009689331055,-35.0,22.0,-1043940.0,-38486.4,pp-riro,4,0,-1,-1
1570535662.9,2019-10-08,13:54:22.900,14.0,7.0,12.5600004196167,14.7,8.2,6.0,24.4,-19.8,-6.0,13.3261,6.5604,5.88879,1.8566,11.6407,3.80025,29.0529,-2.78173,-11.9731,0.173709,0.277421,0.8909100000000001,271.5,4.3,52.1701,4.42724,0.0,-4.0714,69.7802,4.51762,35.7209,4.180280000000001,240.046,1.42208,0.0782768,242.725,1.6357,2.2327,-35.0093841552734,22.0009689331055,-35.0,22.0,-1047910.0,-39901.5,pp-riro,4,0,-1,-1
1570535663.0,2019-10-08,13:54:23.000,14.0,8.0,12.5600004196167,14.7,9.3,6.3,24.6,-21.2,-0.5,13.3182,7.61353,6.2586900000000005,1.27138,11.3667,5.52505,29.5082,-4.49446,-6.56695,0.1236109999999999,0.215279,0.921576,271.5,4.3,52.1701,4.42724,0.0,-4.29081,70.48899999999999,4.51783,36.5095,5.70035,239.546,1.41774,0.0396800999999999,242.379,1.77324,2.32442,-35.0093841552734,22.0009689331055,-35.0,22.0,-1053690.0,-39932.3,pp-riro,4,0,-1,-1
1570535663.1,2019-10-08,13:54:23.100,14.0,9.0,12.7700004577637,14.5,10.3,6.6,24.4,-22.6,5.0,13.3182,7.61353,6.2586900000000005,1.27138,11.3667,5.52505,29.5082,-4.49446,-6.56695,0.1236109999999999,0.215279,0.921576,272.9,4.1,52.1701,4.42724,0.0,-4.43266,71.438,4.51797,37.4733,7.22041,238.946,1.41242,0.00407128,241.974,1.90718,2.41177,-35.0093841552734,22.0009689331055,-35.0,22.0,-1057630.0,-40424.5,pp-riro,4,0,-1,-1
1570535663.2,2019-10-08,13:54:23.200,14.0,8.0,12.9099998474121,14.3,11.4,7.0,24.3,-24.0,10.6,13.3166,8.55499,6.584810000000001,0.450531,9.08634,3.68617,29.738000000000003,-6.21378,-1.0003799999999998,0.1043,0.170968,0.95147,272.9,4.1,52.1701,4.42724,0.0,-4.5041400000000005,72.0621,4.51805,38.4956,8.36046,238.246,1.40693,-0.0195155999999999,241.481,2.0301400000000003,2.48929,-35.0076751708984,22.0009689331055,-35.0,22.0,-1059750.0,-39347.8,pp-riro,4,0,-1,-1
1570535663.3,2019-10-08,13:54:23.300,14.0,8.0,13.119999885559098,14.1,12.4,7.3,23.7,-25.5,16.2,13.0143,11.4171,7.44172,-2.41784,11.5206,2.0242400000000003,28.7677,-10.9733,16.0789,0.200902,0.257288,0.923299,272.9,4.1,52.1701,4.42724,0.0,-4.62493,74.1516,4.51812,39.6346,10.2605,237.546,1.40012,-0.0590505,241.048,2.16776,2.5744700000000003,-35.0076751708984,22.0009689331055,-35.0,22.0,-1063720.0,-38701.7,pp-riro,4,0,-1,-1
1570535663.4,2019-10-08,13:54:23.400,14.0,9.0,13.380000114440902,13.7,13.6,7.6,22.9,-26.5,22.2,13.0143,11.4171,7.44172,-2.41784,11.5206,2.0242400000000003,28.7677,-10.9733,16.0789,0.200902,0.257288,0.923299,272.9,4.1,52.1701,4.42724,0.0,-4.79614,79.432,4.5182,40.8906,11.4006,236.846,1.39345,-0.0776737,240.62,2.28918,2.65075,-35.0076751708984,22.0009689331055,-35.0,22.0,-1069110.0,-34917.7,pp-riro,4,0,-1,-1
1570535663.5,2019-10-08,13:54:23.500,14.0,10.0,13.640000343322802,13.5,14.1,7.8,22.5,-26.9,25.2,12.7384,12.3793,7.76645,-3.33452,11.7297,2.81712,28.0474,-12.2564,21.9509,0.152818,0.2853,0.959783,272.9,4.1,52.1701,4.42724,0.0,-4.84711,82.4285,4.51828,41.5915,12.1606,236.446,1.38954,-0.0903396,240.384,2.35232,2.6876,-35.0076751708984,22.0009689331055,-35.0,22.0,-1070750.0,-32610.4,pp-riro,4,0,-1,-1
1570535663.6,2019-10-08,13:54:23.600,14.0,10.0,13.8999996185303,12.9,15.2,8.2,21.8,-27.8,31.0,11.9537,14.3645,8.50003,-5.27856,8.05417,4.11855,26.1043,-14.3049,33.8725,0.0717164,0.275912,0.94846,272.9,4.1,52.1701,4.42724,0.0,-4.93189,89.0617,4.51835,42.9935,13.6807,235.646,1.38162,-0.114033,239.926,2.4731,2.76815,-35.0076751708984,22.0009689331055,-21.232837677002,22.0,-1073740.0,-27318.9,pp-riro,4,0,-1,-1
1570535663.7,2019-10-08,13:54:23.700,14.0,10.0,14.0900001525879,11.9,16.9,8.7,20.2,-28.7,40.1,11.4252,15.4442,8.84799,-5.30527,9.37418,3.96936,24.8344,-15.0698,39.8153,0.0696991,0.3023,0.936876,272.9,4.1,52.1701,4.42724,-0.1,-4.974,96.0638,4.51843,45.3008,15.5808,234.446,1.36924,-0.1373059999999999,239.29,2.64583,2.87635,-35.0076751708984,22.0009689331055,-20.0013179779053,22.0,-1075930.0,-20489.1,pp-riro,4,0,-1,-1
1570535663.8,2019-10-08,13:54:23.800,14.0,11.0,14.3400001525879,11.6,17.5,8.8,19.7,-29.0,43.3,10.793,16.4715,9.16374,-6.37778,9.29022,4.5904300000000005,23.4432,-15.6142,45.7837,0.106614,0.323098,0.941875,272.9,4.1,52.1701,4.42724,-0.1,-4.98453,105.459,4.51851,46.1771,15.9608,234.046,1.365,-0.138904,239.091,2.69976,2.90435,-34.8096923828125,22.0009689331055,-19.6021041870117,22.0,-1077400.0,-12582.7,pp-riro,4,0,-1,-1
1570535663.9,2019-10-08,13:54:23.900,14.0,11.0,14.5799999237061,10.9,18.6,9.2,18.6,-29.3,49.5,10.793,16.4715,9.16374,-6.37778,9.29022,4.5904300000000005,23.4432,-15.6142,45.7837,0.106614,0.323098,0.941875,272.9,4.1,52.1701,4.42724,-0.1,-4.94352,118.16,4.51858,47.9295,17.4809,233.146,1.35537,-0.155921,238.663,2.81592,2.97275,-34.034820556640604,22.0009689331055,-18.9563426971436,22.0,-1077410.0,2614.98,pp-riro,4,0,-1,-1
1570535664.0,2019-10-08,13:54:24.000,14.0,12.0,14.9399995803833,9.9,19.8,9.7,17.2,-29.4,55.8,10.4592,17.043,9.32384,-6.61757,10.8837,2.83017,22.8263,-15.8517,48.7903,-0.0324442999999999,0.341451,0.941399,272.9,4.1,52.1701,4.42724,-0.1,-4.7817300000000005,137.07,4.51866,49.8572,18.2409,232.146,1.34597,-0.157006,238.139,2.91788,3.03632,-33.017578125,22.0009689331055,-17.9984722137451,22.0,-1075070.0,24457.8,pp-riro,4,0,-1,-1
1570535664.1,2019-10-08,13:54:24.100,14.0,11.0,15.4099998474121,9.0,21.1,10.0,16.1,-29.3,61.8,9.73583,18.1032,9.7641,-8.24709,9.65761,3.98692,21.3492,-16.4117,54.9284,-0.0613991999999999,0.266949,0.986378,273.3,4.5,52.1701,4.42724,-0.1,-4.70416,144.037,4.5188,51.8433,19.381,231.146,1.33577,-0.164166,237.68,3.01973,3.0993,-31.643630981445305,22.0009689331055,-17.2484378814697,22.0,-1073580.0,30364.5,pp-riro,4,0,-1,-1
1570535664.2,2019-10-08,13:54:24.200,14.0,11.0,16.0300006866455,8.0,22.4,10.2,15.3,-29.0,67.8,8.434460000000001,19.8449,10.2873,-8.83104,9.1545,3.83605,18.925,-16.9582,63.9244,-0.0304317,0.2639289999999999,0.931869,273.3,4.5,52.1701,4.42724,-0.1,-4.47145,160.336,4.519019999999999,54.0046,20.521,230.146,1.32485,-0.169764,237.286,3.11957,3.16031,-29.9112548828125,22.0009689331055,-16.534255981445302,22.0,-1069630.0,42393.5,pp-riro,4,0,-1,-1
1570535664.3,2019-10-08,13:54:24.300,14.0,11.0,16.629999160766598,6.6,23.5,10.6,14.5,-28.6,73.9,6.87437,21.642,10.6686,-11.9956,11.4104,2.7967,16.2385,-17.3873,72.525,0.0874981,0.227917,0.933501,273.3,4.5,52.1701,4.42724,-0.1,-3.96723,192.938,4.51923,56.3412,21.2811,229.046,1.31367,-0.167995,236.832,3.21408,3.22266,-27.866531372070305,22.0009689331055,-15.6203298568726,22.0,-1060980.0,66143.6,pp-riro,4,0,-1,-1
1570535664.4,2019-10-08,13:54:24.400,14.0,10.0,17.1000003814697,5.1,24.4,10.9,13.2,-28.7,79.4,6.87437,21.642,10.6686,-11.9956,11.4104,2.7967,16.2385,-17.3873,72.525,0.0874981,0.227917,0.933501,273.3,4.5,52.1701,4.42724,-0.1,-3.52009,210.539,4.51945,58.6777,21.6611,227.946,1.30299,-0.1605859999999999,236.372,3.29361,3.27822,-25.762077331543,22.0009689331055,-14.683931350708,22.0,-1053640.0,75465.3,pp-riro,4,0,-1,-1
1570535664.5,2019-10-08,13:54:24.500,14.0,10.0,17.5599994659424,3.7,24.9,10.8,11.6,-28.0,84.6,4.82453,23.1899,11.1562,-17.3027,8.57859,2.16657,13.8159,-18.0847,80.9207,-0.101623,0.204274,0.8955540000000001,273.3,4.5,52.1701,4.42724,-0.1,-3.28294,212.977,4.51966,61.1312,22.4212,226.746,1.29116,-0.1588089999999999,235.91,3.37376,3.33052,-23.6524963378906,22.0009689331055,-14.0194683074951,22.0,-1049470.0,74080.9,pp-riro,4,0,-1,-1
1570535664.6,2019-10-08,13:54:24.600,14.0,8.0,18.0499992370605,2.2,25.3,10.4,10.2,-26.9,90.2,2.08671,24.1138,10.7257,-19.6828,5.69959,-3.65775,10.6247,-18.6247,91.1122,-0.1927559999999999,0.185722,0.601172,273.3,4.5,52.1701,4.42724,-0.1,-2.72664,203.453,4.519880000000001,63.7014,22.8012,225.646,1.27948,-0.151216,235.571,3.4560000000000004,3.3804,-21.5395126342773,22.0009689331055,-13.251745223999,22.0,-1043020.0,62236.6,pp-riro,4,0,-1,-1
1570535664.7,2019-10-08,13:54:24.700,14.0,8.0,18.4400005340576,0.7,25.2,10.4,9.2,-25.9,94.3,0.640979,24.4728,10.5177,-16.3695,-4.01103,2.75057,9.42775,-18.0936,95.7175,0.0420771,0.2269989999999999,0.4574859999999999,273.3,4.5,52.1701,4.42724,0.0,-2.2495700000000003,191.398,4.52015,66.184,22.8012,224.646,1.26872,-0.139544,235.3,3.5112400000000004,3.42348,-19.4282302856445,22.0009689331055,-12.4811515808105,22.0,-1038370.0,44208.6,pp-riro,4,0,-1,-1
1570535664.8,2019-10-08,13:54:24.800,14.0,8.0,18.5799999237061,-0.5,25.1,10.0,8.3,-25.2,98.0,0.640979,24.4728,10.5177,-16.3695,-4.01103,2.75057,9.42775,-18.0936,95.7175,0.0420771,0.2269989999999999,0.4574859999999999,273.3,4.5,52.1701,4.42724,0.0,-1.59742,176.696,4.5203,68.6958,22.8013,223.646,1.25779,-0.128389,235.067,3.56046,3.45807,-18.434890747070305,22.0009689331055,-11.9102268218994,22.0,-1033630.0,26180.6,pp-riro,4,0,-1,-1
1570535664.9,2019-10-08,13:54:24.900,14.0,7.0,18.6299991607666,-1.7,24.7,9.5,7.3,-24.0,101.5,-0.0233833,24.2373,10.5271,-11.1059,-3.08466,-3.08351,9.08273,-18.2534,97.6465,-0.0215345,0.0248264,0.636076,273.3,4.5,52.1701,4.42724,0.0,-1.41402,170.22299999999998,4.520519999999999,71.2369,22.8013,222.746,1.24683,-0.1179019999999999,234.969,3.60868,3.4945699999999995,-16.5983963012695,22.0009689331055,-11.3314666748047,22.0,-1032560.0,21042.9,pp-riro,4,0,-1,-1
1570535665.0,2019-10-08,13:54:25.000,14.0,8.0,18.4300003051758,-2.6,24.7,9.2,6.6,-22.8,104.4,-2.29487,23.879,9.47763,-6.64572,3.82455,-11.1333,7.681839999999999,-17.5217,103.84,0.0752573,0.218769,0.714263,273.3,4.5,52.1701,4.42724,0.0,-1.0727,161.843,4.52073,73.6903,22.8013,221.846,1.23617,-0.10842,234.874,3.64887,3.52041,-14.9889068603516,22.0009689331055,-10.9938726425171,22.0,-1031020.0,13259.5,pp-riro,4,0,-1,-1
1570535665.1,2019-10-08,13:54:25.100,14.0,7.0,18.1399993896484,-2.9,24.8,9.3,5.1,-22.2,107.4,-2.69814,23.886,9.36698,-5.28273,0.725954,-1.7595299999999998,7.38161,-17.0985,105.26,0.0425455999999999,0.270811,0.5451550000000001,273.3,4.4,52.1701,4.42724,0.0,-0.7845810000000001,165.195,4.52087,76.1729,22.4214,220.946,1.22579,-0.0947419,234.781,3.68545,3.51789,-13.2906646728516,22.0009689331055,-11.0961437225342,22.0,-1030040.0,8983.23,pp-riro,4,0,-1,-1
1570535665.2,2019-10-08,13:54:25.200,14.0,10.0,17.8500003814697,-3.2,24.9,9.0,3.8,-20.8,110.7,-3.03709,23.9588,9.11312,-2.8002700000000003,2.6871,-2.0665400000000003,5.17788,-16.6438,109.672,-0.2554,0.112467,0.503069,273.3,4.4,52.1701,4.42724,0.0,-0.294218,178.761,4.520919999999999,78.7432,22.4214,220.046,1.21459,-0.0859341,234.784,3.73441,3.5218199999999995,-12.2085723876953,22.0009689331055,-11.2650079727173,22.0,-1029150.0,4153.21,pp-riro,4,0,-1,-1
1570535665.3,2019-10-08,13:54:25.300,14.0,9.0,17.7999992370605,-3.6,25.0,9.1,2.4,-20.2,113.7,-3.4043400000000004,24.184,8.8917,-3.70835,7.2462,0.469284,3.70595,-16.1883,112.774,-0.26697,0.0356309,0.436681,273.3,4.4,52.1701,4.42724,0.0,-0.119682,180.767,4.520980000000001,81.2258,22.0414,219.146,1.20411,-0.0735416,234.752,3.77289,3.52415,-11.4336929321289,22.0009689331055,-11.336254119873,22.0,-1029090.0,1169.05,pp-riro,4,0,-1,-1
1570535665.4,2019-10-08,13:54:25.400,14.0,9.0,17.7399997711182,-4.2,24.9,9.2,1.0,-19.8,116.3,-3.4043400000000004,24.184,8.8917,-3.70835,7.2462,0.469284,3.70595,-16.1883,112.774,-0.26697,0.0356309,0.436681,273.3,4.4,52.1701,4.42724,0.0,0.259865,175.333,4.52104,83.7376,21.6614,218.146,1.19331,-0.0617811,234.668,3.80484,3.53499,-11.017242431640598,22.0009689331055,-11.2851991653442,22.0,-1029380.0,-4337.79,pp-riro,4,0,-1,-1
1570535665.5,2019-10-08,13:54:25.500,14.0,8.0,17.6900005340576,-4.8,24.6,9.0,-0.6,-20.0,118.6,-3.4043400000000004,24.184,8.8917,-3.70835,7.2462,0.469284,3.70595,-16.1883,112.774,-0.26697,0.0356309,0.436681,273.3,4.4,52.1701,4.42724,0.0,0.355167,164.635,4.52109,86.2494,21.2815,217.146,1.18246,-0.0506151,234.615,3.82999,3.5490800000000005,-10.9404296875,22.0009689331055,-11.2060508728027,22.0,-1029280.0,3876.33,pp-riro,4,0,-1,-1
1570535665.6,2019-10-08,13:54:25.600,14.0,9.0,17.5900001525879,-5.5,24.7,8.9,-1.8,-19.7,120.3,-4.83251,24.1196,8.61618,-4.88787,0.705671,-2.73794,-0.1963359999999999,-15.4949,118.966,-0.282942,-0.0111778,0.205455,273.3,4.4,52.1701,4.42724,0.0,0.240472,174.554,4.52115,88.7321,20.9015,216.146,1.1716799999999998,-0.0401008,234.584,3.84837,3.56495,-11.1520767211914,22.0009689331055,-11.1267013549805,22.0,-1029200.0,-984.464,pp-riro,4,0,-1,-1
1570535665.7,2019-10-08,13:54:25.700,14.0,7.0,17.5900001525879,-6.8,24.4,9.7,-2.7,-19.8,121.3,-4.83251,24.1196,8.61618,-4.88787,0.705671,-2.73794,-0.1963359999999999,-15.4949,118.966,-0.282942,-0.0111778,0.205455,273.3,4.4,52.1701,4.42724,0.1,0.40448,237.524,4.52121,91.1563,20.1415,215.146,1.1614,-0.0262787,234.527,3.85085,3.59595,-11.204986572265598,22.0009689331055,-10.6249370574951,22.0,-1029310.0,799.877,pp-riro,4,0,-1,-1
1570535665.8,2019-10-08,13:54:25.800,14.0,10.0,17.5900001525879,-7.5,23.6,10.4,-4.2,-21.6,122.6,-6.42093,24.1104,9.02576,-12.8896,-2.6169,8.41052,-2.9758,-15.0566,121.47,-0.245191,0.00493704,0.31765,273.3,4.4,52.1701,4.42724,0.1,0.409467,245.314,4.52126,93.6681,19.3815,214.046,1.15054,-0.0129113,234.446,3.84999,3.6102,-11.0377197265625,22.0009689331055,-10.5236368179321,22.0,-1029290.0,430.703,pp-riro,4,0,-1,-1
1570535665.9,2019-10-08,13:54:25.900,14.0,9.0,17.5900001525879,-8.1,23.3,9.8,-5.3,-21.9,123.5,-6.42093,24.1104,9.02576,-12.8896,-2.6169,8.41052,-2.9758,-15.0566,121.47,-0.245191,0.00493704,0.31765,273.3,4.4,52.1701,4.42724,0.1,0.43163,233.05900000000003,4.521319999999999,96.0339,18.6215,212.946,1.14017,-0.000459007,234.34,3.85089,3.62713,-10.6246795654297,22.0009689331055,-10.3909120559692,22.0,-1029240.0,1045.99,pp-riro,4,0,-1,-1
1570535666.0,2019-10-08,13:54:26.000,14.0,10.0,17.840000152587898,-8.9,23.1,9.7,-6.3,-21.1,124.3,-7.90273,22.977,9.61467,-3.87442,-3.29967,-8.711739999999999,-5.57896,-17.0016,123.663,0.160361,-0.1099319999999999,0.126377,273.3,4.4,52.1701,4.42724,0.1,0.356829,219.773,4.521380000000001,98.3413,17.8616,211.846,1.12996,0.0113441,234.241,3.85656,3.64754,-10.476188659668,22.0009689331055,35.0,22.0,-1029000.0,553.761,pp-riro,4,0,-1,-1
1570535666.1,2019-10-08,13:54:26.100,14.0,9.0,18.3700008392334,-10.0,23.0,10.3,-6.2,-21.2,124.7,-7.90273,22.977,9.61467,-3.87442,-3.29967,-8.711739999999999,-5.57896,-17.0016,123.663,0.160361,-0.1099319999999999,0.126377,250.5,3.9,52.1701,4.42724,0.1,0.376222,232.68400000000003,4.52137,100.678,17.1016,210.746,1.1195700000000002,0.0227598,234.185,3.85183,3.671780000000001,-10.3959732055664,22.0009689331055,35.0,22.0,-1029020.0,-399.9380000000001,pp-riro,4,0,-1,-1
1570535666.2,2019-10-08,13:54:26.200,14.0,8.0,18.75,-10.6,22.4,10.6,-7.5,-22.5,125.5,-7.90273,22.977,9.61467,-3.87442,-3.29967,-8.711739999999999,-5.57896,-17.0016,123.663,0.160361,-0.1099319999999999,0.126377,250.5,3.9,52.1701,4.42724,0.1,0.790676,257.442,4.52131,102.956,15.5816,209.646,1.1098,0.0408818,234.082,3.84097,3.68056,-10.191162109375,22.0009689331055,35.0,22.0,-1030640.0,-18704.8,pp-riro,4,0,-1,-1
1570535666.3,2019-10-08,13:54:26.300,14.0,8.0,19.1299991607666,-10.8,22.0,9.7,-8.5,-22.8,126.6,-9.13142,22.6834,9.50628,-2.44808,1.04803,4.79413,-8.10064,-16.9374,124.205,-0.221264,0.092776,0.151173,250.5,3.9,52.1701,4.42724,0.1,1.17853,243.189,4.52124,105.176,14.8216,208.546,1.09973,0.05115,234.037,3.8469,3.69117,-9.61085510253906,22.0009689331055,35.0,22.0,-1031810.0,2215.04,pp-riro,4,0,-1,-1
1570535666.4,2019-10-08,13:54:26.400,14.0,9.0,19.3999996185303,-11.0,22.0,9.6,-8.9,-21.6,127.4,-9.13142,22.6834,9.50628,-2.44808,1.04803,4.79413,-8.10064,-16.9374,124.205,-0.221264,0.092776,0.151173,250.5,3.9,52.1701,4.42724,0.1,0.914236,212.828,4.52117,107.366,13.6816,207.546,1.0901,0.0644371,234.073,3.85406,3.68717,-8.68236541748047,22.0009689331055,35.0,22.0,-1030310.0,-4799.26,pp-riro,4,0,-1,-1
1570535666.5,2019-10-08,13:54:26.500,14.0,7.0,19.8899993896484,-11.4,21.5,10.5,-9.6,-22.4,128.6,-10.695,21.5199,9.14668,-2.07518,-0.0369935,-1.92531,-10.6662,-19.1922,126.808,-0.0587243,0.202842,0.0695228,250.5,3.9,52.1701,4.42724,0.1,1.04611,246.82,4.52111,109.528,12.9216,206.446,1.08015,0.0738493,234.058,3.85946,3.69104,-7.40229034423828,22.0009689331055,35.0,22.0,-1030550.0,738.3480000000001,pp-riro,4,0,-1,-1
1570535666.6,2019-10-08,13:54:26.600,14.0,8.0,20.1100006103516,-11.5,21.0,10.3,-10.1,-22.5,129.8,-11.1565,21.0163,10.0997,-0.129725,-1.496,6.41244,-11.9894,-19.2899,128.828,-0.0493089,-0.147378,0.282928,250.5,3.9,52.1701,4.42724,0.1,1.0389,251.873,4.52104,111.748,11.4016,205.346,1.07025,0.0896697,234.061,3.8632,3.68937,-5.7569580078125,22.0009689331055,35.0,22.0,-1030300.0,4953.08,pp-riro,4,0,-1,-1
1570535666.7,2019-10-08,13:54:26.700,14.0,6.0,20.4599990844727,-11.4,20.9,10.0,-10.4,-21.3,130.6,-11.1373,20.4795,9.67076,-1.23851,1.30786,-7.0644,-12.6745,-20.4037,130.634,-0.0763066,0.0443356,0.0401193,250.5,3.9,52.1701,4.42724,0.3,1.02228,239.999,4.520969999999999,113.938,10.2616,204.246,1.06023,0.1015929999999999,234.102,3.87221,3.67987,-3.76344299316406,22.0009689331055,35.0,22.0,-1029930.0,2861.1,pp-riro,4,0,-1,-1
1570535666.8,2019-10-08,13:54:26.800,14.0,8.0,20.5400009155273,-11.6,20.7,10.5,-10.7,-21.3,131.5,-11.1373,20.4795,9.67076,-1.23851,1.30786,-7.0644,-12.6745,-20.4037,130.634,-0.0763066,0.0443356,0.0401193,250.5,3.9,52.1701,4.42724,0.3,1.0173,251.443,4.52091,116.012,9.12164,203.146,1.05059,0.113015,234.116,3.87603,3.6749,-1.65727996826172,22.0009689331055,35.0,22.0,-1029720.0,1169.05,pp-riro,4,0,-1,-1
1570535666.9,2019-10-08,13:54:26.900,14.0,8.0,20.7600002288818,-11.4,20.2,11.0,-10.7,-21.4,131.6,-11.1373,20.4795,9.67076,-1.23851,1.30786,-7.0644,-12.6745,-20.4037,130.634,-0.0763066,0.0443356,0.0401193,250.5,3.9,52.1701,4.42724,0.3,1.03503,259.907,4.52084,118.056,7.98165,202.046,1.041,0.12404,234.145,3.86746,3.66079,0.441116333007812,22.0009689331055,35.0,22.0,-1029730.0,-276.88,pp-riro,4,0,-1,-1
1570535667.0,2019-10-08,13:54:27.000,14.0,8.0,20.7999992370605,-11.1,20.1,10.8,-10.7,-21.8,131.2,-11.3109,19.9768,10.6705,-4.69864,-2.1053900000000003,0.920812,-13.6032,-20.4825,132.572,0.180278,-0.0426099,0.0594597,250.5,3.9,52.1701,4.42724,0.3,1.06605,261.712,4.52078,120.13,6.84167,200.846,1.03105,0.134721,234.131,3.8498,3.6445,2.5393829345703103,22.0009689331055,35.0,22.0,-1029570.0,3014.92,pp-riro,4,0,-1,-1
1570535667.1,2019-10-08,13:54:27.100,14.0,8.0,20.5799999237061,-10.6,20.2,11.0,-10.6,-21.6,130.0,-11.232,19.9532,10.7618,1.19521,1.06045,-2.83874,-13.6459,-20.9427,132.46,-0.00293977,-0.0562408999999999,-0.306095,242.2,4.5,52.1701,4.42724,0.3,1.02671,253.675,4.5206800000000005,122.145,5.7016800000000005,199.746,1.02148,0.145068,234.202,3.82417,3.6146,4.64447021484375,22.0009689331055,35.0,22.0,-1029020.0,2676.51,pp-riro,4,0,-1,-1
1570535667.2,2019-10-08,13:54:27.200,14.0,9.0,20.409999847412102,-10.5,20.6,11.8,-10.0,-22.2,128.1,-10.7148,20.2015,10.9545,-3.93678,1.4186299999999998,4.84759,-13.3857,-21.8867,130.942,-0.00267899,-0.32923,-0.1849849999999999,242.2,4.5,52.1701,4.42724,0.3,1.06273,279.54400000000004,4.52054,124.19,4.5616900000000005,198.646,1.01176,0.155135,234.317,3.78328,3.58998,6.75125885009766,22.0009689331055,35.0,22.0,-1029010.0,-338.409,pp-riro,4,0,-1,-1
1570535667.3,2019-10-08,13:54:27.300,14.0,9.0,20.0599994659424,-9.5,20.9,12.7,-10.2,-23.6,126.2,-10.7148,20.2015,10.9545,-3.93678,1.4186299999999998,4.84759,-13.3857,-21.8867,130.942,-0.00267899,-0.32923,-0.1849849999999999,242.2,4.5,52.1701,4.42724,0.3,1.09487,293.683,4.5204,126.322,3.80172,197.346,1.0012,0.1619,234.344,3.7408,3.5378199999999995,8.85463714599609,22.0009689331055,35.0,22.0,-1029040.0,-553.761,pp-riro,4,0,-1,-1
1570535667.4,2019-10-08,13:54:27.400,14.0,11.0,19.840000152587898,-8.3,21.2,13.3,-10.4,-25.5,124.2,-10.1132,21.0929,12.3025,10.6481,4.2015,9.14952,-13.826,-24.4592,128.576,-0.0602624,-0.373054,-0.397353,242.2,4.5,52.1701,4.42724,0.3,1.13753,307.031,4.52027,128.39600000000002,2.66174,196.046,0.990868,0.171396,234.364,3.69217,3.4794,10.9563140869141,22.0009689331055,35.0,22.0,-1028830.0,3230.27,pp-riro,4,0,-1,-1
1570535667.5,2019-10-08,13:54:27.500,14.0,11.0,19.659999847412102,-7.0,21.4,13.8,-9.8,-26.6,120.7,-9.01427,21.5818,13.1616,10.0083,9.87238,4.613659999999999,-13.7769,-26.8758,126.802,-0.180177,-0.237316,-0.280864,242.2,4.5,52.1701,4.42724,0.3,1.12202,299.855,4.52013,130.55700000000002,2.28179,194.646,0.979908,0.174785,234.388,3.63146,3.42457,13.0579986572266,22.0009689331055,35.0,22.0,-1028280.0,3414.86,pp-riro,4,0,-1,-1
1570535667.6,2019-10-08,13:54:27.600,14.0,10.0,19.6100006103516,-5.6,21.5,14.9,-9.5,-28.5,116.7,-7.15724,22.3415,14.1098,19.1104,7.74886,14.726,-13.6189,-29.7235,121.602,-0.4629729999999999,-0.300585,-0.492355,242.2,4.5,52.1701,4.42724,0.3,1.12312,308.395,4.51999,132.66,1.14181,193.246,0.969183,0.18379,234.402,3.5554,3.35956,15.1749954223633,22.0009689331055,35.0,22.0,-1027980.0,2245.81,pp-riro,4,0,-1,-1
1570535667.7,2019-10-08,13:54:27.700,14.0,10.0,19.6499996185303,-3.8,21.5,15.3,-8.4,-30.5,112.0,-7.15724,22.3415,14.1098,19.1104,7.74886,14.726,-13.6189,-29.7235,121.602,-0.4629729999999999,-0.300585,-0.492355,242.2,4.5,52.1701,4.42725,0.5,1.13254,311.369,4.51986,134.792,0.761853,191.746,0.958071,0.186882,234.385,3.47534,3.28922,17.2800827026367,22.0009689331055,35.0,22.0,-1027920.0,1322.87,pp-riro,4,0,-1,-1
1570535667.8,2019-10-08,13:54:27.800,14.0,11.0,19.8299999237061,-1.7,21.3,15.8,-7.0,-32.8,107.1,-4.5850800000000005,22.797,15.4358,15.8511,0.306521,7.0252300000000005,-12.3599,-34.4187,115.41,-0.305898,-0.155188,-0.934434,242.2,4.5,52.1701,4.42725,0.5,1.14418,306.461,4.51972,136.924,0.3819,190.246,0.946955,0.189882,234.397,3.39376,3.20785,19.4039001464844,22.0009689331055,35.0,22.0,-1027590.0,4676.2,pp-riro,4,0,-1,-1
1570535667.9,2019-10-08,13:54:27.900,14.0,10.0,20.090000152587898,0.0,20.7,15.7,-4.6,-34.7,100.9,-4.5850800000000005,22.797,15.4358,15.8511,0.306521,7.0252300000000005,-12.3599,-34.4187,115.41,-0.305898,-0.155188,-0.934434,242.2,4.5,52.1701,4.42725,0.5,1.10983,292.355,4.51958,138.998,0.381957,188.746,0.936036,0.1900599999999999,234.405,3.29997,3.14378,21.510681152343803,22.0009689331055,-23.0044822692871,22.0,-1027100.0,4276.26,pp-riro,4,0,-1,-1
1570535668.0,2019-10-08,13:54:28.000,14.0,10.0,20.2199993133545,2.0,20.2,15.5,-1.3,-35.7,93.1,0.766766,22.2999,16.1775,20.2676,-0.0638928,-1.76985,-6.977110000000001,-40.7595,100.258,-0.204208,-0.2317429999999999,-1.12686,242.2,4.5,52.1701,4.42725,0.5,1.09819,288.087,4.51944,141.013,0.3820139999999999,187.346,0.925575,0.190235,234.486,3.18773,3.06535,23.631103515625,22.0009689331055,23.0044822692871,22.0,-1026680.0,2399.63,pp-ro,1,1,-1,-1
1570535668.1,2019-10-08,13:54:28.100,14.0,11.0,20.3099994659424,3.9,19.2,15.6,2.6,-36.5,84.8,1.9255400000000005,22.0541,16.2761,17.6569,-7.3748,-0.936004,-4.9488,-41.8805,96.0774,-0.2316909999999999,-0.314418,-1.2757,259.0,4.3,52.1701,4.42725,0.5,1.09985,285.811,4.519340000000001,142.97,0.762081,185.946,0.915315,0.187718,234.557,3.07294,2.98932,25.5079650878906,22.0009689331055,23.0044822692871,22.0,-1026530.0,2799.57,pp-ro,1,1,-1,-1
1570535668.2,2019-10-08,13:54:28.200,14.0,10.0,20.2600002288818,5.7,18.3,14.9,6.8,-37.3,76.6,4.09814,21.0892,16.2721,21.9194,-16.3351,2.22588,-0.574483,-44.0136,87.5547,-0.2346239999999999,-0.193407,-0.822206,259.0,4.3,52.1701,4.42725,0.5,1.0788,268.848,4.51927,144.781,1.14214,184.646,0.905811,0.185231,234.642,2.9624,2.91068,27.016944885253896,22.0009689331055,23.0044822692871,22.0,-1026150.0,4153.21,pp-ro,1,1,-1,-1
1570535668.3,2019-10-08,13:54:28.300,14.0,11.0,20.0400009155273,7.6,17.4,14.1,11.1,-36.2,68.0,7.45585,19.9307,15.2312,20.9968,-6.15832,-4.48736,6.60244,-44.7741,74.1318,-0.178112,0.00686303,-1.25765,259.0,4.3,52.1701,4.42725,0.5,1.04167,250.595,4.5192,146.621,2.28223,183.246,0.895917,0.177627,234.696,2.84671,2.82654,28.185302734375,22.0009689331055,22.3705501556396,22.0,-1025710.0,4245.5,pp-ro,1,1,-1,-1
1570535668.4,2019-10-08,13:54:28.400,14.0,11.0,19.7800006866455,8.4,16.9,13.9,15.5,-34.2,58.9,8.52041,19.4732,14.9942,17.79,-12.9659,-10.2714,9.19425,-44.0394,68.836,-0.6187779999999999,-0.259738,-1.54399,259.0,4.3,52.1701,4.42725,0.5,1.0317,253.534,4.5191300000000005,148.315,2.66229,182.046,0.8870709999999999,0.175315,234.83,2.71421,2.78895,29.0062255859375,22.0009689331055,21.9792003631592,22.0,-1025440.0,646.054,pp-ro,1,1,-1,-1
1570535668.5,2019-10-08,13:54:28.500,14.0,10.0,19.3299999237061,11.1,15.1,13.4,19.4,-32.7,51.1,10.7591,18.3701,14.6678,18.921,-16.5025,-1.53582,14.1624,-43.6106,58.8903,0.240943,-0.0905156999999999,-1.02156,259.0,4.3,52.1701,4.42725,0.5,1.04334,256.501,4.51905,149.892,3.80237,180.846,0.878559,0.167972,234.92,2.6044400000000003,2.65781,29.2821197509766,22.0009689331055,19.6134243011475,22.0,-1025380.0,1199.82,pp-ro,1,1,-1,-1
1570535668.6,2019-10-08,13:54:28.600,14.0,10.0,19.0499992370605,11.9,14.4,12.8,21.3,-31.6,46.8,10.7591,18.3701,14.6678,18.921,-16.5025,-1.53582,14.1624,-43.6106,58.8903,0.240943,-0.0905156999999999,-1.02156,259.0,4.3,52.1701,4.42725,0.5,1.045,251.726,4.51898,150.681,4.1824,180.246,0.8743139999999999,0.165656,234.97,2.54042,2.60906,29.5733642578125,22.0009689331055,18.7949924468994,22.0,-1025110.0,3291.8,pp-ro,1,1,-1,-1
1570535668.7,2019-10-08,13:54:28.700,14.0,11.0,18.8099994659424,13.4,13.2,11.9,24.0,-28.9,40.0,14.7189,15.7325,12.8702,22.9111,-7.77573,-12.4051,23.2225,-39.9144,41.007,-0.430067,0.0539562,-1.11956,259.0,4.3,52.1701,4.42725,0.6,1.01896,242.673,4.51891,152.112,5.70249,179.046,0.866207,0.155971,235.006,2.43514,2.52358,29.5324859619141,22.0009689331055,17.2951126098633,22.0,-1024780.0,2953.39,pp-ro,1,1,-1,-1
1570535668.8,2019-10-08,13:54:28.800,14.0,10.0,18.5799999237061,14.7,11.7,11.1,26.7,-26.1,33.2,16.3631,14.0284,11.9186,10.1949,-18.7884,-3.26585,26.3002,-36.6944,33.5328,0.00599587,-0.0407902,-1.04632,259.0,4.3,52.1701,4.42725,0.6,1.02117,242.51,4.51884,153.484,6.842560000000001,177.946,0.8585799999999999,0.148997,235.094,2.32498,2.4351,29.0930786132812,22.0009689331055,15.7711248397827,22.0,-1024500.0,1999.69,pp-ro,1,1,-1,-1
1570535668.9,2019-10-08,13:54:28.900,14.0,10.0,18.3899993896484,15.7,10.2,10.1,29.1,-23.3,27.5,17.7171,12.4633,10.788,14.5578,-19.0306,-15.2234,28.575,-33.4727,26.8499,-0.17554,0.44666,-0.79227,259.0,4.3,52.1701,4.42725,0.6,1.02007,239.645,4.51877,154.653,8.362639999999999,176.946,0.8518040000000001,0.1396,235.154,2.22976,2.35047,28.2960052490234,22.0009689331055,14.2488346099854,22.0,-1024380.0,2338.1,pp-ro,1,1,-1,-1
1570535669.0,2019-10-08,13:54:29.000,14.0,10.0,18.1399993896484,16.4,8.9,9.1,31.1,-20.7,21.9,18.217,11.4923,10.1381,20.7633,-12.893,-14.8015,29.4559,-31.5331,23.672,-0.063511,0.0698058999999999,-0.86934,259.0,4.3,52.1701,4.42725,0.6,0.99624,219.259,4.5187,155.704,9.88271,175.946,0.84536,0.130306,235.156,2.13671,2.27631,27.1412734985352,22.0009689331055,12.9306964874268,22.0,-1024080.0,3322.56,pp-ro,1,1,-1,-1
1570535669.1,2019-10-08,13:54:29.100,14.0,10.0,17.8500003814697,16.9,7.9,8.1,32.8,-17.6,16.6,19.1128,10.0519,8.9655,1.37712,-18.7068,-13.5314,31.6727,-27.595,18.3232,0.0824957,0.255587,-1.06843,263.2,5.6,52.1701,4.42725,0.6,0.950805,200.702,4.51866,156.639,11.4028,175.146,0.839809,0.121058,235.248,2.04143,2.21335,25.6322937011719,22.0009689331055,11.8004961013794,22.0,-1023690.0,3753.27,pp-ro,1,1,-1,-1
1570535669.2,2019-10-08,13:54:29.200,14.0,10.0,17.5499992370605,17.3,6.9,7.1,34.8,-14.6,11.7,19.5999,8.80034,7.76232,2.22916,-10.1161,-14.6185,33.7299,-24.3059,12.6821,-0.0285192,0.095411,-1.16437,263.2,5.6,52.1701,4.42725,0.6,0.953576,207.83,4.518669999999999,157.485,13.3029,174.34599999999998,0.8343969999999999,0.109452,235.319,1.95332,2.15196,23.241081237793,22.0009689331055,10.6634244918823,22.0,-1023560.0,-61.529,pp-ro,1,1,-1,-1
1570535669.3,2019-10-08,13:54:29.300,14.0,11.0,17.2999992370605,17.7,5.8,6.4,35.7,-11.2,7.1,19.5999,8.80034,7.76232,2.22916,-10.1161,-14.6185,33.7299,-24.3059,12.6821,-0.0285192,0.095411,-1.16437,263.2,5.6,52.1701,4.42725,0.6,0.96632,208.593,4.518669999999999,158.303,15.2029,173.646,0.8293,0.0979757,235.466,1.86379,2.09333,21.139404296875,22.0009689331055,9.5758581161499,22.0,-1023520.0,830.6410000000001,pp-ro,1,1,-1,-1
1570535669.4,2019-10-08,13:54:29.400,14.0,12.0,17.0900001525879,18.1,4.9,5.6,37.3,-8.4,2.6,20.3876,6.17305,5.87689,0.81932,-10.8734,-8.64391,35.9747,-16.1074,3.03426,0.3209349999999999,-0.0403395,-0.8866040000000001,263.2,5.6,52.1701,4.42725,0.6,0.953576,200.384,4.518669999999999,158.975,17.102999999999998,173.146,0.825174,0.0865447,235.68,1.78191,2.03741,19.0309143066406,22.0009689331055,8.497926712036131,22.0,-1023260.0,2922.63,pp-ro,1,1,-1,-1
1570535669.5,2019-10-08,13:54:29.500,14.0,12.0,16.9899997711182,18.2,4.4,4.6,38.6,-6.3,-1.1,20.4598,5.24706,4.856730000000001,3.95469,-3.00238,-16.8729,37.2386,-13.0164,-1.4024,0.065204,-0.118765,-0.800222,263.2,5.6,52.1701,4.42725,0.6,0.933075,194.031,4.518680000000001,159.588,18.6231,172.546,0.8210209999999999,0.0775427,235.77,1.7165400000000002,1.99231,16.9224166870117,22.0009689331055,7.68419599533081,22.0,-1023030.0,1907.4,pp-ro,1,1,-1,-1
1570535669.6,2019-10-08,13:54:29.600,14.0,10.0,16.9400005340576,18.8,3.6,4.0,39.8,-3.6,-4.5,20.7795,4.46828,3.82834,2.72357,-8.60867,-8.53148,38.0406,-9.30656,-4.84542,0.221517,0.18153,-0.681551,263.2,5.6,52.1701,4.42725,0.6,0.939724,201.971,4.518669999999999,160.143,20.9031,172.146,0.817291,0.0639252,236.045,1.65114,1.9439,14.8207397460938,22.0009689331055,6.7122287750244105,22.0,-1022940.0,615.29,pp-ro,1,1,-1,-1
1570535669.7,2019-10-08,13:54:29.700,14.0,10.0,16.9899997711182,18.9,2.8,3.7,41.0,-2.0,-7.7,20.8477,3.87555,3.54645,-1.4858,-16.222,-5.57604,38.4154,-7.70575,-6.35112,0.231393,-0.0189854,-0.639034,263.2,5.6,52.1701,4.42724,0.8,0.967982,215.634,4.518680000000001,160.55200000000002,22.4232,171.74599999999998,0.814253,0.0549394,236.17,1.59794,1.90949,12.7360992431641,22.0009689331055,6.0597825050354,22.0,-1022890.0,522.996,pp-ro,1,1,-1,-1
1570535669.8,2019-10-08,13:54:29.800,14.0,11.0,16.9899997711182,18.8,2.2,3.0,41.8,-1.1,-10.3,20.9,3.3152,3.38709,-1.87602,-10.8348,-2.38468,38.9317,-6.65042,-8.036430000000001,0.303754,-0.0928013,-0.704801,263.2,5.6,52.1701,4.42724,0.8,0.976293,213.573,4.51869,160.931,24.7033,171.34599999999998,0.810919,0.0413884,236.366,1.5641200000000002,1.87408,10.818359375,22.0009689331055,5.33703756332397,22.0,-1022720.0,2276.57,pp-ro,1,1,-1,-1
1570535669.9,2019-10-08,13:54:29.900,14.0,10.0,16.9899997711182,19.0,1.7,2.3,43.3,0.0,-12.2,20.5338,1.61988,1.81084,3.28127,-5.81139,-7.88233,41.5543,-0.89715,-13.5124,0.387103,0.0410539,-0.51046,263.2,5.6,52.1701,4.42724,0.8,0.957454,206.33,4.51869,161.253,26.6033,170.946,0.8078649999999999,0.0301917,236.501,1.53506,1.83705,9.10840606689453,22.0009689331055,4.60809993743896,22.0,-1022470.0,2430.39,pp-ro,1,1,-1,-1
1570535670.0,2019-10-08,13:54:30.000,14.0,10.0,16.9899997711182,19.2,1.1,2.1,44.5,1.6,-13.8,20.5338,1.61988,1.81084,3.28127,-5.81139,-7.88233,41.5543,-0.89715,-13.5124,0.387103,0.0410539,-0.51046,263.2,5.6,52.1701,4.42724,0.8,0.958562,211.048,4.51869,161.486,28.5034,170.74599999999998,0.805602,0.0189875,236.737,1.50373,1.81396,7.606231689453121,22.0009689331055,4.11169338226318,22.0,-1022320.0,1107.52,pp-ro,1,1,-1,-1
1570535670.1,2019-10-08,13:54:30.100,14.0,10.0,16.879999160766598,19.3,0.4,1.9,45.7,2.1,-15.6,20.6661,0.8695639999999999,1.6471900000000002,-1.5209,-6.941660000000001,-2.3071,42.6542,0.8325610000000001,-15.26,0.2580119999999999,-0.197345,-0.3003099999999999,266.4,5.7,52.1701,4.42724,0.8,0.984604,222.171,4.51871,161.661,30.4034,170.446,0.803163,0.00778505,236.877,1.48316,1.78798,6.2982177734375,22.0009689331055,3.57258057594299,22.0,-1022180.0,1015.23,pp-ro,1,1,-1,-1
1570535670.2,2019-10-08,13:54:30.200,14.0,11.0,16.879999160766598,19.4,0.0,1.5,46.9,2.5,-16.9,20.6059,0.2303639999999999,1.37413,-0.184498,-2.54452,-0.328198,43.9014,1.7713599999999998,-16.9499,0.172051,-0.0196778,-0.267922,266.4,5.7,52.1701,4.42724,0.8,0.986821,223.30900000000003,4.518730000000001,161.778,32.6835,170.24599999999998,0.800905,-0.00567174,237.116,1.47173,1.76815,5.20140075683594,22.0009689331055,3.1111602783203103,22.0,-1021960.0,2307.34,pp-ro,1,1,-1,-1
1570535670.3,2019-10-08,13:54:30.300,14.0,10.0,16.8299999237061,19.4,-0.5,1.4,48.2,2.3,-17.9,20.4821,-0.302803,1.04464,-5.65294,-8.585239999999999,-5.34072,44.7992,2.74386,-17.4504,0.198843,-0.0189245,-0.158622,266.4,5.7,52.1701,4.42724,0.8,0.991807,233.531,4.51875,161.80700000000002,34.9636,170.046,0.798821,-0.0191697999999999,237.318,1.47136,1.7554900000000002,4.722816467285161,22.0009689331055,2.78268766403198,22.0,-1021820.0,799.877,pp-ro,1,1,-1,-1
1570535670.4,2019-10-08,13:54:30.400,14.0,9.0,16.8299999237061,19.5,-1.0,1.2,49.3,2.5,-19.0,20.5252,-1.21138,0.8343360000000001,2.72002,-5.15451,-7.31872,46.3107,2.98089,-18.8931,0.315009,0.0515999,-0.193846,266.4,5.7,52.1701,4.42724,0.8,1.00566,238.344,4.51877,161.80700000000002,36.4836,169.84599999999998,0.797244,-0.0281382999999999,237.404,1.46164,1.73605,3.70603942871094,22.0009689331055,2.3591947555542,22.0,-1021810.0,338.409,pp-ro,1,1,-1,-1
1570535670.5,2019-10-08,13:54:30.500,14.0,10.0,16.879999160766598,19.5,-1.4,1.0,50.3,2.4,-19.3,20.5821,-1.69337,0.739559,-3.98266,-6.5759300000000005,-8.59048,47.0961,3.16509,-19.3884,0.0914596,-0.0472671,0.0618827,266.4,5.7,52.1701,4.42724,0.8,1.02505,245.905,4.51879,161.749,38.7637,169.74599999999998,0.795567,-0.04162,237.653,1.46882,1.72374,3.11675262451172,22.0009689331055,2.01123285293579,22.0,-1021650.0,1968.93,pp-ro,1,1,-1,-1
1570535670.6,2019-10-08,13:54:30.600,14.0,9.0,17.0400009155273,19.5,-1.8,1.1,51.0,2.5,-19.8,20.5279,-2.17087,0.776127,-1.0266,-4.337330000000001,3.13301,47.9175,3.2109,-20.0511,0.1240859999999999,-0.0647595,-0.1242089999999999,266.4,5.7,52.1701,4.42724,0.8,1.0339200000000002,254.997,4.51881,161.60299999999998,40.6637,169.546,0.794043,-0.0529336,237.729,1.4695,1.72056,2.6194305419921897,22.0009689331055,1.87143456935883,22.0,-1021360.0,1476.7,pp-ro,1,1,-1,-1
1570535670.7,2019-10-08,13:54:30.700,14.0,9.0,17.3899993896484,19.7,-2.0,1.1,51.7,2.1,-20.5,20.5279,-2.17087,0.776127,-1.0266,-4.337330000000001,3.13301,47.9175,3.2109,-20.0511,0.1240859999999999,-0.0647595,-0.1242089999999999,266.4,5.7,52.1701,4.42724,1.0,1.05109,259.59,4.51886,161.457,42.9437,169.34599999999998,0.792165,-0.0664256,237.888,1.47534,1.72311,2.19705200195312,22.0009689331055,1.83741450309753,22.0,-1021200.0,1968.93,pp-ro,1,1,-1,-1
1570535670.8,2019-10-08,13:54:30.800,14.0,9.0,17.9400005340576,19.8,-2.0,1.4,52.5,1.9,-21.2,20.6616,-2.64241,0.970483,-2.5383,-0.965267,3.74217,49.054,2.90068,-20.6685,0.279456,-0.1628109999999999,-0.00175905,266.4,5.7,52.1701,4.42724,1.0,1.05276,261.762,4.51886,161.252,44.8438,169.146,0.790673,-0.0777098,237.957,1.47719,1.7417599999999998,1.90752410888672,22.0009689331055,2.13365602493286,22.0,-1021050.0,2645.75,pp-ro,1,1,-1,-1
1570535670.9,2019-10-08,13:54:30.900,14.0,8.0,18.6100006103516,19.8,-2.1,1.5,53.1,2.0,-21.5,20.8266,-2.67397,1.20954,-2.77444,-1.29213,-1.6920400000000002,49.6277,2.73926,-21.4602,0.297172,-0.00233465,0.106452,266.4,5.7,52.1701,4.42724,1.0,1.05664,272.191,4.51888,161.048,46.7438,168.947,0.789119,-0.0889739,238.042,1.48031,1.7496,1.80192565917969,22.0009689331055,2.22020483016968,22.0,-1020880.0,1322.87,pp-ro,1,1,-1,-1
1570535671.0,2019-10-08,13:54:31.000,14.0,7.0,19.0799999237061,19.9,-2.4,1.7,53.0,2.0,-22.1,20.803,-2.86325,1.60984,-4.24722,1.80197,3.3027300000000004,49.6894,2.75938,-21.9457,-0.10114,-0.197021,-0.1138309999999999,266.4,5.7,52.1701,4.42724,1.0,1.08933,282.538,4.5189,160.814,49.0239,168.64700000000002,0.786961,-0.102397,238.13,1.48249,1.75535,1.97053527832031,22.0009689331055,2.28125381469727,22.0,-1020790.0,1384.4,pp-ro,1,1,-1,-1
1570535671.1,2019-10-08,13:54:31.100,14.0,12.0,19.3600006103516,19.9,-2.6,1.8,53.1,1.4,-22.4,20.803,-2.86325,1.60984,-4.24722,1.80197,3.3027300000000004,49.6894,2.75938,-21.9457,-0.10114,-0.197021,-0.1138309999999999,264.3,6.1,52.1701,4.42724,1.0,1.08379,282.72,4.51891,160.58,50.9239,168.447,0.785354,-0.1136089999999999,238.23,1.49417,1.7595599999999998,2.30264282226562,22.0009689331055,2.30492472648621,22.0,-1020330.0,3168.74,pp-ro,1,1,-1,-1
1570535671.2,2019-10-08,13:54:31.200,14.0,9.0,19.5799999237061,19.8,-2.8,1.8,53.1,1.1,-22.6,20.7698,-3.12343,1.74728,2.40103,0.946347,3.63848,49.7847,2.29997,-22.4463,-0.0497845,-0.171685,0.177859,264.3,6.1,52.1701,4.42724,1.0,1.086,283.584,4.5189,160.28799999999998,53.20399999999999,168.14700000000002,0.783201,-0.126995,238.319,1.50497,1.76167,2.32308197021484,22.0009689331055,2.30127334594727,22.0,-1020230.0,1784.34,pp-ro,1,1,-1,-1
1570535671.3,2019-10-08,13:54:31.300,14.0,10.0,19.8500003814697,19.9,-2.9,1.9,53.2,1.4,-23.2,21.0011,-3.64856,1.78466,0.586325,-0.249701,1.32458,49.5096,2.2324,-22.8511,-0.131765,-0.00187484,-0.063922,264.3,6.1,52.1701,4.42724,1.0,1.10041,290.15,4.51889,159.996,55.104,167.847,0.7813260000000001,-0.13819,238.343,1.50184,1.76963,2.30945587158203,22.0009689331055,2.43406891822815,22.0,-1020020.0,2491.92,pp-ro,1,1,-1,-1
1570535671.4,2019-10-08,13:54:31.400,14.0,10.0,20.1100006103516,20.1,-3.2,2.0,52.8,1.4,-23.8,21.0011,-3.64856,1.78466,0.586325,-0.249701,1.32458,49.5096,2.2324,-22.8511,-0.131765,-0.00187484,-0.063922,264.3,6.1,52.1701,4.42724,1.0,1.11204,303.758,4.51889,159.674,57.3841,167.547,0.779093,-0.1515099999999999,238.455,1.50393,1.77223,2.2839126586914102,22.0009689331055,2.46165800094604,22.0,-1019810.0,1692.05,pp-ro,1,1,-1,-1
1570535671.5,2019-10-08,13:54:31.500,14.0,11.0,20.3700008392334,20.2,-3.5,2.1,52.6,1.6,-24.6,21.0011,-3.64856,1.78466,0.586325,-0.249701,1.32458,49.5096,2.2324,-22.8511,-0.131765,-0.00187484,-0.063922,264.3,6.1,52.1701,4.42724,1.0,1.15803,319.91900000000004,4.51888,159.32399999999998,59.2841,167.247,0.777245,-0.162717,238.475,1.49958,1.7732599999999998,2.29242706298828,22.0009689331055,2.46469497680664,22.0,-1019540.0,2891.86,pp-ro,1,1,-1,-1
1570535671.6,2019-10-08,13:54:31.600,14.0,10.0,20.4599990844727,20.2,-3.9,2.1,52.6,1.9,-25.4,21.2674,-4.479430000000001,2.15345,1.16933,-4.98827,-0.290511,48.9446,2.46307,-24.7318,0.0166465999999999,-0.157924,-0.0998061,264.3,6.1,52.1701,4.42724,1.0,1.15526,321.2,4.51888,158.886,61.5641,167.047,0.775473,-0.176149,238.62,1.49553,1.76886,2.43889617919922,22.0009689331055,2.30889201164246,22.0,-1019310.0,3968.62,pp-ro,1,1,-1,-1
1570535671.7,2019-10-08,13:54:31.700,14.0,10.0,20.6299991607666,20.3,-4.1,2.1,52.5,1.9,-26.4,21.3072,-4.91942,2.18506,2.18871,-2.76159,-0.279307,48.5326,2.59827,-25.8055,0.0188947999999999,-0.219031,-0.1361079999999999,264.3,6.1,52.1701,4.42724,1.3,1.1569200000000002,325.41900000000004,4.51887,158.477,63.0842,166.747,0.774061,-0.185319,238.535,1.48977,1.7687400000000002,2.42186737060547,22.0009689331055,-35.0,22.0,-1019060.0,2338.1,pp-ro,1,1,-1,-1
1570535671.8,2019-10-08,13:54:31.800,14.0,10.0,20.6700000762939,20.1,-4.3,2.3,52.4,2.1,-27.7,21.3627,-5.12453,2.2404900000000003,-1.7453599999999998,-5.59266,4.37642,48.6472,2.54412,-26.7943,0.160766,0.0145989,-0.0846831,264.3,6.1,52.1701,4.42724,1.3,1.17853,336.747,4.51886,158.009,65.3642,166.447,0.7719189999999999,-0.198713,238.629,1.48085,1.77732,2.28221130371094,22.0009689331055,-35.0,22.0,-1018800.0,3137.98,pp-ro,1,1,-1,-1
1570535671.9,2019-10-08,13:54:31.900,14.0,11.0,20.7999992370605,20.0,-4.5,2.1,52.4,2.4,-28.4,21.1815,-5.43584,2.5377400000000003,-6.20988,-3.20768,0.882548,48.3908,3.13318,-27.829,0.0126934,-0.0294149999999999,-0.1910849999999999,264.3,6.1,52.1701,4.42724,1.3,1.18795,337.93,4.51886,157.513,67.6442,166.047,0.769467,-0.212105,238.658,1.47802,1.77257,2.22771453857422,22.0009689331055,-35.0,22.0,-1018520.0,2707.28,pp-ro,1,1,-1,-1
1570535672.0,2019-10-08,13:54:32.000,14.0,11.0,20.840000152587898,19.9,-4.8,2.0,52.7,2.7,-29.4,21.0188,-5.59164,2.29682,0.345459,0.347151,0.941445,48.5518,3.5719800000000004,-28.7137,0.0321758,0.110525,-0.114267,264.3,6.1,52.1701,4.42724,1.3,1.17909,329.842,4.51885,157.045,69.5443,165.847,0.7679,-0.2233409999999999,238.757,1.46999,1.76625,1.8428039550781203,22.0009689331055,-35.0,22.0,-1018040.0,5445.31,pp-ro,1,1,-1,-1
1570535672.1,2019-10-08,13:54:32.100,14.0,10.0,20.9699993133545,19.9,-5.1,2.2,52.8,3.1,-30.6,21.0389,-5.76644,2.2635,7.605539999999999,-1.14339,2.41643,48.457,3.89678,-29.1169,-0.198233,-0.0947305,-0.187502,267.8,6.1,52.1701,4.42724,1.3,1.16191,331.754,4.51885,156.52,71.8243,165.547,0.765666,-0.236675,238.878,1.45977,1.77213,1.12237548828125,22.0009689331055,-35.0,22.0,-1017660.0,3045.68,pp-ro,1,1,-1,-1
1570535672.2,2019-10-08,13:54:32.200,14.0,9.0,20.9699993133545,20.0,-5.2,2.2,52.8,3.2,-31.5,20.923,-6.14962,2.33178,-2.5639,-0.59792,4.3749,48.5196,4.30499,-30.0838,0.106741,-0.18656,-0.191693,267.8,6.1,52.1701,4.42724,1.3,1.19349,345.207,4.51884,155.965,73.7243,165.247,0.763893,-0.248021,238.886,1.45555,1.77709,0.044281005859375,22.0009689331055,-35.0,22.0,-1017490.0,1938.16,pp-ro,1,1,-1,-1
1570535672.3,2019-10-08,13:54:32.300,14.0,10.0,21.090000152587898,20.0,-5.3,2.3,53.3,3.2,-32.1,20.8609,-6.27137,2.44471,-0.565207,-1.6497700000000002,0.541042,48.7553,4.40237,-31.2606,0.18183,-0.031985,-0.233875,267.8,6.1,52.1701,4.42724,1.3,1.21067,352.49800000000005,4.51883,155.41,75.6244,164.947,0.7620560000000001,-0.259327,238.911,1.45621,1.7849400000000002,-1.40637969970703,22.0009689331055,-35.0,22.0,-1017150.0,3722.5,pp-ro,1,1,-1,-1
1570535672.4,2019-10-08,13:54:32.400,14.0,8.0,21.090000152587898,20.1,-5.6,2.5,53.4,2.9,-32.5,20.8609,-6.27137,2.44471,-0.565207,-1.6497700000000002,0.541042,48.7553,4.40237,-31.2606,0.18183,-0.031985,-0.233875,267.8,6.1,52.1701,4.42724,1.3,1.20735,347.531,4.51883,155.11700000000002,76.7644,164.847,0.7610600000000001,-0.265982,239.016,1.4598,1.78677,-3.205322265625,22.0009689331055,-35.0,22.0,-1016550.0,4368.56,pp-ro,1,1,-1,-1
1570535672.5,2019-10-08,13:54:32.500,14.0,9.0,21.1700000762939,20.3,-5.5,2.7,53.9,2.4,-32.9,20.9388,-6.71177,2.911,-0.9274,-1.67332,-4.0041400000000005,49.3354,4.808269999999999,-31.9299,0.14157,-0.220526,0.0759938,267.8,6.1,52.1701,4.42724,1.3,1.19682,349.751,4.51882,154.533,79.0444,164.547,0.7587010000000001,-0.2792429999999999,239.174,1.47055,1.80689,-5.29100799560547,22.0009689331055,-35.0,22.0,-1016130.0,3722.5,pp-ro,1,1,-1,-1
1570535672.6,2019-10-08,13:54:32.600,14.0,9.0,21.2199993133545,20.5,-5.5,3.3,54.5,1.3,-33.0,20.9689,-6.4298,3.50816,1.58872,2.84586,7.369280000000001,50.2424,3.91333,-31.7979,0.0368216,-0.0206597,0.158603,267.8,6.1,52.1701,4.42724,1.3,1.20402,352.30800000000005,4.51882,153.891,80.9444,164.14700000000002,0.7566109999999999,-0.290648,239.12,1.49124,1.83537,-7.40058135986328,22.0009689331055,-35.0,22.0,-1016000.0,2584.22,pp-ro,1,1,-1,-1
1570535672.7,2019-10-08,13:54:32.700,14.0,10.0,21.2999992370605,20.7,-5.5,3.9,55.1,-0.3,-32.5,21.0388,-6.37359,4.14317,7.34968,3.45992,12.2192,50.9722,2.77915,-30.9633,0.0803994,0.0232272,0.215743,267.8,6.1,52.1701,4.427230000000001,1.5,1.21067,350.205,4.51881,153.306,83.2245,163.847,0.754095,-0.30377,239.322,1.52673,1.86445,-9.51015472412109,22.0009689331055,-35.0,22.0,-1015410.0,5260.73,pp-ro,1,1,-1,-1
1570535672.8,2019-10-08,13:54:32.800,14.0,10.0,21.5400009155273,21.2,-5.2,4.6,55.9,-2.3,-31.3,21.1604,-6.24288,4.48975,3.2564900000000003,4.18187,6.78672,51.3071,1.9918,-30.2641,0.00940369,0.206638,0.440691,267.8,6.1,52.1701,4.427230000000001,1.5,1.20014,345.776,4.51881,152.751,85.5045,163.347,0.750816,-0.316724,239.429,1.57562,1.90614,-11.6197280883789,22.0009689331055,-35.0,22.0,-1015180.0,4337.79,pp-ro,1,1,-1,-1
1570535672.9,2019-10-08,13:54:32.900,14.0,10.0,21.9099998474121,21.5,-4.4,5.8,57.3,-4.9,-30.1,21.3139,-6.03852,4.76853,3.4115800000000003,2.50758,2.04944,51.6293,1.08568,-29.4551,0.192076,-0.00516026,0.427145,267.8,6.1,52.1701,4.427230000000001,1.5,1.19682,345.245,4.5188,152.284,87.4045,162.947,0.748084,-0.327461,239.545,1.63064,1.97591,-13.7156524658203,22.0009689331055,-35.0,22.0,-1014780.0,3968.62,pp-ro,1,1,-1,-1
1570535673.0,2019-10-08,13:54:33.000,14.0,10.0,22.350000381469695,21.9,-3.5,7.1,58.4,-8.2,-28.8,21.3139,-6.03852,4.76853,3.4115800000000003,2.50758,2.04944,51.6293,1.08568,-29.4551,0.192076,-0.00516026,0.427145,267.8,6.1,52.1701,4.427230000000001,1.5,1.20458,354.745,4.51879,151.817,89.6846,162.247,0.7438319999999999,-0.339989,239.616,1.6971599999999998,2.05016,-15.8149871826172,22.0009689331055,-35.0,22.0,-1014480.0,2799.57,pp-ro,1,1,-1,-1
1570535673.1,2019-10-08,13:54:33.100,14.0,10.0,22.5,22.1,-2.4,8.8,59.5,-11.7,-27.3,21.7019,-3.78915,8.10326,1.78713,12.7976,11.4518,54.2248,-6.33239,-25.0399,0.257307,-0.143535,0.7514890000000001,250.0,4.6,52.1701,4.427230000000001,1.5,1.24779,371.9980000000001,4.518730000000001,151.495,91.5846,161.547,0.739708,-0.350093,239.658,1.7669700000000002,2.13743,-17.921142578125,22.0009689331055,-35.0,22.0,-1014100.0,3353.33,pp-ro,1,1,-1,-1
1570535673.2,2019-10-08,13:54:33.200,14.0,9.0,22.6599998474121,22.0,-1.1,10.5,60.4,-16.1,-25.5,21.6593,-2.50272,9.74996,1.63805,15.0783,15.3991,55.3719,-10.3905,-22.7287,0.129422,-0.118989,0.7605649999999999,250.0,4.6,52.1701,4.427230000000001,1.5,1.24835,374.403,4.518619999999999,151.262,93.8646,160.64700000000002,0.7341479999999999,-0.361617,239.788,1.85288,2.23023,-20.0477905273438,22.0009689331055,-35.0,22.0,-1013840.0,4799.26,pp-ro,1,1,-1,-1
1570535673.3,2019-10-08,13:54:33.300,14.0,9.0,22.7700004577637,21.7,0.3,12.4,61.1,-21.1,-22.7,21.167,-1.02692,11.424,-6.33164,14.4454,13.0301,56.1466,-15.1757,-19.6209,0.600666,0.0637574,1.1192,250.0,4.6,52.1701,4.427230000000001,1.5,1.26054,376.24300000000005,4.5185,151.145,95.7647,159.547,0.7281979999999999,-0.370868,239.731,1.95595,2.32742,-22.1710205078125,22.0019989013672,-35.0,22.0,-1013320.0,3814.8,pp-ro,1,1,-1,-1
1570535673.4,2019-10-08,13:54:33.400,14.0,10.0,22.8899993896484,21.2,2.2,14.1,61.7,-26.7,-18.5,20.0345,1.58608,13.9383,-11.0162,19.1488,13.8548,56.3086,-22.8184,-12.6003,0.403051,0.0599286999999999,1.46767,250.0,4.6,52.1701,4.427230000000001,1.5,1.25555,372.312,4.5183800000000005,151.232,98.0447,158.247,0.720534,-0.381178,239.846,2.08158,2.43463,-24.2908325195312,22.0025119781494,-35.0,22.0,-1013020.0,5752.96,pp-ro,1,1,-1,-1
1570535673.5,2019-10-08,13:54:33.500,14.0,10.0,23.0400009155273,20.2,4.2,15.9,61.6,-32.5,-14.2,18.959,3.7137,15.531,-8.50035,14.8443,15.3886,55.5204,-28.6901,-7.50183,0.278143,0.17739,1.4830299999999998,250.0,4.6,52.1701,4.427230000000001,1.5,1.2284,364.24300000000005,4.518269999999999,151.466,100.325,156.847,0.712178,-0.390893,240.016,2.20792,2.54998,-26.396995544433604,22.0025119781494,-35.0,22.0,-1012500.0,4430.09,pp-ro,1,1,-1,-1
1570535673.6,2019-10-08,13:54:33.600,14.0,9.0,23.149999618530305,18.9,6.2,17.7,60.6,-39.0,-9.5,17.4818,5.64714,17.1301,-20.6606,17.6797,9.59279,53.3667,-34.6988,-1.01154,-0.00589088,0.199123,1.42576,250.0,4.6,52.1701,4.427230000000001,1.5,1.23727,372.884,4.51815,151.933,102.225,155.347,0.703522,-0.398018,240.138,2.34208,2.66468,-28.5031585693359,22.0025119781494,-35.0,22.0,-1011950.0,3691.74,pp-ro,1,1,-1,-1
1570535673.7,2019-10-08,13:54:33.700,14.0,10.0,23.260000228881804,17.0,8.5,19.0,58.6,-45.4,-2.8,17.4818,5.64714,17.1301,-20.6606,17.6797,9.59279,53.3667,-34.6988,-1.01154,-0.00589088,0.199123,1.42576,250.0,4.6,52.1701,4.427230000000001,1.7,1.25666,375.587,4.51803,152.605,104.125,153.64700000000002,0.69376,-0.404405,240.286,2.48827,2.79005,-30.4659423828125,22.003026962280305,-35.0,22.0,-1011670.0,2768.8,pp-ro,1,1,-1,-1
1570535673.8,2019-10-08,13:54:33.800,14.0,10.0,23.260000228881804,14.9,10.7,20.3,53.6,-52.1,5.5,15.5146,7.85933,18.2544,-20.6249,22.0179,14.8026,49.7961,-40.6098,7.394660000000001,0.203423,0.50278,1.53929,250.0,4.6,52.1701,4.427230000000001,1.7,1.24336,368.776,4.517919999999999,153.481,105.645,151.947,0.684116,-0.408378,240.427,2.6418,2.9127,-32.0771484375,22.003026962280305,-35.0,22.0,-1011090.0,6275.96,pp-ro,1,1,-1,-1
1570535673.9,2019-10-08,13:54:33.900,14.0,11.0,23.1800003051758,12.4,12.9,21.0,48.0,-58.3,15.1,13.2266,9.79382,19.3279,-20.3816,15.8461,1.99145,43.7014,-45.9984,18.0129,0.3888,0.190505,1.56963,250.0,4.6,52.1701,4.427230000000001,1.7,1.23173,368.769,4.5178,154.561,107.165,150.247,0.67404,-0.4116609999999999,240.723,2.7869900000000003,3.03844,-33.336746215820305,22.003026962280305,-35.0,22.0,-1010670.0,3261.04,pp-ro,1,1,-1,-1
1570535674.0,2019-10-08,13:54:34.000,14.0,11.0,23.100000381469695,9.6,14.6,21.3,35.7,-62.3,32.0,9.48608,12.5147,19.9051,-31.119,16.3253,4.04023,30.7476,-52.3339,37.4777,0.0519692999999999,0.275681,1.44416,250.0,4.6,52.1701,4.427230000000001,1.7,1.24336,371.207,4.51769,155.875,108.305,148.447,0.663724,-0.412535,240.96400000000003,2.95317,3.15782,-34.2396240234375,22.0035419464111,-35.0,22.0,-1010530.0,2799.57,pp-ro,1,1,-1,-1
1570535674.1,2019-10-08,13:54:34.100,14.0,11.0,22.9500007629395,6.7,16.0,21.5,20.4,-65.8,52.1,9.48608,12.5147,19.9051,-31.119,16.3253,4.04023,30.7476,-52.3339,37.4777,0.0519692999999999,0.275681,1.44416,257.1,3.7,52.1701,4.427230000000001,1.7,1.24336,367.062,4.51759,157.30700000000002,109.065,146.64700000000002,0.653733,-0.411435,241.134,3.11833,3.27267,-34.558807373046896,22.003026962280305,-23.0139999389648,22.0,-1010060.0,5414.55,pp-ro,1,1,-1,-1
1570535674.2,2019-10-08,13:54:34.200,14.0,12.0,22.940000534057603,2.5,18.4,20.6,-4.5,-62.7,84.3,6.7114,13.9318,20.0507,-25.0489,13.0516,0.623793,18.5981,-53.9322,54.0905,-0.0895736999999999,0.4467489999999999,1.53022,257.1,3.7,52.1701,4.427230000000001,1.7,1.21787,351.06,4.51751,159.789,109.825,144.047,0.6389560000000001,-0.407286,241.544,3.3694300000000004,3.4480800000000005,-34.9138031005859,22.003026962280305,-23.0139999389648,22.0,-1009320.0,5291.49,pp-ro,1,1,-1,-1
1570535674.3,2019-10-08,13:54:34.300,14.0,13.0,22.940000534057603,0.9,18.9,20.3,-10.1,-61.2,92.0,5.34628,14.4854,19.9666,-25.4861,14.5939,-5.676769999999999,12.365,-54.0683,62.6776,0.143967,0.143637,1.62478,257.1,3.7,52.1701,4.427230000000001,1.7,1.1901700000000002,340.685,4.517440000000001,160.636,109.825,143.247,0.634574,-0.404746,241.63,3.43785,3.5075199999999995,-34.9496459960938,22.0035419464111,-23.0163822174072,22.0,-1008810.0,4645.44,pp-ro,1,1,-1,-1
1570535674.4,2019-10-08,13:54:34.400,14.0,13.0,22.8600006103516,-1.8,19.7,19.3,-21.0,-56.8,107.1,-1.4821,17.0257,18.3012,-27.5546,1.34396,-10.2405,-14.1719,-47.0836,98.6465,-0.00893815,0.2963139999999999,1.38571,257.1,3.7,52.1701,4.427230000000001,1.7,1.19128,343.931,4.51737,162.476,109.825,141.64700000000002,0.6255189999999999,-0.399376,241.917,3.5931300000000004,3.61229,-34.560501098632805,22.0035419464111,-23.0163822174072,22.0,-1008460.0,3076.45,pp-ro,1,1,-1,-1
1570535674.5,2019-10-08,13:54:34.500,14.0,13.0,22.8199996948242,-4.3,20.1,17.8,-28.1,-51.0,117.9,-1.4821,17.0257,18.3012,-27.5546,1.34396,-10.2405,-14.1719,-47.0836,98.6465,-0.00893815,0.2963139999999999,1.38571,257.1,3.7,52.1701,4.427230000000001,1.7,1.19793,346.181,4.51729,164.37400000000002,109.825,140.047,0.6163569999999999,-0.393924,242.267,3.74311,3.71546,-33.804412841796896,22.0035419464111,-23.0163822174072,22.0,-1008310.0,2799.57,pp-ro,1,1,-1,-1
1570535674.6,2019-10-08,13:54:34.600,14.0,14.0,22.6599998474121,-6.8,20.2,16.4,-32.4,-45.0,126.3,-3.83843,17.275,17.0672,-20.2788,1.1043,-7.685569999999999,-21.0672,-41.9455,109.51,0.0364986999999999,0.422494,1.37867,257.1,3.7,52.1701,4.427230000000001,1.7,1.19571,338.153,4.51722,166.30200000000002,109.445,138.64700000000002,0.60832,-0.386884,242.606,3.88523,3.81672,-32.6830444335938,22.003026962280305,-23.0139999389648,22.0,-1007910.0,4430.09,pp-ro,1,1,-1,-1
1570535674.7,2019-10-08,13:54:34.700,14.0,15.0,22.6200008392334,-8.9,20.1,14.5,-35.0,-39.0,132.5,-7.28343,17.5107,15.0662,-17.1355,-6.37706,-23.057,-28.1312,-33.7727,122.028,-0.287256,0.154741,1.27728,257.1,3.7,52.1701,4.427230000000001,1.7,1.16524,330.051,4.51714,168.23,108.685,137.347,0.601105,-0.378348,242.853,4.01495,3.91644,-31.1981506347656,22.003026962280305,-23.0139999389648,22.0,-1007220.0,3660.97,pp-ro,1,1,-1,-1
1570535674.8,2019-10-08,13:54:34.800,14.0,15.0,22.4599990844727,-10.6,19.7,12.7,-36.9,-32.8,137.9,-7.28343,17.5107,15.0662,-17.1355,-6.37706,-23.057,-28.1312,-33.7727,122.028,-0.287256,0.154741,1.27728,257.1,3.7,52.1701,4.427230000000001,1.7,1.16801,330.969,4.51707,170.157,107.925,136.14700000000002,0.594212,-0.3699139999999999,243.181,4.14478,4.0055,-29.3633728027344,22.003026962280305,-23.0139999389648,22.0,-1007080.0,2461.16,pp-ro,1,1,-1,-1
1570535674.9,2019-10-08,13:54:34.900,14.0,15.0,22.190000534057603,-12.2,19.1,10.9,-37.8,-26.7,142.4,-7.28343,17.5107,15.0662,-17.1355,-6.37706,-23.057,-28.1312,-33.7727,122.028,-0.287256,0.154741,1.27728,257.1,3.7,52.1701,4.427230000000001,1.7,1.17964,329.75800000000004,4.51696,172.05599999999998,106.405,135.047,0.588619,-0.358436,243.234,4.266859999999999,4.09426,-27.4295959472656,22.003026962280305,-22.293523788452102,22.0,-1006770.0,3999.38,pp-ro,1,1,-1,-1
1570535675.0,2019-10-08,13:54:35.000,14.0,14.0,21.9099998474121,-13.4,18.6,9.0,-38.4,-21.0,145.8,-9.04216,17.2774,13.3069,-22.6819,-3.72449,-15.8423,-31.2452,-28.6845,128.90200000000002,0.0851178,0.358246,1.04341,257.1,3.7,52.1701,4.427230000000001,1.7,1.16468,328.64300000000003,4.51692,173.866,105.265,134.14700000000002,0.58338,-0.348937,243.527,4.37593,4.179130000000001,-25.8525314331055,22.003026962280305,-20.7357025146484,22.0,-1006340.0,3630.21,pp-ro,1,1,-1,-1
1570535675.1,2019-10-08,13:54:35.100,14.0,14.0,21.6200008392334,-14.7,17.9,7.3,-38.7,-15.6,148.8,-13.373,15.8382,8.50756,-15.2396,-11.5858,-15.3242,-36.1307,-12.528,142.893,0.258245,0.356592,0.94378,265.9,4.3,52.1701,4.427230000000001,1.7,1.17798,332.182,4.51687,175.706,104.125,133.347,0.578401,-0.339446,243.918,4.47776,4.26548,-24.2242736816406,22.003026962280305,-19.1458110809326,22.0,-1005890.0,3814.8,pp-ro,1,1,-1,-1
1570535675.2,2019-10-08,13:54:35.200,14.0,15.0,21.3799991607666,-15.6,17.0,6.0,-39.3,-11.2,152.1,-13.373,15.8382,8.50756,-15.2396,-11.5858,-15.3242,-36.1307,-12.528,142.893,0.258245,0.356592,0.94378,265.9,4.3,52.1701,4.427230000000001,1.7,1.17299,331.384,4.51681,177.37099999999998,102.605,132.747,0.574846,-0.328866,244.152,4.56751,4.33255,-22.7871704101562,22.0035419464111,-17.910842895507802,22.0,-1005510.0,3691.74,pp-ro,1,1,-1,-1
1570535675.3,2019-10-08,13:54:35.300,14.0,13.0,21.1700000762939,-16.4,16.4,4.6,-39.9,-6.2,154.1,-13.9713,15.5286,7.75829,-13.5396,-9.4781,-18.4379,-36.933,-10.0578,144.759,0.0362339,0.34884,0.896935,265.9,4.3,52.1701,4.427230000000001,1.7,1.17244,327.767,4.51682,178.94799999999998,101.085,132.14700000000002,0.571417,-0.318629,244.343,4.65456,4.39949,-21.3159255981445,22.0025119781494,-16.679298400878903,22.0,-1005330.0,3353.33,pp-ro,1,1,-1,-1
1570535675.4,2019-10-08,13:54:35.400,14.0,12.0,20.7900009155273,-17.0,15.7,3.1,-39.9,-1.5,156.0,-15.2959,14.5588,5.68878,-4.797680000000001,-11.5085,-12.3189,-37.928,-3.1870700000000003,149.483,0.0963486,0.327518,0.726466,265.9,4.3,52.1701,4.427230000000001,1.7,1.15969,317.387,4.51679,180.555,99.1853,131.547,0.568293,-0.306739,244.422,4.73526,4.46747,-19.9266052246094,22.0025119781494,-15.4271268844604,22.0,-1004880.0,4799.26,pp-ro,1,1,-1,-1
1570535675.5,2019-10-08,13:54:35.500,14.0,13.0,20.7099990844727,-17.5,14.7,2.1,-40.5,1.4,159.1,-16.5557,13.1502,3.141,-9.30524,-9.15251,-7.873880000000001,-40.2257,4.30042,155.269,-0.241716,0.269373,0.724104,265.9,4.3,52.1701,4.427230000000001,1.7,1.14695,325.161,4.516769999999999,181.986,97.6653,131.14700000000002,0.565743,-0.296928,244.657,4.801819999999999,4.52335,-18.5031585693359,22.003026962280305,-14.4017038345337,22.0,-1004400.0,1230.58,pp-ro,1,1,-1,-1
1570535675.6,2019-10-08,13:54:35.600,14.0,12.0,20.4500007629395,-17.6,13.7,1.0,-41.3,4.6,161.4,-16.7309,12.7287,2.5432200000000003,-5.23206,-11.4953,-12.7126,-40.6377,5.90991,156.971,-0.268558,-0.0150312,0.637055,265.9,4.3,52.1701,4.427230000000001,1.7,1.17022,334.783,4.51675,183.33,95.7653,130.747,0.56371,-0.28575,244.695,4.86451,4.5774300000000006,-17.8067932128906,22.003026962280305,-13.4064512252808,22.0,-1004350.0,1045.99,pp-ro,1,1,-1,-1
