time,date,time_of_day,airspeed_temperature,airspeed_angle_of_attack,airspeed_apparent_windspeed,kite_0_vx,kite_0_vy,kite_0_vz,kite_0_roll,kite_0_pitch,kite_0_yaw,kite_1_vx,kite_1_vy,kite_1_vz,kite_1_ax,kite_1_ay,kite_1_az,kite_1_roll,kite_1_pitch,kite_1_yaw,kite_1_roll_rate,kite_1_pitch_rate,kite_1_yaw_rate,ground_upwind_direction,ground_wind_velocity,ground_pos_latitude,ground_pos_longitude,ground_pos_altitude,ground_tether_reelout_speed,ground_tether_force,est_upwind_direction,kite_pos_east,kite_pos_north,kite_height,kite_elevation,kite_azimuth,kite_distance,kite_heading,kite_course,kite_actual_steering,kite_actual_depower,kite_set_steering,kite_set_depower,ground_mech_energy,ground_mech_power,flight_phase,flight_phase_index,phase,pattern,pattern_section
1570533897.1,2019-10-08,13:24:57.100,14.0,8.0,14.710000038147,13.8,-0.4,3.3,22.7,-9.8,-41.9,12.573,0.453163,3.85066,6.96762,10.1995,3.25727,26.2803,4.73841,-39.8559,0.170946,0.1235859999999999,0.990521,260.7,4.9,52.1701,4.42721,5.1,-2.50279,96.6034,4.57926,43.9574,7.220460000000001,237.402,1.38531,-0.0296702999999999,241.545,1.03771,1.7457900000000002,-34.968414306640604,22.0009689331055,-35.0,22.0,-847291.0,-6183.66,pp-riro,4,0,-1,-1
1570533897.2,2019-10-08,13:24:57.200,14.0,8.0,14.5299997329712,14.4,0.7,3.7,23.8,-11.5,-36.7,12.8472,1.00729,4.0791,2.99285,10.4455,5.928669999999999,26.8427,3.91491,-36.9396,0.0981741,0.116182,1.05666,260.7,4.9,52.1701,4.42721,5.1,-2.52163,95.1867,4.579280000000001,43.9574,8.3605,237.102,1.38427,-0.0548341,241.287,1.15976,1.84918,-34.971832275390604,22.0009689331055,-35.0,22.0,-848079.0,-8829.41,pp-riro,4,0,-1,-1
1570533897.3,2019-10-08,13:24:57.300,14.0,9.0,14.3999996185303,14.8,1.9,4.0,24.7,-13.5,-31.0,13.2548,2.15751,4.43463,4.49068,12.8534,2.9826,28.1869,2.0047,-31.1285,0.188461,0.193582,1.02128,260.7,4.9,52.1701,4.42721,5.1,-2.55044,91.3316,4.5793,44.0158,10.2606,236.902,1.38228,-0.0959251,241.174,1.30748,1.96813,-34.9906158447266,22.0009689331055,-35.0,22.0,-848972.0,-9167.82,pp-riro,4,0,-1,-1
1570533897.4,2019-10-08,13:24:57.400,14.0,9.0,14.2799997329712,15.0,3.3,4.4,25.5,-15.1,-25.6,13.5367,3.34155,4.76847,2.7962,11.8938,3.15158,29.1462,-0.0393967,-25.2194,0.2294179999999999,0.21438,1.02839,260.7,4.9,52.1701,4.42721,5.1,-2.59255,88.4265,4.57932,44.2494,11.4006,236.602,1.38002,-0.119084,240.974,1.43031,2.0798,-34.9923248291016,22.0009689331055,-35.0,22.0,-850132.0,-11444.4,pp-riro,4,0,-1,-1
1570533897.5,2019-10-08,13:24:57.500,14.0,9.0,14.2799997329712,15.3,4.5,4.8,26.0,-16.9,-20.3,13.6731,3.94973,4.99002,1.59782,9.98368,5.13755,29.5165,-1.04578,-22.2836,0.100711,0.179166,1.02241,260.7,4.9,52.1701,4.42721,5.3,-2.68841,84.5304,4.57934,44.5707,13.3007,236.202,1.37636,-0.156948,240.738,1.56645,2.18597,-34.9974365234375,22.0009689331055,-35.0,22.0,-852205.0,-14213.2,pp-riro,4,0,-1,-1
1570533897.6,2019-10-08,13:24:57.600,14.0,10.0,14.1599998474121,15.4,5.7,5.1,26.7,-18.6,-15.1,13.8489,5.10579,5.38034,5.5811,12.6125,0.574865,30.3223,-3.10222,-16.6455,0.254701,0.154314,0.956757,260.7,4.9,52.1701,4.42721,5.3,-2.72165,83.83200000000001,4.579359999999999,45.0088,14.4407,235.902,1.37304,-0.17743,240.591,1.6825599999999998,2.27316,-35.0042724609375,22.0009689331055,-35.0,22.0,-853040.0,-16305.2,pp-riro,4,0,-1,-1
1570533897.7,2019-10-08,13:24:57.700,14.0,10.0,14.0900001525879,15.6,7.0,5.5,27.1,-20.2,-9.7,14.0203,6.300590000000001,5.77339,-0.752563,11.4446,4.18388,30.8919,-4.90011,-10.7398,0.103588,0.241271,0.967106,260.7,4.9,52.1701,4.42721,5.3,-2.80421,84.3454,4.5793800000000005,45.5637,15.9608,235.402,1.36851,-0.203922,240.301,1.80705,2.36499,-35.0042724609375,22.0009689331055,-35.0,22.0,-854717.0,-17105.1,pp-riro,4,0,-1,-1
1570533897.8,2019-10-08,13:24:57.800,14.0,9.0,14.0900001525879,15.6,8.2,5.8,27.2,-21.6,-4.1,14.0179,8.03501,6.29608,-1.11419,11.8592,4.425730000000001,31.0806,-7.547610000000001,-2.27646,0.0775414,0.277518,0.99935,260.7,4.9,52.1701,4.42721,5.3,-2.91004,89.0427,4.5794,46.2355,17.8609,235.002,1.36293,-0.235646,240.172,1.93831,2.45613,-35.0059814453125,22.0009689331055,-35.0,22.0,-857200.0,-15659.1,pp-riro,4,0,-1,-1
1570533897.9,2019-10-08,13:24:57.900,14.0,9.0,14.0900001525879,15.4,9.4,6.3,26.9,-23.2,1.4,13.8565,9.73231,6.870010000000001,-0.468775,9.41702,2.8286,30.7271,-9.95685,6.74775,0.1739109999999999,0.254517,0.954637,260.7,4.9,52.1701,4.42721,5.3,-2.93996,90.3622,4.57942,47.0533,19.0009,234.502,1.35769,-0.250816,239.929,2.0515,2.53439,-35.0059814453125,22.0009689331055,-35.0,22.0,-857939.0,-14090.1,pp-riro,4,0,-1,-1
1570533898.0,2019-10-08,13:24:58.000,14.0,10.0,14.1499996185303,15.2,10.6,6.7,26.7,-25.0,6.8,13.8565,9.73231,6.870010000000001,-0.468775,9.41702,2.8286,30.7271,-9.95685,6.74775,0.1739109999999999,0.254517,0.954637,270.8,4.5,52.1701,4.42721,5.3,-2.9854,91.7273,4.57949,47.9587,20.901,233.902,1.35075,-0.278044,239.681,2.17431,2.61984,-35.0059814453125,22.0009689331055,-35.0,22.0,-859233.0,-13628.7,pp-riro,4,0,-1,-1
1570533898.1,2019-10-08,13:24:58.100,14.0,10.0,14.210000038147,14.8,11.9,7.1,26.2,-26.4,12.9,13.5985,10.8155,7.30209,-2.50897,10.9233,4.49193,30.2202,-11.5321,12.5672,0.189549,0.265322,0.983168,270.8,4.5,52.1701,4.42721,5.3,-3.02584,93.5086,4.57958,49.0685,22.4211,233.302,1.34355,-0.295751,239.458,2.29657,2.70264,-35.0059814453125,22.0009689331055,-35.0,22.0,-860478.0,-11475.2,pp-riro,4,0,-1,-1
1570533898.2,2019-10-08,13:24:58.200,14.0,11.0,14.3400001525879,14.4,13.1,7.4,25.6,-27.8,18.9,13.231,12.0029,7.59523,-2.80203,10.6108,3.77356,29.5126,-13.0932,18.5274,0.132846,0.337757,0.94213,270.8,4.5,52.1701,4.42721,5.3,-3.0541,95.8001,4.579680000000001,50.266000000000005,23.9411,232.602,1.33585,-0.31174,239.172,2.41406,2.776,-35.0042724609375,22.0009689331055,-23.0044822692871,22.0,-861575.0,-8798.64,pp-riro,4,0,-1,-1
1570533898.3,2019-10-08,13:24:58.300,14.0,10.0,14.5200004577637,13.9,14.3,7.8,24.8,-29.2,25.0,12.5613,13.6115,8.09947,-5.10135,10.2166,4.49103,28.1152,-15.0992,27.6733,0.0991089,0.255679,0.986537,270.8,4.5,52.1701,4.42721,5.3,-3.07571,101.989,4.57977,51.5219,25.4612,231.902,1.32787,-0.326318,238.917,2.53017,2.8484700000000003,-35.0042724609375,22.0009689331055,-23.0044822692871,22.0,-862946.0,-9321.64,pp-riro,4,0,-1,-1
1570533898.4,2019-10-08,13:24:58.400,14.0,9.0,14.640000343322802,13.2,15.5,8.2,23.5,-30.2,31.5,12.005999999999998,14.6747,8.467410000000001,-8.36738,10.6561,3.59159,26.7078,-16.2321,33.9615,-0.00203785,0.254967,1.0019,270.8,4.5,52.1701,4.42721,5.3,-3.06962,104.97,4.57987,53.0407,26.6012,231.102,1.31947,-0.332298,238.598,2.64203,2.91657,-34.941116333007805,22.0009689331055,-23.0044822692871,22.0,-863126.0,-3414.86,pp-riro,4,0,-1,-1
1570533898.5,2019-10-08,13:24:58.500,14.0,8.0,14.880000114440902,12.5,16.7,8.6,22.3,-30.9,37.7,11.3349,15.7053,8.83468,-9.75725,10.5024,2.92627,25.3805,-17.3077,40.3145,0.100854,0.255044,0.962783,270.8,4.5,52.1701,4.4272,5.5,-3.0430200000000003,109.82,4.57996,54.5302,28.1213,230.302,1.31043,-0.343655,238.334,2.7518700000000003,2.98644,-34.505889892578104,22.0009689331055,-23.0044822692871,22.0,-863438.0,-1076.76,pp-riro,4,0,-1,-1
1570533898.6,2019-10-08,13:24:58.600,14.0,9.0,15.119999885559098,11.6,17.7,8.9,21.1,-31.5,44.1,10.6439,16.7309,9.19158,-11.0624,8.95553,3.65203,23.882,-18.1983,46.6734,0.0514098,0.372929,0.985095,270.8,4.5,52.1701,4.4272,5.5,-2.97487,115.754,4.58006,56.195,29.2614,229.501,1.30144,-0.347699,238.086,2.85678,3.0485900000000004,-33.713943481445305,22.0009689331055,-23.0044822692871,22.0,-863278.0,3722.5,pp-riro,4,0,-1,-1
1570533898.7,2019-10-08,13:24:58.700,14.0,9.0,15.460000038147,10.8,18.7,9.3,19.4,-32.1,50.5,10.6439,16.7309,9.19158,-11.0624,8.95553,3.65203,23.882,-18.1983,46.6734,0.0514098,0.372929,0.985095,270.8,4.5,52.1701,4.4272,5.5,-2.88899,124.246,4.58015,57.9475,30.4014,228.601,1.2919999999999998,-0.350878,237.783,2.95974,3.10402,-32.5686950683594,22.0009689331055,-23.0044822692871,22.0,-862626.0,7229.65,pp-riro,4,0,-1,-1
1570533898.8,2019-10-08,13:24:58.800,14.0,9.0,15.8000001907349,9.8,19.7,9.5,18.1,-32.0,57.1,9.8265,17.5686,9.42077,-7.57555,8.624089999999999,2.16887,22.2544,-19.0191,52.8099,0.2178639999999999,0.245753,0.987732,270.8,4.5,52.1701,4.4272,5.5,-2.83635,130.27,4.58025,59.8167,31.9215,227.701,1.28139,-0.358018,237.581,3.06769,3.16803,-31.0650329589844,22.0009689331055,-22.7672119140625,22.0,-862110.0,9967.69,pp-riro,4,0,-1,-1
1570533898.9,2019-10-08,13:24:58.900,14.0,9.0,16.020000457763697,8.8,20.6,9.9,16.4,-31.7,63.4,8.56439,18.9684,9.8704,-11.2261,5.30684,3.2355,19.7289,-20.0843,61.8275,0.0833091,0.276015,0.89885,270.8,4.5,52.1701,4.4272,5.5,-2.68398,140.336,4.5803400000000005,61.8028,32.6815,226.801,1.27179,-0.354329,237.332,3.16108,3.21776,-29.2131805419922,22.0009689331055,-22.0626754760742,22.0,-860675.0,15659.1,pp-riro,4,0,-1,-1
1570533899.0,2019-10-08,13:24:59.000,14.0,10.0,16.2399997711182,7.7,21.4,10.0,14.7,-31.8,69.4,7.659269999999999,19.8671,10.121,-10.4495,7.135510000000001,1.8151,17.9715,-20.453,67.887,0.119474,0.271972,0.938172,270.9,4.7,52.1701,4.4272,5.5,-2.49614,144.345,4.58039,63.8473,33.4416,225.801,1.2618200000000002,-0.350462,237.025,3.24932,3.26777,-27.2503814697266,22.0009689331055,-21.3698234558105,22.0,-858858.0,18335.6,pp-riro,4,0,-1,-1
1570533899.1,2019-10-08,13:24:59.100,14.0,9.0,16.5100002288818,6.5,22.2,10.1,12.6,-31.6,75.4,7.15667,20.2014,10.2494,-9.83485,8.093069999999999,1.62632,17.0258,-20.7506,70.7531,0.0286025,0.108801,0.944736,270.9,4.7,52.1701,4.4272,5.5,-2.27285,147.964,4.58044,66.067,34.5816,224.701,1.25037,-0.3502409999999999,236.752,3.3405,3.32316,-25.4958190917969,22.0009689331055,-20.725421905517603,22.0,-856918.0,18981.7,pp-riro,4,0,-1,-1
1570533899.2,2019-10-08,13:24:59.200,14.0,10.0,16.7800006866455,5.4,23.0,10.1,11.3,-30.8,81.2,5.65577,21.294,10.2106,-8.34762,8.545110000000001,-1.9949,14.1471,-21.4497,78.9622,-0.130423,0.159044,0.8270709999999999,270.9,4.7,52.1701,4.4272,5.5,-2.049,155.132,4.5804800000000006,68.2868,35.3417,223.701,1.23973,-0.3456579999999999,236.547,3.4257,3.36911,-23.9170532226562,22.0009689331055,-20.1416053771973,22.0,-855026.0,19320.1,pp-riro,4,0,-1,-1
1570533899.3,2019-10-08,13:24:59.300,14.0,10.0,16.9899997711182,4.0,23.4,10.3,9.5,-30.4,86.2,3.91768,22.2273,10.3687,-12.3267,3.05294,0.142477,11.2574,-21.1689,87.1778,0.0994805,0.149491,0.830625,270.9,4.7,52.1701,4.4272,5.5,-1.77639,165.122,4.58053,70.5941,35.7217,222.701,1.22944,-0.336567,236.338,3.49421,3.41629,-22.5550384521484,22.0009689331055,-19.4202842712402,22.0,-852974.0,20489.1,pp-riro,4,0,-1,-1
1570533899.4,2019-10-08,13:24:59.400,14.0,10.0,17.0400009155273,2.7,23.6,10.2,7.7,-30.1,91.3,2.67472,22.528,10.3495,-10.6964,4.98431,-3.16136,9.53308,-21.2874,92.1696,-0.00787865,0.0629634,0.801541,270.9,4.7,52.1701,4.4272,5.5,-1.30542,162.65,4.58058,72.9891,36.1018,221.601,1.21865,-0.327499,236.08900000000003,3.5639199999999995,3.45882,-21.3466491699219,22.0009689331055,-18.8237476348877,22.0,-850247.0,16735.9,pp-riro,4,0,-1,-1
1570533899.5,2019-10-08,13:24:59.500,14.0,9.0,17.0900001525879,2.0,23.7,10.0,6.9,-29.7,93.8,2.05173,22.5752,10.1832,-15.1654,-0.509126,-0.744287,8.68328,-20.9883,94.3604,-0.034772,0.195732,0.6312409999999999,270.9,4.7,52.1701,4.4272,5.8,-1.16246,158.20600000000002,4.58063,74.2158,36.1018,221.101,1.21354,-0.320956,236.002,3.597,3.48082,-20.2918548583984,22.0009689331055,-18.4547328948975,22.0,-849485.0,13997.8,pp-riro,4,0,-1,-1
1570533899.6,2019-10-08,13:24:59.600,14.0,9.0,17.2900009155273,0.8,23.9,9.6,5.2,-28.2,98.3,1.50215,22.6418,9.91734,-10.0599,0.292,-5.97949,7.96431,-20.8144,96.5013,0.0135487,0.142046,0.785723,270.9,4.7,52.1701,4.4272,5.8,-0.901492,151.042,4.58067,76.64,36.4818,220.101,1.20273,-0.312537,235.901,3.66239,3.5216,-19.3804397583008,22.0009689331055,-17.9254417419434,22.0,-848504.0,8798.64,pp-riro,4,0,-1,-1
1570533899.7,2019-10-08,13:24:59.700,14.0,9.0,17.5400009155273,-0.9,24.0,9.5,2.9,-26.6,104.3,0.421766,22.8319,9.56768,-7.81635,1.15783,1.26218,6.55507,-20.0671,100.551,0.0591856999999999,0.212829,0.7784909999999999,270.9,4.7,52.1701,4.4272,5.8,-0.650493,153.165,4.58072,80.2617,36.4819,218.601,1.18744,-0.294951,235.71,3.74371,3.57111,-18.6874923706055,22.0009689331055,-17.225944519043,22.0,-847864.0,5968.31,pp-riro,4,0,-1,-1
1570533899.8,2019-10-08,13:24:59.800,14.0,10.0,17.7399997711182,-1.4,24.1,9.3,2.3,-26.0,106.3,-0.152316,22.9422,9.48572,-8.926260000000001,-1.0687799999999998,0.21113,5.7336800000000006,-19.5788,102.472,-0.136257,0.326603,0.540602,270.9,4.7,52.1701,4.4272,5.8,-0.407251,162.209,4.580769999999999,81.5176,36.4819,218.101,1.18214,-0.289157,235.678,3.7714,3.5861,-18.0781707763672,22.0009689331055,-17.0396480560303,22.0,-847386.0,4337.79,pp-riro,4,0,-1,-1
1570533899.9,2019-10-08,13:24:59.900,14.0,8.0,17.7900009155273,-2.4,23.9,9.0,0.9,-25.1,109.9,-2.18623,22.906,9.02925,-11.9196,-3.36597,-1.0401200000000002,2.90118,-18.055,110.012,-0.0578209,0.175058,0.438287,270.9,4.7,52.1701,4.4272,5.8,0.0415561999999999,163.803,4.58081,83.9126,36.4819,217.201,1.17209,-0.278512,235.687,3.82053,3.61656,-17.5200576782227,22.0009689331055,-16.662847518920902,22.0,-847210.0,-615.29,pp-riro,4,0,-1,-1
1570533900.0,2019-10-08,13:25:00.000,14.0,9.0,17.7900009155273,-3.3,23.8,8.8,-0.4,-24.0,113.5,-2.64309,22.8815,8.8369,-12.8278,0.214515,-3.5495300000000003,2.18827,-17.5779,111.632,0.0490312,0.2401329999999999,0.4309729999999999,269.5,5.7,52.1701,4.4272,5.8,0.178969,161.029,4.5808800000000005,86.3368,36.102,216.201,1.1623,-0.264517,235.585,3.86807,3.63975,-17.2930526733398,22.0009689331055,-16.3515090942383,22.0,-847353.0,-2614.98,pp-riro,4,0,-1,-1
1570533900.1,2019-10-08,13:25:00.100,14.0,9.0,17.6399993896484,-4.2,23.7,8.6,-1.9,-23.2,117.2,-3.0501,22.8327,8.71767,-3.75812,2.7975,-4.0015,1.39555,-17.1691,113.534,-0.0847973,0.233233,0.744305,269.5,5.7,52.1701,4.4272,5.8,0.338544,157.315,4.58094,88.7902,35.722,215.301,1.1525,-0.251025,235.615,3.91641,3.66359,-16.8766021728516,22.0009689331055,-16.051856994628903,22.0,-847411.0,3107.21,pp-riro,4,0,-1,-1
1570533900.2,2019-10-08,13:25:00.200,14.0,11.0,17.5400009155273,-5.0,23.4,8.5,-3.2,-22.1,120.6,-3.85461,22.701,8.48193,-9.221,-0.580604,-2.6609700000000003,0.03547,-16.4056,116.895,-0.00881614,0.137257,0.4948979999999999,269.5,5.7,52.1701,4.4272,5.8,0.233823,165.671,4.581,91.156,35.342,214.401,1.14296,-0.238447,235.64,3.96292,3.68474,-16.4106521606445,22.0009689331055,-15.8271961212158,22.0,-847300.0,-492.232,pp-riro,4,0,-1,-1
1570533900.3,2019-10-08,13:25:00.300,14.0,10.0,17.4899997711182,-5.9,23.2,8.7,-4.6,-21.1,123.9,-4.92702,22.2856,8.29694,-7.994789999999999,1.94094,0.0692151999999999,-2.55037,-15.3454,121.766,-0.128297,0.112874,0.571707,269.5,5.7,52.1701,4.4272,5.8,0.3346659999999999,199.756,4.58106,93.4926,34.962,213.401,1.13329,-0.226496,235.591,4.0082,3.7074,-16.1068420410156,22.0009689331055,-15.6074991226196,22.0,-847338.0,922.935,pp-riro,4,0,-1,-1
1570533900.4,2019-10-08,13:25:00.400,14.0,11.0,17.4899997711182,-6.9,23.1,8.8,-6.0,-19.9,126.9,-5.38787,22.2426,8.35246,-7.66505,0.936738,2.4171,-3.38821,-14.7375,123.435,-0.332725,0.167918,0.552952,269.5,5.7,52.1701,4.4272,5.8,0.360154,207.167,4.581119999999999,95.7999,33.822,212.501,1.12483,-0.20809,235.538,4.04486,3.72786,-15.919097900390598,22.0009689331055,-15.2288131713867,22.0,-847335.0,0.0,pp-riro,4,0,-1,-1
1570533900.5,2019-10-08,13:25:00.500,14.0,11.0,17.5900001525879,-8.0,22.8,8.8,-7.3,-19.7,130.1,-6.99579,22.0376,8.38524,-16.4861,0.22623,-1.65025,-6.02457,-13.5335,128.30200000000002,-0.192246,-0.0729303,0.48785,269.5,5.7,52.1701,4.42721,6.2,0.369019,222.33,4.581180000000001,98.0781,33.4421,211.501,1.11523,-0.197374,235.521,4.08506,3.76116,-15.6187057495117,22.0009689331055,-14.8501243591309,22.0,-847272.0,553.761,pp-riro,4,0,-1,-1
1570533900.6,2019-10-08,13:25:00.600,14.0,13.0,17.6900005340576,-9.0,22.6,8.8,-8.8,-19.2,133.0,-8.11277,21.8555,8.37415,-13.2279,2.91748,-2.13201,-7.98902,-13.4933,131.269,-0.263767,0.0747716,0.576885,269.5,5.7,52.1701,4.42721,6.2,0.385641,233.435,4.58124,100.356,32.6821,210.501,1.1060299999999998,-0.183652,235.478,4.11993,3.78691,-15.2329711914062,22.0009689331055,-14.5454940795898,22.0,-847273.0,-30.7645,pp-riro,4,0,-1,-1
1570533900.7,2019-10-08,13:25:00.700,14.0,13.0,17.8899993896484,-10.2,22.2,9.1,-10.0,-18.4,135.4,-9.17345,21.6157,8.4807,-9.92296,-4.47079,5.76389,-9.86974,-13.0767,134.00799999999998,-0.149563,0.146402,0.386968,269.5,5.7,52.1701,4.42721,6.2,0.433292,251.77,4.5813,102.605,31.9221,209.401,1.09668,-0.170506,235.363,4.14984,3.81872,-14.8233489990234,22.0009689331055,-14.159611701965302,22.0,-847258.0,492.232,pp-riro,4,0,-1,-1
1570533900.8,2019-10-08,13:25:00.800,14.0,12.0,18.0300006866455,-11.1,21.8,9.1,-11.5,-18.1,138.1,-9.78755,21.423,8.586889999999999,-3.81985,-4.42811,2.22883,-10.8357,-12.8657,135.263,-0.3315059999999999,0.0340603,0.501896,269.5,5.7,52.1701,4.42721,6.2,0.44382,255.599,4.58136,104.825,30.4021,208.401,1.08835,-0.151226,235.252,4.17553,3.83754,-14.6526718139648,22.0009689331055,-13.8481950759888,22.0,-847178.0,799.877,pp-riro,4,0,-1,-1
1570533900.9,2019-10-08,13:25:00.900,14.0,10.0,18.270000457763697,-11.8,21.2,9.0,-13.0,-17.4,140.7,-9.78755,21.423,8.586889999999999,-3.81985,-4.42811,2.22883,-10.8357,-12.8657,135.263,-0.3315059999999999,0.0340603,0.501896,269.5,5.7,52.1701,4.42721,6.2,0.4393869999999999,251.548,4.58142,106.986,29.2621,207.301,1.0795,-0.135986,235.108,4.20613,3.85708,-14.219146728515598,22.0009689331055,-13.6656217575073,22.0,-847060.0,1230.58,pp-riro,4,0,-1,-1
1570533901.0,2019-10-08,13:25:01.000,14.0,9.0,18.6499996185303,-12.5,20.8,9.0,-14.7,-16.6,143.2,-10.8696,20.5454,8.61731,-6.44794,-5.4726300000000005,0.364281,-13.3766,-12.3837,139.239,-0.212601,-0.114997,0.363438,265.8,6.4,52.1701,4.42721,6.2,0.43163,249.75,4.58145,109.089,28.5021,206.301,1.07061,-0.124614,235.102,4.23942,3.87641,-13.9085159301758,22.0009689331055,-13.598774909973098,22.0,-846956.0,892.17,pp-riro,4,0,-1,-1
1570533901.1,2019-10-08,13:25:01.100,14.0,10.0,18.9400005340576,-13.3,20.5,8.8,-15.7,-15.4,145.8,-11.9442,20.0023,8.47274,-7.216260000000001,-3.1616,-0.781565,-16.08,-12.1256,143.08100000000002,-0.250494,-0.0417228,0.373928,265.8,6.4,52.1701,4.42721,6.2,0.437171,256.061,4.58147,111.163,27.3621,205.301,1.0621200000000002,-0.110426,235.062,4.27514,3.89756,-13.6337280273438,22.0009689331055,-13.426964759826696,22.0,-846870.0,892.17,pp-riro,4,0,-1,-1
1570533901.2,2019-10-08,13:25:01.200,14.0,10.0,19.4400005340576,-14.2,19.5,8.7,-16.3,-15.3,148.5,-12.7192,19.4725,8.28638,-8.68476,-7.61932,-1.20161,-17.467,-10.9129,145.72,-0.0802594,0.0184323,0.476752,265.8,6.4,52.1701,4.42721,6.2,0.45878,270.988,4.58148,113.178,25.4621,204.301,1.05437,-0.0903738,234.939,4.29864,3.92712,-13.5654525756836,22.0009689331055,-12.9270467758179,22.0,-846814.0,461.467,pp-riro,4,0,-1,-1
1570533901.3,2019-10-08,13:25:01.300,14.0,10.0,19.7099990844727,-15.0,18.7,8.3,-17.0,-15.0,150.7,-13.7589,18.5845,8.226,-10.9202,-7.388730000000001,1.14946,-18.4515,-10.3157,148.201,-0.1668069999999999,0.0363661999999999,0.488487,265.8,6.4,52.1701,4.42721,6.2,0.490363,283.841,4.5815,115.135,24.3221,203.401,1.0463,-0.0772898,234.988,4.32211,3.96133,-13.4715805053711,22.0009689331055,-12.5348949432373,22.0,-846685.0,1230.58,pp-riro,4,0,-1,-1
1570533901.4,2019-10-08,13:25:01.400,14.0,9.0,19.8899993896484,-15.7,17.9,8.0,-17.0,-14.0,152.2,-14.7841,17.3686,7.764710000000001,-9.35937,-10.7115,-5.09127,-19.0404,-9.7059,151.05,0.07162,-0.194698,0.308646,265.8,6.4,52.1701,4.42721,6.2,0.492579,285.255,4.581519999999999,116.975,22.4221,202.501,1.03912,-0.0585041999999999,234.931,4.33635,3.98694,-13.0346450805664,22.0009689331055,-12.1486539840698,22.0,-846632.0,1045.99,pp-riro,4,0,-1,-1
1570533901.5,2019-10-08,13:25:01.500,14.0,9.0,19.979999542236303,-16.5,17.1,7.9,-17.3,-13.8,154.0,-14.7841,17.3686,7.764710000000001,-9.35937,-10.7115,-5.09127,-19.0404,-9.7059,151.05,0.07162,-0.194698,0.308646,265.8,6.4,52.1701,4.42721,6.5,0.49812,287.501,4.58153,118.699,20.9021,201.6,1.03197,-0.0434421,234.881,4.35147,4.01644,-12.667694091796902,22.0009689331055,-11.7880077362061,22.0,-846511.0,1292.11,pp-riro,4,0,-1,-1
1570533901.6,2019-10-08,13:25:01.600,14.0,7.0,20.3299999237061,-17.1,16.3,7.5,-16.7,-13.6,155.3,-14.7841,17.3686,7.764710000000001,-9.35937,-10.7115,-5.09127,-19.0404,-9.7059,151.05,0.07162,-0.194698,0.308646,265.8,6.4,52.1701,4.42721,6.5,0.4992279999999999,287.693,4.58155,120.363,19.3821,200.8,1.02514,-0.0288205,234.912,4.35958,4.04568,-12.242706298828098,22.0009689331055,-11.4412841796875,22.0,-846372.0,1384.4,pp-riro,4,0,-1,-1
1570533901.7,2019-10-08,13:25:01.700,14.0,7.0,20.7099990844727,-17.6,15.8,7.2,-16.7,-12.9,156.5,-16.1504,16.2448,7.52712,-2.47004,-3.48857,-3.67706,-19.4364,-9.07438,153.628,0.103059,-0.0733533,0.32592,265.8,6.4,52.1701,4.42721,6.5,0.5064310000000001,298.663,4.58157,121.941,17.8621,200.0,1.01854,-0.0146153999999999,234.923,4.37104,4.06447,-11.771636962890598,22.0009689331055,-11.3198766708374,22.0,-846254.0,984.464,pp-riro,4,0,-1,-1
1570533901.8,2019-10-08,13:25:01.800,14.0,7.0,21.0499992370605,-18.1,15.1,7.4,-16.6,-11.5,157.4,-16.1504,16.2448,7.52712,-2.47004,-3.48857,-3.67706,-19.4364,-9.07438,153.628,0.103059,-0.0733533,0.32592,265.8,6.4,52.1701,4.42721,6.5,0.538568,313.516,4.581580000000001,123.459,15.582,199.2,1.01242,0.00525913,234.874,4.37971,4.07479,-11.423454284668,22.0009689331055,35.0,22.0,-846196.0,646.054,pp-riro,4,0,-1,-1
1570533901.9,2019-10-08,13:25:01.900,14.0,8.0,21.0100002288818,-18.0,14.1,7.4,-16.7,-11.2,159.3,-17.2399,14.4683,7.06314,-3.78969,-10.3452,1.22491,-19.6839,-8.33822,157.056,-0.147923,0.0286781,0.1369369999999999,265.8,6.4,52.1701,4.42721,6.5,0.546879,307.145,4.5816,124.861,14.062,198.4,1.00624,0.01865,234.842,4.39883,4.08567,-11.317626953125,22.0009689331055,35.0,22.0,-846012.0,2153.51,pp-riro,4,0,-1,-1
1570533902.0,2019-10-08,13:25:02.000,14.0,9.0,21.0,-18.0,13.6,6.8,-17.4,-10.4,161.3,-17.2399,14.4683,7.06314,-3.78969,-10.3452,1.22491,-19.6839,-8.33822,157.056,-0.147923,0.0286781,0.1369369999999999,275.1,5.1,52.1701,4.42721,6.5,0.6743180000000001,275.527,4.5816,126.263,12.162,197.6,1.00011,0.0347795,234.811,4.42168,4.09615,-11.1964492797852,22.0009689331055,35.0,22.0,-846775.0,-16920.5,pp-riro,4,0,-1,-1
1570533902.1,2019-10-08,13:25:02.100,14.0,8.0,20.9200000762939,-17.8,12.9,6.1,-17.1,-9.8,162.6,-17.0711,13.1527,6.49673,-0.0930678,-4.7517,-3.09259,-19.7509,-6.63407,160.572,0.215942,0.14678,0.3225179999999999,275.1,5.1,52.1701,4.42721,6.5,1.11648,235.712,4.58162,127.578,10.642,197.0,0.994526,0.0475578,234.943,4.43533,4.11263,-10.7851181030273,22.0009689331055,35.0,22.0,-848426.0,-11136.7,pp-riro,4,0,-1,-1
1570533902.2,2019-10-08,13:25:02.200,14.0,8.0,20.75,-17.5,12.2,5.7,-18.1,-9.8,163.9,-16.9102,12.2207,5.5801300000000005,8.83363,-4.46381,1.69429,-19.8724,-5.99145,162.767,0.00322271,0.148776,0.659934,275.1,5.1,52.1701,4.42721,6.5,0.940832,213.336,4.58164,128.805,8.361930000000001,196.4,0.989371,0.0659283,235.018,4.43878,4.117290000000001,-10.0102386474609,22.0009689331055,35.0,22.0,-846813.0,14490.1,pp-riro,4,0,-1,-1
1570533902.3,2019-10-08,13:25:02.300,14.0,7.0,20.4899997711182,-17.5,11.7,5.4,-18.0,-7.7,163.9,-16.8114,11.6327,5.14132,-1.39135,-1.87116,-4.37072,-20.4844,-5.99632,163.773,-0.22353,0.1343369999999999,0.170644,275.1,5.1,52.1701,4.42721,6.5,1.04112,243.241,4.58167,129.944,6.84191,195.9,0.984479,0.0781282,235.179,4.4482800000000005,4.12849,-8.88718414306641,22.0009689331055,35.0,22.0,-847207.0,1968.93,pp-riro,4,0,-1,-1
1570533902.4,2019-10-08,13:25:02.400,14.0,10.0,20.1399993896484,-17.5,11.4,5.7,-18.7,-7.1,164.9,-16.8114,11.6327,5.14132,-1.39135,-1.87116,-4.37072,-20.4844,-5.99632,163.773,-0.22353,0.1343369999999999,0.170644,275.1,5.1,52.1701,4.42721,6.5,1.02671,246.639,4.58169,131.054,4.94188,195.4,0.979683,0.0930177,235.331,4.45614,4.11888,-7.41935729980469,22.0009689331055,35.0,22.0,-846940.0,4983.85,pp-riro,4,0,-1,-1
1570533902.5,2019-10-08,13:25:02.500,14.0,12.0,19.840000152587898,-17.8,11.6,5.8,-19.5,-7.3,166.7,-16.7767,11.4301,5.09406,-3.96852,-3.5795,0.345353,-20.5127,-5.27461,163.882,-0.0622925999999999,0.133098,0.0640119,275.1,5.1,52.1701,4.427219999999999,6.9,1.0245,245.084,4.58172,132.16299999999998,3.42186,194.8,0.97452,0.104799,235.427,4.4706,4.1089400000000005,-5.58286285400391,22.0009689331055,35.0,22.0,-846828.0,92.2935,pp-riro,4,0,-1,-1
1570533902.6,2019-10-08,13:25:02.600,14.0,10.0,19.5699996948242,-17.9,11.5,6.1,-20.4,-6.7,167.2,-17.1423,11.4552,5.477580000000001,3.16343,3.95681,0.8600979999999999,-22.1106,-4.81599,166.173,-0.103119,-0.0762233,0.115966,275.1,5.1,52.1701,4.427219999999999,6.9,1.03447,257.151,4.58174,133.332,1.90185,194.3,0.969334,0.116397,235.655,4.47406,4.09875,-3.49889373779297,22.0009689331055,35.0,22.0,-846594.0,2614.98,pp-riro,4,0,-1,-1
1570533902.7,2019-10-08,13:25:02.700,14.0,8.0,19.25,-18.1,11.2,6.5,-20.9,-7.3,168.0,-17.3341,11.429,5.8723,-1.89168,-3.7291,5.14917,-23.0568,-5.44319,167.604,0.087032,-0.2891289999999999,0.01852,275.1,5.1,52.1701,4.427219999999999,6.9,1.06051,266.107,4.58177,134.35399999999998,0.00181847,193.6,0.964124,0.130622,235.652,4.46809,4.09293,-1.3841934204101598,22.0009689331055,35.0,22.0,-846518.0,769.112,pp-riro,4,0,-1,-1
1570533902.8,2019-10-08,13:25:02.800,14.0,11.0,19.2000007629395,-18.1,11.3,6.4,-22.2,-7.6,167.7,-17.9197,11.2204,6.12254,-3.25308,-0.906632,-0.129411,-23.8318,-6.25822,168.24200000000002,-0.00231778,-0.0635703,-0.215209,275.1,5.1,52.1701,4.427219999999999,6.9,1.04334,258.334,4.58179,135.464,-2.27822,193.0,0.958739,0.147428,235.806,4.4471,4.078130000000001,0.720428466796875,22.0009689331055,35.0,22.0,-845989.0,4153.21,pp-riro,4,0,-1,-1
1570533902.9,2019-10-08,13:25:02.900,14.0,8.0,19.1499996185303,-18.0,11.4,7.0,-23.1,-9.0,167.3,-17.9197,11.2204,6.12254,-3.25308,-0.906632,-0.129411,-23.8318,-6.25822,168.24200000000002,-0.00231778,-0.0635703,-0.215209,275.1,5.1,52.1701,4.427219999999999,6.9,1.04112,264.139,4.58181,136.545,-3.79823,192.3,0.953167,0.158397,235.877,4.418769999999999,4.0512,2.82040405273438,22.0009689331055,35.0,22.0,-845897.0,1784.34,pp-riro,4,0,-1,-1
1570533903.0,2019-10-08,13:25:03.000,14.0,7.0,19.340000152587898,-17.4,11.6,8.4,-24.3,-10.4,166.5,-17.9535,11.5386,7.19568,3.64101,1.35289,12.4117,-26.5489,-9.99435,167.868,-0.112108,-0.414492,-0.148346,277.0,5.8,52.1701,4.427219999999999,6.9,1.08545,285.434,4.58188,137.655,-5.31825,191.5,0.947195,0.1691619999999999,235.901,4.38491,3.992280000000001,4.92378234863281,22.0009689331055,35.0,22.0,-845897.0,-61.529,pp-riro,4,0,-1,-1
1570533903.1,2019-10-08,13:25:03.100,14.0,11.0,19.5599994659424,-16.2,12.2,8.9,-25.7,-11.6,165.3,-16.8223,12.3306,8.6149,8.473519999999999,7.34559,-1.3706200000000002,-27.5979,-12.3026,166.71099999999998,-0.2725619999999999,-0.0994838,-0.3716489999999999,277.0,5.8,52.1701,4.427219999999999,6.9,1.09154,264.161,4.581980000000001,138.765,-7.218269999999999,190.6,0.940855,0.182451,235.873,4.34535,3.91985,7.02716827392578,22.0009689331055,35.0,22.0,-845555.0,5076.14,pp-riro,4,0,-1,-1
1570533903.2,2019-10-08,13:25:03.200,14.0,8.0,19.4300003051758,-15.2,13.0,9.2,-26.8,-13.3,163.6,-16.8223,12.3306,8.6149,8.473519999999999,7.34559,-1.3706200000000002,-27.5979,-12.3026,166.71099999999998,-0.2725619999999999,-0.0994838,-0.3716489999999999,277.0,5.8,52.1701,4.427219999999999,6.9,0.987375,204.109,4.58201,140.02100000000002,-8.73828,189.6,0.933763,0.192747,235.861,4.2964400000000005,3.85291,9.13735961914062,22.0009689331055,35.0,22.0,-844816.0,7598.83,pp-riro,4,0,-1,-1
1570533903.3,2019-10-08,13:25:03.300,14.0,8.0,19.1100006103516,-14.2,13.5,9.9,-27.4,-14.8,161.6,-16.354,12.7879,8.85938,10.9625,8.39333,2.69153,-28.22,-12.9281,165.78799999999998,-0.22926,-0.10171,-0.406331,277.0,5.8,52.1701,4.427219999999999,6.9,0.902046,180.55900000000003,4.58208,141.276,-10.2583,188.7,0.926876,0.202829,235.949,4.24564,3.78635,11.2526626586914,22.0009689331055,35.0,22.0,-844413.0,1968.93,pp-riro,4,0,-1,-1
1570533903.4,2019-10-08,13:25:03.400,14.0,9.0,18.6800003051758,-13.1,13.7,10.7,-28.1,-17.4,158.6,-14.9113,13.7833,9.7639,6.66222,0.0360583,10.2163,-29.2046,-17.221,163.813,-0.408947,-0.538624,-0.540837,277.0,5.8,52.1701,4.427219999999999,6.9,0.928088,199.459,4.58214,142.62,-11.7783,187.7,0.919395,0.212676,236.03,4.17082,3.72168,13.3611526489258,22.0009689331055,35.0,22.0,-844421.0,-522.996,pp-riro,4,0,-1,-1
1570533903.5,2019-10-08,13:25:03.500,14.0,9.0,18.4899997711182,-12.0,14.4,11.1,-28.5,-19.9,154.8,-13.5985,14.5843,11.0553,12.2492,7.510569999999999,6.51593,-30.1495,-21.5216,160.145,-0.285909,-0.2132909999999999,-0.6879390000000001,277.0,5.8,52.1701,4.427219999999999,7.0,0.953576,195.769,4.58221,143.934,-13.2983,186.7,0.911971,0.22234,236.116,4.08672,3.65131,15.473052978515598,22.0009689331055,35.0,22.0,-844231.0,2984.16,pp-riro,4,0,-1,-1
1570533903.6,2019-10-08,13:25:03.600,14.0,9.0,18.3999996185303,-10.6,15.1,11.6,-27.9,-22.4,150.3,-12.4934,15.5358,11.6885,13.9181,7.714980000000001,5.63046,-30.1986,-24.6799,156.33,-0.157654,-0.178038,-0.987943,277.0,5.8,52.1701,4.427219999999999,7.0,0.934737,188.995,4.58228,145.366,-14.0583,185.6,0.90411,0.226553,236.169,3.998180000000001,3.57254,17.5781326293945,22.0009689331055,35.0,22.0,-844049.0,3476.39,pp-riro,4,0,-1,-1
1570533903.7,2019-10-08,13:25:03.700,14.0,8.0,18.25,-9.3,15.5,12.5,-26.8,-25.3,145.4,-12.4934,15.5358,11.6885,13.9181,7.714980000000001,5.63046,-30.1986,-24.6799,156.33,-0.157654,-0.178038,-0.987943,277.0,5.8,52.1701,4.427219999999999,7.0,0.94471,208.449,4.58235,146.797,-15.1983,184.5,0.896116,0.2332409999999999,236.263,3.89996,3.4974199999999995,19.693435668945305,22.0009689331055,35.0,22.0,-843979.0,-1107.52,pp-riro,4,0,-1,-1
1570533903.8,2019-10-08,13:25:03.800,14.0,10.0,18.1100006103516,-7.7,16.2,13.3,-24.5,-27.9,139.1,-11.1056,16.1301,12.5209,14.7397,4.9560900000000006,9.13932,-29.9843,-28.87,152.02,-0.335286,-0.171525,-0.8757940000000001,277.0,5.8,52.1701,4.427219999999999,7.0,0.967982,213.954,4.582409999999999,148.315,-15.9582,183.299,0.887689,0.237201,236.328,3.7887,3.41008,21.800216674804695,22.0009689331055,35.0,22.0,-843997.0,-369.174,pp-riro,4,0,-1,-1
1570533903.9,2019-10-08,13:25:03.900,14.0,11.0,17.7099990844727,-6.0,16.6,13.9,-22.2,-31.4,132.3,-9.79988,17.2488,13.5396,10.5315,7.0533600000000005,8.96455,-28.7959,-32.036,146.921,-0.0084294,-0.00435084,-0.92254,277.0,5.8,52.1701,4.427219999999999,7.0,0.952468,206.923,4.58248,149.951,-17.0982,181.999,0.878474,0.243476,236.435,3.66478,3.32425,23.913818359375,22.0009689331055,35.0,22.0,-843594.0,3168.74,pp-riro,4,0,-1,-1
1570533904.0,2019-10-08,13:25:04.000,14.0,11.0,17.3600006103516,-5.0,17.0,14.0,-18.8,-33.9,124.8,-8.13285,17.8746,14.4089,10.0172,1.60703,2.43299,-26.4071,-35.6335,140.641,-0.318887,-0.280371,-1.11618,271.3,5.9,52.1701,4.427219999999999,7.0,0.964103,218.509,4.58249,151.616,-17.4782,180.799,0.869714,0.244665,236.604,3.54542,3.27578,26.0291213989258,22.0009689331055,35.0,22.0,-843556.0,-276.88,pp-riro,4,0,-1,-1
1570533904.1,2019-10-08,13:25:04.100,14.0,12.0,17.0,-2.3,17.4,14.9,-16.3,-36.1,116.3,-6.1669,18.5921,15.0053,16.1526,5.78376,4.29907,-24.0156,-40.0559,133.953,-0.408461,-0.034067,-1.28677,271.3,5.9,52.1701,4.427219999999999,7.0,0.987375,222.742,4.58249,152.463,-17.8582,180.09900000000002,0.8649469999999999,0.246496,236.642,3.4166199999999995,3.15289,28.134216308593803,22.0009689331055,35.0,22.0,-843560.0,-61.529,pp-riro,4,0,-1,-1
1570533904.2,2019-10-08,13:25:04.200,14.0,11.0,16.8899993896484,-1.1,17.3,15.2,-9.7,-38.3,107.2,-5.29425,19.0418,15.3406,13.5742,12.8386,6.80248,-21.8347,-41.7364,129.762,-0.187494,-0.193044,-1.20242,271.3,5.9,52.1701,4.427219999999999,7.0,0.986267,221.725,4.58249,155.033,-17.8581,178.09900000000002,0.8512629999999999,0.244582,236.799,3.2869900000000003,3.10311,30.1473236083984,22.0009689331055,23.0044822692871,22.0,-843321.0,2768.8,pp-riro,4,0,-1,-1
1570533904.3,2019-10-08,13:25:04.300,14.0,10.0,16.8400001525879,2.0,16.7,14.9,-4.9,-39.7,98.0,-1.75833,19.2771,16.5089,24.6225,1.24244,8.26315,-15.7539,-47.1194,116.931,-0.129102,-0.262925,-1.14122,271.3,5.9,52.1701,4.427219999999999,7.0,0.953576,194.691,4.58249,156.66899999999998,-17.858,176.699,0.8422059999999999,0.2433989999999999,236.826,3.16171,2.96811,31.8198089599609,22.0009689331055,23.0044822692871,22.0,-842950.0,3168.74,pp-ro,1,1,-1,-1
1570533904.4,2019-10-08,13:25:04.400,14.0,12.0,16.8400001525879,3.8,16.6,14.4,0.7,-39.8,88.5,-0.420595,18.985,16.6681,16.7422,-3.01738,-0.747001,-12.6185,-48.8434,112.244,0.0944673,-0.608742,-1.20316,271.3,5.9,52.1701,4.427219999999999,7.0,0.931412,183.035,4.58248,158.334,-17.858,175.299,0.833061,0.242217,236.893,3.03525,2.88607,33.144851684570305,22.0009689331055,23.0044822692871,22.0,-842750.0,3722.5,pp-ro,1,1,-1,-1
1570533904.5,2019-10-08,13:25:04.500,14.0,11.0,16.6800003051758,5.5,16.2,14.3,7.1,-38.5,78.4,1.81207,19.118,16.1935,16.4939,6.44466,-8.77323,-5.84471,-50.428,101.494,-0.306935,-0.0600966999999999,-1.18269,271.3,5.9,52.1701,4.427219999999999,7.1,0.893181,173.18599999999998,4.58248,159.969,-17.4779,173.99900000000002,0.824427,0.238734,237.005,2.8992400000000003,2.81152,34.1105346679688,22.0009689331055,23.0044822692871,22.0,-842511.0,1599.75,pp-ro,1,1,-1,-1
1570533904.6,2019-10-08,13:25:04.600,14.0,12.0,16.520000457763697,7.4,15.6,14.1,13.3,-37.3,68.3,3.99828,18.961,15.6788,22.9608,-2.50738,-0.0858421,1.81738,-50.4621,88.8162,-0.587514,0.184876,-1.30226,271.3,5.9,52.1701,4.427219999999999,7.1,0.91202,190.783,4.58248,161.575,-17.0978,172.799,0.8161729999999999,0.235337,237.189,2.76196,2.72596,34.7083435058594,22.0009689331055,23.0044822692871,22.0,-842492.0,-276.88,pp-ro,1,1,-1,-1
1570533904.7,2019-10-08,13:25:04.700,14.0,12.0,16.2999992370605,8.3,15.1,13.9,16.2,-36.3,63.4,7.323180000000001,18.2012,15.5154,28.0127,-2.64273,6.605630000000001,12.9747,-48.9342,70.8133,-0.051,-0.161947,-1.07942,271.3,5.9,52.1701,4.427219999999999,7.1,0.960225,203.783,4.58247,162.393,-16.7178,172.199,0.8120649999999999,0.232498,237.284,2.69369,2.68283,34.958694458007805,22.0009689331055,23.0044822692871,22.0,-842421.0,1784.34,pp-ro,1,1,-1,-1
1570533904.8,2019-10-08,13:25:04.800,14.0,14.0,16.2999992370605,10.0,14.0,13.0,21.4,-34.3,53.8,9.53362,17.0918,14.9324,26.095,-10.4399,-7.14024,19.8553,-47.6167,58.8136,-0.465541,-0.450507,-1.2414,271.3,5.9,52.1701,4.427219999999999,7.1,0.950805,197.633,4.58247,163.82399999999998,-15.5777,170.99900000000002,0.804574,0.224719,237.322,2.56049,2.59101,34.9093017578125,22.0009689331055,22.439760208129897,22.0,-842280.0,2645.75,pp-ro,1,1,-1,-1
1570533904.9,2019-10-08,13:25:04.900,14.0,13.0,16.25,11.2,12.8,11.9,25.6,-31.5,45.3,11.4796,15.954,13.7118,22.4268,-13.4355,-13.6819,26.2897,-45.8192,47.8225,0.319871,-0.0794134,-1.11766,271.3,5.9,52.1701,4.427219999999999,7.1,0.920331,181.648,4.58244,165.255,-14.4376,169.899,0.7973520000000001,0.217063,237.452,2.43367,2.50901,34.44775390625,22.0009689331055,21.021432876586896,22.0,-842049.0,2091.99,pp-ro,1,1,-1,-1
1570533905.0,2019-10-08,13:25:05.000,14.0,12.0,16.4099998474121,12.6,12.0,11.3,28.3,-28.1,38.5,12.9036,14.6456,12.6612,13.1388,-12.6237,-6.29906,30.3054,-41.5182,38.4977,-0.405175,0.0655968,-1.41103,267.3,5.8,52.1701,4.427219999999999,7.1,0.88764,164.967,4.58247,166.54,-13.6776,168.799,0.790452,0.211878,237.52,2.31882,2.43045,33.6132202148438,22.0009689331055,19.690761566162102,22.0,-841733.0,1999.69,pp-ro,1,1,-1,-1
1570533905.1,2019-10-08,13:25:05.100,14.0,10.0,16.3999996185303,13.6,11.0,10.5,31.1,-24.6,32.0,14.8899,13.0448,11.2573,13.5585,-13.3205,-12.064,34.3015,-35.357,27.6517,-0.203536,0.2452099999999999,-1.0566,267.3,5.8,52.1701,4.427219999999999,7.1,0.878775,161.786,4.58247,167.796,-12.1575,167.799,0.784096,0.202247,237.613,2.20777,2.36065,32.7582397460938,22.0009689331055,18.4720230102539,22.0,-841658.0,1476.7,pp-ro,1,1,-1,-1
1570533905.2,2019-10-08,13:25:05.200,14.0,11.0,16.1900005340576,14.4,9.9,9.5,32.4,-21.3,26.0,15.7288,11.479,10.0637,9.26203,-12.8006,-13.402,36.0417,-32.3449,21.784,-0.0363154,-0.171058,-1.09591,267.3,5.8,52.1701,4.427219999999999,7.1,0.865477,148.441,4.58247,168.90599999999998,-11.0174,166.899,0.778359,0.195054,237.71,2.10197,2.28605,30.8916015625,22.0009689331055,17.1615314483643,22.0,-841460.0,1784.34,pp-ro,1,1,-1,-1
1570533905.3,2019-10-08,13:25:05.300,14.0,11.0,15.9099998474121,15.1,8.9,8.7,33.6,-18.8,21.4,15.7288,11.479,10.0637,9.26203,-12.8006,-13.402,36.0417,-32.3449,21.784,-0.0363154,-0.171058,-1.09591,267.3,5.8,52.1701,4.427219999999999,7.1,0.8510709999999999,141.836,4.58247,169.958,-9.49733,165.99900000000002,0.772836,0.185739,237.763,2.0232900000000003,2.22103,28.990890502929695,22.0009689331055,16.0194816589355,22.0,-841354.0,2091.99,pp-ro,1,1,-1,-1
1570533905.4,2019-10-08,13:25:05.400,14.0,12.0,15.6899995803833,15.6,8.1,7.6,34.2,-16.2,17.5,15.7288,11.479,10.0637,9.26203,-12.8006,-13.402,36.0417,-32.3449,21.784,-0.0363154,-0.171058,-1.09591,267.3,5.8,52.1701,4.427219999999999,7.1,0.831678,135.299,4.58248,170.921,-7.97726,165.199,0.76783,0.176553,237.841,1.95138,2.15628,27.9451599121094,22.0009689331055,14.8680782318115,22.0,-841206.0,1199.82,pp-ro,1,1,-1,-1
1570533905.5,2019-10-08,13:25:05.500,14.0,11.0,15.460000038147,16.1,7.4,6.9,34.5,-14.2,14.0,16.759,9.82818,8.34024,7.25928,-10.9736,-10.6193,37.5571,-26.9683,14.4519,-0.00473031,0.1173049999999999,-0.71483,267.3,5.8,52.1701,4.42721,7.2,0.83611,142.27,4.58248,171.827,-6.45719,164.49900000000002,0.763261,0.167475,237.962,1.8912,2.1049,25.3189163208008,22.0009689331055,13.9721546173096,22.0,-841182.0,-123.058,pp-ro,1,1,-1,-1
1570533905.6,2019-10-08,13:25:05.600,14.0,11.0,15.289999961853,16.8,6.8,6.1,35.6,-12.3,10.7,17.412,8.370239999999999,6.93853,4.59595,-9.36834,-7.649489999999999,37.6969,-21.8752,9.28944,-0.284302,0.0230974,-0.65313,267.3,5.8,52.1701,4.42721,7.2,0.856057,143.679,4.58248,172.58599999999998,-4.557119999999999,163.799,0.759107,0.15631,237.985,1.83595,2.04903,22.6790466308594,22.0009689331055,12.9573488235474,22.0,-841088.0,1538.22,pp-ro,1,1,-1,-1
1570533905.7,2019-10-08,13:25:05.700,14.0,10.0,15.0600004196167,16.8,6.2,5.4,36.4,-10.2,7.7,17.412,8.370239999999999,6.93853,4.59595,-9.36834,-7.649489999999999,37.6969,-21.8752,9.28944,-0.284302,0.0230974,-0.65313,267.3,5.8,52.1701,4.42721,7.2,0.83334,134.509,4.58248,173.40400000000002,-3.03705,163.099,0.754707,0.147422,238.074,1.7801,2.01176,20.5739593505859,22.0009689331055,12.351372718811,22.0,-840918.0,1322.87,pp-ro,1,1,-1,-1
1570533905.8,2019-10-08,13:25:05.800,14.0,10.0,14.880000114440902,16.9,5.9,4.8,37.1,-8.7,4.5,17.7596,8.02782,6.46212,8.07874,-7.90538,-6.2166,37.8482,-20.3761,7.69667,-0.076746,0.0517636999999999,-0.6349239999999999,267.3,5.8,52.1701,4.42721,7.2,0.8272450000000001,132.329,4.58248,174.105,-1.13697,162.498,0.750921,0.136438,238.158,1.73079,1.98563,18.4688720703125,22.0009689331055,11.9303302764893,22.0,-840862.0,1045.99,pp-ro,1,1,-1,-1
1570533905.9,2019-10-08,13:25:05.900,14.0,9.0,14.640000343322802,17.1,5.5,4.2,38.6,-6.8,1.4,18.0322,7.21948,5.81123,-0.247491,-11.4366,-7.358219999999999,38.1585,-17.6343,4.96064,0.00771946,-0.0846734,-0.655225,267.3,5.8,52.1701,4.42721,7.2,0.828907,132.46200000000002,4.58248,174.77599999999998,0.383087,161.898,0.747166,0.127714,238.239,1.6760099999999998,1.95176,16.5477294921875,22.0009689331055,11.376427650451696,22.0,-840761.0,738.3480000000001,pp-ro,1,1,-1,-1
1570533906.0,2019-10-08,13:25:06.000,14.0,9.0,14.5799999237061,17.2,5.1,3.7,39.5,-4.7,-1.2,18.217,6.44431,4.72736,-0.555458,-6.29822,-6.09742,39.3273,-13.607,0.374376,-0.0584154999999999,-0.0333868,-0.727896,271.4,5.5,52.1701,4.42721,7.2,0.828907,133.558,4.58248,175.39,2.28316,161.398,0.743837,0.1168869999999999,238.361,1.62587,1.92458,14.8888702392578,22.0009689331055,10.9280519485474,22.0,-840711.0,922.935,pp-ro,1,1,-1,-1
1570533906.1,2019-10-08,13:25:06.100,14.0,8.0,14.460000038147,17.3,4.6,3.3,40.7,-3.2,-3.7,18.3022,5.36015,3.54403,-0.611119,-3.5288800000000005,-1.12954,41.3365,-8.05829,-5.13341,0.265555,-0.0292444,-0.60205,271.4,5.5,52.1701,4.42721,7.2,0.835556,137.196,4.58247,175.94400000000002,3.80321,160.898,0.740644,0.1083,238.452,1.58309,1.89562,14.1463012695312,22.0009689331055,10.4581155776978,22.0,-840644.0,338.409,pp-ro,1,1,-1,-1
1570533906.2,2019-10-08,13:25:06.200,14.0,8.0,14.3999996185303,17.4,4.1,2.8,41.8,-1.8,-5.7,18.3022,5.36015,3.54403,-0.611119,-3.5288800000000005,-1.12954,41.3365,-8.05829,-5.13341,0.265555,-0.0292444,-0.60205,271.4,5.5,52.1701,4.42721,7.2,0.837218,136.49200000000002,4.58246,176.47,5.70328,160.498,0.737775,0.0976126,238.608,1.54885,1.86378,12.8348846435547,22.0009689331055,9.90824031829834,22.0,-840603.0,830.6410000000001,pp-ro,1,1,-1,-1
1570533906.3,2019-10-08,13:25:06.300,14.0,8.0,14.2700004577637,17.2,3.6,2.5,42.8,-0.4,-6.9,18.1666,4.13846,2.65373,-2.52128,-5.501530000000001,-6.893269999999999,43.1894,-3.87325,-9.42513,0.151795,0.0729083,-0.375337,271.4,5.5,52.1701,4.42721,7.2,0.831678,133.267,4.58246,176.937,7.603339999999999,160.09799999999998,0.735019,0.0869826,238.739,1.52396,1.84345,11.5438995361328,22.0009689331055,9.59016799926758,22.0,-840489.0,1045.99,pp-ro,1,1,-1,-1
1570533906.4,2019-10-08,13:25:06.400,14.0,10.0,14.2799997329712,17.2,3.2,2.3,44.1,0.3,-7.8,18.1666,4.13846,2.65373,-2.52128,-5.501530000000001,-6.893269999999999,43.1894,-3.87325,-9.42513,0.151795,0.0729083,-0.375337,271.4,5.5,52.1701,4.42721,7.2,0.816163,125.191,4.58245,177.375,9.5034,159.59799999999998,0.731979,0.0764098999999999,238.797,1.51162,1.82739,10.4913558959961,22.0009689331055,9.38107299804688,22.0,-840338.0,1015.23,pp-ro,1,1,-1,-1
1570533906.5,2019-10-08,13:25:06.500,14.0,10.0,14.0299997329712,17.4,2.9,2.0,45.1,1.2,-8.7,18.0055,2.95837,1.99938,0.167052,-1.29496,-1.79595,46.4519,0.0623241999999999,-11.9873,0.143894,-0.0271817,-0.298827,271.4,5.5,52.1701,4.42721,7.4,0.812285,124.693,4.58244,177.726,11.0235,159.298,0.729821,0.0679991,238.922,1.49517,1.80709,9.88504028320312,22.0009689331055,9.05608081817627,22.0,-840289.0,922.935,pp-ro,1,1,-1,-1
1570533906.6,2019-10-08,13:25:06.600,14.0,10.0,13.8999996185303,17.5,2.5,1.9,46.1,1.7,-9.6,18.0055,2.95837,1.99938,0.167052,-1.29496,-1.79595,46.4519,0.0623241999999999,-11.9873,0.143894,-0.0271817,-0.298827,271.4,5.5,52.1701,4.42721,7.4,0.817826,129.941,4.58243,178.047,12.9235,158.898,0.727324,0.0574951,238.99,1.48532,1.7939200000000002,9.39794158935547,22.0009689331055,8.890016555786131,22.0,-840249.0,307.645,pp-ro,1,1,-1,-1
1570533906.7,2019-10-08,13:25:06.700,14.0,9.0,13.710000038147,17.8,2.1,1.8,47.1,2.2,-10.6,18.099,2.51592,1.81017,1.72748,-5.10393,-4.65559,47.4593,0.887978,-12.808,0.247804,0.0538337,-0.140618,271.4,5.5,52.1701,4.42721,7.4,0.832232,136.186,4.58242,178.33900000000003,14.4436,158.59799999999998,0.7252529999999999,0.0491476,239.096,1.47284,1.7777,9.21059417724609,22.0009689331055,8.653684616088869,22.0,-840228.0,399.9380000000001,pp-ro,1,1,-1,-1
1570533906.8,2019-10-08,13:25:06.800,14.0,9.0,13.7700004577637,18.0,1.8,1.7,48.2,2.6,-11.8,18.5256,1.8768,1.62822,-0.17915,-4.23463,-1.78047,48.8531,2.12197,-14.1451,0.137787,-0.0616540999999999,-0.1412119999999999,271.4,5.5,52.1701,4.42721,7.4,0.837218,140.268,4.58242,178.57299999999998,16.7236,158.19799999999998,0.7228060000000001,0.0365898,239.154,1.46217,1.76927,8.91765594482422,22.0009689331055,8.589001655578612,22.0,-840164.0,615.29,pp-ro,1,1,-1,-1
1570533906.9,2019-10-08,13:25:06.900,14.0,9.0,13.8400001525879,18.2,1.4,1.6,49.1,2.8,-13.1,18.6095,1.68943,1.56831,2.3542400000000003,-4.513669999999999,-3.6733,49.3519,2.35712,-14.6996,0.111967,-0.0889674999999999,-0.172198,271.4,5.5,52.1701,4.42721,7.4,0.859382,154.033,4.582409999999999,178.77700000000002,18.2437,157.898,0.720893,0.0282822,239.219,1.4501,1.7546700000000002,8.69284057617188,22.0009689331055,8.38973236083984,22.0,-840121.0,123.058,pp-ro,1,1,-1,-1
1570533907.0,2019-10-08,13:25:07.000,14.0,10.0,13.8999996185303,18.3,0.8,1.6,50.0,2.8,-14.6,18.8081,1.15487,1.48312,3.97039,-4.63854,-1.5063,50.0157,2.73745,-15.8225,0.0726268,-0.1897589999999999,-0.154264,271.4,6.2,52.1701,4.42721,7.4,0.87545,162.099,4.58237,178.923,20.5237,157.59799999999998,0.718874,0.0158079,239.315,1.44114,1.74056,8.45439910888672,22.0009689331055,8.20542621612549,22.0,-840080.0,492.232,pp-ro,1,1,-1,-1
1570533907.1,2019-10-08,13:25:07.100,14.0,10.0,13.960000038147,18.3,0.4,1.5,50.5,2.9,-15.8,18.92,0.649436,1.41204,-0.978902,-6.45281,-1.22805,50.6674,2.82021,-17.081,0.118643,-0.1492119999999999,-0.168464,271.4,6.2,52.1701,4.42721,7.4,0.880437,163.907,4.58239,179.01,22.0438,157.298,0.717197,0.00746983,239.318,1.43156,1.72747,8.39989471435547,22.0009689331055,8.03611755371094,22.0,-840052.0,553.761,pp-ro,1,1,-1,-1
1570533907.2,2019-10-08,13:25:07.200,14.0,9.0,14.0900001525879,18.2,0.1,1.4,51.0,2.9,-16.8,18.9234,0.213867,1.39314,2.24959,-2.10735,0.250409,51.2499,2.72122,-18.2856,0.268702,-0.220646,-0.0601764,271.4,6.2,52.1701,4.42721,7.4,0.883761,163.982,4.582380000000001,179.06900000000002,24.3238,156.998,0.71529,-0.00500391,239.386,1.42841,1.7210599999999998,8.20914459228516,22.0009689331055,8.018933296203612,22.0,-839953.0,1107.52,pp-ro,1,1,-1,-1
1570533907.3,2019-10-08,13:25:07.300,14.0,9.0,14.2700004577637,18.2,-0.3,1.2,51.4,2.5,-17.9,18.7673,-0.441325,1.09791,-0.766026,-3.07166,-3.66402,51.6542,3.06501,-19.8225,0.0715363999999999,-0.156666,-0.14706,271.4,6.2,52.1701,4.42721,7.4,0.880437,164.75099999999998,4.58237,179.09799999999998,25.8439,156.798,0.7140029999999999,-0.0132961,239.436,1.42652,1.7037400000000005,8.042236328125,22.0009689331055,7.7546901702880895,22.0,-839766.0,1107.52,pp-ro,1,1,-1,-1
1570533907.4,2019-10-08,13:25:07.400,14.0,9.0,14.5799999237061,18.2,-0.7,1.0,51.3,2.8,-18.5,18.8001,-0.912246,0.938168,1.4299,-1.82462,-1.13161,51.6896,3.17852,-20.5821,-0.139393,-0.0473250999999999,-0.0810458999999999,271.4,6.2,52.1701,4.42721,7.4,0.88764,169.509,4.58236,179.01,27.7439,156.59799999999998,0.712839,-0.0237373,239.452,1.42268,1.68783,7.91450500488281,22.0009689331055,7.51748847961426,22.0,-839708.0,461.467,pp-ro,1,1,-1,-1
1570533907.5,2019-10-08,13:25:07.500,14.0,9.0,14.8199996948242,18.0,-1.0,0.9,51.2,2.5,-19.5,18.6105,-1.30623,0.790171,-2.06032,-4.48407,-1.91887,51.7368,3.02218,-21.2101,0.221058,-0.217409,0.0565461,271.4,6.2,52.1701,4.4272,7.7,0.897059,171.486,4.58235,178.952,29.6439,156.398,0.711544,-0.0341276,239.505,1.4220700000000002,1.6796400000000002,7.68117523193359,22.0009689331055,7.452701568603519,22.0,-839616.0,1261.34,pp-ro,1,1,-1,-1
1570533907.6,2019-10-08,13:25:07.600,14.0,9.0,15.0500001907349,17.9,-1.3,0.7,51.0,2.3,-20.3,18.6105,-1.30623,0.790171,-2.06032,-4.48407,-1.91887,51.7368,3.02218,-21.2101,0.221058,-0.217409,0.0565461,271.4,6.2,52.1701,4.4272,7.7,0.895951,172.107,4.58234,178.864,31.544,156.298,0.710591,-0.0445179,239.617,1.42243,1.6670200000000002,7.42570495605469,22.0009689331055,7.28468799591064,22.0,-839540.0,1445.93,pp-ro,1,1,-1,-1
1570533907.7,2019-10-08,13:25:07.700,14.0,8.0,15.3400001525879,17.7,-1.5,0.6,50.8,2.4,-20.6,18.5541,-1.58872,0.685287,-0.387462,-1.61405,-3.11498,51.3784,2.6324400000000003,-22.1374,-0.215391,-0.148066,-0.048851,271.4,6.2,52.1701,4.4272,7.7,0.8976129999999999,176.222,4.582330000000001,178.68900000000002,33.064,156.19799999999998,0.710008,-0.052913,239.626,1.42328,1.6606599999999998,7.39163970947266,22.0009689331055,7.21839809417725,22.0,-839446.0,769.112,pp-ro,1,1,-1,-1
1570533907.8,2019-10-08,13:25:07.800,14.0,10.0,15.6800003051758,17.8,-1.6,0.6,50.8,2.4,-21.2,18.5541,-1.58872,0.685287,-0.387462,-1.61405,-3.11498,51.3784,2.6324400000000003,-22.1374,-0.215391,-0.148066,-0.048851,271.4,6.2,52.1701,4.4272,7.7,0.912574,179.963,4.58229,178.572,34.9641,155.998,0.708721,-0.0632881999999999,239.678,1.42336,1.66389,7.28945159912109,22.0009689331055,7.40963363647461,22.0,-839323.0,1353.64,pp-ro,1,1,-1,-1
1570533907.9,2019-10-08,13:25:07.900,14.0,9.0,15.8999996185303,17.7,-1.8,0.5,50.6,2.6,-21.9,18.4626,-2.15211,0.5888260000000001,-2.43654,-0.8367129999999999,0.328229,50.4638,3.19124,-23.4369,-0.0153111,-0.080708,-0.0354006,271.4,6.2,52.1701,4.4272,7.7,0.910911,180.98,4.58231,178.39700000000002,36.8641,155.898,0.707853,-0.0736687,239.767,1.41962,1.6588599999999998,7.24516296386719,22.0009689331055,7.41514253616333,22.0,-839240.0,1630.52,pp-ro,1,1,-1,-1
1570533908.0,2019-10-08,13:25:08.000,14.0,9.0,16.2800006866455,17.8,-1.9,0.3,50.5,3.4,-22.4,18.4626,-2.15211,0.5888260000000001,-2.43654,-0.8367129999999999,0.328229,50.4638,3.19124,-23.4369,-0.0153111,-0.080708,-0.0354006,273.6,5.1,52.1701,4.4272,7.7,0.921993,190.473,4.582319999999999,178.16299999999998,38.7641,155.898,0.707404,-0.0841631,239.893,1.41027,1.6538099999999998,7.286041259765621,22.0009689331055,7.39839839935303,22.0,-839123.0,522.996,pp-ro,1,1,-1,-1
1570533908.1,2019-10-08,13:25:08.100,14.0,9.0,16.6000003814697,17.9,-1.9,0.3,50.9,4.4,-22.9,18.471,-2.51908,0.465605,2.06811,-2.57703,-1.59777,50.1286,3.68301,-24.3763,-0.19884,0.0387239,-0.173066,273.6,5.1,52.1701,4.4272,7.7,0.933075,195.491,4.58234,177.987,40.2842,155.798,0.706659,-0.0925264,239.949,1.39691,1.65953,7.39504241943359,22.0009689331055,7.619558334350589,22.0,-839095.0,553.761,pp-ro,1,1,-1,-1
1570533908.2,2019-10-08,13:25:08.200,14.0,7.0,16.9699993133545,18.0,-2.1,0.2,51.3,5.1,-23.8,18.5539,-2.55531,0.384902,4.941,-1.5097200000000002,-3.50622,49.717,4.75312,-25.0151,0.0281036,-0.00376095,-0.10973,273.6,5.1,52.1701,4.4272,7.7,0.952468,211.713,4.58237,177.783,42.1842,155.69799999999998,0.70572,-0.1029369999999999,240.058,1.38427,1.65517,7.3677978515625,22.0009689331055,7.67869091033936,22.0,-839009.0,738.3480000000001,pp-ro,1,1,-1,-1
1570533908.3,2019-10-08,13:25:08.300,14.0,7.0,17.229999542236303,18.0,-2.4,0.4,51.7,6.1,-25.1,18.5539,-2.55531,0.384902,4.941,-1.5097200000000002,-3.50622,49.717,4.75312,-25.0151,0.0281036,-0.00376095,-0.10973,273.6,5.1,52.1701,4.4272,7.7,1.01674,247.066,4.58239,177.52,44.0842,155.59799999999998,0.704883,-0.113396,240.14,1.36311,1.65957,7.60453033447266,22.0009689331055,7.91962671279907,22.0,-839043.0,-399.9380000000001,pp-ro,1,1,-1,-1
1570533908.4,2019-10-08,13:25:08.400,14.0,9.0,17.479999542236303,18.0,-2.5,0.4,51.9,6.8,-25.7,18.5539,-2.55531,0.384902,4.941,-1.5097200000000002,-3.50622,49.717,4.75312,-25.0151,0.0281036,-0.00376095,-0.10973,273.6,5.1,52.1701,4.4272,7.7,1.04001,244.106,4.582409999999999,177.257,45.9843,155.59799999999998,0.704309,-0.123832,240.302,1.35394,1.66275,7.730560302734379,22.0009689331055,8.12832736968994,22.0,-838862.0,2922.63,pp-ro,1,1,-1,-1
1570533908.5,2019-10-08,13:25:08.500,14.0,9.0,17.6299991607666,17.5,-2.8,-0.1,52.0,9.5,-27.6,18.7401,-3.52436,0.296751,-1.12726,-1.31634,-3.50869,50.0782,8.79952,-28.8954,-0.103631,-0.00991953,-0.454568,273.6,5.1,52.1701,4.42719,8.0,1.02062,237.11900000000003,4.58246,177.023,47.8843,155.498,0.70329,-0.134202,240.436,1.30367,1.63488,7.92812347412109,22.0009689331055,7.773352146148679,22.0,-838623.0,4768.5,pp-ro,1,1,-1,-1
1570533908.6,2019-10-08,13:25:08.600,14.0,10.0,17.9300003051758,17.3,-3.5,-0.5,52.0,10.8,-28.8,18.4974,-3.662,-0.00497844,-6.509519999999999,-4.56923,-6.21526,49.8173,9.72012,-29.7077,-0.119684,-0.02753,-0.432376,273.6,5.1,52.1701,4.42719,8.0,0.997348,236.601,4.58245,176.702,49.7843,155.498,0.702763,-0.14467,240.586,1.27987,1.59768,8.10014343261719,22.0009689331055,7.20606994628906,22.0,-838371.0,1384.4,pp-ro,1,1,-1,-1
1570533908.7,2019-10-08,13:25:08.700,14.0,11.0,17.979999542236303,17.3,-3.9,-0.8,52.1,11.3,-29.4,18.159,-4.28664,-0.5153979999999999,-0.0925303,-8.10966,-6.00333,49.5879,10.8297,-31.4128,0.0728983,0.00517032,-0.250312,273.6,5.1,52.1701,4.42719,8.0,1.04223,260.701,4.58247,176.322,51.3044,155.498,0.70262,-0.153218,240.627,1.2721,1.57605,8.08311462402344,22.0009689331055,6.903534412384031,22.0,-838249.0,984.464,pp-ro,1,1,-1,-1
1570533908.8,2019-10-08,13:25:08.800,14.0,11.0,18.2199993133545,17.0,-4.4,-1.3,51.8,12.0,-30.9,17.8452,-5.31266,-1.25431,-1.32681,-0.550564,-7.51311,49.2427,12.1133,-33.2051,0.0785418,-0.134687,-0.224842,273.6,5.1,52.1701,4.42719,8.0,1.05386,266.35900000000004,4.58249,176.08900000000003,52.0644,155.497,0.702647,-0.157568,240.61900000000003,1.24866,1.5364,7.72715759277344,22.0009689331055,6.17135047912598,22.0,-838185.0,1199.82,pp-ro,1,1,-1,-1
1570533908.9,2019-10-08,13:25:08.900,14.0,11.0,18.2199993133545,16.9,-4.8,-1.6,51.6,12.6,-32.5,17.6545,-5.71012,-1.62194,-0.362271,-4.14641,-2.95475,49.0215,12.9603,-34.3897,-0.154805,-0.0423875,-0.339252,273.6,5.1,52.1701,4.42719,8.0,1.07049,272.588,4.58251,175.62099999999998,53.9644,155.597,0.702693,-0.168227,240.76,1.22951,1.51516,7.20769500732422,22.0009689331055,5.9114465713501,22.0,-838022.0,1999.69,pp-ro,1,1,-1,-1
1570533909.0,2019-10-08,13:25:09.000,14.0,11.0,18.3199996948242,16.8,-5.2,-2.0,51.4,13.6,-33.6,17.6231,-6.09305,-1.95373,3.59973,-4.32903,-4.50826,48.4455,14.4717,-35.516,-0.202379,-0.0646231999999999,-0.24178,269.3,6.2,52.1701,4.42719,8.0,1.07769,279.015,4.58254,175.15400000000002,55.4844,155.797,0.703309,-0.176913,240.895,1.20965,1.48851,6.59456634521484,22.0009689331055,5.4647946357727095,22.0,-837783.0,2338.1,pp-ro,1,1,-1,-1
1570533909.1,2019-10-08,13:25:09.100,14.0,10.0,18.3600006103516,16.7,-5.7,-2.2,50.9,14.5,-35.1,17.6231,-6.09305,-1.95373,3.59973,-4.32903,-4.50826,48.4455,14.4717,-35.516,-0.202379,-0.0646231999999999,-0.24178,269.3,6.2,52.1701,4.42719,8.0,1.09376,292.052,4.58255,174.54,57.3845,155.997,0.703942,-0.187797,241.024,1.18797,1.46881,6.10406494140625,22.0009689331055,-35.0,22.0,-837623.0,1353.64,pp-ro,1,1,-1,-1
1570533909.2,2019-10-08,13:25:09.200,14.0,10.0,18.4599990844727,16.4,-6.2,-2.4,50.4,14.9,-36.6,17.5511,-6.387580000000001,-2.11988,-1.11793,-9.97447,-5.40275,48.0968,14.8677,-36.1938,-0.0708559999999999,-0.0742201,-0.288992,269.3,6.2,52.1701,4.42719,8.0,1.12091,298.217,4.58257,173.92700000000002,58.9045,156.197,0.7048449999999999,-0.19672,241.077,1.17137,1.44452,5.55905914306641,22.0009689331055,-35.0,22.0,-837453.0,2184.28,pp-ro,1,1,-1,-1
1570533909.3,2019-10-08,13:25:09.300,14.0,11.0,18.4599990844727,16.0,-6.4,-2.6,50.1,15.3,-37.8,16.8819,-7.331239999999999,-2.50257,-6.85702,-2.39378,-5.08545,47.1193,16.1978,-38.8927,-0.132095,-0.0284676,-0.2803219999999999,269.3,6.2,52.1701,4.42719,8.0,1.10429,287.539,4.58258,173.31400000000002,60.8045,156.39700000000002,0.705371,-0.2076059999999999,241.236,1.15955,1.4288299999999998,5.07195281982422,22.0009689331055,-35.0,22.0,-837037.0,4645.44,pp-ro,1,1,-1,-1
1570533909.4,2019-10-08,13:25:09.400,14.0,10.0,18.5100002288818,15.7,-6.5,-2.7,49.9,16.0,-38.9,16.8819,-7.331239999999999,-2.50257,-6.85702,-2.39378,-5.08545,47.1193,16.1978,-38.8927,-0.132095,-0.0284676,-0.2803219999999999,269.3,6.2,52.1701,4.42719,8.0,1.07769,270.486,4.5826,172.642,62.3245,156.597,0.706333,-0.2166489999999999,241.272,1.1438700000000002,1.42099,3.8286590576171897,22.0009689331055,-35.0,22.0,-836701.0,3199.51,pp-ro,1,1,-1,-1
1570533909.5,2019-10-08,13:25:09.500,14.0,10.0,18.5499992370605,15.5,-6.4,-2.6,50.0,16.3,-40.0,16.1195,-7.55641,-2.58867,-2.54308,-0.166357,5.07132,47.0729,17.9238,-40.5476,-0.0637229,-0.206902,-0.298041,269.3,6.2,52.1701,4.42718,8.3,1.04943,259.016,4.58262,171.94099999999997,63.8445,156.89700000000002,0.707643,-0.225758,241.364,1.13327,1.43039,2.81700134277344,22.0009689331055,-35.0,22.0,-836305.0,3999.38,pp-ro,1,1,-1,-1
1570533909.6,2019-10-08,13:25:09.600,14.0,10.0,18.7399997711182,15.3,-6.2,-2.5,49.9,16.7,-41.5,16.0283,-7.31808,-2.47413,-7.75848,3.52137,3.96735,47.1623,18.8467,-41.7163,-0.0263843,0.1330839999999999,-0.25154,269.3,6.2,52.1701,4.42718,8.3,1.04777,259.997,4.58263,171.298,65.3645,157.197,0.7087640000000001,-0.234767,241.509,1.11665,1.44317,1.16494750976562,22.0009689331055,-35.0,22.0,-836032.0,1322.87,pp-ro,1,1,-1,-1
1570533909.7,2019-10-08,13:25:09.700,14.0,11.0,18.840000152587898,15.4,-6.3,-2.5,50.2,17.4,-42.1,15.8938,-7.339119999999999,-2.28479,2.12578,0.226271,3.73746,47.4832,19.8261,-42.5995,0.0161972999999999,0.243513,-0.147574,269.3,6.2,52.1701,4.42718,8.3,1.05331,258.63,4.58265,170.597,67.2646,157.39700000000002,0.7093020000000001,-0.245826,241.665,1.10829,1.44908,-0.8397369384765621,22.0009689331055,-35.0,22.0,-835926.0,2061.22,pp-ro,1,1,-1,-1
1570533909.8,2019-10-08,13:25:09.800,14.0,11.0,18.840000152587898,15.7,-6.4,-2.3,50.8,17.4,-42.5,15.8938,-7.339119999999999,-2.28479,2.12578,0.226271,3.73746,47.4832,19.8261,-42.5995,0.0161972999999999,0.243513,-0.147574,269.3,6.2,52.1701,4.42718,8.3,1.03835,252.578,4.582669999999999,169.925,68.7846,157.697,0.7104050000000001,-0.254901,241.815,1.10962,1.46674,-2.94931030273438,22.0009689331055,-35.0,22.0,-835579.0,3507.15,pp-ro,1,1,-1,-1
1570533909.9,2019-10-08,13:25:09.900,14.0,10.0,18.979999542236303,16.0,-6.4,-2.1,51.2,16.5,-43.2,15.8938,-7.339119999999999,-2.28479,2.12578,0.226271,3.73746,47.4832,19.8261,-42.5995,0.0161972999999999,0.243513,-0.147574,269.3,6.2,52.1701,4.42718,8.3,1.03613,259.905,4.58268,169.22400000000002,69.9246,157.997,0.7119310000000001,-0.262125,241.846,1.11734,1.48613,-5.05888366699219,22.0009689331055,-35.0,22.0,-835416.0,861.4060000000001,pp-ro,1,1,-1,-1
1570533910.0,2019-10-08,13:25:10.000,14.0,9.0,19.0699996948242,16.4,-6.6,-1.8,52.1,15.4,-43.5,16.3552,-7.34092,-1.7905799999999998,7.59871,-2.41095,-1.97399,48.8719,19.8034,-42.5915,-0.164114,0.0905231,-0.00565649,269.4,6.6,52.1701,4.42718,8.3,1.0760299999999998,282.033,4.58268,168.553,71.8246,158.197,0.712244,-0.2731159999999999,242.064,1.13491,1.50701,-7.16162872314453,22.0009689331055,-35.0,22.0,-835365.0,738.3480000000001,pp-ro,1,1,-1,-1
1570533910.1,2019-10-08,13:25:10.100,14.0,10.0,19.159999847412102,17.0,-6.7,-1.2,53.4,14.1,-42.9,16.3552,-7.34092,-1.7905799999999998,7.59871,-2.41095,-1.97399,48.8719,19.8034,-42.5915,-0.164114,0.0905231,-0.00565649,269.4,6.6,52.1701,4.42718,8.3,1.11371,295.188,4.58265,167.822,73.3446,158.39700000000002,0.7130529999999999,-0.282287,242.143,1.16446,1.54505,-9.27973937988281,22.0009689331055,-35.0,22.0,-835115.0,2799.57,pp-ro,1,1,-1,-1
1570533910.2,2019-10-08,13:25:10.200,14.0,10.0,19.2099990844727,17.7,-6.5,-0.2,54.7,12.6,-42.3,17.2289,-7.30359,-0.5827359999999999,9.491,6.19556,5.06697,51.6386,18.1088,-40.2973,0.305412,-0.00773603,0.248838,269.4,6.6,52.1701,4.42718,8.3,1.11149,293.176,4.582669999999999,167.15099999999998,75.2447,158.497,0.712943,-0.293271,242.327,1.19791,1.6092799999999998,-11.391021728515598,22.0009689331055,-35.0,22.0,-834944.0,3230.27,pp-ro,1,1,-1,-1
1570533910.3,2019-10-08,13:25:10.300,14.0,10.0,19.2600002288818,18.2,-6.2,0.6,55.8,10.4,-41.5,17.2289,-7.30359,-0.5827359999999999,9.491,6.19556,5.06697,51.6386,18.1088,-40.2973,0.305412,-0.00773603,0.248838,269.4,6.6,52.1701,4.42718,8.3,1.09819,286.183,4.582669999999999,166.42,76.7647,158.497,0.7130350000000001,-0.302466,242.301,1.24155,1.66245,-13.4903564453125,22.0009689331055,-35.0,22.0,-834606.0,3476.39,pp-ro,1,1,-1,-1
1570533910.4,2019-10-08,13:25:10.400,14.0,9.0,19.3500003814697,18.9,-5.8,1.5,57.2,7.8,-40.1,18.0129,-6.78742,0.936246,2.32305,2.4583,7.382280000000001,53.5169,15.4712,-38.8881,0.0145552,-0.0567929999999999,0.461064,269.4,6.6,52.1701,4.42718,8.3,1.086,280.557,4.58266,165.80700000000002,79.0447,158.39700000000002,0.7116100000000001,-0.315132,242.548,1.30015,1.72443,-15.6033477783203,22.0009689331055,-35.0,22.0,-834290.0,2953.39,pp-ro,1,1,-1,-1
1570533910.5,2019-10-08,13:25:10.500,14.0,10.0,19.479999542236303,19.5,-5.4,2.6,58.8,4.3,-38.3,18.4829,-6.22387,1.85415,3.02293,5.53238,10.1571,55.1647,13.1126,-36.8608,0.161011,0.152968,0.583921,269.4,6.6,52.1701,4.42718,8.5,1.08434,280.211,4.58266,165.19400000000002,80.5647,158.197,0.710695,-0.32403,242.499,1.37284,1.7875299999999998,-17.7163314819336,22.0009689331055,-35.0,22.0,-834015.0,2738.04,pp-ro,1,1,-1,-1
1570533910.6,2019-10-08,13:25:10.600,14.0,10.0,19.659999847412102,20.0,-4.6,4.1,60.2,0.0,-36.4,18.4829,-6.22387,1.85415,3.02293,5.53238,10.1571,55.1647,13.1126,-36.8608,0.161011,0.152968,0.583921,269.4,6.6,52.1701,4.42718,8.5,1.08545,283.908,4.58265,164.639,82.8448,157.89700000000002,0.708374,-0.336465,242.694,1.46017,1.87642,-19.8327331542969,22.0009689331055,-35.0,22.0,-833793.0,2061.22,pp-ro,1,1,-1,-1
