time,date,time_of_day,airspeed_temperature,airspeed_angle_of_attack,airspeed_apparent_windspeed,kite_0_vx,kite_0_vy,kite_0_vz,kite_0_roll,kite_0_pitch,kite_0_yaw,kite_1_vx,kite_1_vy,kite_1_vz,kite_1_ax,kite_1_ay,kite_1_az,kite_1_roll,kite_1_pitch,kite_1_yaw,kite_1_roll_rate,kite_1_pitch_rate,kite_1_yaw_rate,ground_upwind_direction,ground_wind_velocity,ground_pos_latitude,ground_pos_longitude,ground_pos_altitude,ground_tether_reelout_speed,ground_tether_force,est_upwind_direction,kite_pos_east,kite_pos_north,kite_height,kite_elevation,kite_azimuth,kite_distance,kite_heading,kite_course,kite_actual_steering,kite_actual_depower,kite_set_steering,kite_set_depower,ground_mech_energy,ground_mech_power,flight_phase,flight_phase_index,phase,pattern,pattern_section
1570539696.6,2019-10-08,15:01:36.600,15.0,10.0,14.289999961853,12.1,-2.4,2.9,21.6,-3.5,-61.8,10.7223,-1.66321,3.5801,8.32916,9.13649,4.04387,24.8031,11.3505,-61.2995,0.14031,0.155076,0.937544,266.8,7.4,52.1701,4.427219999999999,4.5,-2.71057,91.0628,4.432919999999999,68.0244,10.6409,238.189,1.2894,0.124295,247.941,0.6776770000000001,1.59707,-34.971832275390604,22.0009689331055,-35.0,22.0,345414.0,-9260.11,pp-riro,4,0,-1,-1
1570539696.7,2019-10-08,15:01:36.700,15.0,9.0,14.1700000762939,13.0,-1.7,3.2,23.3,-4.9,-56.6,11.5571,-0.837093,3.85429,10.7171,7.18916,1.47667,26.5085,9.63841,-56.0177,0.181555,0.0370652,0.921545,266.8,7.4,52.1701,4.427219999999999,4.5,-2.75822,92.5456,4.43299,67.7907,11.7809,237.989,1.28935,0.107333,247.736,0.792369,1.6786299999999998,-34.9871978759766,22.0009689331055,-35.0,22.0,344126.0,-13167.2,pp-riro,4,0,-1,-1
1570539696.8,2019-10-08,15:01:36.800,15.0,8.0,14.039999961853,13.9,-1.1,3.6,24.9,-6.3,-51.9,12.4151,-0.183474,4.10792,9.51142,7.097519999999999,3.52618,28.3656,7.9569,-50.6638,0.176336,0.155662,0.953107,266.8,7.4,52.1701,4.427219999999999,4.5,-2.7754,96.1124,4.43306,67.6739,13.300999999999998,237.689,1.28839,0.0852591,247.493,0.903548,1.7522400000000002,-34.9940185546875,22.0009689331055,-35.0,22.0,343509.0,-11813.6,pp-riro,4,0,-1,-1
1570539696.9,2019-10-08,15:01:36.900,15.0,9.0,13.789999961853,14.7,-0.2,4.0,26.2,-8.2,-47.1,12.8456,0.164476,4.32914,8.42511,7.21758,6.7839100000000006,29.086,7.0961,-47.8457,0.0174687,0.164124,0.924825,266.8,7.4,52.1701,4.427219999999999,4.6,-2.79922,99.6469,4.43316,67.557,14.441,237.389,1.28761,0.0686383999999999,247.237,1.01292,1.83372,-34.9957275390625,22.0009689331055,-35.0,22.0,342750.0,-7137.36,pp-riro,4,0,-1,-1
1570539697.0,2019-10-08,15:01:37.000,15.0,9.0,13.7200002670288,15.3,0.7,4.5,27.1,-10.4,-41.8,14.116,1.8984,5.20187,6.66374,11.7594,7.22992,31.3694,2.91519,-36.7716,0.0600452999999999,0.186229,0.919685,266.8,7.4,52.1701,4.427219999999999,4.6,-2.8092,94.4377,4.43319,67.557,15.961,237.08900000000003,1.28597,0.0471896,247.043,1.13756,1.91587,-34.9957275390625,22.0009689331055,-35.0,22.0,342088.0,-7168.13,pp-riro,4,0,-1,-1
1570539697.1,2019-10-08,15:01:37.100,15.0,9.0,13.789999961853,15.8,1.8,4.8,28.0,-12.4,-36.6,14.116,1.8984,5.20187,6.66374,11.7594,7.22992,31.3694,2.91519,-36.7716,0.0600452999999999,0.186229,0.919685,266.8,7.4,52.1701,4.427219999999999,4.6,-2.88012,85.20100000000001,4.43326,67.703,17.8611,236.58900000000003,1.28306,0.021223,246.733,1.26406,2.00635,-34.9991455078125,22.0009689331055,-35.0,22.0,340244.0,-14520.8,pp-riro,4,0,-1,-1
1570539697.2,2019-10-08,15:01:37.200,15.0,10.0,13.9799995422363,16.4,3.0,5.2,28.9,-14.1,-31.3,14.293,2.39843,5.37971,2.8290900000000003,9.78168,3.33426,31.733,1.72432,-34.1088,0.146172,0.0841654,1.04537,266.8,7.4,52.1701,4.427219999999999,4.6,-2.90727,84.6987,4.433330000000001,67.9366,19.0012,236.189,1.28056,0.0063401,246.499,1.37898,2.0862,-34.9974365234375,22.0009689331055,-35.0,22.0,339333.0,-17012.8,pp-riro,4,0,-1,-1
1570539697.3,2019-10-08,15:01:37.300,15.0,8.0,14.289999961853,16.8,4.1,5.7,29.6,-16.0,-26.3,15.015,3.98154,5.93036,4.863119999999999,10.5975,4.71665,33.0364,-1.51969,-26.0131,0.0817363,0.2355489999999999,0.938049,266.8,7.4,52.1701,4.427219999999999,4.6,-2.97986,86.5975,4.4334,68.2579,20.9012,235.789,1.27681,-0.0181166,246.359,1.49881,2.16818,-34.9991455078125,22.0009689331055,-35.0,22.0,337638.0,-16428.2,pp-riro,4,0,-1,-1
1570539697.4,2019-10-08,15:01:37.400,15.0,10.0,14.4799995422363,17.2,5.2,6.2,30.3,-17.7,-21.2,15.3919,4.97768,6.44606,3.00088,10.6074,5.88041,33.572,-3.4421800000000005,-20.5083,0.0871472,0.242404,0.920619,259.2,6.7,52.1701,4.427219999999999,4.6,-3.04856,92.0196,4.43344,68.696,22.4213,235.289,1.27282,-0.0365357,246.136,1.61243,2.2396,-34.9991455078125,22.0009689331055,-35.0,22.0,336159.0,-15166.9,pp-riro,4,0,-1,-1
1570539697.5,2019-10-08,15:01:37.500,15.0,10.0,14.4799995422363,17.5,6.4,6.8,30.4,-19.6,-16.0,15.7097,6.00111,6.942,0.340257,9.79449,5.1304300000000005,33.8477,-5.39613,-15.0323,0.246685,0.248491,0.958609,259.2,6.7,52.1701,4.427219999999999,4.6,-3.08956,95.5585,4.43347,69.2509,24.3214,234.689,1.26769,-0.0588254,245.899,1.73175,2.31786,-34.9974365234375,22.0009689331055,-35.0,22.0,334886.0,-12121.2,pp-riro,4,0,-1,-1
1570539697.6,2019-10-08,15:01:37.600,15.0,9.0,14.4799995422363,17.6,7.6,7.3,30.8,-21.4,-10.5,15.9187,7.12933,7.43026,2.89874,13.0731,1.56852,33.7543,-7.42214,-9.46789,0.0732192,0.167277,0.933944,259.2,6.7,52.1701,4.427219999999999,4.6,-3.1145,101.466,4.43349,69.9226,25.8414,234.08900000000003,1.2625,-0.0751036,245.672,1.8484,2.38919,-34.9991455078125,22.0009689331055,-35.0,22.0,333648.0,-7937.24,pp-riro,4,0,-1,-1
1570539697.7,2019-10-08,15:01:37.700,15.0,9.0,14.3500003814697,17.7,8.9,7.7,30.7,-23.2,-5.1,15.9892,7.68049,7.6438,2.19128,12.1077,5.78532,33.6303,-8.39896,-6.67415,0.0810456,0.207971,0.939994,259.2,6.7,52.1701,4.427219999999999,4.6,-3.11062,106.504,4.43351,70.682,27.7415,233.389,1.25626,-0.095134,245.43,1.96568,2.46326,-34.9991455078125,22.0009689331055,-35.0,22.0,333067.0,-6060.6,pp-riro,4,0,-1,-1
1570539697.8,2019-10-08,15:01:37.800,15.0,8.0,14.4099998474121,17.7,10.2,8.4,30.4,-25.1,0.6,16.037,9.99188,8.66292,1.12485,12.3138,7.974489999999999,32.8049,-12.2261,5.22766,0.272499,0.275965,1.00085,259.2,6.7,52.1701,4.427219999999999,4.6,-3.10065,109.651,4.43354,71.6458,29.2616,232.689,1.24971,-0.108892,245.222,2.08096,2.5325,-34.9974365234375,22.0009689331055,-35.0,22.0,332963.0,-1968.93,pp-riro,4,0,-1,-1
1570539697.9,2019-10-08,15:01:37.900,15.0,9.0,14.539999961853,17.5,11.5,9.0,30.1,-27.0,6.4,15.9391,11.1823,9.24797,-0.8902209999999999,11.5081,6.26612,31.9566,-13.9705,11.2513,0.283031,0.279433,0.991592,259.2,6.7,52.1701,4.427219999999999,4.8,-3.05743,115.397,4.43356,72.6972,31.5417,231.789,1.24137,-0.130537,244.961,2.20344,2.6093,-34.9974365234375,22.0009689331055,-35.0,22.0,332989.0,2276.57,pp-riro,4,0,-1,-1
1570539698.0,2019-10-08,15:01:38.000,15.0,8.0,14.6000003814697,17.2,13.0,9.5,29.7,-28.8,12.7,15.9391,11.1823,9.24797,-0.8902209999999999,11.5081,6.26612,31.9566,-13.9705,11.2513,0.283031,0.279433,0.991592,259.2,6.7,52.1701,4.427219999999999,4.8,-2.98041,120.599,4.433590000000001,73.9239,33.0617,230.889,1.23347,-0.141753,244.679,2.32158,2.68141,-34.9974365234375,22.0009689331055,-35.0,22.0,333395.0,5906.78,pp-riro,4,0,-1,-1
1570539698.1,2019-10-08,15:01:38.100,15.0,8.0,15.0699996948242,16.8,14.4,10.1,28.7,-30.3,19.1,15.6559,12.4683,9.75033,-5.62939,10.4145,4.8611,30.9554,-15.6984,17.5796,0.1408599999999999,0.3120699999999999,1.05899,259.2,6.7,52.1701,4.427219999999999,4.8,-2.81862,135.463,4.43361,75.2674,34.9618,229.989,1.22449,-0.156068,244.505,2.44051,2.75255,-34.9974365234375,22.0009689331055,-23.0044822692871,22.0,334870.0,12705.7,pp-riro,4,0,-1,-1
1570539698.2,2019-10-08,15:01:38.200,15.0,8.0,15.6499996185303,16.2,15.8,10.8,27.9,-32.1,25.7,14.9697,14.4036,10.5933,-5.65227,11.2632,5.869190000000001,28.9276,-18.2106,27.381,-0.0111684,0.18439,1.0681,259.2,6.7,52.1701,4.427219999999999,4.8,-2.73717,142.532,4.43363,76.7277,36.4819,228.989,1.2155200000000002,-0.165077,244.242,2.55692,2.82136,-34.9974365234375,22.0009689331055,-23.0044822692871,22.0,335696.0,16582.1,pp-riro,4,0,-1,-1
1570539698.3,2019-10-08,15:01:38.300,15.0,10.0,16.3199996948242,15.4,17.2,11.3,26.5,-33.5,32.9,14.6499,14.9416,10.867,-6.525180000000001,11.4066,7.277430000000001,28.2035,-19.1171,30.7768,0.226434,0.263469,1.10078,259.2,6.7,52.1701,4.427219999999999,4.8,-2.53936,155.165,4.43366,78.3633,38.382,227.889,1.20512,-0.176719,244.023,2.68062,2.8940900000000003,-34.8267669677734,22.0009689331055,-23.0044822692871,22.0,337889.0,22735.0,pp-riro,4,0,-1,-1
1570539698.4,2019-10-08,15:01:38.400,15.0,10.0,16.7999992370605,14.5,18.6,11.8,25.2,-34.3,39.7,14.6499,14.9416,10.867,-6.525180000000001,11.4066,7.277430000000001,28.2035,-19.1171,30.7768,0.226434,0.263469,1.10078,258.7,7.7,52.1701,4.427219999999999,4.8,-2.2717400000000003,157.55,4.43369,80.0865,39.522,226.789,1.19565,-0.179729,243.74,2.78691,2.95881,-34.2601165771484,22.0009689331055,-23.0044822692871,22.0,340286.0,24457.8,pp-riro,4,0,-1,-1
1570539698.5,2019-10-08,15:01:38.500,15.0,10.0,17.3199996948242,13.4,20.0,12.2,23.6,-35.5,46.5,13.6572,16.9077,11.5967,-8.05161,12.7862,3.48564,25.5999,-21.0854,41.0846,0.0822291999999999,0.239841,1.05234,258.7,7.7,52.1701,4.427219999999999,4.8,-1.85064,167.493,4.43372,81.9849,41.0421,225.58900000000003,1.18477,-0.185464,243.508,2.89491,3.02869,-33.335037231445305,22.0009689331055,-23.0044822692871,22.0,343626.0,21781.3,pp-riro,4,0,-1,-1
1570539698.6,2019-10-08,15:01:38.600,15.0,9.0,17.7199993133545,12.0,21.1,12.6,21.6,-36.2,53.5,12.2331,18.7478,12.1504,-12.5585,13.8887,3.1628700000000003,22.8435,-23.2075,50.9869,0.107641,0.147318,1.00482,258.7,7.7,52.1701,4.427219999999999,4.8,-1.70491,177.27200000000002,4.43376,83.971,42.5622,224.489,1.17371,-0.190493,243.43,3.00232,3.09887,-32.058380126953104,22.0009689331055,-23.0044822692871,22.0,344792.0,22488.8,pp-riro,4,0,-1,-1
1570539698.7,2019-10-08,15:01:38.700,15.0,8.0,18.0699996948242,10.7,22.1,12.9,18.8,-37.0,61.3,12.2331,18.7478,12.1504,-12.5585,13.8887,3.1628700000000003,22.8435,-23.2075,50.9869,0.107641,0.147318,1.00482,258.7,7.7,52.1701,4.427219999999999,4.8,-1.34974,187.407,4.4337800000000005,86.1907,43.7023,223.189,1.16218,-0.19066,243.212,3.11559,3.1579,-30.426696777343803,22.0009689331055,-23.0044822692871,22.0,347136.0,22519.6,pp-riro,4,0,-1,-1
1570539698.8,2019-10-08,15:01:38.800,15.0,9.0,18.2600002288818,9.2,22.8,12.9,15.8,-37.2,68.6,9.6993,20.7711,12.7148,-15.442,12.1916,0.707357,18.5509,-25.2945,64.6491,0.297963,0.119875,1.12755,258.7,7.7,52.1701,4.427219999999999,4.8,-0.933075,177.82,4.43382,88.3812,44.4623,221.989,1.15154,-0.187531,243.037,3.21734,3.21485,-28.4707336425781,22.0009689331055,-23.0044822692871,22.0,348894.0,15751.4,pp-riro,4,0,-1,-1
1570539698.9,2019-10-08,15:01:38.900,15.0,8.0,18.3999996185303,7.5,23.2,12.6,13.0,-36.9,75.8,9.0919,21.1202,12.6861,-9.00891,3.3521,-1.51789,16.9381,-25.699,68.2134,0.264336,0.209314,1.12594,258.7,7.7,52.1701,4.427219999999999,4.9,-0.582341,161.297,4.43385,90.6301,45.6024,220.789,1.14006,-0.187639,242.984,3.3201,3.27803,-26.678611755371104,22.0009689331055,-22.8874778747559,22.0,349819.0,7506.54,pp-riro,4,0,-1,-1
1570539699.0,2019-10-08,15:01:39.000,15.0,9.0,18.5499992370605,6.3,23.5,12.2,10.2,-36.6,82.6,6.90729,21.7884,12.32,-11.5928,1.47138,-7.78215,13.3797,-26.6625,78.249,0.201921,0.197528,0.981869,258.7,7.7,52.1701,4.427219999999999,4.9,-0.18728,136.309,4.43388,92.9083,46.3624,219.689,1.1292799999999998,-0.184348,242.991,3.41421,3.32105,-25.2517471313477,22.0009689331055,-22.546428680419897,22.0,350248.0,1292.11,pp-riro,4,0,-1,-1
1570539699.1,2019-10-08,15:01:39.100,15.0,8.0,18.6399993896484,4.9,23.7,11.8,8.2,-35.1,89.1,5.08209,22.0627,11.6194,-13.736,0.0296707999999999,-3.16109,9.99181,-26.2859,87.2548,0.197205,0.240613,0.928795,258.7,7.7,52.1701,4.427219999999999,4.9,-0.00831124,143.739,4.43391,95.2156,47.1225,218.489,1.11822,-0.181084,242.948,3.50786,3.37094,-24.149169921875,22.0009689331055,-22.098695755004897,22.0,350273.0,0.0,pp-riro,4,0,-1,-1
1570539699.2,2019-10-08,15:01:39.200,15.0,7.0,18.6900005340576,3.4,23.5,11.8,5.7,-34.4,95.3,4.431,22.1669,11.4733,-14.4602,2.47401,-0.25879,8.9844,-25.8891,90.2453,0.212396,0.255482,0.76494,258.7,7.7,52.1701,4.427219999999999,4.9,0.0792338,154.094,4.43394,97.669,47.5026,217.389,1.1074700000000002,-0.174232,243.009,3.59255,3.41744,-23.3026123046875,22.0009689331055,-21.6309509277344,22.0,350238.0,-646.054,pp-riro,4,0,-1,-1
1570539699.3,2019-10-08,15:01:39.300,15.0,9.0,18.4400005340576,2.2,23.4,11.6,3.4,-33.6,100.7,3.18184,22.1385,11.4543,-15.0348,-1.2616,1.66019,6.90146,-24.5582,96.5025,0.235529,0.468757,0.8768459999999999,258.7,7.7,52.1701,4.427219999999999,4.9,0.29865,162.45600000000002,4.43397,100.006,47.8826,216.289,1.09709,-0.168129,243.053,3.66715,3.45664,-22.6062469482422,22.0009689331055,-21.3217678070068,22.0,349930.0,-3907.09,pp-riro,4,0,-1,-1
1570539699.4,2019-10-08,15:01:39.400,15.0,10.0,18.2999992370605,1.0,23.2,11.1,1.7,-32.2,105.8,1.40553,21.8717,10.9042,-11.2101,-3.5749,-4.6108,3.61939,-23.1715,104.455,-0.096617,0.116342,0.5773510000000001,255.6,7.8,52.1701,4.427219999999999,4.9,0.182847,147.65,4.43403,102.313,47.8827,215.289,1.08758,-0.159345,243.125,3.73894,3.49585,-21.976448059082,22.0009689331055,-20.9149150848389,22.0,350251.0,830.6410000000001,pp-riro,4,0,-1,-1
1570539699.5,2019-10-08,15:01:39.500,15.0,8.0,18.25,-0.2,23.3,10.9,0.0,-30.6,110.3,1.40553,21.8717,10.9042,-11.2101,-3.5749,-4.6108,3.61939,-23.1715,104.455,-0.096617,0.116342,0.5773510000000001,255.6,7.8,52.1701,4.427219999999999,4.9,0.32303,174.122,4.43405,104.737,47.8827,214.189,1.07747,-0.1504589999999999,243.186,3.80412,3.53541,-21.418327331543,22.0009689331055,-20.554124832153303,22.0,350069.0,-1415.17,pp-riro,4,0,-1,-1
1570539699.6,2019-10-08,15:01:39.600,15.0,8.0,18.2000007629395,-1.4,23.2,11.3,-1.4,-29.2,114.2,0.279986,21.9135,10.5397,-13.8065,1.99543,-0.396019,1.97169,-21.9635,108.771,-0.048882,0.119209,0.610171,255.6,7.8,52.1701,4.427219999999999,4.9,0.328017,186.799,4.434080000000001,107.074,47.8827,213.08900000000003,1.06762,-0.142209,243.237,3.86093,3.57056,-20.9404296875,22.0009689331055,-20.2981014251709,22.0,350143.0,1415.17,pp-riro,4,0,-1,-1
1570539699.7,2019-10-08,15:01:39.700,15.0,10.0,18.1499996185303,-2.5,23.0,11.1,-3.7,-28.6,118.4,-1.4852299999999998,21.9852,10.7299,-10.3502,-3.0244,-1.13704,-0.96986,-19.8329,115.147,0.0499338,0.149584,0.611003,255.6,7.8,52.1701,4.427219999999999,4.9,0.350734,191.756,4.43411,109.439,47.8828,211.988,1.05765,-0.134157,243.329,3.91737,3.60673,-20.5598220825195,22.0009689331055,-20.0523529052734,22.0,350145.0,-92.2935,pp-riro,4,0,-1,-1
1570539699.8,2019-10-08,15:01:39.800,15.0,11.0,18.0,-3.0,22.9,10.8,-5.9,-27.1,122.5,-1.4852299999999998,21.9852,10.7299,-10.3502,-3.0244,-1.13704,-0.96986,-19.8329,115.147,0.0499338,0.149584,0.611003,255.6,7.8,52.1701,4.427219999999999,4.9,0.341869,192.279,4.43414,111.776,47.5028,210.888,1.04828,-0.1236109999999999,243.36,3.97692,3.61926,-20.3908538818359,22.0009689331055,-20.2083721160889,22.0,350220.0,1445.93,pp-riro,4,0,-1,-1
1570539699.9,2019-10-08,15:01:39.900,15.0,12.0,18.0,-4.8,22.7,10.6,-8.1,-25.4,126.7,-3.4681300000000004,21.5177,9.93365,-10.397,1.47843,-4.14064,-5.620419999999999,-18.2376,122.996,-0.277358,0.343928,0.6150329999999999,255.6,7.8,52.1701,4.427219999999999,5.0,0.323584,197.573,4.4341800000000005,114.142,47.1228,209.788,1.03878,-0.113318,243.43400000000003,4.04027,3.68103,-20.1416625976562,22.0009689331055,-19.41628074646,22.0,350262.0,-61.529,pp-riro,4,0,-1,-1
1570539700.0,2019-10-08,15:01:40.000,15.0,12.0,17.9500007629395,-6.0,22.3,10.7,-10.4,-24.2,130.4,-4.69842,21.3351,9.9655,-8.43858,-4.235180000000001,1.17051,-7.99895,-16.6319,126.824,-0.306375,0.167736,0.686776,255.6,7.8,52.1701,4.427219999999999,5.0,0.367911,210.966,4.43421,116.391,46.7429,208.788,1.02984,-0.103707,243.566,4.09375,3.71838,-19.9539184570312,22.0009689331055,-19.109489440918,22.0,350280.0,615.29,pp-riro,4,0,-1,-1
1570539700.1,2019-10-08,15:01:40.100,15.0,11.0,17.9500007629395,-7.1,22.0,10.2,-12.5,-22.7,134.0,-5.77561,20.9347,9.88827,-7.99206,-8.53157,-3.45148,-10.4039,-15.3963,130.43200000000002,-0.24686,0.0321334,0.613256,255.6,7.8,52.1701,4.427219999999999,5.0,0.371235,220.496,4.43424,118.61,46.3629,207.688,1.02074,-0.0944748,243.623,4.14892,3.75896,-19.6910705566406,22.0009689331055,-18.776922225952102,22.0,350339.0,369.174,pp-riro,4,0,-1,-1
1570539700.2,2019-10-08,15:01:40.200,15.0,10.0,18.0499992370605,-8.4,21.4,10.1,-14.5,-20.8,137.4,-5.77561,20.9347,9.88827,-7.99206,-8.53157,-3.45148,-10.4039,-15.3963,130.43200000000002,-0.24686,0.0321334,0.613256,255.6,7.8,52.1701,4.427219999999999,5.0,0.394507,227.938,4.43427,120.918,45.6029,206.488,1.01158,-0.0825292,243.594,4.20293,3.80253,-19.2421875,22.0009689331055,-18.3663272857666,22.0,350380.0,676.819,pp-riro,4,0,-1,-1
1570539700.3,2019-10-08,15:01:40.300,15.0,12.0,18.090000152587898,-9.5,20.9,10.0,-16.5,-19.5,140.4,-7.5817,20.3247,9.43925,-16.4154,-4.1465,0.7103510000000001,-13.8337,-13.8135,135.35399999999998,-0.256246,0.221826,0.44811,255.6,7.8,52.1701,4.427219999999999,5.0,0.4116829999999999,237.648,4.43431,123.021,44.4629,205.388,1.00369,-0.0687339,243.506,4.24509,3.83682,-18.868408203125,22.0009689331055,-18.0452919006348,22.0,350467.0,522.996,pp-riro,4,0,-1,-1
1570539700.4,2019-10-08,15:01:40.400,15.0,13.0,18.090000152587898,-10.6,20.3,9.7,-18.2,-18.2,143.2,-7.5817,20.3247,9.43925,-16.4154,-4.1465,0.7103510000000001,-13.8337,-13.8135,135.35399999999998,-0.256246,0.221826,0.44811,253.8,7.9,52.1701,4.427219999999999,5.0,0.416116,239.68,4.43434,125.124,43.703,204.288,0.995285,-0.0579793,243.515,4.28709,3.87796,-18.4809722900391,22.0009689331055,-17.701917648315398,22.0,350513.0,861.4060000000001,pp-riro,4,0,-1,-1
1570539700.5,2019-10-08,15:01:40.500,15.0,12.0,18.0400009155273,-11.0,19.9,9.6,-19.0,-17.6,144.9,-10.1644,18.8258,9.01383,-8.18159,-6.37171,-2.4109700000000003,-18.6145,-10.9463,142.912,-0.0935348999999999,-0.0211321,0.568137,253.8,7.9,52.1701,4.427219999999999,5.0,0.417778,242.723,4.43436,127.168,42.563,203.688,0.98856,-0.0449524,243.86900000000003,4.30551,3.88751,-18.1379089355469,22.0009689331055,-17.8527603149414,22.0,350600.0,830.6410000000001,pp-riro,4,0,-1,-1
1570539700.6,2019-10-08,15:01:40.600,15.0,12.0,18.1399993896484,-11.8,19.4,9.2,-20.4,-16.5,147.8,-10.5822,18.5153,8.93058,-1.16259,-8.457510000000001,0.174398,-19.4451,-10.4523,144.33100000000002,-0.0897681,0.00299477,0.451601,253.8,7.9,52.1701,4.427219999999999,5.0,0.427197,248.325,4.4343900000000005,128.10299999999998,42.183,202.588,0.983441,-0.0401073,243.376,4.35248,3.92442,-17.7794799804688,22.0009689331055,-17.4584007263184,22.0,350674.0,769.112,pp-riro,4,0,-1,-1
1570539700.7,2019-10-08,15:01:40.700,15.0,11.0,18.4300003051758,-12.9,18.8,9.0,-21.1,-14.5,150.5,-10.5822,18.5153,8.93058,-1.16259,-8.457510000000001,0.174398,-19.4451,-10.4523,144.33100000000002,-0.0897681,0.00299477,0.451601,253.8,7.9,52.1701,4.427219999999999,5.0,0.4393869999999999,256.699,4.434419999999999,130.06,40.663,201.488,0.976148,-0.025047,243.242,4.39693,3.96178,-17.6583023071289,22.0009689331055,-17.119571685790998,22.0,350747.0,646.054,pp-riro,4,0,-1,-1
1570539700.8,2019-10-08,15:01:40.800,15.0,13.0,18.7099990844727,-13.7,17.9,8.8,-21.7,-13.4,153.4,-10.972,18.1569,8.82775,-6.4711300000000005,-4.89114,-3.4140900000000003,-20.0554,-9.9508,145.614,-0.0232302,0.00166727,0.5123800000000001,253.8,7.9,52.1701,4.427219999999999,5.0,0.45601,263.611,4.43444,131.958,39.143,200.388,0.968934,-0.0104163,243.106,4.43614,3.9945,-17.458610534668,22.0009689331055,-16.9093704223633,22.0,350826.0,1045.99,pp-riro,4,0,-1,-1
1570539700.9,2019-10-08,15:01:40.900,15.0,13.0,18.8500003814697,-14.7,16.8,8.2,-22.7,-11.6,157.9,-13.3127,15.9224,8.0046,-0.370332,-8.669310000000001,-4.0994,-23.1797,-6.3108900000000006,154.361,0.119345,-0.144043,0.594263,253.8,7.9,52.1701,4.427219999999999,5.0,0.459888,264.622,4.43447,134.58700000000002,36.863,198.888,0.958984,0.0105801,242.959,4.499569999999999,4.04086,-17.1821136474609,22.0009689331055,35.0,22.0,350930.0,953.699,pp-riro,4,0,-1,-1
1570539701.0,2019-10-08,15:01:41.000,15.0,12.0,18.8999996185303,-14.9,16.5,8.0,-22.8,-10.9,159.2,-13.3127,15.9224,8.0046,-0.370332,-8.669310000000001,-4.0994,-23.1797,-6.3108900000000006,154.361,0.119345,-0.144043,0.594263,253.8,7.9,52.1701,4.427219999999999,5.0,0.4488069999999999,258.177,4.43449,135.346,36.483,198.488,0.955905,0.0145995,242.996,4.52137,4.05365,-16.9346313476562,22.0009689331055,35.0,22.0,351126.0,1322.87,pp-riro,4,0,-1,-1
1570539701.1,2019-10-08,15:01:41.100,15.0,10.0,18.8500003814697,-15.5,15.6,7.7,-22.8,-9.5,162.3,-13.3127,15.9224,8.0046,-0.370332,-8.669310000000001,-4.0994,-23.1797,-6.3108900000000006,154.361,0.119345,-0.144043,0.594263,253.8,7.9,52.1701,4.427219999999999,5.0,0.5579609999999999,258.235,4.43452,136.982,34.963,197.488,0.949506,0.027966,242.874,4.56778,4.08611,-16.736648559570302,22.0009689331055,35.0,22.0,350410.0,-14274.7,pp-riro,4,0,-1,-1
1570539701.2,2019-10-08,15:01:41.200,15.0,10.0,18.7999992370605,-15.7,14.9,7.2,-23.1,-8.3,164.7,-14.4704,14.4037,7.35216,-6.153569999999999,-10.7575,-1.01529,-24.0899,-3.69412,159.997,-0.226406,-0.0982713,0.498104,253.8,7.9,52.1701,4.427219999999999,5.0,1.13698,232.011,4.43455,138.501,33.443000000000005,196.688,0.94388,0.0409126,242.872,4.60282,4.107480000000001,-16.229736328125,22.0009689331055,35.0,22.0,348733.0,11567.4,pp-riro,4,0,-1,-1
1570539701.3,2019-10-08,15:01:41.300,15.0,8.0,18.7999992370605,-15.5,14.3,6.3,-23.2,-6.4,167.0,-14.4957,13.513,6.44238,5.28172,-4.70332,-6.37764,-24.1631,-2.22663,164.101,0.131325,0.117419,0.653224,253.8,7.9,52.1701,4.427219999999999,5.0,1.01452,210.998,4.43457,139.903,31.9229,195.888,0.938554,0.0534899,242.825,4.64415,4.12465,-15.369514465332,22.0009689331055,35.0,22.0,349797.0,20027.7,pp-riro,4,0,-1,-1
1570539701.4,2019-10-08,15:01:41.400,15.0,7.0,18.7099990844727,-15.5,13.4,6.0,-22.9,-5.3,169.4,-14.4957,13.513,6.44238,5.28172,-4.70332,-6.37764,-24.1631,-2.22663,164.101,0.131325,0.117419,0.653224,249.1,8.4,52.1701,4.427219999999999,5.0,0.9026,195.533,4.43457,141.275,30.0229,195.188,0.933755,0.0684105,242.814,4.676819999999999,4.14192,-14.152587890625,22.0009689331055,35.0,22.0,349714.0,-8183.35,pp-riro,4,0,-1,-1
1570539701.5,2019-10-08,15:01:41.500,15.0,8.0,18.520000457763697,-15.5,12.6,5.9,-22.6,-4.6,171.0,-14.3265,12.8072,5.82214,-3.02197,-4.15315,-4.08018,-24.1764,-1.00156,166.428,-0.0748452,0.0123063999999999,0.452493,249.1,8.4,52.1701,4.427219999999999,5.0,0.997348,217.366,4.43456,142.502,28.8829,194.588,0.929078,0.0778546,242.911,4.69857,4.15792,-12.5772323608398,22.0009689331055,35.0,22.0,349819.0,5691.43,pp-riro,4,0,-1,-1
1570539701.6,2019-10-08,15:01:41.600,15.0,10.0,18.3199996948242,-15.3,12.0,5.7,-22.6,-3.5,172.7,-14.7022,11.9723,5.88168,-1.76437,-8.45652,-0.7580899999999999,-23.8475,-0.190975,168.703,-0.0910586999999999,0.0991734,0.335945,249.1,8.4,52.1701,4.427219999999999,5.0,0.954684,212.636,4.43455,143.67,27.3629,193.888,0.924538,0.0896419,242.863,4.724080000000001,4.16378,-10.6605224609375,22.0009689331055,35.0,22.0,350053.0,-430.703,pp-riro,4,0,-1,-1
1570539701.7,2019-10-08,15:01:41.700,15.0,9.0,18.229999542236303,-15.2,11.7,5.4,-22.5,-2.3,173.6,-14.7022,11.9723,5.88168,-1.76437,-8.45652,-0.7580899999999999,-23.8475,-0.190975,168.703,-0.0910586999999999,0.0991734,0.335945,249.1,8.4,52.1701,4.427219999999999,5.0,0.933629,198.531,4.4345300000000005,144.839,25.4629,193.288,0.920397,0.103835,242.872,4.73768,4.16558,-8.54582977294922,22.0009689331055,35.0,22.0,350506.0,4860.79,pp-riro,4,0,-1,-1
1570539701.8,2019-10-08,15:01:41.800,15.0,8.0,18.1800003051758,-15.4,11.4,5.3,-22.8,-1.1,174.1,-14.3668,10.9358,5.20449,-4.490819999999999,-2.73462,-4.67557,-23.5858,0.5368310000000001,172.764,-0.000546202,-0.0422888,0.148442,249.1,8.4,52.1701,4.427219999999999,5.0,0.948035,201.271,4.43452,145.94899999999998,24.3229,192.688,0.915948,0.1127359999999999,242.943,4.75002,4.17628,-6.43454742431641,22.0009689331055,35.0,22.0,350502.0,-399.9380000000001,pp-riro,4,0,-1,-1
1570539701.9,2019-10-08,15:01:41.900,15.0,9.0,18.1299991607666,-15.5,11.2,5.6,-22.9,-0.9,175.0,-14.6972,10.7491,5.202459999999999,-2.40338,-2.3808700000000003,2.7946,-23.856,1.23201,173.582,-0.1157619999999999,-0.155183,0.130232,249.1,8.4,52.1701,4.427219999999999,5.1,0.954684,205.947,4.4345,147.029,22.4228,192.088,0.911937,0.126546,242.937,4.75346,4.166440000000001,-4.32667541503906,22.0009689331055,35.0,22.0,350721.0,2922.63,pp-riro,4,0,-1,-1
1570539702.0,2019-10-08,15:01:42.000,15.0,9.0,17.979999542236303,-15.4,11.3,5.8,-23.8,-1.2,175.8,-14.9149,10.7002,5.42357,1.66914,3.95004,3.98902,-24.4488,0.782643,174.72,-0.118765,-0.143297,0.215528,249.1,8.4,52.1701,4.427219999999999,5.1,0.955238,207.162,4.43449,148.11,21.2828,191.388,0.907237,0.135181,242.938,4.75421,4.1484,-2.22222137451172,22.0009689331055,35.0,22.0,350811.0,399.9380000000001,pp-riro,4,0,-1,-1
1570539702.1,2019-10-08,15:01:42.100,15.0,9.0,17.9300003051758,-15.2,11.4,6.0,-24.5,-1.2,175.4,-14.9149,10.7002,5.42357,1.66914,3.95004,3.98902,-24.4488,0.782643,174.72,-0.118765,-0.143297,0.215528,249.1,8.4,52.1701,4.427219999999999,5.1,0.961887,203.859,4.43447,149.162,19.3828,190.788,0.903173,0.148693,242.95,4.73786,4.12329,-0.119476318359375,22.0009689331055,35.0,22.0,351024.0,2891.86,pp-riro,4,0,-1,-1
1570539702.2,2019-10-08,15:01:42.200,15.0,11.0,17.8799991607666,-15.2,11.6,6.4,-25.9,-0.9,174.4,-14.9871,10.9043,5.46135,3.57336,8.63748,3.10074,-25.133000000000003,0.192049,175.395,-0.109916,-0.086029,0.135222,249.1,8.4,52.1701,4.427219999999999,5.1,0.948589,200.367,4.43446,150.27100000000002,18.2428,190.088,0.8982899999999999,0.15712,242.997,4.72065,4.10081,1.99607849121094,22.0009689331055,35.0,22.0,351176.0,2922.63,pp-riro,4,0,-1,-1
1570539702.3,2019-10-08,15:01:42.300,15.0,10.0,17.7800006866455,-14.9,11.8,7.0,-27.3,-1.6,173.7,-14.9848,11.2107,6.03592,0.634356,2.98363,4.50824,-26.8069,-1.03176,174.979,-0.313736,-0.0896606,-0.0826036999999999,249.1,8.4,52.1701,4.427219999999999,5.1,0.935845,193.653,4.43445,151.352,16.7228,189.288,0.8933450000000001,0.167899,242.93400000000003,4.69495,4.06209,4.099464416503911,22.0009689331055,35.0,22.0,351342.0,1292.11,pp-riro,4,0,-1,-1
1570539702.4,2019-10-08,15:01:42.400,15.0,10.0,17.5799999237061,-14.5,12.1,7.6,-28.4,-2.8,172.6,-14.9787,11.3626,6.265569999999999,0.994637,4.4583900000000005,8.3318,-27.4014,-1.60927,174.77900000000002,-0.243024,-0.0654054999999999,-0.110395,249.9,7.8,52.1701,4.427219999999999,5.1,0.920885,182.882,4.434419999999999,152.491,15.2028,188.488,0.888157,0.178606,242.925,4.65846,4.01778,6.20795440673828,22.0009689331055,35.0,22.0,351649.0,2461.16,pp-riro,4,0,-1,-1
1570539702.5,2019-10-08,15:01:42.500,15.0,10.0,17.2800006866455,-14.1,12.4,8.1,-29.7,-4.4,170.9,-14.7508,11.9006,7.205369999999999,0.298634,6.18202,3.71507,-29.3273,-3.75277,173.366,-0.143207,-0.1051859999999999,-0.273242,249.9,7.8,52.1701,4.427219999999999,5.1,0.910911,179.528,4.4343900000000005,153.601,14.0628,187.688,0.8828969999999999,0.186703,242.936,4.61152,3.9783,8.31984710693359,22.0009689331055,35.0,22.0,351752.0,1999.69,pp-riro,4,0,-1,-1
1570539702.6,2019-10-08,15:01:42.600,15.0,11.0,17.0699996948242,-13.7,12.8,8.7,-30.9,-6.5,169.1,-14.7508,11.9006,7.205369999999999,0.298634,6.18202,3.71507,-29.3273,-3.75277,173.366,-0.143207,-0.1051859999999999,-0.273242,249.9,7.8,52.1701,4.427219999999999,5.1,0.903708,175.576,4.43436,154.799,12.1628,186.788,0.8772620000000001,0.199622,242.9,4.55408,3.9308,10.4215240478516,22.0009689331055,35.0,22.0,351878.0,1076.76,pp-riro,4,0,-1,-1
1570539702.7,2019-10-08,15:01:42.700,15.0,11.0,16.9099998474121,-13.3,13.3,9.4,-32.3,-8.6,166.2,-14.1335,13.0948,8.93623,-1.3450799999999998,7.210710000000001,4.68244,-32.6076,-9.51607,169.135,-0.191841,-0.487993,-0.53988,249.9,7.8,52.1701,4.427219999999999,5.1,0.904817,179.72,4.43433,156.055,11.0228,185.888,0.8711979999999999,0.207544,242.958,4.485930000000001,3.88383,12.535125732421902,22.0009689331055,35.0,22.0,352078.0,1199.82,pp-riro,4,0,-1,-1
1570539702.8,2019-10-08,15:01:42.800,15.0,12.0,16.8099994659424,-12.7,13.8,10.2,-33.3,-11.9,163.4,-13.9428,13.3153,9.39092,4.05549,10.469,10.8289,-33.2258,-11.3168,168.361,-0.444723,-0.401667,-0.574807,249.9,7.8,52.1701,4.427219999999999,5.1,0.911466,185.153,4.4343,157.369,9.88278,184.888,0.864657,0.215373,242.99400000000003,4.40623,3.82899,14.6419143676758,22.0009689331055,35.0,22.0,352111.0,615.29,pp-riro,4,0,-1,-1
1570539702.9,2019-10-08,15:01:42.900,15.0,11.0,16.8099994659424,-12.1,14.6,11.1,-33.6,-15.0,159.7,-13.3448,14.4851,10.8949,3.50595,6.64809,9.33649,-35.0943,-17.6573,165.162,-0.38494,-0.314614,-0.854634,249.9,7.8,52.1701,4.427219999999999,5.1,0.936399,201.8,4.43427,158.713,8.36277,183.888,0.8580629999999999,0.225477,243.052,4.31569,3.76673,16.7504043579102,22.0009689331055,35.0,22.0,352125.0,0.0,pp-riro,4,0,-1,-1
1570539703.0,2019-10-08,15:01:43.000,15.0,11.0,16.75,-11.1,15.0,12.2,-33.7,-18.7,155.5,-12.5632,15.3167,12.1648,13.8861,9.54744,16.3362,-35.9029,-21.5782,161.333,-0.144792,-0.274527,-1.00379,249.9,7.8,52.1701,4.427219999999999,5.1,0.971306,216.695,4.43424,160.115,7.6028,182.787,0.850865,0.230701,243.117,4.21666,3.69937,18.860595703125,22.0009689331055,35.0,22.0,352161.0,799.877,pp-riro,4,0,-1,-1
1570539703.1,2019-10-08,15:01:43.100,15.0,12.0,16.75,-9.9,15.8,13.3,-33.1,-22.8,150.8,-12.5632,15.3167,12.1648,13.8861,9.54744,16.3362,-35.9029,-21.5782,161.333,-0.144792,-0.274527,-1.00379,249.9,7.8,52.1701,4.427219999999999,5.1,0.978509,217.229,4.43421,161.66299999999998,6.46281,181.487,0.8427110000000001,0.238222,243.134,4.106669999999999,3.61904,20.9724960327148,22.0009689331055,35.0,22.0,352421.0,2245.81,pp-riro,4,0,-1,-1
1570539703.2,2019-10-08,15:01:43.200,15.0,11.0,16.75,-8.5,16.3,14.1,-31.7,-26.6,145.2,-12.5632,15.3167,12.1648,13.8861,9.54744,16.3362,-35.9029,-21.5782,161.333,-0.144792,-0.274527,-1.00379,249.9,7.8,52.1701,4.427219999999999,5.1,0.972969,214.802,4.4341800000000005,163.181,5.70284,180.187,0.8345809999999999,0.243274,243.163,3.99212,3.5436,23.082687377929695,22.0009689331055,35.0,22.0,352536.0,2307.34,pp-riro,4,0,-1,-1
1570539703.3,2019-10-08,15:01:43.300,15.0,10.0,16.8600006103516,-6.8,17.0,15.1,-30.1,-30.7,139.3,-9.36901,17.4908,15.0673,15.6,14.1367,11.9635,-35.0605,-33.2515,150.66899999999998,-0.140522,-0.0667521,-0.986239,249.9,7.8,52.1701,4.427219999999999,5.1,0.969644,215.24,4.43415,164.78799999999998,4.56286,178.787,0.825932,0.250555,243.189,3.872,3.45286,25.1877746582031,22.0009689331055,35.0,22.0,352726.0,1815.1,pp-riro,4,0,-1,-1
1570539703.4,2019-10-08,15:01:43.400,15.0,12.0,16.9099998474121,-4.9,17.6,16.1,-27.3,-34.5,131.9,-8.44485,17.906,15.6364,16.7451,9.72798,11.3259,-34.4819,-35.558,147.744,0.0500061999999999,-0.238722,-1.15153,250.5,7.5,52.1701,4.427219999999999,5.1,0.987929,228.048,4.434130000000001,166.511,3.8029,177.287,0.816603,0.255427,243.251,3.74111,3.3610300000000004,27.289451599121104,22.0009689331055,35.0,22.0,352882.0,861.4060000000001,pp-riro,4,0,-1,-1
1570539703.5,2019-10-08,15:01:43.500,15.0,13.0,17.0100002288818,-2.7,17.8,17.0,-23.3,-38.1,123.8,-6.5166,18.7443,16.813,11.2098,16.4377,11.6294,-32.8554,-40.6331,141.657,-0.3275349999999999,-0.390353,-1.25021,250.5,7.5,52.1701,4.427219999999999,5.1,0.998456,231.585,4.4341,168.234,3.42294,175.687,0.806963,0.257942,243.27,3.60946,3.26555,29.39453125,22.0009689331055,35.0,22.0,352936.0,1015.23,pp-riro,4,0,-1,-1
1570539703.6,2019-10-08,15:01:43.600,15.0,12.0,17.1599998474121,-0.6,17.8,17.7,-18.4,-41.1,114.6,-3.1872,19.4908,18.3993,16.2779,6.12234,9.68299,-28.2144,-47.7308,130.474,-0.597477,-0.276253,-1.28729,250.5,7.5,52.1701,4.427219999999999,5.1,1.00898,236.694,4.434080000000001,169.986,3.423,174.08700000000002,0.797214,0.258175,243.338,3.47517,3.17977,31.2032775878906,22.0009689331055,35.0,22.0,353141.0,2215.04,pp-riro,4,0,-1,-1
1570539703.7,2019-10-08,15:01:43.700,15.0,12.0,17.1599998474121,1.5,17.7,18.1,-12.0,-43.6,103.9,-3.1872,19.4908,18.3993,16.2779,6.12234,9.68299,-28.2144,-47.7308,130.474,-0.597477,-0.276253,-1.28729,250.5,7.5,52.1701,4.427219999999999,5.1,1.00898,235.957,4.43406,171.768,3.42306,172.287,0.786808,0.2584059999999999,243.308,3.33066,3.09634,32.66796875,22.0009689331055,35.0,22.0,353422.0,1845.87,pp-riro,4,0,-1,-1
1570539703.8,2019-10-08,15:01:43.800,15.0,12.0,17.3199996948242,3.7,17.3,18.3,-4.8,-45.0,92.8,-1.9039,19.5711,18.8333,29.7736,1.20702,10.665,-25.9909,-49.7782,125.848,-0.202973,-0.164564,-1.08874,250.5,7.5,52.1701,4.427219999999999,5.1,1.00954,234.647,4.43403,173.491,3.4231199999999995,170.487,0.776568,0.258627,243.263,3.19008,3.00926,33.7682037353516,22.0009689331055,23.0044822692871,22.0,353536.0,2122.75,pp-riro,4,0,-1,-1
1570539703.9,2019-10-08,15:01:43.900,15.0,12.0,17.3600006103516,5.9,17.0,18.3,2.6,-45.6,81.2,4.53638,19.4823,19.786,15.8165,-2.4587,2.37006,-6.701689999999999,-57.6678,94.3871,-0.8465459999999999,-0.0666708999999999,-1.60593,250.5,7.5,52.1701,4.427219999999999,5.2,1.00344,233.913,4.43401,175.185,3.80319,168.787,0.766682,0.256673,243.297,3.04946,2.92441,34.510772705078104,22.0009689331055,23.0044822692871,22.0,353784.0,2491.92,pp-ro,1,1,-1,-1
1570539704.0,2019-10-08,15:01:44.000,15.0,11.0,17.4599990844727,8.4,16.2,18.2,10.7,-45.1,68.8,5.82442,19.3485,19.8325,28.8693,-3.3497800000000004,-2.83033,-2.33615,-57.9154,86.8897,-0.815292,0.0387703,-1.4163,250.5,7.5,52.1701,4.427219999999999,5.2,1.01009,244.088,4.4339900000000005,176.87900000000002,4.563269999999999,166.987,0.756473,0.252609,243.294,2.90108,2.82674,34.8956909179688,22.0009689331055,23.0044822692871,22.0,353922.0,799.877,pp-ro,1,1,-1,-1
1570539704.1,2019-10-08,15:01:44.100,15.0,12.0,17.6100006103516,10.5,15.3,17.8,18.5,-43.5,57.3,5.82442,19.3485,19.8325,28.8693,-3.3497800000000004,-2.83033,-2.33615,-57.9154,86.8897,-0.815292,0.0387703,-1.4163,250.5,7.5,52.1701,4.427219999999999,5.2,1.06273,265.38,4.43396,178.456,5.70335,165.187,0.746549,0.246477,243.24,2.76022,2.74178,34.951873779296896,22.0009689331055,23.0044822692871,22.0,354056.0,1568.99,pp-ro,1,1,-1,-1
1570539704.2,2019-10-08,15:01:44.200,15.0,12.0,17.909999847412102,12.5,14.2,16.9,25.1,-41.1,46.6,12.6517,17.0707,18.7222,16.9872,-15.8103,-5.56577,23.9154,-54.8604,49.0538,-0.108567,-0.0662678999999999,-1.45138,250.5,7.5,52.1701,4.427219999999999,5.2,1.05553,262.288,4.43394,179.917,6.463419999999999,163.58700000000002,0.737574,0.24254,243.254,2.62041,2.64952,34.6351013183594,22.0009689331055,23.0044822692871,22.0,354351.0,3014.92,pp-ro,1,1,-1,-1
1570539704.3,2019-10-08,15:01:44.300,15.0,12.0,18.1499996185303,14.2,13.0,15.9,30.5,-37.5,37.1,13.8004,16.4697,18.2162,13.2548,-10.9081,-9.72777,27.9908,-53.1194,42.7553,-0.185871,-0.168256,-1.54736,250.5,7.5,52.1701,4.427219999999999,5.2,1.05109,259.714,4.43392,181.348,7.6035,161.887,0.728324,0.236569,243.212,2.48248,2.56343,33.936813354492195,22.0009689331055,23.0044822692871,22.0,354500.0,2768.8,pp-ro,1,1,-1,-1
1570539704.4,2019-10-08,15:01:44.400,15.0,13.0,18.4400005340576,15.5,11.8,14.8,35.2,-33.5,28.9,16.8783,14.5927,16.5835,19.8713,-10.3681,-11.4193,36.4662,-46.5718,27.2329,-0.214355,0.000988873,-1.51835,248.5,6.7,52.1701,4.427219999999999,5.2,1.04832,259.024,4.43389,182.662,9.5036,160.387,0.7198869999999999,0.226515,243.269,2.35423,2.48845,32.874053955078104,22.0009689331055,23.0044822692871,22.0,354763.0,2799.57,pp-ro,1,1,-1,-1
1570539704.5,2019-10-08,15:01:44.500,15.0,13.0,18.6299991607666,16.2,11.2,14.3,37.1,-31.4,25.2,18.4845,13.2092,15.1754,21.8561,-10.486,-19.6496,40.4387,-40.9003,18.782,-0.1889819999999999,0.0954174,-1.20985,248.5,6.7,52.1701,4.427219999999999,5.2,1.05608,262.822,4.43385,183.217,9.88363,159.787,0.716476,0.2246469999999999,243.306,2.29029,2.44722,31.4536437988281,22.0009689331055,23.0044822692871,22.0,355062.0,1507.46,pp-ro,1,1,-1,-1
1570539704.6,2019-10-08,15:01:44.600,15.0,12.0,18.7199993133545,17.4,10.0,13.1,40.1,-26.6,18.3,19.1043,12.3917,14.5023,20.2736,-16.1127,-17.1842,41.8515,-37.806,15.6255,-0.702925,-0.00189723,-1.48901,248.5,6.7,52.1701,4.427219999999999,5.2,1.05941,260.973,4.43383,184.385,11.4037,158.387,0.708753,0.216786,243.34,2.1613900000000004,2.36774,29.678955078125,22.0009689331055,21.8489475250244,22.0,355184.0,2614.98,pp-ro,1,1,-1,-1
1570539704.7,2019-10-08,15:01:44.700,15.0,12.0,18.8099994659424,18.6,8.2,11.1,43.0,-19.9,10.7,19.9193,11.7292,13.7865,14.6006,-8.22097,-16.1655,42.9751,-35.0659,12.443,-0.239707,0.195398,-1.23054,248.5,6.7,52.1701,4.427219999999999,5.2,1.0427799999999998,255.637,4.43381,185.874,14.0638,156.787,0.699307,0.203064,243.576,2.00164,2.25628,27.6215591430664,22.0009689331055,19.9455738067627,22.0,355532.0,3137.98,pp-ro,1,1,-1,-1
1570539704.8,2019-10-08,15:01:44.800,15.0,11.0,18.7600002288818,18.9,7.6,10.5,44.0,-17.6,8.5,20.7385,10.1989,12.1503,17.8298,-15.2415,-13.8081,44.4006,-29.4146,7.271260000000001,-0.333702,0.0457899,-1.03698,248.5,6.7,52.1701,4.427219999999999,5.2,1.04223,254.44,4.4337800000000005,186.312,15.2039,156.287,0.696347,0.197189,243.658,1.95128,2.22253,25.6288833618164,22.0009689331055,19.3718700408936,22.0,355839.0,2122.75,pp-ro,1,1,-1,-1
1570539704.9,2019-10-08,15:01:44.900,15.0,12.0,18.6700000762939,19.5,5.9,8.6,45.7,-11.1,2.4,21.4382,8.83054,10.6693,8.32195,-17.6909,-17.1232,45.4398,-23.6974,3.08458,-0.0101382,0.100642,-0.989476,248.5,6.7,52.1701,4.427219999999999,5.6,1.04334,254.895,4.43375,187.481,17.864,154.987,0.688581,0.183645,243.904,1.80677,2.12039,23.7997131347656,22.0009689331055,17.611469268798803,22.0,355967.0,2584.22,pp-ro,1,1,-1,-1
1570539705.0,2019-10-08,15:01:45.000,15.0,12.0,18.5699996948242,19.8,5.4,8.0,46.1,-9.3,1.0,22.1718,6.85225,8.485669999999999,8.07841,-14.0119,-18.2532,46.0975,-16.8613,-3.03799,-0.285096,0.364456,-0.728182,248.5,6.7,52.1701,4.427219999999999,5.6,1.03946,256.793,4.43372,187.831,19.004,154.58700000000002,0.686117,0.177838,244.005,1.77096,2.08639,22.1408462524414,22.0009689331055,17.021905899047898,22.0,356208.0,2122.75,pp-ro,1,1,-1,-1
1570539705.1,2019-10-08,15:01:45.100,15.0,11.0,18.3799991607666,20.6,4.1,6.3,47.4,-4.1,-3.5,22.1718,6.85225,8.485669999999999,8.07841,-14.0119,-18.2532,46.0975,-16.8613,-3.03799,-0.285096,0.364456,-0.728182,248.5,6.7,52.1701,4.427219999999999,5.6,1.0610700000000002,266.024,4.43369,188.736,22.0441,153.58700000000002,0.679762,0.162429,244.328,1.66111,1.99234,20.5262756347656,22.0009689331055,15.385502815246598,22.0,356470.0,1938.16,pp-ro,1,1,-1,-1
1570539705.2,2019-10-08,15:01:45.200,15.0,10.0,18.2800006866455,20.6,3.2,5.3,48.8,-1.1,-6.5,22.5995,5.6165,7.1703,12.1346,-8.495289999999999,-15.1907,46.3575,-12.5595,-6.10081,-0.580073,-0.0140859,-1.05475,248.5,6.7,52.1701,4.427219999999999,5.6,1.06328,268.002,4.43366,189.174,24.3242,153.08700000000002,0.676341,0.150851,244.569,1.5948,1.94071,18.9866333007812,22.0009689331055,14.491389274597198,22.0,356608.0,2584.22,pp-ro,1,1,-1,-1
1570539705.3,2019-10-08,15:01:45.300,15.0,11.0,18.090000152587898,20.8,2.9,4.8,49.7,1.6,-9.5,23.0931,4.01017,5.528230000000001,-0.0091753999999999,-14.2807,-14.6167,47.4299,-6.414280000000001,-10.2996,0.429645,0.0551168999999999,-0.704133,248.5,6.7,52.1701,4.427219999999999,5.6,1.07104,271.416,4.43363,189.612,26.2242,152.487,0.672676,0.141326,244.73,1.53128,1.91834,17.5253295898438,22.0009689331055,14.2014007568359,22.0,356914.0,1876.63,pp-ro,1,1,-1,-1
1570539705.4,2019-10-08,15:01:45.400,15.0,11.0,18.0400009155273,21.0,2.1,3.9,50.3,3.1,-10.8,23.0804,3.51392,5.00137,-6.692989999999999,-8.15743,-8.038839999999999,47.8019,-4.56964,-11.9459,0.0397681,-0.0376376999999999,-0.710337,248.9,6.3,52.1701,4.427219999999999,5.6,1.07381,272.533,4.4336400000000005,189.787,27.3643,152.287,0.67119,0.1355599999999999,244.866,1.50027,1.86516,16.234352111816403,22.0009689331055,13.2046823501587,22.0,357060.0,2799.57,pp-ro,1,1,-1,-1
1570539705.5,2019-10-08,15:01:45.500,15.0,11.0,17.9899997711182,20.9,1.1,3.0,51.7,5.5,-13.7,23.1394,1.94594,3.47435,1.91599,-6.19664,-12.02,49.2093,0.603591,-15.6707,0.0418144,0.138153,-0.801177,248.9,6.3,52.1701,4.427219999999999,5.6,1.07049,274.056,4.4336400000000005,190.021,29.2643,151.786,0.668293,0.125942,244.956,1.44204,1.81013,15.1409301757812,22.0009689331055,12.239269256591802,22.0,357315.0,2430.39,pp-ro,1,1,-1,-1
1570539705.6,2019-10-08,15:01:45.600,15.0,11.0,18.0400009155273,20.8,0.4,2.1,52.6,8.0,-16.3,23.1394,1.94594,3.47435,1.91599,-6.19664,-12.02,49.2093,0.603591,-15.6707,0.0418144,0.138153,-0.801177,248.9,6.3,52.1701,4.427219999999999,5.6,1.07991,278.75,4.43365,190.196,31.5444,151.286,0.6653439999999999,0.1143849999999999,245.066,1.38701,1.7637599999999998,14.616363525390598,22.0009689331055,11.459615707397498,22.0,357517.0,1907.4,pp-ro,1,1,-1,-1
1570539705.7,2019-10-08,15:01:45.700,15.0,11.0,18.1299991607666,20.8,-0.5,1.3,53.6,10.1,-18.6,22.6903,0.0426036999999999,1.44125,-5.94339,-3.39466,-3.08428,51.0936,6.30574,-20.9338,0.5627,-0.21315,-0.70365,248.9,6.3,52.1701,4.427219999999999,5.6,1.09875,292.816,4.43365,190.342,33.8244,150.986,0.663049,0.102867,245.298,1.34074,1.7138099999999998,13.584259033203098,22.0009689331055,10.588306427002,22.0,357841.0,1938.16,pp-ro,1,1,-1,-1
1570539705.8,2019-10-08,15:01:45.800,15.0,12.0,18.3299999237061,20.5,-1.4,0.5,54.3,11.7,-20.8,22.6903,0.0426036999999999,1.44125,-5.94339,-3.39466,-3.08428,51.0936,6.30574,-20.9338,0.5627,-0.21315,-0.70365,248.9,6.3,52.1701,4.427219999999999,5.6,1.1198,301.771,4.43366,190.284,36.1045,150.786,0.661518,0.0912171,245.455,1.30252,1.66352,12.6032562255859,22.0009689331055,9.68393707275391,22.0,358001.0,1599.75,pp-ro,1,1,-1,-1
1570539705.9,2019-10-08,15:01:45.900,15.0,11.0,18.3299999237061,20.4,-2.3,-0.2,54.9,13.3,-23.0,22.537,-1.01974,0.58082,-3.74506,-13.5676,-12.6602,51.6747,8.68179,-23.0739,0.109731,0.0848378,-0.512888,248.9,6.3,52.1701,4.427219999999999,6.0,1.13144,306.41200000000003,4.433669999999999,190.196,38.3845,150.586,0.659995,0.0795809,245.61,1.2643799999999998,1.61643,11.4519271850586,22.0009689331055,8.85158061981201,22.0,358306.0,3476.39,pp-ro,1,1,-1,-1
1570539706.0,2019-10-08,15:01:46.000,15.0,11.0,18.3700008392334,20.0,-2.9,-0.8,55.4,14.6,-24.6,21.863000000000003,-2.37156,-0.692238,-13.8245,-4.51243,-11.421,52.4728,11.6062,-26.0635,-0.0645471,0.106345,-0.5629430000000001,248.9,6.3,52.1701,4.427219999999999,6.0,1.13144,309.823,4.433669999999999,189.991,40.2846,150.486,0.659212,0.069776,245.694,1.23569,1.5792700000000002,10.5492630004883,22.0009689331055,8.1829833984375,22.0,358590.0,2461.16,pp-ro,1,1,-1,-1
1570539706.1,2019-10-08,15:01:46.100,15.0,11.0,18.3299999237061,19.9,-3.8,-1.4,55.3,15.8,-26.4,21.4615,-3.58665,-1.7483,-8.5664,-9.09323,-13.6736,52.9138,14.3425,-28.3386,0.110266,0.00834236,-0.390686,248.9,6.3,52.1701,4.427219999999999,6.0,1.13975,312.062,4.43366,189.728,42.5646,150.486,0.658641,0.0580333,245.876,1.20746,1.5357299999999998,9.66703033447266,22.0009689331055,7.39089107513428,22.0,358716.0,2399.63,pp-ro,1,1,-1,-1
1570539706.2,2019-10-08,15:01:46.200,15.0,10.0,18.4200000762939,19.7,-4.3,-1.9,55.8,16.4,-28.5,21.4615,-3.58665,-1.7483,-8.5664,-9.09323,-13.6736,52.9138,14.3425,-28.3386,0.110266,0.00834236,-0.390686,248.9,6.3,52.1701,4.427219999999999,6.0,1.1475,317.524,4.43369,189.378,44.4646,150.486,0.658434,0.0480861999999999,245.942,1.18293,1.50596,8.78480529785156,22.0009689331055,6.854313850402829,22.0,359032.0,3445.62,pp-ro,1,1,-1,-1
1570539706.3,2019-10-08,15:01:46.300,15.0,11.0,18.520000457763697,19.4,-4.7,-2.2,55.5,17.6,-30.0,21.1813,-4.63088,-2.53488,-3.44436,-5.14256,-4.244669999999999,52.8758,16.2288,-31.2827,0.137564,0.138737,-0.494055,248.9,6.3,52.1701,4.427219999999999,6.0,1.15415,322.512,4.43369,188.998,46.7447,150.586,0.6583439999999999,0.036233,246.133,1.15809,1.48674,7.91620635986328,22.0009689331055,6.5385837554931605,22.0,359296.0,2461.16,pp-ro,1,1,-1,-1
1570539706.4,2019-10-08,15:01:46.400,15.0,11.0,18.5599994659424,19.0,-5.3,-2.5,55.4,18.3,-31.7,20.9936,-4.83903,-2.6749,-1.12301,-3.50762,-2.1939,52.7926,16.9963,-31.8918,0.0231515999999999,-0.0223587999999999,-0.327777,246.9,6.5,52.1701,4.427219999999999,6.0,1.16025,321.85900000000004,4.433669999999999,188.531,48.2647,150.686,0.65887,0.0281019,246.129,1.13545,1.45793,7.04419708251953,22.0009689331055,5.98303985595703,22.0,359826.0,4307.03,pp-ro,1,1,-1,-1
1570539706.5,2019-10-08,15:01:46.500,15.0,10.0,18.75,18.9,-5.5,-2.9,55.1,19.4,-33.1,20.2802,-5.82981,-3.3785300000000005,-1.53769,-4.53239,-5.057980000000001,52.2109,19.2533,-35.0141,0.203342,0.152375,-0.301564,246.9,6.5,52.1701,4.427219999999999,6.0,1.14917,315.888,4.43363,188.005,50.5447,150.886,0.659338,0.0161189,246.307,1.11324,1.44245,6.49237823486328,22.0009689331055,5.725164890289309,22.0,360172.0,3107.21,pp-ro,1,1,-1,-1
1570539706.6,2019-10-08,15:01:46.600,15.0,11.0,18.9400005340576,18.6,-6.2,-3.3,54.6,20.0,-34.8,20.0101,-6.33157,-3.66462,-6.44844,-9.00418,-2.68883,51.3629,20.0283,-36.6703,-0.377759,-0.360079,-0.302581,246.9,6.5,52.1701,4.427219999999999,6.0,1.14972,315.361,4.4336,187.421,52.8248,151.186,0.660195,0.0040616,246.524,1.0944,1.41024,6.24031066894531,22.0009689331055,5.11872911453247,22.0,360355.0,3660.97,pp-ro,1,1,-1,-1
1570539706.7,2019-10-08,15:01:46.700,15.0,11.0,19.1200008392334,18.1,-6.4,-3.3,54.1,20.2,-36.2,20.0101,-6.33157,-3.66462,-6.44844,-9.00418,-2.68883,51.3629,20.0283,-36.6703,-0.377759,-0.360079,-0.302581,246.9,6.5,52.1701,4.427219999999999,6.0,1.14584,318.724,4.43357,186.837,54.3448,151.386,0.661192,-0.00423462,246.534,1.08167,1.40162,5.85881042480469,22.0009689331055,4.95281839370728,22.0,360700.0,2891.86,pp-ro,1,1,-1,-1
1570539706.8,2019-10-08,15:01:46.800,15.0,11.0,19.2199993133545,17.9,-6.3,-3.5,54.1,20.9,-37.1,20.0101,-6.33157,-3.66462,-6.44844,-9.00418,-2.68883,51.3629,20.0283,-36.6703,-0.377759,-0.360079,-0.302581,246.9,6.5,52.1701,4.427219999999999,6.0,1.15471,312.283,4.43353,186.223,56.6248,151.586,0.661678,-0.0163296,246.706,1.07033,1.40024,5.39044952392578,22.0009689331055,4.9961953163147,22.0,360994.0,3753.27,pp-ro,1,1,-1,-1
1570539706.9,2019-10-08,15:01:46.900,15.0,11.0,19.2199993133545,17.8,-6.4,-3.5,54.1,22.0,-38.0,19.1939,-6.82787,-3.92897,1.53587,-3.54484,-3.21716,51.2469,22.0133,-39.0784,0.0752146,0.0703858,-0.276392,246.9,6.5,52.1701,4.427219999999999,6.4,1.1242299999999998,299.172,4.4335,185.61,58.1448,151.886,0.66298,-0.0246905999999999,246.782,1.05151,1.40088,5.03108215332031,22.0009689331055,5.00488471984863,22.0,361540.0,5722.19,pp-ro,1,1,-1,-1
1570539707.0,2019-10-08,15:01:47.000,15.0,11.0,19.1700000762939,17.5,-6.7,-3.4,53.4,22.4,-39.5,19.1939,-6.82787,-3.92897,1.53587,-3.54484,-3.21716,51.2469,22.0133,-39.0784,0.0752146,0.0703858,-0.276392,246.9,6.5,52.1701,4.427219999999999,6.4,1.10872,297.754,4.43347,184.938,60.4249,152.086,0.663481,-0.0368733,246.948,1.0376,1.39867,4.99702453613281,22.0009689331055,5.0454044342041,22.0,361822.0,1784.34,pp-ro,1,1,-1,-1
1570539707.1,2019-10-08,15:01:47.100,15.0,12.0,19.1700000762939,17.1,-6.8,-3.7,53.2,22.7,-40.7,18.5588,-7.33115,-3.83472,-5.37055,1.86075,-0.737507,50.3311,23.0887,-42.1045,0.196864,-0.17112,0.0109065,246.9,6.5,52.1701,4.427219999999999,6.4,1.12756,300.85400000000004,4.43344,184.266,61.9449,152.386,0.6648350000000001,-0.04535,247.008,1.02589,1.38117,4.990211486816411,22.0009689331055,4.6962947845459,22.0,362099.0,3322.56,pp-ro,1,1,-1,-1
1570539707.2,2019-10-08,15:01:47.200,15.0,12.0,19.1299991607666,16.9,-6.9,-3.9,53.1,23.8,-41.3,18.0987,-7.4097,-4.12306,-1.40078,-2.33205,-0.735915,50.4169,23.8103,-42.6507,0.1497359999999999,-0.0737586,-0.304084,246.9,6.5,52.1701,4.427219999999999,6.4,1.11038,294.389,4.4334,183.565,63.8449,152.686,0.665912,-0.0557285,247.155,1.01183,1.37248,4.95274353027344,22.0009689331055,4.56526851654053,22.0,362598.0,2891.86,pp-ro,1,1,-1,-1
1570539707.3,2019-10-08,15:01:47.300,15.0,11.0,19.1299991607666,16.7,-7.3,-4.0,53.2,24.5,-42.4,18.055,-7.64593,-4.2788900000000005,-3.18624,-0.774939,-5.28174,50.0084,25.0299,-43.6945,0.0851953,-0.0805101,-0.15114,246.9,6.5,52.1701,4.427219999999999,6.4,1.11149,296.507,4.43337,182.806,65.3649,152.986,0.667393,-0.0643752,247.175,0.996327,1.35866,4.721107482910161,22.0009689331055,4.28961229324341,22.0,362753.0,3076.45,pp-ro,1,1,-1,-1
1570539707.4,2019-10-08,15:01:47.400,15.0,12.0,19.0799999237061,16.5,-7.8,-4.2,52.5,24.8,-43.6,18.055,-7.64593,-4.2788900000000005,-3.18624,-0.774939,-5.28174,50.0084,25.0299,-43.6945,0.0851953,-0.0805101,-0.15114,248.5,6.8,52.1701,4.427219999999999,6.4,1.12479,308.469,4.433330000000001,182.046,67.2649,153.286,0.668507,-0.0748933,247.31,0.985984,1.33926,4.49629211425781,22.0009689331055,3.954202651977541,22.0,362973.0,1845.87,pp-ro,1,1,-1,-1
1570539707.5,2019-10-08,15:01:47.500,15.0,12.0,19.0400009155273,16.3,-8.0,-4.3,52.3,25.0,-44.7,18.055,-7.64593,-4.2788900000000005,-3.18624,-0.774939,-5.28174,50.0084,25.0299,-43.6945,0.0851953,-0.0805101,-0.15114,248.5,6.8,52.1701,4.427219999999999,6.4,1.14584,313.015,4.43331,181.228,68.7849,153.686,0.670359,-0.0836701,247.375,0.976889,1.33086,4.3770751953125,22.0009689331055,3.76921987533569,22.0,363171.0,2307.34,pp-ro,1,1,-1,-1
1570539707.6,2019-10-08,15:01:47.600,15.0,11.0,18.9899997711182,16.1,-8.3,-4.4,51.8,24.9,-45.9,17.2453,-8.68629,-4.600169999999999,5.61608,-5.43532,1.20073,48.6733,25.7754,-47.3919,-0.1143869999999999,-0.176229,-0.329846,248.5,6.8,52.1701,4.427219999999999,6.4,1.13864,306.985,4.43328,180.381,70.3049,154.086,0.672241,-0.0925351,247.432,0.970439,1.31988,3.99046325683594,22.0009689331055,3.5334141254425,22.0,363598.0,4768.5,pp-ro,1,1,-1,-1
1570539707.7,2019-10-08,15:01:47.700,15.0,10.0,18.9400005340576,15.7,-8.4,-4.5,51.4,24.9,-46.9,17.1014,-8.96804,-4.64662,-7.110860000000001,-3.75508,-4.99094,48.4704,25.789,-47.9045,-0.0445878,-0.141141,-0.120917,248.5,6.8,52.1701,4.427219999999999,6.4,1.12091,300.153,4.43325,179.563,72.205,154.386,0.673342,-0.10319,247.572,0.966081,1.30992,3.7366943359375,22.0009689331055,3.40680122375488,22.0,364070.0,2399.63,pp-ro,1,1,-1,-1
1570539707.8,2019-10-08,15:01:47.800,15.0,11.0,18.8999996185303,15.5,-8.5,-4.5,50.9,25.2,-47.9,17.1014,-8.96804,-4.64662,-7.110860000000001,-3.75508,-4.99094,48.4704,25.789,-47.9045,-0.0445878,-0.141141,-0.120917,248.5,6.8,52.1701,4.427219999999999,6.4,1.12257,298.22700000000003,4.43322,178.658,73.725,154.786,0.6752729999999999,-0.1122069999999999,247.614,0.956927,1.30793,3.54083251953125,22.0009689331055,3.35664558410645,22.0,364235.0,3076.45,pp-ro,1,1,-1,-1
1570539707.9,2019-10-08,15:01:47.900,15.0,10.0,18.8099994659424,15.2,-8.6,-4.4,50.7,25.2,-49.0,17.1014,-8.96804,-4.64662,-7.110860000000001,-3.75508,-4.99094,48.4704,25.789,-47.9045,-0.0445878,-0.141141,-0.120917,248.5,6.8,52.1701,4.427230000000001,6.6,1.1065,289.272,4.43318,177.753,75.245,155.286,0.677477,-0.1212319999999999,247.733,0.95033,1.30741,3.4079818725585898,22.0009689331055,3.31610536575317,22.0,364640.0,4214.73,pp-ro,1,1,-1,-1
1570539708.0,2019-10-08,15:01:48.000,15.0,10.0,18.8099994659424,15.0,-8.5,-4.5,50.9,25.7,-49.6,16.3354,-9.18254,-4.67387,1.26221,0.2137889999999999,3.25228,47.7595,26.2346,-50.0806,0.0806732,-0.218935,-0.292676,248.5,6.8,52.1701,4.427230000000001,6.6,1.08877,278.54900000000004,4.43317,176.90599999999998,76.765,155.686,0.679189,-0.130192,247.844,0.943194,1.30601,3.36881256103516,22.0009689331055,3.29970073699951,22.0,365087.0,2861.1,pp-ro,1,1,-1,-1
1570539708.1,2019-10-08,15:01:48.100,15.0,9.0,18.6700000762939,14.7,-8.6,-4.5,50.4,25.8,-50.7,16.3354,-9.18254,-4.67387,1.26221,0.2137889999999999,3.25228,47.7595,26.2346,-50.0806,0.0806732,-0.218935,-0.292676,248.5,6.8,52.1701,4.427230000000001,6.6,1.08379,276.448,4.43314,176.0,78.285,156.086,0.680996,-0.139275,247.926,0.935398,1.30093,3.2734375,22.0009689331055,3.20812630653381,22.0,365276.0,3630.21,pp-ro,1,1,-1,-1
1570539708.2,2019-10-08,15:01:48.200,15.0,10.0,18.5699996948242,14.4,-8.7,-4.6,50.2,25.9,-51.3,16.0679,-9.14362,-4.58046,-4.77073,3.38997,-2.10277,47.7026,26.5717,-50.9483,-0.166251,-0.2207309999999999,0.0239264,248.5,6.8,52.1701,4.427230000000001,6.6,1.0727,276.321,4.43311,175.12400000000002,79.805,156.586,0.683005,-0.148314,248.106,0.933211,1.29132,3.24278259277344,22.0009689331055,3.01071166992188,22.0,365545.0,2091.99,pp-ro,1,1,-1,-1
1570539708.3,2019-10-08,15:01:48.300,15.0,10.0,18.479999542236303,14.1,-8.8,-4.6,50.0,25.8,-52.1,15.246,-9.34263,-4.756,-5.13676,-0.7764409999999999,-7.361910000000001,46.8702,26.9355,-53.2152,0.16862,-0.1275079999999999,-0.0330212,248.5,6.8,52.1701,4.427230000000001,6.6,1.08766,279.73900000000003,4.43309,174.218,80.945,156.986,0.685136,-0.155641,248.09,0.930047,1.28469,3.19509887695312,22.0009689331055,2.82880711555481,22.0,365882.0,3014.92,pp-ro,1,1,-1,-1
1570539708.4,2019-10-08,15:01:48.400,15.0,10.0,18.4300003051758,14.0,-8.8,-4.5,49.9,26.1,-52.9,15.246,-9.34263,-4.756,-5.13676,-0.7764409999999999,-7.361910000000001,46.8702,26.9355,-53.2152,0.16862,-0.1275079999999999,-0.0330212,258.5,7.6,52.1701,4.427230000000001,6.6,1.0788,277.915,4.43313,173.28400000000002,82.845,157.486,0.6867850000000001,-0.166665,248.38,0.924464,1.29296,3.0026397705078103,22.0009689331055,3.0732650756835898,22.0,366157.0,2461.16,pp-ro,1,1,-1,-1
1570539708.5,2019-10-08,15:01:48.500,15.0,10.0,18.4300003051758,13.7,-9.0,-4.5,49.7,26.3,-53.7,14.5587,-9.60695,-4.67504,-1.30996,-2.66937,2.0951,46.6069,27.5814,-54.9714,0.177555,-0.0554031,-0.214712,258.5,7.6,52.1701,4.427230000000001,6.6,1.08101,274.097,4.43318,172.32,83.985,157.886,0.6889810000000001,-0.174292,248.346,0.917797,1.28366,2.8340301513671897,22.0009689331055,2.84157991409302,22.0,366404.0,2676.51,pp-ro,1,1,-1,-1
1570539708.6,2019-10-08,15:01:48.600,15.0,11.0,18.3799991607666,13.5,-9.1,-4.7,49.5,26.5,-54.2,14.5587,-9.60695,-4.67504,-1.30996,-2.66937,2.0951,46.6069,27.5814,-54.9714,0.177555,-0.0554031,-0.214712,258.5,7.6,52.1701,4.427230000000001,6.6,1.07547,271.892,4.4332400000000005,171.327,85.5051,158.386,0.6910930000000001,-0.1837619999999999,248.496,0.915792,1.27219,2.9617691040039102,22.0009689331055,-35.0,22.0,366589.0,3568.68,pp-ro,1,1,-1,-1
1570539708.7,2019-10-08,15:01:48.700,15.0,10.0,18.4300003051758,13.2,-9.2,-4.7,49.5,26.6,-54.7,14.0801,-9.7313,-4.79029,-4.94066,-1.20614,-1.11637,46.2814,27.7444,-56.1884,-0.00527065,-0.0713396,-0.0991669999999999,258.5,7.6,52.1701,4.427230000000001,6.6,1.06218,270.023,4.43331,170.363,86.6451,158.886,0.693535,-0.191413,248.547,0.913789,1.265,3.04521942138672,22.0009689331055,-35.0,22.0,366858.0,2184.28,pp-ro,1,1,-1,-1
1570539708.8,2019-10-08,15:01:48.800,15.0,11.0,18.4300003051758,13.2,-9.4,-4.7,49.4,26.6,-55.6,14.0801,-9.7313,-4.79029,-4.94066,-1.20614,-1.11637,46.2814,27.7444,-56.1884,-0.00527065,-0.0713396,-0.0991669999999999,258.5,7.6,52.1701,4.427230000000001,6.6,1.07326,271.845,4.43337,169.37,88.1651,159.386,0.695563,-0.200928,248.723,0.909626,1.26619,2.776123046875,22.0009689331055,-35.0,22.0,367206.0,2861.1,pp-ro,1,1,-1,-1
1570539708.9,2019-10-08,15:01:48.900,15.0,10.0,18.3799991607666,13.0,-9.5,-4.7,48.9,26.3,-56.9,13.8256,-9.87958,-4.90219,-1.37385,-3.33855,-1.55483,46.2891,28.0596,-56.8809,0.091513,0.000206697,-0.178989,258.5,7.6,52.1701,4.427230000000001,6.8,1.0699299999999998,270.894,4.43343,168.40599999999998,89.6851,159.786,0.6971689999999999,-0.21039,248.86900000000003,0.904322,1.26321,2.12892913818359,22.0009689331055,-35.0,22.0,367364.0,3045.68,pp-ro,1,1,-1,-1
1570539709.0,2019-10-08,15:01:49.000,15.0,10.0,18.340000152587898,12.8,-9.5,-4.6,48.4,26.0,-57.7,13.4444,-10.1862,-4.792669999999999,-0.959347,-0.56723,4.304130000000001,45.717,28.1982,-58.5108,0.0709421,-0.0788349,-0.143868,258.5,7.6,52.1701,4.427230000000001,6.8,1.06605,270.644,4.43349,167.355,90.8251,160.286,0.699706,-0.218332,248.894,0.90368,1.26603,1.11385345458984,22.0009689331055,-35.0,22.0,367594.0,2030.46,pp-ro,1,1,-1,-1
1570539709.1,2019-10-08,15:01:49.100,15.0,9.0,18.2900009155273,12.7,-9.7,-4.6,48.5,25.8,-58.1,13.4444,-10.1862,-4.792669999999999,-0.959347,-0.56723,4.304130000000001,45.717,28.1982,-58.5108,0.0709421,-0.0788349,-0.143868,258.5,7.6,52.1701,4.427230000000001,6.8,1.07215,270.579,4.43355,166.391,91.9651,160.786,0.702012,-0.226082,248.989,0.906393,1.26288,-0.238945007324219,22.0009689331055,-35.0,22.0,367840.0,2645.75,pp-ro,1,1,-1,-1
1570539709.2,2019-10-08,15:01:49.200,15.0,11.0,18.2399997711182,12.6,-9.7,-4.4,48.5,25.2,-58.8,13.0083,-10.2592,-4.67413,-2.42253,-2.05477,-1.12392,45.4934,28.1948,-59.3369,0.1384369999999999,0.00447778,0.0270563,258.5,7.6,52.1701,4.427230000000001,6.8,1.0610700000000002,264.718,4.43362,165.368,93.4851,161.286,0.7039350000000001,-0.235751,249.197,0.91154,1.2744799999999998,-1.9559631347656203,22.0009689331055,-35.0,22.0,368142.0,2891.86,pp-ro,1,1,-1,-1
1570539709.3,2019-10-08,15:01:49.300,15.0,10.0,18.2399997711182,12.8,-9.6,-4.2,48.6,24.5,-59.1,13.0083,-10.2592,-4.67413,-2.42253,-2.05477,-1.12392,45.4934,28.1948,-59.3369,0.1384369999999999,0.00447778,0.0270563,258.5,7.6,52.1701,4.427230000000001,6.8,1.05109,258.756,4.433680000000001,164.317,94.6251,161.686,0.706063,-0.243776,249.191,0.921433,1.29768,-3.99385833740234,22.0009689331055,-35.0,22.0,368429.0,2984.16,pp-ro,1,1,-1,-1
1570539709.4,2019-10-08,15:01:49.400,15.0,10.0,18.2900009155273,12.9,-9.7,-4.0,48.7,24.3,-59.1,12.9768,-10.2954,-4.60727,0.1418319999999999,-1.05494,2.97572,45.4851,28.3169,-59.4994,0.210857,-0.0245934,-0.17731,257.7,7.6,52.1701,4.427230000000001,6.8,1.04555,259.768,4.4337,163.35299999999998,95.7651,161.886,0.707353,-0.251546,249.123,0.928973,1.31236,-6.106842041015621,22.0009689331055,-35.0,22.0,368673.0,2061.22,pp-ro,1,1,-1,-1
1570539709.5,2019-10-08,15:01:49.500,15.0,11.0,18.340000152587898,13.1,-9.8,-3.5,49.4,21.9,-58.6,12.9768,-10.2954,-4.60727,0.1418319999999999,-1.05494,2.97572,45.4851,28.3169,-59.4994,0.210857,-0.0245934,-0.17731,257.7,7.6,52.1701,4.427230000000001,6.8,1.04943,255.37,4.433730000000001,162.30200000000002,97.2851,162.586,0.7098220000000001,-0.26133,249.48,0.969639,1.34471,-8.21641540527344,22.0009689331055,-35.0,22.0,368899.0,2522.69,pp-ro,1,1,-1,-1
1570539709.6,2019-10-08,15:01:49.600,15.0,10.0,18.4400005340576,13.7,-9.4,-3.2,50.6,20.3,-57.4,13.3771,-9.76263,-3.16146,1.92141,6.40964,-1.89969,47.8316,25.1324,-57.1893,0.196264,0.142697,0.382267,257.7,7.6,52.1701,4.427230000000001,6.8,1.01785,238.842,4.43374,161.279,98.4251,162.886,0.7114779999999999,-0.2692969999999999,249.46,1.00841,1.39174,-10.3259963989258,22.0009689331055,-35.0,22.0,369394.0,3230.27,pp-ro,1,1,-1,-1
1570539709.7,2019-10-08,15:01:49.700,15.0,10.0,18.479999542236303,14.4,-9.4,-2.5,52.2,18.9,-55.3,13.3771,-9.76263,-3.16146,1.92141,6.40964,-1.89969,47.8316,25.1324,-57.1893,0.196264,0.142697,0.382267,257.7,7.6,52.1701,4.427230000000001,6.8,1.00788,238.052,4.43377,160.345,99.9451,163.286,0.712685,-0.278763,249.723,1.05677,1.44771,-12.4338607788086,22.0009689331055,-35.0,22.0,369544.0,2768.8,pp-ro,1,1,-1,-1
1570539709.8,2019-10-08,15:01:49.800,15.0,10.0,18.3899993896484,15.1,-9.4,-1.5,53.5,16.3,-54.2,13.3771,-9.76263,-3.16146,1.92141,6.40964,-1.89969,47.8316,25.1324,-57.1893,0.196264,0.142697,0.382267,257.7,7.6,52.1701,4.427230000000001,6.8,1.01674,243.131,4.43379,159.381,101.085,163.486,0.713839,-0.286612,249.696,1.10702,1.51262,-14.5366134643555,22.0009689331055,-35.0,22.0,369664.0,953.699,pp-ro,1,1,-1,-1
1570539709.9,2019-10-08,15:01:49.900,15.0,10.0,18.340000152587898,15.9,-9.1,-0.7,54.8,13.1,-52.8,14.6165,-9.55359,-1.5784,3.902930000000001,2.32521,10.5093,50.9814,22.4856,-52.3916,0.0465869,-0.00112529,0.441374,257.7,7.6,52.1701,4.427230000000001,7.0,1.0317,249.341,4.43381,158.388,102.605,163.686,0.714485,-0.296254,249.815,1.1700700000000002,1.57797,-16.641067504882802,22.0009689331055,-35.0,22.0,369863.0,2338.1,pp-ro,1,1,-1,-1
1570539710.0,2019-10-08,15:01:50.000,15.0,10.0,18.340000152587898,16.7,-8.7,0.1,56.8,10.0,-50.3,14.6165,-9.55359,-1.5784,3.902930000000001,2.32521,10.5093,50.9814,22.4856,-52.3916,0.0465869,-0.00112529,0.441374,257.7,7.6,52.1701,4.427230000000001,7.0,1.03004,249.409,4.43383,157.482,104.125,163.786,0.714591,-0.305641,249.937,1.24544,1.64305,-18.7625885009766,22.0009689331055,-35.0,22.0,370169.0,1938.16,pp-ro,1,1,-1,-1
