time,date,time_of_day,airspeed_temperature,airspeed_angle_of_attack,airspeed_apparent_windspeed,kite_0_vx,kite_0_vy,kite_0_vz,kite_0_roll,kite_0_pitch,kite_0_yaw,kite_1_vx,kite_1_vy,kite_1_vz,kite_1_ax,kite_1_ay,kite_1_az,kite_1_roll,kite_1_pitch,kite_1_yaw,kite_1_roll_rate,kite_1_pitch_rate,kite_1_yaw_rate,ground_upwind_direction,ground_wind_velocity,ground_pos_latitude,ground_pos_longitude,ground_pos_altitude,ground_tether_reelout_speed,ground_tether_force,est_upwind_direction,kite_pos_east,kite_pos_north,kite_height,kite_elevation,kite_azimuth,kite_distance,kite_heading,kite_course,kite_actual_steering,kite_actual_depower,kite_set_steering,kite_set_depower,ground_mech_energy,ground_mech_power,flight_phase,flight_phase_index,phase,pattern,pattern_section
1570538158.9,2019-10-08,14:35:58.900,15.0,8.0,15.4899997711182,10.7,-2.8,1.2,17.0,1.7,-68.5,10.2324,-1.30062,1.93865,9.56442,7.58328,3.21245,22.3742,14.5875,-64.7244,0.162389,0.180288,0.8346870000000001,249.5,4.8,52.1701,4.427230000000001,-5.9,-1.57858,107.691,4.3243,73.6907,4.56072,237.506,1.2694,0.326275,248.717,0.451018,1.4171,-34.528076171875,22.061731338501,-35.0,22.0,-466047.0,-1138.29,pp-riro,4,0,-1,-1
1570538159.0,2019-10-08,14:35:59.000,15.0,8.0,15.2600002288818,11.8,-2.1,1.5,19.5,-0.1,-63.4,10.2324,-1.30062,1.93865,9.56442,7.58328,3.21245,22.3742,14.5875,-64.7244,0.162389,0.180288,0.8346870000000001,249.5,4.8,52.1701,4.427230000000001,-5.9,-1.54534,108.936,4.324319999999999,73.3986,6.080769999999999,237.406,1.26998,0.305411,248.568,0.567821,1.51856,-34.910400390625,22.0298042297363,-35.0,22.0,-466122.0,-707.5830000000001,pp-riro,4,0,-1,-1
1570538159.1,2019-10-08,14:35:59.100,15.0,9.0,15.0200004577637,12.8,-1.2,1.8,21.6,-1.9,-58.5,10.7606,-0.906179,2.14295,10.2738,6.31637,3.32281,23.6545,13.9821,-61.6903,0.286666,0.21584,1.0043799999999998,249.5,4.8,52.1701,4.427230000000001,-5.9,-1.53315,109.199,4.324330000000001,73.1942,7.22081,237.306,1.27025,0.289726,248.443,0.676643,1.61685,-34.971832275390604,22.0092067718506,-35.0,22.0,-466114.0,153.822,pp-riro,4,0,-1,-1
1570538159.2,2019-10-08,14:35:59.200,15.0,9.0,14.7799997329712,13.8,-0.3,2.3,23.4,-3.5,-53.5,12.1103,0.418153,2.70541,9.3992,9.65725,5.3609800000000005,26.9531,11.7488,-52.6703,0.221669,0.175289,0.985865,243.4,4.4,52.1701,4.427230000000001,-5.9,-1.49768,106.556,4.32435,73.1065,8.36085,237.207,1.27,0.274169,248.357,0.7870050000000001,1.70776,-34.973541259765604,22.0009689331055,-35.0,22.0,-466147.0,-215.351,pp-riro,4,0,-1,-1
1570538159.3,2019-10-08,14:35:59.300,15.0,9.0,14.6599998474121,14.6,0.6,2.6,25.3,-5.1,-48.3,12.1103,0.418153,2.70541,9.3992,9.65725,5.3609800000000005,26.9531,11.7488,-52.6703,0.221669,0.175289,0.985865,243.4,4.4,52.1701,4.427230000000001,-5.9,-1.47386,101.885,4.32431,73.0773,9.8809,237.007,1.26915,0.253685,248.21400000000003,0.906214,1.79018,-34.975250244140604,22.0009689331055,-35.0,22.0,-466425.0,-2522.69,pp-riro,4,0,-1,-1
1570538159.4,2019-10-08,14:35:59.400,15.0,8.0,14.539999961853,15.3,1.7,3.1,26.9,-7.2,-43.0,13.9212,2.9495400000000003,3.79417,6.13331,11.1395,5.5041400000000005,31.6814,6.6953,-38.499,0.219432,0.140033,0.998044,243.4,4.4,52.1701,4.427230000000001,-5.9,-1.46943,100.981,4.324269999999999,73.1649,11.0209,236.907,1.26808,0.2385949999999999,248.192,1.02397,1.87706,-34.9923248291016,22.0009689331055,-35.0,22.0,-466586.0,-3076.45,pp-riro,4,0,-1,-1
1570538159.5,2019-10-08,14:35:59.500,15.0,8.0,14.4200000762939,15.9,2.8,3.6,28.0,-9.2,-38.0,14.4964,3.97561,4.29087,4.07143,11.3538,5.18279,33.2287,4.20544,-32.7445,0.153428,0.143032,1.04481,243.4,4.4,52.1701,4.427230000000001,-5.9,-1.47774,98.5193,4.32422,73.3693,12.921,236.707,1.26588,0.2138429999999999,248.153,1.14598,1.96667,-34.9923248291016,22.0009689331055,-35.0,22.0,-466885.0,-2799.57,pp-riro,4,0,-1,-1
1570538159.6,2019-10-08,14:35:59.600,15.0,8.0,14.3000001907349,16.4,4.1,4.0,29.3,-11.5,-32.7,14.9349,5.105580000000001,4.793,3.86136,12.3732,4.15224,34.3379,1.81261,-27.2757,0.213244,0.165173,1.00199,243.4,4.4,52.1701,4.427230000000001,-5.9,-1.50987,91.3113,4.32418,73.6906,14.4411,236.407,1.26324,0.19469,248.046,1.2689700000000002,2.05507,-34.9906158447266,22.0009689331055,-35.0,22.0,-467612.0,-5506.84,pp-riro,4,0,-1,-1
1570538159.7,2019-10-08,14:35:59.700,15.0,8.0,14.2299995422363,16.7,5.4,4.5,30.2,-13.6,-27.5,14.9349,5.105580000000001,4.793,3.86136,12.3732,4.15224,34.3379,1.81261,-27.2757,0.213244,0.165173,1.00199,243.4,4.4,52.1701,4.427230000000001,-5.9,-1.5614,88.2024,4.32414,74.1579,15.9611,236.207,1.26006,0.17623,248.088,1.38814,2.14134,-34.9923248291016,22.0009689331055,-35.0,22.0,-468307.0,-7198.89,pp-riro,4,0,-1,-1
1570538159.8,2019-10-08,14:35:59.800,15.0,9.0,14.2299995422363,17.0,6.6,4.9,31.1,-15.7,-22.3,15.0853,5.70742,4.99258,2.0013,11.4042,3.161,34.7376,0.598835,-24.6168,0.148029,0.195329,0.961313,243.4,4.4,52.1701,4.42724,-5.6,-1.59132,89.302,4.3241,74.7128,17.4812,235.807,1.25621,0.158447,247.977,1.50614,2.21528,-34.9974365234375,22.0009689331055,-35.0,22.0,-468737.0,-8306.41,pp-riro,4,0,-1,-1
1570538159.9,2019-10-08,14:35:59.900,15.0,9.0,14.289999961853,17.2,7.8,5.4,31.6,-17.9,-17.0,15.3943,7.44115,5.62817,3.5904800000000003,11.3686,4.15318,35.7099,-3.08671,-16.2186,0.198151,0.259964,0.990598,243.4,4.4,52.1701,4.42724,-5.6,-1.6484,93.8054,4.32406,75.3845,19.0013,235.507,1.25195,0.141418,248.007,1.6248,2.28738,-34.9991455078125,22.0009689331055,-35.0,22.0,-469480.0,-7291.18,pp-riro,4,0,-1,-1
1570538160.0,2019-10-08,14:36:00.000,15.0,9.0,14.289999961853,17.4,9.1,6.0,32.0,-20.0,-11.6,15.3943,7.44115,5.62817,3.5904800000000003,11.3686,4.15318,35.7099,-3.08671,-16.2186,0.198151,0.259964,0.990598,243.4,4.4,52.1701,4.42724,-5.6,-1.68829,97.0417,4.32401,76.1731,20.9013,235.007,1.24655,0.120573,247.926,1.74718,2.36387,-34.9991455078125,22.0009689331055,-35.0,22.0,-470062.0,-5722.19,pp-riro,4,0,-1,-1
1570538160.1,2019-10-08,14:36:00.100,15.0,10.0,14.3500003814697,17.4,10.4,6.5,31.9,-22.1,-5.9,15.7297,9.65737,6.65068,1.13064,11.6899,4.83571,35.965,-7.563269999999999,-5.04602,0.0903626,0.28041,1.04544,243.4,4.4,52.1701,4.42724,-5.6,-1.70547,100.479,4.32397,77.1661,22.8014,234.507,1.24026,0.101107,247.928,1.87178,2.4384,-35.0025634765625,22.0009689331055,-35.0,22.0,-470590.0,-4830.02,pp-riro,4,0,-1,-1
1570538160.2,2019-10-08,14:36:00.200,15.0,10.0,14.4799995422363,17.4,11.8,7.0,31.8,-23.9,-0.1,15.7412,11.4413,7.39042,-1.46701,11.9709,3.33255,35.317,-10.9205,3.71893,0.0929093999999999,0.272282,1.006,249.8,4.3,52.1701,4.42724,-5.6,-1.7121099999999998,105.32,4.323930000000001,78.1883,24.7015,233.907,1.23363,0.0824363,247.863,1.99363,2.51159,-35.0025634765625,22.0009689331055,-35.0,22.0,-470909.0,-2953.39,pp-riro,4,0,-1,-1
1570538160.3,2019-10-08,14:36:00.300,15.0,10.0,14.6599998474121,17.2,13.0,7.6,31.5,-26.2,5.7,15.6394,12.6581,7.87962,-2.32974,11.4134,4.63696,34.6307,-13.0129,9.85318,0.123129,0.289573,1.05548,249.8,4.3,52.1701,4.42724,-5.6,-1.67167,114.409,4.32399,79.3858,26.2216,233.307,1.22671,0.0693768999999999,247.835,2.1115,2.57498,-35.0008544921875,22.0009689331055,-35.0,22.0,-470997.0,953.699,pp-riro,4,0,-1,-1
1570538160.4,2019-10-08,14:36:00.400,15.0,10.0,14.7799997329712,17.0,14.4,8.3,31.0,-28.2,11.6,15.6394,12.6581,7.87962,-2.32974,11.4134,4.63696,34.6307,-13.0129,9.85318,0.123129,0.289573,1.05548,249.8,4.3,52.1701,4.42724,-5.6,-1.60628,124.055,4.32405,80.7001,28.1217,232.607,1.21871,0.0530306,247.80900000000003,2.23018,2.64494,-35.0025634765625,22.0009689331055,-35.0,22.0,-470804.0,3107.21,pp-riro,4,0,-1,-1
1570538160.5,2019-10-08,14:36:00.500,15.0,10.0,15.140000343322802,16.6,15.8,8.9,29.9,-30.0,18.1,15.3235,14.4617,8.7726,-4.70571,12.9914,5.937790000000001,32.9245,-16.1111,19.346,-0.0338093999999999,0.312373,1.0869,249.8,4.3,52.1701,4.42724,-5.6,-1.56251,128.893,4.3241,82.1897,29.6417,231.807,1.21035,0.0421538,247.726,2.34988,2.71084,-35.0008544921875,22.0009689331055,-35.0,22.0,-470543.0,4737.73,pp-riro,4,0,-1,-1
1570538160.6,2019-10-08,14:36:00.600,15.0,10.0,15.4300003051758,15.9,17.2,9.5,28.9,-31.8,24.7,14.8721,15.6994,9.33551,-6.19911,13.2236,5.53291,31.4973,-17.8593,25.8188,0.0739953,0.289298,1.04529,249.8,4.3,52.1701,4.42724,-5.6,-1.42399,135.539,4.32416,83.7668,31.5418,230.907,1.20099,0.0281044,247.649,2.47155,2.7848900000000003,-35.0025634765625,22.0009689331055,35.0,22.0,-469905.0,7260.42,pp-riro,4,0,-1,-1
1570538160.7,2019-10-08,14:36:00.700,15.0,10.0,15.7700004577637,15.2,18.6,10.2,27.3,-33.5,31.6,14.3015,16.9523,9.91319,-4.93275,13.9568,7.16373,29.8124,-19.5476,32.6047,0.104938,0.33405,1.08215,249.8,4.3,52.1701,4.42724,-5.6,-1.15969,148.641,4.32422,85.5776,32.6819,229.907,1.19163,0.0233655,247.485,2.58668,2.84729,-35.0025634765625,22.0009689331055,35.0,22.0,-468655.0,8675.59,pp-riro,4,0,-1,-1
1570538160.8,2019-10-08,14:36:00.800,15.0,10.0,16.1000003814697,14.3,20.1,10.8,25.8,-34.6,38.8,13.5912,18.2351,10.5301,-7.27136,13.4827,3.82671,27.8124,-21.0854,39.3437,0.104863,0.241815,1.10171,249.8,4.3,52.1701,4.42724,-5.1,-1.05386,155.11700000000002,4.32428,87.4761,34.582,228.907,1.18091,0.0116372,247.481,2.70741,2.92024,-34.775558471679695,22.0009689331055,35.0,22.0,-468148.0,9260.11,pp-riro,4,0,-1,-1
1570538160.9,2019-10-08,14:36:00.900,15.0,10.0,16.370000839233402,13.2,21.3,11.4,23.8,-36.1,46.0,12.2231,20.0584,11.4311,-11.2193,8.96491,7.03417,24.6608,-23.1322,49.9622,0.170837,0.354072,1.09841,249.8,4.3,52.1701,4.42724,-5.1,-0.80619,166.96200000000002,4.324330000000001,89.4621,35.7221,227.807,1.17074,0.00815315,247.337,2.82022,2.98246,-34.173065185546896,22.0009689331055,23.0044822692871,22.0,-467234.0,9137.05,pp-riro,4,0,-1,-1
1570538161.0,2019-10-08,14:36:01.000,15.0,11.0,16.7399997711182,11.9,22.6,12.0,21.5,-37.0,53.8,11.6433,20.6196,11.7068,-10.7312,11.0579,5.23202,23.3912,-23.8543,53.6627,0.0468335,0.274644,1.143,249.8,4.3,52.1701,4.42724,-5.1,-0.478727,175.01,4.32439,91.6819,37.2422,226.708,1.15923,0.00214814,247.364,2.93983,3.05215,-33.205322265625,22.0009689331055,11.868178367614698,22.0,-466501.0,6614.37,pp-ro,1,1,-1,-1
1570538161.1,2019-10-08,14:36:01.100,15.0,10.0,17.1100006103516,11.1,23.1,12.1,19.1,-37.9,61.4,11.0714,21.1801,11.9126,-14.1257,9.75699,1.32349,22.2092,-24.3608,57.2991,0.111096,0.216506,0.993349,249.8,4.3,52.1701,4.42724,-5.1,-0.138521,178.59900000000002,4.32445,93.96,38.3822,225.508,1.1478700000000002,0.000130877,247.296,3.05118,3.08721,-31.8962249755859,22.0009689331055,12.8000650405884,22.0,-466206.0,1445.93,pp-ro,1,1,-1,-1
1570538161.2,2019-10-08,14:36:01.200,15.0,10.0,17.4200000762939,8.9,24.6,12.5,16.7,-38.2,68.9,9.72464,22.1173,12.2818,-14.3661,10.3388,6.3781300000000005,19.6676,-25.4877,64.4636,0.0264166,0.242644,1.09778,264.8,4.1,52.1701,4.42724,-5.1,0.234931,179.333,4.32451,96.3257,39.5223,224.308,1.13622,-0.00147103,247.294,3.15862,3.17968,-30.2184753417969,22.0009689331055,14.9119653701782,22.0,-466483.0,-4153.21,pp-ro,1,1,-1,-1
1570538161.3,2019-10-08,14:36:01.300,15.0,10.0,17.6200008392334,7.2,25.1,12.7,15.2,-38.2,76.2,8.29338,23.0711,12.575,-16.0789,5.40498,2.79925,17.317,-26.4941,71.5253,-0.0932933,0.252253,1.03797,264.8,4.1,52.1701,4.42724,-5.1,0.575137,177.937,4.3246,97.5816,39.9023,223.608,1.1302299999999998,-0.000376569,247.21400000000003,3.26033,3.23942,-28.2078857421875,22.0009689331055,16.307012557983402,22.0,-467302.0,-9752.34,pp-ro,1,1,-1,-1
1570538161.4,2019-10-08,14:36:01.400,15.0,10.0,17.770000457763697,5.6,25.5,12.6,11.3,-38.3,83.3,6.86705,23.7274,12.6243,-10.6832,2.6034900000000003,-0.0547966,14.8365,-27.2241,78.2922,0.0907224,0.159246,0.975873,264.8,4.1,52.1701,4.42724,-5.1,0.930304,173.02599999999998,4.32469,101.349,40.6624,221.808,1.1133,0.0061476,247.232,3.35365,3.2904,-26.096603393554695,22.0014839172363,18.024738311767603,22.0,-468566.0,-14305.5,pp-ro,1,1,-1,-1
1570538161.5,2019-10-08,14:36:01.500,15.0,9.0,17.8199996948242,4.1,25.8,12.4,8.8,-37.2,89.9,5.31705,24.15,12.6375,-19.5438,4.83597,1.69415,12.5882,-27.7269,84.6758,-0.0101107,0.105494,0.891827,264.8,4.1,52.1701,4.42724,-5.1,0.902046,166.201,4.3247800000000005,103.949,41.8025,220.608,1.10088,0.00525061,247.428,3.44866,3.34435,-23.9887390136719,22.0009689331055,19.4547004699707,22.0,-467794.0,10213.8,pp-ro,1,1,-1,-1
1570538161.6,2019-10-08,14:36:01.600,15.0,9.0,17.9599990844727,2.6,25.9,12.7,6.6,-36.6,95.8,3.29199,24.4405,12.4187,-9.18099,0.934307,4.09826,9.18324,-27.7415,93.7114,0.00535028,0.1860079999999999,0.858453,264.8,4.1,52.1701,4.42724,-5.1,0.936399,190.489,4.32488,105.263,41.8025,220.008,1.09538,0.00948761,247.449,3.52939,3.39079,-21.8791580200195,22.0009689331055,20.6944808959961,22.0,-468036.0,-2799.57,pp-ro,1,1,-1,-1
1570538161.7,2019-10-08,14:36:01.700,15.0,9.0,18.0599994659424,1.9,25.9,12.8,5.5,-36.1,98.8,2.59449,24.527,12.5161,-11.5119,-2.64895,4.68331,7.895569999999999,-27.4901,96.7037,0.0515049,0.271688,0.9003760000000001,264.8,4.1,52.1701,4.42724,-5.1,0.941386,201.228,4.32497,107.862,42.1826,218.708,1.08379,0.0146294999999999,247.481,3.5682,3.4095,-20.8277893066406,22.0009689331055,21.6141529083252,22.0,-467806.0,2061.22,pp-ro,1,1,-1,-1
1570538161.8,2019-10-08,14:36:01.800,15.0,10.0,18.159999847412102,0.7,25.8,12.7,1.9,-34.9,106.8,1.3233,24.5243,12.6294,-9.44563,2.55298,-2.09655,5.43379,-27.0453,102.568,0.0181467,0.1163109999999999,0.911995,264.8,4.1,52.1701,4.42724,-4.3,0.943602,198.925,4.32506,110.403,42.1827,217.508,1.07306,0.0223673,247.544,3.67826,3.44359,-18.1874084472656,22.0025119781494,22.912540435791,22.0,-467769.0,707.5830000000001,pp-ro,1,1,-1,-1
1570538161.9,2019-10-08,14:36:01.900,15.0,9.0,18.2999992370605,-1.0,25.8,12.4,-0.2,-33.1,111.3,0.679722,24.5325,12.5138,-11.0267,4.02721,-6.08749,4.15542,-26.9319,105.127,-0.0768478,0.10765,0.76644,264.8,4.1,52.1701,4.42724,-4.3,0.932521,199.799,4.32515,114.346,42.5627,215.608,1.0558299999999998,0.0308995,247.737,3.74254,3.4961,-16.069290161132802,22.0025119781494,23.0116176605225,22.0,-467449.0,2215.04,pp-ro,1,1,-1,-1
1570538162.0,2019-10-08,14:36:02.000,15.0,9.0,18.4400005340576,-1.5,26.0,12.5,-1.1,-32.1,113.2,-0.394241,24.6686,12.1747,-4.461869999999999,1.77436,0.299576,1.75395,-26.4807,109.694,0.0747659,0.137205,0.5218550000000001,264.8,4.1,52.1701,4.42724,-4.3,0.940278,207.122,4.32525,115.69,42.1828,215.008,1.05067,0.037505,247.774,3.7693,3.507,-13.963134765625,22.0025119781494,23.0116176605225,22.0,-467450.0,-30.7645,pp-ro,1,1,-1,-1
1570538162.1,2019-10-08,14:36:02.100,15.0,10.0,18.6299991607666,-2.5,25.9,12.6,-3.4,-30.1,116.4,-1.5516299999999998,24.7695,12.1213,-9.96887,-0.523099,2.43332,-0.506789,-25.7923,113.676,-0.376721,0.0646670999999999,0.605797,264.8,4.1,52.1701,4.42724,-4.3,0.987375,226.471,4.32534,118.289,42.1828,213.708,1.03951,0.0445026,247.877,3.8203,3.5342300000000004,-11.8501434326172,22.0025119781494,23.0116176605225,22.0,-467472.0,215.351,pp-ro,1,1,-1,-1
1570538162.2,2019-10-08,14:36:02.200,15.0,11.0,18.770000457763697,-3.5,25.9,12.6,-5.6,-28.9,119.6,-2.93395,24.9027,12.2701,-13.0042,1.0897,-2.58648,-4.51614,-24.5674,118.917,-0.285369,-0.0842398999999999,0.45108,274.1,4.3,52.1701,4.42724,-4.3,1.00788,239.582,4.32543,121.006,41.8029,212.408,1.0283799999999998,0.0543327,248.006,3.86468,3.55953,-9.73715209960938,22.0035419464111,23.0163822174072,22.0,-467311.0,1876.63,pp-ro,1,1,-1,-1
1570538162.3,2019-10-08,14:36:02.300,15.0,11.0,18.9599990844727,-4.4,26.2,12.7,-7.8,-27.2,121.7,-2.93395,24.9027,12.2701,-13.0042,1.0897,-2.58648,-4.51614,-24.5674,118.917,-0.285369,-0.0842398999999999,0.45108,274.1,4.3,52.1701,4.42724,-4.3,1.0283799999999998,256.062,4.32562,123.605,41.8029,211.108,1.01719,0.0606475,248.178,3.90032,3.58294,-7.62416839599609,22.003026962280305,23.0139999389648,22.0,-467225.0,522.996,pp-ro,1,1,-1,-1
1570538162.4,2019-10-08,14:36:02.400,15.0,11.0,19.2399997711182,-5.1,26.4,13.3,-9.7,-25.7,123.0,-4.45528,25.5331,12.327,-5.73022,8.663730000000001,3.67302,-8.71578,-23.8031,122.586,-0.442795,0.120602,0.361901,274.1,4.3,52.1701,4.42724,-4.3,1.09154,291.993,4.32581,126.263,40.6629,209.708,1.00679,0.0751133,248.139,3.91721,3.58836,-5.50434875488281,22.0035419464111,23.0163822174072,22.0,-467096.0,1261.34,pp-ro,1,1,-1,-1
1570538162.5,2019-10-08,14:36:02.500,15.0,12.0,19.4699993133545,-5.8,26.5,13.9,-12.0,-25.5,124.2,-5.1946,25.8017,12.8224,1.57726,1.95177,3.78894,-11.6356,-23.0058,124.24,-0.332721,-0.086759,0.4115399999999999,274.1,4.3,52.1701,4.42724,-4.3,1.10872,304.05400000000003,4.3260000000000005,128.921,40.283,208.108,0.995105,0.0835385,248.097,3.92822,3.59857,-3.398193359375,22.0035419464111,23.0163822174072,22.0,-467067.0,584.525,pp-ro,1,1,-1,-1
1570538162.6,2019-10-08,14:36:02.600,15.0,13.0,19.8199996948242,-6.2,26.9,14.5,-13.7,-24.8,124.2,-5.1946,25.8017,12.8224,1.57726,1.95177,3.78894,-11.6356,-23.0058,124.24,-0.332721,-0.086759,0.4115399999999999,274.1,4.3,52.1701,4.42724,-4.3,1.1630200000000002,330.59,4.32619,131.608,39.903,206.508,0.98329,0.0918132,248.11,3.92617,3.5982199999999995,-1.29032135009766,22.0035419464111,23.0163822174072,22.0,-466965.0,1661.28,pp-ro,1,1,-1,-1
1570538162.7,2019-10-08,14:36:02.700,15.0,13.0,20.1299991607666,-6.5,27.2,15.6,-15.7,-24.7,124.1,-6.48367,26.6458,14.1302,-8.0424,7.413760000000001,8.17958,-17.4518,-23.5207,125.804,-0.407307,-0.00550445,-0.0245506,274.1,4.3,52.1701,4.42724,-4.3,1.2007,356.284,4.32638,134.32399999999998,39.1431,204.808,0.97148,0.1024549999999999,248.035,3.91642,3.58903,0.8141021728515621,22.004056930542003,23.018762588501,22.0,-466793.0,1661.28,pp-ro,1,1,-1,-1
1570538162.8,2019-10-08,14:36:02.800,15.0,13.0,20.5699996948242,-6.7,27.4,16.6,-17.0,-26.0,123.0,-6.48367,26.6458,14.1302,-8.0424,7.413760000000001,8.17958,-17.4518,-23.5207,125.804,-0.407307,-0.00550445,-0.0245506,274.1,4.3,52.1701,4.42725,-3.8,1.24946,381.1230000000001,4.326569999999999,137.04,38.7631,203.008,0.959041,0.110163,247.982,3.88435,3.5804400000000003,2.9123687744140603,22.004056930542003,23.018762588501,22.0,-466621.0,1938.16,pp-ro,1,1,-1,-1
1570538162.9,2019-10-08,14:36:02.900,15.0,12.0,20.909999847412102,-6.3,27.5,17.5,-17.9,-27.9,121.4,-7.12897,27.3527,15.9341,2.92777,3.02874,12.0088,-21.0499,-24.6691,125.1,-0.30185,-0.192664,-0.138274,274.1,4.3,52.1701,4.42725,-3.8,1.30209,408.416,4.32676,139.786,37.6231,201.008,0.94666,0.1228079999999999,247.709,3.83722,3.55153,5.02086639404297,22.004056930542003,23.018762588501,22.0,-466190.0,3476.39,pp-ro,1,1,-1,-1
1570538163.0,2019-10-08,14:36:03.000,15.0,11.0,21.3600006103516,-5.5,27.5,18.6,-18.1,-29.7,119.1,-6.821960000000001,27.7833,17.7222,4.666980000000001,3.30076,8.74201,-22.7854,-28.4933,122.953,-0.4396529999999999,-0.35003,-0.614911,274.1,4.3,52.1701,4.42725,-3.8,1.31207,413.702,4.32695,142.619,37.2432,198.908,0.933045,0.1300079999999999,247.571,3.78595,3.51481,7.12764739990234,22.004056930542003,23.018762588501,22.0,-466006.0,3753.27,pp-ro,1,1,-1,-1
1570538163.1,2019-10-08,14:36:03.100,15.0,11.0,21.7700004577637,-4.6,27.4,19.5,-17.9,-32.4,116.5,-6.39649,27.8172,18.2452,10.674,-2.34267,14.4215,-22.7014,-29.9762,121.86,-0.0452556,-0.323973,-0.433648,274.1,4.3,52.1701,4.42725,-3.8,1.32093,411.389,4.32714,145.364,36.4832,196.808,0.919965,0.139353,247.377,3.72364,3.47572,9.23273468017578,22.004571914672898,23.0211448669434,22.0,-465233.0,6337.48,pp-ro,1,1,-1,-1
1570538163.2,2019-10-08,14:36:03.200,15.0,9.0,22.3299999237061,-3.2,27.2,20.0,-17.1,-34.7,113.0,-4.95226,27.9397,19.9745,8.99089,-4.52844,5.75174,-22.657,-34.7119,118.136,-0.247738,-0.32444,-0.739938,267.8,5.0,52.1701,4.42725,-3.8,1.2982200000000002,397.30300000000005,4.32733,148.08100000000002,36.1033,194.608,0.90638,0.145919,247.191,3.65573,3.42711,11.3480377197266,22.004571914672898,23.0211448669434,22.0,-464593.0,6460.54,pp-ro,1,1,-1,-1
1570538163.3,2019-10-08,14:36:03.300,15.0,9.0,22.719999313354503,-1.6,26.8,20.2,-15.1,-36.7,108.3,-2.41414,27.5811,20.6826,17.9261,0.587517,7.00183,-20.0512,-39.376,111.9,-0.38311,-0.190994,-0.911667,267.8,5.0,52.1701,4.42725,-3.8,1.28713,392.304,4.32748,150.709,36.1034,192.508,0.893,0.149785,247.136,3.57776,3.3758800000000004,12.9285507202148,22.004571914672898,23.0211448669434,22.0,-464279.0,6337.48,pp-ro,1,1,-1,-1
1570538163.4,2019-10-08,14:36:03.400,15.0,8.0,22.8700008392334,0.2,26.2,20.7,-12.8,-38.3,103.2,-2.41414,27.5811,20.6826,17.9261,0.587517,7.00183,-20.0512,-39.376,111.9,-0.38311,-0.190994,-0.911667,267.8,5.0,52.1701,4.42725,-3.8,1.26774,389.23,4.32765,153.338,35.7234,190.408,0.8798799999999999,0.1559289999999999,247.07,3.49707,3.31466,15.0336380004883,22.004571914672898,23.0211448669434,22.0,-463762.0,4460.85,pp-ro,1,1,-1,-1
1570538163.5,2019-10-08,14:36:03.500,15.0,9.0,22.7900009155273,2.1,25.4,21.0,-8.9,-39.5,96.5,-2.41414,27.5811,20.6826,17.9261,0.587517,7.00183,-20.0512,-39.376,111.9,-0.38311,-0.190994,-0.911667,267.8,5.0,52.1701,4.42725,-3.8,1.27938,391.74300000000005,4.327780000000001,155.937,35.7235,188.308,0.8665639999999999,0.159408,247.088,3.40086,3.25159,17.1285018920898,22.004571914672898,23.0211448669434,22.0,-463090.0,5599.14,pp-ro,1,1,-1,-1
1570538163.6,2019-10-08,14:36:03.600,15.0,10.0,22.6299991607666,4.2,24.6,21.1,-3.9,-40.3,88.2,2.88597,26.4468,22.0878,8.03974,-2.44981,3.71277,-11.1509,-44.3532,95.9104,-0.203026,-0.154171,-1.36475,267.8,5.0,52.1701,4.42725,-3.8,1.2755,392.332,4.32793,158.42,36.1036,186.208,0.8533379999999999,0.160464,247.131,3.2881400000000003,3.18357,19.4175262451172,22.004571914672898,23.0211448669434,22.0,-462858.0,4553.14,pp-ro,1,1,-1,-1
1570538163.7,2019-10-08,14:36:03.700,15.0,11.0,22.440000534057603,6.5,23.9,21.4,1.9,-40.7,79.1,2.88597,26.4468,22.0878,8.03974,-2.44981,3.71277,-11.1509,-44.3532,95.9104,-0.203026,-0.154171,-1.36475,267.8,5.0,52.1701,4.42725,-3.8,1.2921200000000002,404.405,4.32808,160.931,36.4837,184.008,0.8397620000000001,0.161375,247.162,3.16638,3.10935,20.8260269165039,22.004571914672898,23.0211448669434,22.0,-462470.0,3968.62,pp-ro,1,1,-1,-1
1570538163.8,2019-10-08,14:36:03.800,15.0,12.0,22.3899993896484,9.1,22.9,22.0,8.0,-41.3,69.2,8.13523,25.1868,22.943,31.3777,-9.34116,-1.60489,1.34638,-47.1319,75.9916,-0.13669,-0.362209,-1.20046,267.8,5.0,52.1701,4.42725,-3.4,1.32924,437.36,4.3282300000000005,163.356,37.2437,181.808,0.8261950000000001,0.159999,247.237,3.0373900000000003,3.02685,21.6520462036133,22.0050868988037,23.0235271453857,22.0,-462201.0,1999.69,pp-ro,1,1,-1,-1
1570538163.9,2019-10-08,14:36:03.900,15.0,14.0,22.190000534057603,11.7,21.3,22.0,14.7,-41.3,59.1,11.2249,23.9845,23.4359,36.3931,-10.3131,6.20731,8.429269999999999,-48.375,65.306,-0.278956,-0.0661703999999999,-1.29165,267.8,5.0,52.1701,4.42725,-3.4,1.41291,476.395,4.32838,165.575,38.3838,179.608,0.812973,0.156212,247.28,2.90923,2.93926,22.5836715698242,22.0050868988037,23.0235271453857,22.0,-462167.0,830.6410000000001,pp-ro,1,1,-1,-1
1570538164.0,2019-10-08,14:36:04.000,15.0,13.0,22.190000534057603,14.2,19.9,21.8,20.9,-40.4,49.4,14.2482,22.5239,23.3999,22.2518,-9.66286,2.34313,16.3277,-47.9507,53.4451,-0.0216613,-0.158839,-1.00535,267.8,5.0,52.1701,4.42725,-3.4,1.46721,503.8130000000001,4.328530000000001,167.62,39.5239,177.50799999999998,0.800528,0.152293,247.321,2.78438,2.85517,22.939620971679695,22.0050868988037,23.0235271453857,22.0,-461376.0,5537.61,pp-ro,1,1,-1,-1
1570538164.1,2019-10-08,14:36:04.100,15.0,12.0,22.190000534057603,16.3,18.3,21.3,27.5,-39.1,39.6,14.2482,22.5239,23.3999,22.2518,-9.66286,2.34313,16.3277,-47.9507,53.4451,-0.0216613,-0.158839,-1.00535,267.8,5.0,52.1701,4.42725,-3.4,1.4816200000000002,508.461,4.32868,169.606,40.664,175.308,0.787959,0.148394,247.29,2.6566400000000003,2.77678,22.9907150268555,22.0066318511963,23.0306720733643,22.0,-461089.0,5629.9,pp-ro,1,1,-1,-1
1570538164.2,2019-10-08,14:36:04.200,15.0,14.0,22.4599990844727,18.0,16.4,20.4,33.0,-37.0,31.1,18.0471,20.1041,22.6749,23.3752,-8.72959,-1.05131,27.2105,-45.5412,36.9704,-0.1335869999999999,-0.255822,-1.26412,267.8,5.0,52.1701,4.42725,-3.4,1.49325,524.212,4.32883,171.416,42.5641,173.208,0.77564,0.140172,247.379,2.54193,2.70205,22.9907150268555,22.0066318511963,23.0306720733643,22.0,-460399.0,6399.01,pp-ro,1,1,-1,-1
1570538164.3,2019-10-08,14:36:04.300,15.0,13.0,22.690000534057603,19.7,14.6,19.4,37.5,-34.0,23.8,19.1676,19.0106,22.3379,27.7,-17.9222,-13.484000000000002,30.761,-44.5014,31.8247,0.0184449,-0.270083,-1.04301,257.1,6.0,52.1701,4.42725,-3.4,1.53758,534.799,4.32894,172.993,44.0842,171.208,0.764487,0.133942,247.35,2.43067,2.62345,23.0196685791016,22.0066318511963,23.0306720733643,22.0,-459496.0,8983.23,pp-ro,1,1,-1,-1
1570538164.4,2019-10-08,14:36:04.400,15.0,12.0,23.0799999237061,20.9,12.6,17.9,41.6,-30.8,17.4,22.0951,15.7777,20.3788,17.8571,-29.8096,-22.5297,38.5429,-39.4684,19.4343,0.128643,-0.1249069999999999,-0.865203,257.1,6.0,52.1701,4.42725,-3.4,1.52705,531.698,4.32903,174.395,46.3643,169.208,0.753249,0.123554,247.375,2.32877,2.54659,23.0213775634766,22.007146835327102,22.9415645599365,22.0,-458986.0,9506.23,pp-ro,1,1,-1,-1
1570538164.5,2019-10-08,14:36:04.500,15.0,12.0,23.2999992370605,22.0,10.5,16.3,44.7,-26.8,11.6,23.6188,13.7204,18.6808,8.5768,-23.6876,-22.9672,42.2925,-35.5711,12.6305,0.0907771999999999,-0.0393962,-0.745437,257.1,6.0,52.1701,4.42725,-3.4,1.51708,529.734,4.32909,175.709,48.2644,167.408,0.743065,0.115227,247.444,2.22158,2.46162,23.029884338378896,22.007146835327102,21.6972217559814,22.0,-458196.0,7875.71,pp-ro,1,1,-1,-1
1570538164.6,2019-10-08,14:36:04.600,15.0,13.0,23.5200004577637,22.8,8.4,15.0,47.0,-22.6,6.2,24.285,12.5046,17.8582,3.908830000000001,-27.3017,-19.606,43.5616,-33.4997,9.47696,-0.31425,-0.0314240999999999,-1.13001,257.1,6.0,52.1701,4.42725,-3.4,1.52761,538.706,4.32917,176.731,50.5444,165.708,0.733633,0.1046619999999999,247.483,2.11601,2.38432,22.9958267211914,22.0066318511963,20.5701999664307,22.0,-457509.0,5876.02,pp-ro,1,1,-1,-1
1570538164.7,2019-10-08,14:36:04.700,15.0,13.0,23.5599994659424,23.4,6.5,13.2,49.3,-18.1,1.0,26.1328,9.17143,15.3049,10.5155,-8.74813,-14.3847,47.3342,-27.1655,0.8858889999999999,0.373307,-0.172881,-1.08333,257.1,6.0,52.1701,4.42725,-3.4,1.54755,544.445,4.32926,177.637,52.8245,164.108,0.724755,0.0940877,247.541,2.00726,2.30134,22.810188293457,22.007146835327102,19.3193187713623,22.0,-456798.0,8214.12,pp-ro,1,1,-1,-1
1570538164.8,2019-10-08,14:36:04.800,15.0,13.0,23.6299991607666,23.9,4.8,11.7,51.1,-14.3,-3.5,26.746,6.844689999999999,13.6947,10.8462,-16.3296,-12.6998,48.7013,-22.394,-4.26888,-0.152929,-0.2399619999999999,-1.36769,257.1,6.0,52.1701,4.42726,-3.1,1.56639,562.525,4.32932,178.27900000000002,55.1046,162.808,0.717407,0.0832919,247.642,1.91427,2.2264,22.2226028442383,22.007146835327102,18.1660099029541,22.0,-455723.0,6091.37,pp-ro,1,1,-1,-1
1570538164.9,2019-10-08,14:36:04.900,15.0,13.0,23.5900001525879,24.4,2.8,10.2,52.4,-10.4,-7.9,27.0765,5.92414,12.7654,10.3204,-13.672,-15.5321,49.6503,-20.2618,-6.74817,0.193225,-0.14499,-0.8198700000000001,257.1,6.0,52.1701,4.42726,-3.1,1.58024,570.076,4.3294,178.834,57.7647,161.50799999999998,0.709924,0.070602,247.797,1.82167,2.14174,21.2824630737305,22.007146835327102,16.8392486572266,22.0,-455392.0,5968.31,pp-ro,1,1,-1,-1
1570538165.0,2019-10-08,14:36:05.000,15.0,13.0,23.5900001525879,24.6,1.1,8.7,54.0,-7.0,-12.2,27.6341,3.78075,11.0944,1.69567,-25.8426,-20.7022,50.5349,-15.8871,-11.1194,-0.0295031,0.0443596999999999,-0.7225229999999999,257.1,6.0,52.1701,4.42726,-3.1,1.62014,585.5509999999999,4.32948,179.18400000000003,60.0447,160.408,0.703809,0.0595640999999999,247.877,1.73522,2.06454,20.023849487304695,22.007661819458,15.610748291015598,22.0,-454337.0,6491.31,pp-ro,1,1,-1,-1
1570538165.1,2019-10-08,14:36:05.100,15.0,13.0,23.6299991607666,24.4,-0.2,7.2,55.2,-3.7,-16.0,27.9771,1.78331,9.34252,-5.69746,-17.2979,-19.3801,51.5864,-11.73,-16.1936,-0.0580363,-0.181562,-0.848208,257.1,6.0,52.1701,4.42726,-3.1,1.63842,588.363,4.32955,179.36,62.3248,159.50799999999998,0.698688,0.0484332,247.986,1.6557099999999998,1.99873,18.6528167724609,22.007661819458,14.5721397399902,22.0,-454079.0,5414.55,pp-ro,1,1,-1,-1
1570538165.2,2019-10-08,14:36:05.200,15.0,13.0,23.7000007629395,24.0,-1.6,5.5,56.1,-0.3,-19.5,27.4923,-0.8915850000000001,6.50625,2.14993,-13.0815,-13.9718,52.7511,-5.68883,-21.8392,0.0352691,-0.12984,-0.968206,253.2,6.2,52.1701,4.42726,-3.1,1.70436,589.8580000000001,4.32963,179.389,64.9848,158.708,0.6938439999999999,0.0352104,248.176,1.57943,1.92301,17.324363708496097,22.007661819458,13.338583946228,22.0,-453673.0,3814.8,pp-ro,1,1,-1,-1
1570538165.3,2019-10-08,14:36:05.300,15.0,12.0,23.7299995422363,23.6,-2.1,4.9,56.5,1.7,-22.3,26.7127,-2.15715,4.82695,-16.045,-11.5228,-18.2206,53.356,-2.2406900000000003,-25.3928,-0.203401,-0.1183849999999999,-0.460237,253.2,6.2,52.1701,4.42726,-3.1,1.77029,587.8,4.32967,179.301,67.6449,158.108,0.689824,0.0219618,248.441,1.52981,1.90133,15.7472534179688,22.007146835327102,13.1595497131348,22.0,-453206.0,4214.73,pp-ro,1,1,-1,-1
1570538165.4,2019-10-08,14:36:05.400,15.0,12.0,23.8099994659424,23.2,-3.3,3.4,56.8,3.1,-23.7,25.9465,-3.47636,3.11723,-4.80206,-14.2561,-6.85485,53.2482,0.576503,-27.6655,0.252691,-0.121645,-0.40811,253.2,6.2,52.1701,4.42726,-3.1,1.82736,584.376,4.32971,179.09599999999998,69.9249,157.808,0.687292,0.0104698999999999,248.734,1.50271,1.82927,15.1307144165039,22.007661819458,11.8993635177612,22.0,-452687.0,5968.31,pp-ro,1,1,-1,-1
1570538165.5,2019-10-08,14:36:05.500,15.0,12.0,23.850000381469695,22.6,-4.2,2.2,57.3,5.9,-26.3,25.7176,-3.99513,2.40059,-14.5874,-9.92798,-24.3394,53.5636,2.43633,-29.0173,-0.0978921,-0.0910043,-0.652889,253.2,6.2,52.1701,4.42726,-3.1,1.8667,574.188,4.32975,178.95,71.445,157.408,0.6849729999999999,0.00278366,248.807,1.44106,1.7694,14.1701431274414,22.007661819458,10.868236541748,22.0,-451941.0,8706.35,pp-ro,1,1,-1,-1
1570538165.6,2019-10-08,14:36:05.600,15.0,13.0,23.8099994659424,22.2,-5.1,1.2,57.0,8.1,-28.8,25.1887,-4.51843,1.72081,-8.00334,-8.884089999999999,-15.1905,53.4237,3.9055,-30.6353,0.00454297,-0.115479,-0.546496,253.2,6.2,52.1701,4.42726,-3.1,1.8650400000000005,576.225,4.32979,178.57,73.345,157.108,0.683121,-0.00712769,248.897,1.39011,1.7155900000000002,12.9779434204102,22.007661819458,9.94837665557861,22.0,-450854.0,11382.9,pp-ro,1,1,-1,-1
1570538165.7,2019-10-08,14:36:05.700,15.0,13.0,23.7700004577637,21.4,-6.6,-0.3,57.2,10.5,-32.8,24.5135,-5.46529,0.424196,-5.22675,-8.71865,-9.28913,53.2101,6.6574800000000005,-32.9375,-0.0718713,-0.000230849,-0.777396,253.2,6.2,52.1701,4.42726,-3.1,1.86393,579.2919999999999,4.32983,178.132,76.005,156.908,0.680921,-0.0207338,249.255,1.32241,1.62607,11.9867172241211,22.007661819458,8.36837577819824,22.0,-449805.0,9690.81,pp-ro,1,1,-1,-1
1570538165.8,2019-10-08,14:36:05.800,15.0,13.0,23.7700004577637,21.1,-7.0,-0.9,56.6,12.3,-34.2,23.8148,-6.83012,-0.681597,-8.024939999999999,-4.326569999999999,-12.3129,52.74,9.23634,-35.7275,-0.192983,-0.128752,-0.776625,253.2,6.2,52.1701,4.42726,-3.0,1.88166,577.855,4.32987,177.548,78.2851,156.808,0.679672,-0.0327648,249.481,1.29053,1.59902,11.1964569091797,22.007661819458,7.98570966720581,22.0,-448893.0,9506.23,pp-ro,1,1,-1,-1
1570538165.9,2019-10-08,14:36:05.900,15.0,12.0,23.8099994659424,20.4,-7.6,-1.7,56.4,14.3,-37.0,22.7913,-8.0913,-2.36185,-7.97956,-7.366969999999999,-12.8551,52.1745,12.6125,-39.8824,0.221475,-0.1758,-0.983287,253.2,6.2,52.1701,4.42726,-3.0,1.88111,570.09,4.32992,176.847,80.1851,156.808,0.679331,-0.0432163,249.586,1.23969,1.55336,10.1541366577148,22.007146835327102,7.1729030609130895,22.0,-447314.0,11905.9,pp-ro,1,1,-1,-1
1570538166.0,2019-10-08,14:36:06.000,15.0,12.0,23.8099994659424,19.6,-8.3,-2.5,55.8,16.1,-39.7,21.987,-8.70808,-3.33567,-2.78073,1.10417,-4.43826,51.5808,14.5936,-42.3886,0.113749,0.0314898,-0.5801390000000001,253.2,6.2,52.1701,4.42726,-3.0,1.86837,569.377,4.32996,176.11700000000002,82.4651,156.908,0.6789109999999999,-0.0554659,249.876,1.19391,1.50289,8.92617034912109,22.007146835327102,6.29479169845581,22.0,-446620.0,13136.4,pp-ro,1,1,-1,-1
1570538166.1,2019-10-08,14:36:06.100,15.0,12.0,23.8400001525879,18.8,-8.6,-3.2,55.4,17.6,-42.1,21.987,-8.70808,-3.33567,-2.78073,1.10417,-4.43826,51.5808,14.5936,-42.3886,0.113749,0.0314898,-0.5801390000000001,253.2,6.2,52.1701,4.42726,-3.0,1.83789,565.758,4.33,175.299,84.3652,157.108,0.679343,-0.0661558,250.06,1.15447,1.4630299999999998,7.98773956298828,22.007146835327102,5.56785011291504,22.0,-445338.0,13382.6,pp-ro,1,1,-1,-1
1570538166.2,2019-10-08,14:36:06.200,15.0,12.0,23.8799991607666,17.9,-8.9,-4.0,54.8,19.5,-43.9,20.682,-9.19713,-3.95777,-22.1384,4.15608,-9.87465,51.018,16.5599,-44.9151,-0.022157,-0.231156,-0.5069600000000001,253.2,6.2,52.1701,4.42726,-3.0,1.78525,555.521,4.33004,174.393,86.6452,157.408,0.6798029999999999,-0.0787638999999999,250.395,1.11785,1.41624,7.091888427734379,22.007146835327102,4.729663848876951,22.0,-443832.0,16212.9,pp-ro,1,1,-1,-1
1570538166.3,2019-10-08,14:36:06.300,15.0,11.0,23.8799991607666,17.1,-9.4,-4.4,54.2,20.7,-45.8,19.728,-9.46802,-4.68017,-4.77689,-3.46454,-4.76571,50.4157,18.58,-47.0523,0.0422818,-0.0760603,-0.515709,259.3,5.9,52.1701,4.42726,-3.0,1.6860700000000002,548.318,4.33009,173.488,88.1652,157.709,0.681052,-0.0878793,250.486,1.08711,1.37753,6.15174865722656,22.007146835327102,3.96553182601929,22.0,-441928.0,19350.9,pp-ro,1,1,-1,-1
1570538166.4,2019-10-08,14:36:06.400,15.0,12.0,23.8799991607666,16.3,-9.6,-4.8,53.8,22.0,-47.9,18.3873,-10.1778,-5.44607,2.25561,-5.4789900000000005,-6.57078,49.3958,20.8389,-49.6614,0.0806963999999999,-0.0637896,-0.5352560000000001,259.3,5.9,52.1701,4.42726,-3.0,1.54866,543.5509999999999,4.33016,172.524,90.4452,158.109,0.681816,-0.100624,250.885,1.0552700000000002,1.34624,5.702117919921879,22.007146835327102,3.43750715255737,22.0,-440039.0,18889.4,pp-ro,1,1,-1,-1
1570538166.5,2019-10-08,14:36:06.500,15.0,12.0,23.8099994659424,15.7,-10.1,-5.4,53.2,23.6,-49.5,17.4757,-10.4762,-5.9532,-3.6628,-6.75058,-5.61607,48.9855,22.5201,-51.4291,0.0117349,0.0179259999999999,-0.4256939999999999,259.3,5.9,52.1701,4.42726,-3.0,1.52483,541.153,4.33022,171.47299999999998,91.9652,158.609,0.683906,-0.1100859999999999,251.032,1.02326,1.30227,4.707489013671879,22.0066318511963,2.5166037082672097,22.0,-439537.0,707.5830000000001,pp-ro,1,1,-1,-1
1570538166.6,2019-10-08,14:36:06.600,15.0,12.0,23.8099994659424,15.4,-10.5,-5.9,52.8,24.2,-51.4,16.7675,-11.0728,-6.35485,-7.33069,2.46041,-4.56757,48.0121,23.8946,-53.4587,0.112066,-0.0456520999999999,-0.309455,259.3,5.9,52.1701,4.42726,-3.0,1.56085,542.952,4.33033,170.392,93.8652,159.209,0.685862,-0.121387,251.379,1.00178,1.27352,3.99557495117188,22.0066318511963,1.9389613866806,22.0,-438692.0,13228.7,pp-ro,1,1,-1,-1
1570538166.7,2019-10-08,14:36:06.700,15.0,12.0,23.7700004577637,14.8,-10.8,-6.2,52.4,24.9,-53.1,16.2485,-11.4677,-6.77245,-1.76417,-1.2925,-2.16595,47.5042,24.6399,-55.2592,-0.00759289,-0.100481,-0.270602,259.3,5.9,52.1701,4.42726,-3.0,1.55365,548.739,4.33036,169.282,95.3852,159.709,0.68798,-0.131064,251.519,0.98024,1.24481,3.24278259277344,22.007146835327102,1.3276770114898702,22.0,-437566.0,5106.91,pp-ro,1,1,-1,-1
1570538166.8,2019-10-08,14:36:06.800,15.0,12.0,23.7700004577637,14.3,-11.0,-6.4,51.9,25.5,-55.1,15.4976,-11.7876,-6.93369,-10.6094,-4.51945,-3.76169,46.666,24.9363,-57.4562,0.0405305,-0.271796,-0.0511536,259.3,5.9,52.1701,4.42726,-3.1,1.55642,546.5409999999999,4.330430000000001,168.114,96.9053,160.309,0.690483,-0.140946,251.698,0.956666,1.2243700000000002,2.32308197021484,22.0066318511963,0.850510716438293,22.0,-436676.0,9536.99,pp-ro,1,1,-1,-1
1570538166.9,2019-10-08,14:36:06.900,15.0,12.0,23.8099994659424,13.8,-11.0,-6.3,51.2,25.8,-57.0,14.6326,-11.9076,-6.9751,0.468539,0.5467989999999999,-2.33571,45.859,24.9516,-60.6062,0.188357,-0.111898,-0.15707,259.3,5.9,52.1701,4.42726,-3.1,1.54811,540.231,4.3305,166.975,98.4253,160.909,0.692873,-0.150743,251.912,0.937761,1.2185,1.8087387084960904,22.007146835327102,0.673200964927673,22.0,-436188.0,9383.17,pp-ro,1,1,-1,-1
1570538167.0,2019-10-08,14:36:07.000,15.0,12.0,23.850000381469695,13.4,-10.9,-6.3,51.0,25.6,-58.3,14.0827,-11.8802,-6.87788,-1.43973,-4.65695,0.636523,45.9308,24.9223,-61.7663,0.112097,-0.14801,-0.0575354,259.3,5.9,52.1701,4.42726,-3.1,1.5204,528.262,4.33056,165.83599999999998,99.9453,161.509,0.6952109999999999,-0.1605619999999999,252.142,0.931605,1.21338,1.10363006591797,22.0066318511963,0.515637040138245,22.0,-435290.0,8460.23,pp-ro,1,1,-1,-1
1570538167.1,2019-10-08,14:36:07.100,15.0,12.0,23.8199996948242,13.1,-10.8,-6.2,50.8,25.3,-59.5,14.0827,-11.8802,-6.87788,-1.43973,-4.65695,0.636523,45.9308,24.9223,-61.7663,0.112097,-0.14801,-0.0575354,259.3,5.9,52.1701,4.42726,-3.1,1.51154,523.9730000000001,4.33063,164.609,101.465,162.109,0.697688,-0.1706369999999999,252.33,0.927845,1.21544,0.684661865234375,22.007146835327102,0.4917611479759221,22.0,-434430.0,8552.53,pp-ro,1,1,-1,-1
1570538167.2,2019-10-08,14:36:07.200,15.0,12.0,23.7399997711182,12.8,-10.8,-6.1,50.5,24.8,-59.9,13.5575,-11.6734,-6.57879,-8.8256,8.84845,-3.46952,45.6998,24.4006,-62.6142,-0.0915151,-0.116051,0.1556789999999999,264.1,7.2,52.1701,4.42726,-3.1,1.50489,518.231,4.3307,163.441,102.605,162.609,0.700199,-0.1789099999999999,252.354,0.934483,1.21442,0.531379699707031,22.0066318511963,0.364803999662399,22.0,-433689.0,7106.6,pp-ro,1,1,-1,-1
1570538167.3,2019-10-08,14:36:07.300,15.0,13.0,23.6299991607666,12.5,-10.8,-5.9,50.9,24.9,-59.7,13.2863,-11.6331,-6.47253,1.50389,-3.72163,-4.96178,46.2882,24.334,-62.7863,0.0231159,0.061833,-0.0692223999999999,264.1,7.2,52.1701,4.42726,-3.1,1.47386,509.858,4.33078,162.30100000000002,104.125,163.209,0.702391,-0.188806,252.628,0.942086,1.21831,0.44622802734375,22.0066318511963,-35.0,22.0,-432370.0,7906.47,pp-ro,1,1,-1,-1
1570538167.4,2019-10-08,14:36:07.400,15.0,13.0,23.440000534057603,12.3,-10.8,-5.7,50.6,24.4,-60.8,12.7719,-11.6541,-6.10018,1.54871,4.23862,-2.02613,46.3493,23.9263,-63.5353,0.169844,-0.36227,0.2530139999999999,264.1,7.2,52.1701,4.42726,-3.1,1.49104,505.444,4.33086,161.162,105.265,163.709,0.704762,-0.197064,252.695,0.94055,1.22475,0.398536682128906,22.007146835327102,-35.0,22.0,-431801.0,7045.07,pp-ro,1,1,-1,-1
1570538167.5,2019-10-08,14:36:07.500,15.0,13.0,23.1399993896484,12.1,-10.6,-5.1,50.3,23.5,-61.3,12.5202,-11.4991,-5.65343,-1.7567,2.10219,9.56801,46.8056,23.5211,-63.9674,0.0163837,-0.2160659999999999,-0.0915623,264.1,7.2,52.1701,4.42726,-3.1,1.47885,502.374,4.33094,160.023,106.405,164.30900000000003,0.7074,-0.205351,252.838,0.950696,1.25224,0.146469116210938,22.0066318511963,-35.0,22.0,-431289.0,9875.4,pp-ro,1,1,-1,-1
1570538167.6,2019-10-08,14:36:07.600,15.0,14.0,22.7999992370605,11.9,-10.3,-4.8,51.3,23.4,-60.9,12.1577,-11.3867,-5.2129900000000005,-2.53641,-5.36279,3.80071,47.5958,23.2731,-63.3941,0.0891904,-0.0583841,-0.177764,264.1,7.2,52.1701,4.42726,-3.1,1.45613,486.601,4.33101,158.855,107.925,164.709,0.708914,-0.215389,253.006,0.963267,1.27074,-0.445465087890625,22.0061168670654,-35.0,22.0,-430539.0,6891.25,pp-ro,1,1,-1,-1
1570538167.7,2019-10-08,14:36:07.700,15.0,14.0,22.4500007629395,12.1,-10.2,-4.4,51.4,23.7,-60.5,12.1577,-11.3867,-5.2129900000000005,-2.53641,-5.36279,3.80071,47.5958,23.2731,-63.3941,0.0891904,-0.0583841,-0.177764,264.1,7.2,52.1701,4.42726,-3.1,1.37302,442.124,4.3310900000000006,157.774,108.685,165.209,0.7116060000000001,-0.2219179999999999,252.981,0.96863,1.3022200000000002,-1.40637969970703,22.0061168670654,-35.0,22.0,-429035.0,10183.0,pp-ro,1,1,-1,-1
1570538167.8,2019-10-08,14:36:07.800,15.0,15.0,22.0499992370605,12.2,-10.2,-4.1,51.3,21.7,-61.3,12.1287,-11.2608,-4.97809,-2.95582,11.3563,-0.275378,47.7228,23.3754,-63.4088,0.0728531,-0.0621605,0.0871156,264.1,7.2,52.1701,4.42726,-3.1,1.35584,431.075,4.331169999999999,156.664,109.825,165.609,0.713476,-0.230194,253.045,0.988435,1.32453,-2.7171859741210898,22.0061168670654,-35.0,22.0,-428689.0,6829.72,pp-ro,1,1,-1,-1
1570538167.9,2019-10-08,14:36:07.900,15.0,14.0,21.850000381469695,12.3,-10.1,-3.6,51.5,20.6,-60.8,12.1433,-11.2846,-4.74895,-3.51508,0.992509,4.73925,48.0381,23.5208,-63.1486,-0.154728,0.148941,0.0973015,264.1,7.2,52.1701,4.42726,-3.1,1.33312,426.158,4.33125,155.555,111.345,166.009,0.7147399999999999,-0.24011,253.287,1.01418,1.35931,-4.38983154296875,22.0061168670654,-35.0,22.0,-428017.0,6368.25,pp-ro,1,1,-1,-1
1570538168.0,2019-10-08,14:36:08.000,15.0,15.0,21.649999618530305,12.6,-10.0,-2.9,51.9,19.0,-60.2,12.3178,-10.9458,-3.86722,5.63008,0.90858,5.85818,48.5928,21.5965,-62.4541,0.231861,-0.0299440999999999,0.239285,264.1,7.2,52.1701,4.42726,-3.1,1.34365,417.982,4.33133,154.503,112.485,166.31,0.716114,-0.248241,253.344,1.04604,1.4088200000000002,-6.40040588378906,22.0061168670654,-35.0,22.0,-427298.0,6952.77,pp-ro,1,1,-1,-1
1570538168.1,2019-10-08,14:36:08.100,15.0,14.0,21.530000686645497,13.1,-9.6,-1.9,52.8,16.1,-59.8,12.5625,-10.5708,-2.59245,0.594003,6.418080000000001,9.55346,49.7912,19.829,-61.0949,0.314689,-0.118869,0.339717,264.1,7.2,52.1701,4.42726,-3.1,1.32149,410.712,4.33141,153.393,113.625,166.61,0.717577,-0.25653,253.375,1.09166,1.48623,-8.50998687744141,22.0061168670654,-35.0,22.0,-426856.0,8367.94,pp-ro,1,1,-1,-1
1570538168.2,2019-10-08,14:36:08.200,15.0,14.0,21.3199996948242,13.7,-9.0,-1.0,53.5,13.7,-58.6,13.1536,-10.1243,-1.64278,5.42403,7.06663,12.4092,50.9874,17.891,-59.9201,-0.115619,-0.07823,0.380969,264.1,7.2,52.1701,4.42726,-3.1,1.29711,397.953,4.3314900000000005,152.429,115.145,166.71,0.717515,-0.266045,253.545,1.14223,1.568,-10.6195602416992,22.0061168670654,-35.0,22.0,-426310.0,4337.79,pp-ro,1,1,-1,-1
1570538168.3,2019-10-08,14:36:08.300,15.0,15.0,21.2000007629395,14.4,-8.4,0.0,54.8,10.8,-56.2,13.1536,-10.1243,-1.64278,5.42403,7.06663,12.4092,50.9874,17.891,-59.9201,-0.115619,-0.07823,0.380969,261.6,6.6,52.1701,4.42726,-3.1,1.2755,385.471,4.33164,151.495,116.665,166.71,0.717052,-0.275486,253.68,1.21389,1.65528,-12.7223052978516,22.0061168670654,-35.0,22.0,-425665.0,6891.25,pp-ro,1,1,-1,-1
1570538168.4,2019-10-08,14:36:08.400,15.0,15.0,21.159999847412102,15.5,-7.9,1.2,56.8,8.2,-53.6,13.4681,-9.28991,-0.547383,2.0358,8.83512,8.92726,52.7117,15.6072,-57.7872,0.327784,0.234442,0.585515,261.6,6.6,52.1701,4.42726,-3.1,1.25389,372.666,4.33178,150.618,118.185,166.71,0.716428,-0.284713,253.862,1.28427,1.75083,-14.8284683227539,22.0061168670654,-35.0,22.0,-425155.0,4583.91,pp-ro,1,1,-1,-1
1570538168.5,2019-10-08,14:36:08.500,15.0,14.0,21.1200008392334,16.5,-7.7,2.6,58.5,4.8,-50.8,15.0055,-8.16411,1.91768,4.47776,6.86218,9.08857,56.1187,10.9008,-51.2941,0.20706,0.22303,0.724562,261.6,6.6,52.1701,4.42726,-3.1,1.2356,368.314,4.331919999999999,149.77100000000002,119.705,166.51,0.7151109999999999,-0.293821,253.942,1.36743,1.83429,-16.9278030395508,22.0056018829346,-35.0,22.0,-424585.0,5568.37,pp-ro,1,1,-1,-1
1570538168.6,2019-10-08,14:36:08.600,15.0,14.0,21.1200008392334,17.2,-7.2,4.4,60.1,0.0,-48.5,15.0055,-8.16411,1.91768,4.47776,6.86218,9.08857,56.1187,10.9008,-51.2941,0.20706,0.22303,0.724562,261.6,6.6,52.1701,4.42726,-3.1,1.25666,375.075,4.33207,148.983,120.845,166.21,0.713958,-0.301174,253.821,1.46219,1.93196,-19.0510330200195,22.0056018829346,-35.0,22.0,-424094.0,3568.68,pp-ro,1,1,-1,-1
1570538168.7,2019-10-08,14:36:08.700,15.0,14.0,21.159999847412102,18.0,-6.1,6.3,61.1,-5.1,-45.9,16.0933,-7.2464,4.39006,9.29455,9.02381,15.3406,58.1707,4.790080000000001,-46.0846,-0.0269388,-0.130638,0.906447,261.6,6.6,52.1701,4.42726,-3.1,1.255,372.825,4.33225,148.194,123.125,165.61,0.710016,-0.313127,254.063,1.5683,2.04991,-21.1776733398438,22.0056018829346,-35.0,22.0,-423803.0,5260.73,pp-ro,1,1,-1,-1
1570538168.8,2019-10-08,14:36:08.800,15.0,13.0,21.2399997711182,18.6,-4.7,8.2,63.0,-10.8,-43.4,16.7001,-6.18682,6.20843,7.855289999999999,15.7851,18.0097,59.8235,-0.481997,-42.5155,0.139465,-0.0507265,1.03212,261.6,6.6,52.1701,4.42726,-3.1,1.23173,360.092,4.33236,147.61,124.645,165.01,0.70687,-0.321216,254.074,1.6791,2.16683,-23.2872467041016,22.0056018829346,-35.0,22.0,-423309.0,4645.44,pp-ro,1,1,-1,-1
1570538168.9,2019-10-08,14:36:08.900,15.0,13.0,21.3199996948242,18.7,-3.2,10.3,64.6,-16.7,-40.2,17.3088,-3.95189,8.98981,0.0633268,14.7337,16.9472,61.7384,-8.70078,-36.6116,0.257108,0.104781,1.11459,261.6,6.6,52.1701,4.42726,-3.1,1.21178,349.112,4.3325,147.172,126.545,164.11,0.7018810000000001,-0.330295,254.176,1.80126,2.28747,-25.4053573608398,22.0056018829346,-35.0,22.0,-422745.0,5937.55,pp-ro,1,1,-1,-1
1570538169.0,2019-10-08,14:36:09.000,15.0,13.0,21.4899997711182,18.7,-1.2,12.2,65.6,-22.7,-36.4,17.2543,-2.23628,10.8983,-7.6026,14.9358,16.1056,62.8663,-14.2703,-32.2844,0.257504,0.427006,1.28341,261.6,6.6,52.1701,4.42726,-3.1,1.19183,332.327,4.3326400000000005,146.909,128.065,163.11,0.696854,-0.337161,254.141,1.92904,2.41247,-27.5166397094727,22.0056018829346,-35.0,22.0,-422148.0,4276.26,pp-ro,1,1,-1,-1
1570538169.1,2019-10-08,14:36:09.100,15.0,14.0,21.530000686645497,18.6,0.8,14.0,66.5,-29.3,-32.0,16.9146,-0.147085,12.4976,-13.0715,19.739,17.4739,62.7625,-20.495,-26.5946,0.473058,0.357496,1.39725,261.6,6.6,52.1701,4.42726,-3.1,1.1536,322.775,4.33279,146.792,130.345,161.91,0.68966,-0.346451,254.465,2.07113,2.5291200000000003,-28.5714263916016,22.0050868988037,-35.0,22.0,-421565.0,5383.79,pp-ro,1,1,-1,-1
1570538169.2,2019-10-08,14:36:09.200,15.0,13.0,21.530000686645497,18.2,3.1,15.9,65.7,-35.2,-26.1,16.9146,-0.147085,12.4976,-13.0715,19.739,17.4739,62.7625,-20.495,-26.5946,0.473058,0.357496,1.39725,257.2,6.4,52.1701,4.42726,-3.1,1.14972,322.478,4.33293,146.967,131.865,160.61,0.682863,-0.3517619999999999,254.526,2.21256,2.65052,-30.5205688476562,22.0056018829346,-35.0,22.0,-421437.0,2461.16,pp-ro,1,1,-1,-1
1570538169.3,2019-10-08,14:36:09.300,15.0,13.0,21.530000686645497,17.5,5.2,18.0,63.9,-41.6,-19.4,16.9146,-0.147085,12.4976,-13.0715,19.739,17.4739,62.7625,-20.495,-26.5946,0.473058,0.357496,1.39725,257.2,6.4,52.1701,4.42726,-3.1,1.17244,330.701,4.33301,147.28799999999998,133.765,159.11,0.674551,-0.3579449999999999,254.761,2.3639,2.76345,-32.107864379882805,22.0050868988037,-35.0,22.0,-421194.0,2768.8,pp-ro,1,1,-1,-1
1570538169.4,2019-10-08,14:36:09.400,15.0,13.0,21.649999618530305,16.2,7.4,19.9,61.0,-48.6,-11.7,16.0224,3.94201,16.0971,-4.06249,18.3546,21.0757,59.0982,-32.329,-13.6051,0.2086449999999999,0.543225,1.43098,257.2,6.4,52.1701,4.42726,-3.1,1.18186,342.2,4.333080000000001,147.843,135.286,157.51,0.666135,-0.3617599999999999,254.89,2.52323,2.87803,-33.360641479492195,22.0056018829346,-35.0,22.0,-420896.0,2768.8,pp-ro,1,1,-1,-1
1570538169.5,2019-10-08,14:36:09.500,15.0,14.0,21.8099994659424,14.6,9.9,21.3,56.2,-55.1,-2.1,14.2313,7.060219999999999,18.628,-9.54845,22.8872,15.6185,52.0774,-41.6412,0.438252,-0.0178364,0.3078579999999999,1.44698,257.2,6.4,52.1701,4.42726,-3.1,1.21344,348.97,4.33315,148.632,137.186,155.61,0.655762,-0.36613,255.197,2.68177,2.9959,-34.2515869140625,22.0056018829346,-35.0,22.0,-420469.0,4522.38,pp-ro,1,1,-1,-1
1570538169.6,2019-10-08,14:36:09.600,15.0,13.0,22.0499992370605,12.5,12.1,22.4,48.1,-61.4,10.0,12.6784,9.31707,20.0187,-15.9098,23.8754,8.88749,45.8871,-47.5869,10.3834,0.0819333,0.0910642,1.5194299999999998,257.2,6.4,52.1701,4.42726,-3.1,1.19959,352.25699999999995,4.33322,149.71200000000002,138.326,153.71,0.64612,-0.366715,255.293,2.8395900000000003,3.10739,-34.784088134765604,22.0056018829346,-35.0,22.0,-420030.0,3599.45,pp-ro,1,1,-1,-1
1570538169.7,2019-10-08,14:36:09.700,15.0,14.0,22.3199996948242,10.1,14.1,22.8,34.1,-66.2,28.3,10.66,11.2342,20.7017,-20.2542,15.91,9.75676,36.7278,-52.4896,23.6785,-0.102077,0.37634,1.53989,257.2,6.4,52.1701,4.42726,-3.1,1.22452,355.897,4.33329,150.88,139.846,151.71,0.635421,-0.3683599999999999,255.612,3.00686,3.21768,-34.9530639648438,22.0056018829346,-23.0259094238281,22.0,-419792.0,2768.8,pp-ro,1,1,-1,-1
1570538169.8,2019-10-08,14:36:09.800,15.0,15.0,22.7099990844727,7.6,16.3,23.1,15.1,-67.1,52.5,10.66,11.2342,20.7017,-20.2542,15.91,9.75676,36.7278,-52.4896,23.6785,-0.102077,0.37634,1.53989,257.2,6.4,52.1701,4.42726,-3.0,1.22231,351.405,4.33336,152.37,140.606,149.61,0.625074,-0.366237,255.675,3.1778,3.32952,-34.9530639648438,22.0050868988037,-23.0235271453857,22.0,-419535.0,5168.43,pp-ro,1,1,-1,-1
1570538169.9,2019-10-08,14:36:09.900,15.0,13.0,23.1299991607666,5.0,18.2,22.8,-2.0,-65.2,73.5,9.52792,12.1213,20.9351,-18.3256,21.0319,3.2822400000000003,31.2102,-54.4912,31.3226,-0.0229652999999999,0.109165,1.4103,257.2,6.4,52.1701,4.42726,-3.0,1.18629,336.51300000000003,4.33343,154.005,140.986,147.61,0.615387,-0.362333,255.702,3.33086,3.4365,-34.9513549804688,22.0050868988037,-23.0235271453857,22.0,-418965.0,4983.85,pp-ro,1,1,-1,-1
1570538170.0,2019-10-08,14:36:10.000,15.0,15.0,23.510000228881804,2.3,19.3,22.3,-9.3,-64.0,82.9,3.75402,16.4695,21.1936,-24.377,17.7707,-0.969543,-1.30526,-54.7054,72.9205,-0.0690283,0.2136429999999999,1.40023,257.2,6.4,52.1701,4.42726,-3.0,1.17687,332.902,4.3335,155.816,141.366,146.61,0.608614,-0.357925,256.432,3.4030400000000003,3.53227,-34.6458435058594,22.0050868988037,-23.0235271453857,22.0,-418577.0,3968.62,pp-ro,1,1,-1,-1
1570538170.1,2019-10-08,14:36:10.100,15.0,16.0,23.690000534057603,0.0,20.2,21.2,-26.0,-57.2,105.9,3.75402,16.4695,21.1936,-24.377,17.7707,-0.969543,-1.30526,-54.7054,72.9205,-0.0690283,0.2136429999999999,1.40023,257.2,6.4,52.1701,4.42726,-3.0,1.18352,347.31300000000005,4.33357,157.656,141.746,143.71,0.595707,-0.353492,256.125,3.63278,3.62104,-33.940948486328104,22.0056018829346,-23.0259094238281,22.0,-418296.0,1876.63,pp-ro,1,1,-1,-1
1570538170.2,2019-10-08,14:36:10.200,15.0,11.0,23.8299999237061,-2.5,21.0,19.9,-31.6,-51.3,115.1,0.192276,17.9245,20.2309,-19.5935,8.20526,-16.5207,-17.0801,-49.3905,94.2147,-0.0333328,0.251726,1.49157,258.8,7.1,52.1701,4.42726,-3.0,1.22341,353.343,4.33364,159.759,141.746,141.91,0.586465,-0.346981,256.42400000000004,3.77189,3.71739,-32.862258911132805,22.0056018829346,-23.0259094238281,22.0,-418105.0,3230.27,pp-ro,1,1,-1,-1
1570538170.3,2019-10-08,14:36:10.300,15.0,13.0,23.719999313354503,-4.4,21.5,18.2,-35.5,-45.2,122.0,-2.14874,18.692,19.2088,-19.3885,5.79131,1.1157,-23.8035,-44.7243,104.421,0.0727768999999999,0.2661719999999999,1.5822200000000002,258.8,7.1,52.1701,4.42726,-3.0,1.20236,348.576,4.33372,161.774,141.366,140.31,0.578551,-0.339505,256.597,3.90424,3.80138,-31.4371032714844,22.0056018829346,-23.0259094238281,22.0,-417522.0,5537.61,pp-ro,1,1,-1,-1
1570538170.4,2019-10-08,14:36:10.400,15.0,13.0,23.7099990844727,-5.5,21.6,17.3,-36.9,-42.2,125.1,-4.15338,19.0661,17.9592,-19.1626,-2.78352,-21.8867,-28.7667,-39.189,112.863,0.195294,0.6383300000000001,1.28063,258.8,7.1,52.1701,4.42726,-3.0,1.22009,353.3,4.3337900000000005,162.855,141.366,139.51,0.5742079999999999,-0.336282,256.844,3.96904,3.84878,-29.6449890136719,22.0061168670654,-23.0282897949219,22.0,-417081.0,3414.86,pp-ro,1,1,-1,-1
1570538170.5,2019-10-08,14:36:10.500,15.0,13.0,23.4899997711182,-7.4,21.8,15.8,-38.3,-36.0,129.8,-7.134869999999999,19.6808,15.9073,-19.4714,4.6944300000000005,-18.0207,-33.3124,-31.2828,122.004,0.087457,0.516671,1.0564,258.8,7.1,52.1701,4.42726,-3.0,1.21843,356.485,4.33386,164.957,140.606,138.01,0.5669850000000001,-0.327348,256.959,4.09219,3.92986,-27.6890258789062,22.0061168670654,-23.0282897949219,22.0,-416807.0,5229.96,pp-ro,1,1,-1,-1
1570538170.6,2019-10-08,14:36:10.600,15.0,15.0,23.3700008392334,-9.0,22.0,14.4,-39.3,-29.8,133.5,-7.134869999999999,19.6808,15.9073,-19.4714,4.6944300000000005,-18.0207,-33.3124,-31.2828,122.004,0.087457,0.516671,1.0564,258.8,7.1,52.1701,4.42726,-3.0,1.2284,371.69,4.33394,167.06,140.226,136.61,0.559557,-0.319841,257.361,4.2104,4.00253,-26.0590515136719,22.0066318511963,-23.0306720733643,22.0,-416545.0,1138.29,pp-ro,1,1,-1,-1
1570538170.7,2019-10-08,14:36:10.700,15.0,15.0,22.9899997711182,-10.9,22.0,12.9,-40.3,-24.8,137.4,-7.934089999999999,19.5932,15.3019,-17.5282,-5.991280000000001,-10.1249,-34.5069,-28.5895,124.463,0.0307144,0.345417,0.980891,258.8,7.1,52.1701,4.42726,-3.0,1.27162,385.334,4.33401,169.22099999999998,139.086,135.41,0.553683,-0.309584,257.52,4.31232,4.08398,-24.7823867797852,22.0061168670654,-23.0282897949219,22.0,-416268.0,4091.68,pp-ro,1,1,-1,-1
1570538170.8,2019-10-08,14:36:10.800,15.0,17.0,22.9899997711182,-12.2,22.0,11.3,-41.7,-19.8,141.3,-10.4887,19.9571,13.1643,-17.3785,-0.0511801,-13.3053,-37.8344,-21.0789,131.778,0.163526,0.0560465,1.12625,258.8,7.1,52.1701,4.42726,-2.9,1.29766,413.328,4.33408,171.38299999999998,137.946,134.21,0.547769,-0.299417,257.708,4.41529,4.15297,-23.848777770996104,22.0066318511963,-22.2765216827393,22.0,-415785.0,769.112,pp-ro,1,1,-1,-1
1570538170.9,2019-10-08,14:36:10.900,15.0,16.0,23.2099990844727,-13.6,21.6,9.6,-42.2,-13.7,143.9,-11.9542,19.8636,11.8562,-5.16975,-8.715,-10.2853,-39.9295,-16.0882,135.986,0.2244159999999999,0.326908,1.19804,258.8,7.1,52.1701,4.42726,-2.9,1.32924,422.91,4.33416,173.602,136.806,133.11,0.542058,-0.289175,258.015,4.52492,4.2287300000000005,-23.2752990722656,22.0066318511963,-20.9454498291016,22.0,-415704.0,1538.22,pp-ro,1,1,-1,-1
1570538171.0,2019-10-08,14:36:11.000,15.0,18.0,23.6200008392334,-15.2,21.0,7.7,-42.7,-8.4,146.6,-14.0407,19.4477,9.33336,-20.2735,-6.2081,-14.6351,-41.9463,-8.16337,140.985,-0.13076,0.401719,0.919913,258.8,7.1,52.1701,4.42726,-2.9,1.3525200000000002,438.713,4.334230000000001,176.757,134.526,132.21,0.536884,-0.272397,258.495,4.6201,4.31361,-22.6728134155273,22.0061168670654,-19.4515972137451,22.0,-414949.0,4953.08,pp-ro,1,1,-1,-1
1570538171.1,2019-10-08,14:36:11.100,15.0,17.0,23.8400001525879,-17.1,20.0,4.4,-43.7,-1.7,150.8,-15.6651,18.9081,7.364039999999999,-11.5309,-6.43956,-19.5241,-43.196000000000005,-3.44562,144.335,-0.283695,0.215305,0.8752540000000001,258.8,7.1,52.1701,4.42726,-2.9,1.3647,446.5580000000001,4.334309999999999,178.743,133.006,131.21,0.53223,-0.2616429999999999,258.565,4.75296,4.455019999999999,-21.8620910644531,22.007146835327102,-16.796489715576197,22.0,-414749.0,3753.27,pp-ro,1,1,-1,-1
1570538171.2,2019-10-08,14:36:11.200,15.0,15.0,23.7700004577637,-17.7,19.4,3.4,-43.7,0.1,152.2,-16.9175,18.1439,5.22686,-9.14708,-14.3464,-15.3851,-44.4772,0.7025939999999999,147.391,-0.225412,0.295284,0.8549040000000001,259.0,6.5,52.1701,4.42726,-2.9,1.40017,473.28,4.33438,179.67700000000002,131.866,131.01,0.5314180000000001,-0.255109,258.527,4.78927,4.50009,-20.815841674804695,22.007661819458,-15.949444770813,22.0,-414377.0,3722.5,pp-ro,1,1,-1,-1
1570538171.3,2019-10-08,14:36:11.300,15.0,15.0,23.5799999237061,-18.4,17.8,1.5,-43.6,3.3,155.4,-17.4051,17.4852,4.3083,-12.3075,-9.50284,-16.4457,-44.6057,2.75528,148.997,-0.229787,-0.00598513,0.740063,259.0,6.5,52.1701,4.42726,-2.9,1.46222,502.80300000000005,4.33443,181.518,130.346,130.61,0.5289189999999999,-0.244805,258.839,4.86085,4.587680000000001,-19.4521255493164,22.007661819458,-14.3197317123413,22.0,-414120.0,2891.86,pp-ro,1,1,-1,-1
1570538171.4,2019-10-08,14:36:11.400,15.0,15.0,23.399999618530305,-18.6,16.2,-0.3,-43.4,6.7,158.1,-18.3345,16.0406,2.42975,5.2987,-24.5701,-13.0165,-44.7549,6.0772,152.304,-0.215925,0.14444,0.8444290000000001,259.0,6.5,52.1701,4.42726,-2.9,1.49325,513.596,4.33448,183.27,128.066,130.31,0.5277,-0.2320019999999999,258.785,4.92975,4.66909,-17.9774703979492,22.007661819458,-12.7985944747925,22.0,-413501.0,7629.59,pp-ro,1,1,-1,-1
1570538171.5,2019-10-08,14:36:11.500,15.0,16.0,23.1700000762939,-18.8,15.3,-2.0,-43.1,10.5,160.2,-18.4968,14.1096,-0.532506,-0.361284,-10.0993,-24.5097,-44.3018,11.8032,156.476,-0.0226429,0.246903,0.76142,259.0,6.5,52.1701,4.42726,-2.9,1.44394,485.465,4.33453,184.876,126.546,130.11,0.526145,-0.222385,259.079,5.00049,4.74226,-16.4994049072266,22.007661819458,-11.4374027252197,22.0,-412010.0,11875.1,pp-ro,1,1,-1,-1
1570538171.6,2019-10-08,14:36:11.600,15.0,15.0,22.940000534057603,-19.4,14.6,-3.5,-42.7,13.4,162.4,-18.4968,14.1096,-0.532506,-0.361284,-10.0993,-24.5097,-44.3018,11.8032,156.476,-0.0226429,0.246903,0.76142,259.0,6.5,52.1701,4.42726,-2.9,1.43119,488.901,4.33458,186.366,124.266,130.21,0.526561,-0.21028,259.093,5.05739,4.80821,-15.4087753295898,22.007661819458,-10.1864995956421,22.0,-411658.0,6891.25,pp-ro,1,1,-1,-1
1570538171.7,2019-10-08,14:36:11.700,15.0,15.0,22.899999618530305,-19.8,13.5,-4.5,-41.7,16.8,164.7,-19.2376,12.8519,-2.51883,1.48853,-3.96981,-9.01184,-44.1503,16.2198,160.529,-0.426505,-0.30191,0.690669,259.0,6.5,52.1701,4.42726,-2.9,1.51154,531.826,4.33464,187.856,122.366,130.31,0.52651,-0.199594,259.314,5.12292,4.86303,-13.9682540893555,22.0081768035889,-9.16620922088623,22.0,-411163.0,3599.45,pp-ro,1,1,-1,-1
1570538171.8,2019-10-08,14:36:11.800,15.0,15.0,22.940000534057603,-20.1,12.6,-5.3,-41.3,19.5,167.1,-19.2368,12.5046,-3.1537900000000003,-4.98648,-2.53888,-8.65883,-43.356,17.4917,162.02100000000002,-0.113212,-0.027083,0.58025,259.0,6.5,52.1701,4.42726,-2.6,1.53536,541.786,4.33469,189.141,120.466,130.511,0.527077,-0.189418,259.46,5.17917,4.906619999999999,-12.5738143920898,22.0081768035889,-8.35309314727783,22.0,-410860.0,5752.96,pp-ro,1,1,-1,-1
1570538171.9,2019-10-08,14:36:11.900,15.0,15.0,22.899999618530305,-20.2,11.4,-6.1,-40.8,21.5,170.0,-19.8278,10.9775,-4.70579,2.2281,-10.5693,-17.504,-42.9545,21.2757,166.351,-0.221307,-0.0635087,0.507821,259.0,6.5,52.1701,4.42726,-2.6,1.5542,549.21,4.33474,190.367,118.566,130.811,0.528026,-0.179386,259.633,5.23005,4.9566,-10.9523773193359,22.0081768035889,-7.403211116790769,22.0,-410100.0,8521.76,pp-ro,1,1,-1,1
1570538172.0,2019-10-08,14:36:12.000,15.0,16.0,22.9799995422363,-19.8,10.7,-6.6,-40.4,23.5,172.4,-19.5028,9.73597,-5.6532800000000005,3.72283,-9.42253,-18.2826,-41.9607,24.0044,170.549,-0.0232897,0.00238181,0.346251,259.0,6.5,52.1701,4.42726,-2.6,1.5298200000000002,521.385,4.33479,191.477,116.286,131.111,0.529508,-0.168178,259.569,5.2754,4.98434,-9.77641296386719,22.0081768035889,-6.89500379562378,22.0,-408632.0,12213.5,pp-ro,1,2,-1,1
1570538172.1,2019-10-08,14:36:12.100,15.0,16.0,22.899999618530305,-19.8,10.1,-7.1,-40.3,25.6,174.1,-19.4327,9.54432,-6.116230000000001,-6.61305,1.85107,-0.487067,-42.0667,25.0574,171.737,-0.144421,0.204379,0.688177,259.0,6.5,52.1701,4.42726,-2.6,1.46887,503.802,4.33484,192.471,114.386,131.511,0.531085,-0.158675,259.66200000000003,5.316,5.011830000000001,-8.64482116699219,22.0081768035889,-6.37769746780396,22.0,-407548.0,8675.59,pp-ro,1,2,-1,1
1570538172.2,2019-10-08,14:36:12.200,15.0,16.0,22.9799995422363,-19.6,9.7,-7.5,-40.4,27.3,175.0,-19.4327,9.54432,-6.116230000000001,-6.61305,1.85107,-0.487067,-42.0667,25.0574,171.737,-0.144421,0.204379,0.688177,259.0,6.5,52.1701,4.42726,-2.6,1.47164,500.6230000000001,4.334890000000001,193.493,112.106,131.911,0.532945,-0.147626,259.63,5.34213,5.0305800000000005,-7.65318298339844,22.007661819458,-6.04295301437378,22.0,-407237.0,5906.78,pp-ro,1,2,-1,1
1570538172.3,2019-10-08,14:36:12.300,15.0,16.0,23.0200004577637,-19.8,9.4,-7.6,-40.3,28.2,176.2,-19.4327,9.54432,-6.116230000000001,-6.61305,1.85107,-0.487067,-42.0667,25.0574,171.737,-0.144421,0.204379,0.688177,261.1,6.6,52.1701,4.42726,-2.6,1.46887,505.554,4.33493,194.398,109.826,132.411,0.5352819999999999,-0.136796,259.586,5.36021,5.03589,-6.862945556640621,22.007146835327102,-5.96309995651245,22.0,-406454.0,8121.83,pp-ro,1,2,-1,1
1570538172.4,2019-10-08,14:36:12.400,15.0,15.0,22.9099998474121,-20.0,8.8,-7.5,-40.3,28.4,178.1,-19.9121,8.268880000000001,-7.0002,-2.61386,-2.75043,7.069960000000001,-42.3133,27.6859,176.801,-0.467983,-0.0497736,0.2060519999999999,261.1,6.6,52.1701,4.42726,-2.6,1.4971299999999998,522.1709999999999,4.334980000000001,195.245,107.926,132.911,0.537307,-0.127558,259.681,5.37645,5.0423800000000005,-6.27581787109375,22.0081768035889,-5.85699129104614,22.0,-405981.0,4614.67,pp-ro,1,2,-1,1
1570538172.5,2019-10-08,14:36:12.500,15.0,15.0,22.9899997711182,-19.4,8.4,-7.5,-39.6,29.4,179.5,-19.7474,8.00481,-6.96628,6.86959,-8.96075,-1.52071,-41.4175,27.936,177.947,0.0109654,-0.0125327999999999,0.4294409999999999,261.1,6.6,52.1701,4.42726,-2.6,1.53924,532.275,4.33502,196.034,106.026,133.311,0.539063,-0.11843,259.697,5.39865,5.0495,-5.968597412109379,22.008691787719695,-5.748215675354,22.0,-405084.0,6922.01,pp-ro,1,2,-1,1
1570538172.6,2019-10-08,14:36:12.600,15.0,15.0,22.9500007629395,-19.6,7.8,-7.9,-39.2,30.2,-179.6,-19.3325,7.82585,-6.84563,1.51076,-3.35216,-0.60812,-41.1684,28.563,178.673,-0.0365969,0.0562281999999999,0.133944,261.1,6.6,52.1701,4.42726,-2.6,1.52761,522.393,4.33507,196.794,104.126,133.811,0.5411630000000001,-0.109347,259.76,5.41319,5.074380000000001,-5.88325500488281,22.007146835327102,-5.27455997467041,22.0,-404517.0,10921.4,pp-ro,1,2,-1,1
