time,date,time_of_day,airspeed_temperature,airspeed_angle_of_attack,airspeed_apparent_windspeed,kite_0_vx,kite_0_vy,kite_0_vz,kite_0_roll,kite_0_pitch,kite_0_yaw,kite_1_vx,kite_1_vy,kite_1_vz,kite_1_ax,kite_1_ay,kite_1_az,kite_1_roll,kite_1_pitch,kite_1_yaw,kite_1_roll_rate,kite_1_pitch_rate,kite_1_yaw_rate,ground_upwind_direction,ground_wind_velocity,ground_pos_latitude,ground_pos_longitude,ground_pos_altitude,ground_tether_reelout_speed,ground_tether_force,est_upwind_direction,kite_pos_east,kite_pos_north,kite_height,kite_elevation,kite_azimuth,kite_distance,kite_heading,kite_course,kite_actual_steering,kite_actual_depower,kite_set_steering,kite_set_depower,ground_mech_energy,ground_mech_power,flight_phase,flight_phase_index,phase,pattern,pattern_section
1570532990.4,2019-10-08,13:09:50.400,14.0,8.0,14.4099998474121,12.2,-0.4,2.5,19.1,-6.5,-47.6,10.1773,-1.37323,2.69673,8.6238,10.7506,2.93947,20.8924,9.10037,-55.1236,0.2192349999999999,0.0977794,0.8619129999999999,279.5,3.3,52.1701,4.4272,0.0,-2.21855,89.5643,4.64222,41.5916,0.760202,236.099,1.3964,0.051897,239.736,0.779945,1.59205,-34.794342041015604,22.004056930542003,-35.0,22.0,-897192.0,-9536.99,pp-riro,4,0,-1,-1
1570532990.5,2019-10-08,13:09:50.500,14.0,8.0,14.4099998474121,12.8,0.6,3.0,20.4,-8.1,-42.7,11.1943,0.197868,3.0608,5.5447,9.97336,4.32142,23.3301,7.55024,-46.8258,0.0994126,0.2485389999999999,0.993166,279.5,3.3,52.1701,4.4272,0.0,-2.2650900000000003,91.499,4.64229,41.5332,2.28026,235.799,1.39619,0.0152937999999999,239.44,0.907503,1.71124,-34.970123291015604,22.0009689331055,-35.0,22.0,-898302.0,-10613.7,pp-riro,4,0,-1,-1
1570532990.6,2019-10-08,13:09:50.600,14.0,8.0,14.2200002670288,13.4,1.7,3.4,21.3,-9.7,-37.8,12.005999999999998,1.7307,3.72213,1.05345,10.3966,6.25926,25.6068,5.44365,-38.342,0.189096,0.1746079999999999,0.922175,279.5,3.3,52.1701,4.4272,0.0,-2.34044,86.7164,4.64235,41.6208,3.4203,235.599,1.39536,-0.0119246,239.272,1.02574,1.81851,-34.968414306640604,22.0009689331055,-35.0,22.0,-899750.0,-9875.4,pp-riro,4,0,-1,-1
1570532990.7,2019-10-08,13:09:50.700,14.0,8.0,13.960000038147,13.8,2.8,3.6,22.5,-11.1,-32.6,12.3936,2.84374,4.10889,4.7836,11.3226,2.98049,27.074,3.67161,-32.7895,0.156933,0.0971472,0.979949,279.5,3.3,52.1701,4.4272,0.0,-2.36482,82.9485,4.64242,41.7668,4.56034,235.299,1.3941,-0.03875,239.021,1.14835,1.91755,-34.971832275390604,22.0009689331055,-35.0,22.0,-900400.0,-12705.7,pp-riro,4,0,-1,-1
1570532990.8,2019-10-08,13:09:50.800,14.0,9.0,13.7799997329712,14.2,4.0,3.9,23.4,-12.7,-27.5,12.7782,3.98913,4.343780000000001,3.60736,12.2365,3.11234,28.16,1.95451,-27.131,0.233921,0.231313,0.976786,279.5,3.3,52.1701,4.4272,0.0,-2.50002,78.5396,4.64248,42.0881,6.0804,234.999,1.39178,-0.0735352,238.816,1.27779,2.02532,-34.9871978759766,22.0009689331055,-35.0,22.0,-902822.0,-17474.2,pp-riro,4,0,-1,-1
1570532990.9,2019-10-08,13:09:50.900,14.0,9.0,13.710000038147,14.5,5.2,4.4,24.3,-14.6,-22.3,13.0881,5.09194,4.72949,0.8602360000000001,8.10017,5.1239300000000005,29.2082,0.157944,-21.5605,0.180864,0.179943,0.953955,284.6,2.9,52.1701,4.4272,0.0,-2.55266,80.8517,4.64255,42.497,7.600460000000001,234.699,1.38889,-0.107099,238.637,1.40852,2.12898,-34.9906158447266,22.0009689331055,-35.0,22.0,-903779.0,-18858.6,pp-riro,4,0,-1,-1
1570532991.0,2019-10-08,13:09:51.000,14.0,8.0,13.710000038147,14.6,6.3,4.8,25.1,-16.3,-17.3,13.2107,5.6432400000000005,4.95326,1.6413400000000002,10.1011,4.47129,29.6243,-0.7620180000000001,-18.8136,0.115575,0.195655,0.974059,284.6,2.9,52.1701,4.4272,0.0,-2.6463,85.9757,4.64265,43.0227,9.12052,234.299,1.38525,-0.1391099999999999,238.391,1.53329,2.22344,-34.9923248291016,22.0009689331055,-35.0,22.0,-905592.0,-16766.6,pp-riro,4,0,-1,-1
1570532991.1,2019-10-08,13:09:51.100,14.0,8.0,13.710000038147,14.8,7.6,5.2,25.5,-18.1,-12.2,13.3017,6.16557,5.1816,1.38849,9.43974,4.88542,29.9718,-1.75278,-15.9394,0.161352,0.228517,1.03974,284.6,2.9,52.1701,4.4272,0.0,-2.71556,83.1663,4.64275,43.6653,10.6406,233.899,1.38096,-0.169336,238.178,1.6579,2.31884,-34.9940185546875,22.0009689331055,-35.0,22.0,-907035.0,-14367.0,pp-riro,4,0,-1,-1
1570532991.2,2019-10-08,13:09:51.200,14.0,8.0,13.640000343322802,14.8,8.8,5.5,25.8,-19.5,-7.0,13.3816,7.27279,5.618119999999999,0.658471,10.8006,2.67859,30.4461,-3.60977,-10.3272,0.0846955,0.192672,0.966134,284.6,2.9,52.1701,4.4272,0.0,-2.80199,76.8289,4.64285,44.4539,11.7806,233.499,1.3763299999999998,-0.189463,237.985,1.77225,2.39893,-34.9991455078125,22.0009689331055,-35.0,22.0,-908850.0,-19996.9,pp-riro,4,0,-1,-1
1570532991.3,2019-10-08,13:09:51.300,14.0,9.0,13.640000343322802,14.7,9.9,5.7,26.0,-20.8,-1.6,13.3685,9.00182,6.07603,0.0816554,11.126,1.05083,30.817,-6.38235,-2.23719,-0.0196921,0.173222,0.95028,284.6,2.9,52.1701,4.4272,0.0,-2.90672,76.3108,4.64295,45.3009,13.6807,233.0,1.37042,-0.223798,237.756,1.90273,2.48635,-35.0008544921875,22.0009689331055,-35.0,22.0,-911021.0,-22119.7,pp-riro,4,0,-1,-1
1570532991.4,2019-10-08,13:09:51.400,14.0,8.0,13.7700004577637,14.5,11.0,6.2,25.9,-22.4,3.8,13.2241,10.1032,6.24664,-0.4414909999999999,13.7373,4.201309999999999,30.8406,-7.902819999999999,3.22759,0.0470699,0.253998,0.8840030000000001,284.6,2.9,52.1701,4.4272,0.0,-3.01421,85.4016,4.64305,46.2647,14.8208,232.5,1.36481,-0.240628,237.521,2.01626,2.55864,-35.0042724609375,22.0009689331055,-35.0,22.0,-913266.0,-21042.9,pp-riro,4,0,-1,-1
1570532991.5,2019-10-08,13:09:51.500,14.0,9.0,13.960000038147,14.5,11.6,6.4,25.8,-23.2,6.6,13.0758,11.114,6.660010000000001,-0.691449,9.48458,3.72979,30.4364,-9.42184,9.00832,0.0872668,0.246721,0.955734,284.6,2.9,52.1701,4.4272,0.1,-3.1012,96.2899,4.64315,46.8196,15.5808,232.2,1.3614,-0.2519659999999999,237.385,2.07714,2.59453,-35.0042724609375,22.0009689331055,-35.0,22.0,-915232.0,-10459.9,pp-riro,4,0,-1,-1
1570532991.6,2019-10-08,13:09:51.600,14.0,9.0,14.0299997329712,14.1,12.8,6.9,25.2,-24.8,12.3,12.8211,12.2189,7.057939999999999,-4.08641,11.3572,3.3128300000000004,29.7258,-10.8235,15.0637,-0.0795138999999999,0.2989739999999999,0.965833,284.6,2.9,52.1701,4.4272,0.1,-3.11782,95.3665,4.64325,48.0463,17.4809,231.6,1.35352,-0.279756,237.176,2.20461,2.68226,-35.0059814453125,22.0009689331055,-35.0,22.0,-916091.0,-8521.76,pp-riro,4,0,-1,-1
1570532991.7,2019-10-08,13:09:51.700,14.0,10.0,14.0299997329712,13.7,14.1,7.2,24.3,-26.3,18.2,12.4079,13.2969,7.38463,-6.45482,13.9753,3.70343,28.9114,-12.1903,20.7919,-0.0131557999999999,0.233313,0.872919,284.6,2.9,52.1701,4.4272,0.1,-3.12059,95.2252,4.64335,49.3606,18.6209,230.9,1.34617,-0.291646,236.85,2.3184,2.75347,-35.0059814453125,22.0009689331055,-35.0,22.0,-916708.0,-11629.0,pp-riro,4,0,-1,-1
1570532991.8,2019-10-08,13:09:51.800,14.0,10.0,14.1499996185303,13.2,15.2,7.5,23.6,-27.4,24.2,12.1966,13.8554,7.49914,-4.11704,10.4305,3.29599,28.3301,-12.9493,23.6878,-0.125671,0.237307,0.984428,284.6,2.9,52.1701,4.4272,0.1,-3.14386,100.562,4.64345,50.7918,20.521,230.2,1.33717,-0.314976,236.628,2.44184,2.8290900000000003,-35.0042724609375,22.0009689331055,-23.0044822692871,22.0,-917602.0,-8306.41,pp-riro,4,0,-1,-1
1570532991.9,2019-10-08,13:09:51.900,14.0,10.0,14.5200004577637,12.7,16.4,7.8,22.7,-28.2,30.3,11.7621,14.9038,7.74483,-2.55182,10.9214,2.4182900000000003,27.2346,-14.0455,29.5605,0.0297852,0.253809,0.906001,278.0,3.4,52.1701,4.4272,0.1,-3.13721,110.567,4.6435900000000006,52.3105,21.661,229.5,1.32892,-0.323701,236.381,2.55087,2.89065,-35.0059814453125,22.0009689331055,-23.0044822692871,22.0,-918224.0,-3999.38,pp-riro,4,0,-1,-1
1570532992.0,2019-10-08,13:09:52.000,14.0,11.0,14.880000114440902,12.2,17.5,8.3,21.6,-29.1,36.6,11.361,15.9122,8.121269999999999,-4.60617,9.92907,3.51817,25.9687,-14.8556,35.7301,-0.0149953,0.312196,0.996845,278.0,3.4,52.1701,4.4272,0.1,-3.03249,125.771,4.64372,53.9754,22.8011,228.7,1.31999,-0.330958,236.087,2.66073,2.9453400000000003,-34.8062744140625,22.0009689331055,-23.0044822692871,22.0,-917758.0,7445.01,pp-riro,4,0,-1,-1
1570532992.1,2019-10-08,13:09:52.100,14.0,11.0,15.1800003051758,11.5,18.7,8.7,20.3,-29.8,43.2,10.8606,16.8968,8.556389999999999,-7.2153,8.156460000000001,5.50283,24.4763,-15.7497,42.0579,0.0704809999999999,0.3266949999999999,1.05656,278.0,3.4,52.1701,4.4272,0.1,-2.90395,133.977,4.64385,55.7278,24.3212,227.8,1.30996,-0.342904,235.775,2.77779,3.01071,-34.222564697265604,22.0025119781494,-23.0116176605225,22.0,-916480.0,14028.6,pp-riro,4,0,-1,-1
1570532992.2,2019-10-08,13:09:52.200,14.0,12.0,15.3500003814697,10.7,19.9,9.1,18.8,-30.2,50.0,9.83737,18.4156,9.03164,-7.59865,10.4751,4.164680000000001,21.8942,-16.954,51.6434,0.108388,0.33352,1.0208700000000002,278.0,3.4,52.1701,4.4272,0.1,-2.8263700000000003,138.746,4.64398,57.6847,25.4612,226.9,1.29974,-0.347193,235.498,2.88928,3.06909,-33.280426025390604,22.0025119781494,-23.0116176605225,22.0,-915639.0,16797.4,pp-riro,4,0,-1,-1
1570532992.3,2019-10-08,13:09:52.300,14.0,11.0,15.75,9.8,21.1,9.4,17.2,-30.7,57.0,9.04429,19.5388,9.3651,-9.22995,10.3973,3.68699,20.1699,-17.7733,58.1917,-0.0993088,0.255686,1.04347,278.0,3.4,52.1701,4.4272,0.1,-2.6446400000000003,148.60399999999998,4.64411,59.6707,26.2213,226.0,1.2900200000000002,-0.345688,235.211,2.99772,3.12222,-31.9866943359375,22.0025119781494,-23.0116176605225,22.0,-913789.0,19873.9,pp-riro,4,0,-1,-1
1570532992.4,2019-10-08,13:09:52.400,14.0,11.0,16.1399993896484,8.7,22.1,9.8,15.6,-30.9,63.7,8.18276,20.5905,9.75794,-11.2388,12.5018,3.58765,18.2813,-18.4948,64.6988,0.0333003,0.18832,0.91209,278.0,3.4,52.1701,4.4272,0.1,-2.39696,161.44299999999998,4.64424,61.8028,27.7414,225.0,1.27835,-0.3537,234.977,3.10876,3.18514,-30.3311157226562,22.0025119781494,-22.4406471252441,22.0,-911493.0,23965.5,pp-riro,4,0,-1,-1
1570532992.5,2019-10-08,13:09:52.500,14.0,10.0,16.8299999237061,7.4,23.0,10.1,13.8,-30.7,70.2,7.6518,21.0877,9.91761,-9.83119,9.44512,0.595428,17.3479,-18.8383,67.7978,-0.0089884,0.171854,0.987547,278.0,3.4,52.1701,4.42719,0.1,-1.92377,172.202,4.644369999999999,64.0226,28.5014,224.0,1.26759,-0.350755,234.707,3.20633,3.2412400000000003,-28.363204956054695,22.003026962280305,-21.6750221252441,22.0,-907439.0,27411.2,pp-riro,4,0,-1,-1
1570532992.6,2019-10-08,13:09:52.600,14.0,10.0,16.8299999237061,6.0,23.7,10.1,12.2,-30.5,76.2,7.0628,21.5093,10.0359,-14.2246,12.1841,-0.3024139999999999,16.4852,-19.2202,70.8095,0.0468953,0.0305678,0.968921,278.0,3.4,52.1701,4.42719,0.1,-1.59964,169.018,4.64451,66.3008,28.8814,223.0,1.2572,-0.342876,234.433,3.29159,3.29254,-26.514762878418,22.003026962280305,-20.8808689117432,22.0,-905074.0,22304.3,pp-riro,4,0,-1,-1
1570532992.7,2019-10-08,13:09:52.700,14.0,9.0,17.0400009155273,4.6,24.3,10.0,10.7,-30.0,82.0,5.18244,22.5695,10.1731,-16.7479,7.73837,-2.75619,14.0464,-20.01,79.6075,0.0857231,0.0445518,0.697689,278.0,3.4,52.1701,4.42719,0.1,-1.43618,166.987,4.64464,68.6957,29.6415,222.0,1.24573,-0.339536,234.269,3.37796,3.34602,-24.8557739257812,22.003026962280305,-20.2055416107178,22.0,-904094.0,19350.9,pp-riro,4,0,-1,-1
1570532992.8,2019-10-08,13:09:52.800,14.0,8.0,17.1399993896484,3.2,24.6,10.0,9.1,-29.6,87.5,3.84616,23.1192,10.0269,-12.8477,4.69227,-5.34524,12.4419,-20.1959,84.8861,0.137186,0.112592,0.7636890000000001,278.0,3.4,52.1701,4.42719,0.1,-0.956346,167.90200000000002,4.644769999999999,71.0907,30.0215,221.0,1.23485,-0.331894,234.086,3.45584,3.39222,-22.961257934570305,22.0025119781494,-19.558771133422898,22.0,-901970.0,12028.9,pp-riro,4,0,-1,-1
1570532992.9,2019-10-08,13:09:52.900,14.0,8.0,17.4500007629395,2.1,24.7,9.9,7.5,-29.3,92.8,2.6513,23.4095,9.99977,-8.79161,-0.00759741,0.85898,10.8784,-20.2981,90.1563,0.203668,0.25098,0.793216,271.8,3.3,52.1701,4.42719,0.1,-0.8028649999999999,170.55,4.644909999999999,73.5733,30.4016,219.9,1.22346,-0.324291,233.866,3.53035,3.42642,-21.6726379394531,22.0025119781494,-19.185199737548803,22.0,-901462.0,10244.6,pp-riro,4,0,-1,-1
1570532993.0,2019-10-08,13:09:53.000,14.0,8.0,17.6000003814697,1.0,24.6,9.7,5.9,-28.6,98.2,1.58739,23.3698,9.85757,-8.20849,-2.5999,-1.94614,8.99597,-20.0766,95.3509,-0.0885063,0.261063,0.832706,271.8,3.3,52.1701,4.42719,0.1,-0.459334,166.22,4.64502,76.0559,30.4016,219.0,1.2129,-0.312847,233.816,3.6042,3.45696,-20.56494140625,22.003026962280305,-18.767749786377,22.0,-900720.0,6214.43,pp-riro,4,0,-1,-1
1570532993.1,2019-10-08,13:09:53.100,14.0,7.0,17.8999996185303,-0.1,24.4,9.3,4.4,-27.5,103.2,0.544798,23.1857,9.48964,-14.5172,0.4479579999999999,-2.1189400000000003,7.69693,-19.6715,100.585,-0.160137,0.1211579999999999,0.589874,271.8,3.3,52.1701,4.42719,0.1,-0.168995,151.19799999999998,4.64513,78.5093,31.1617,218.0,1.20114,-0.310534,233.792,3.68157,3.4974,-19.7047271728516,22.003026962280305,-18.4343585968018,22.0,-900459.0,1507.46,pp-riro,4,0,-1,-1
1570532993.2,2019-10-08,13:09:53.200,14.0,7.0,18.0,-1.4,24.1,8.8,2.9,-26.7,108.2,-0.576599,22.9564,8.951410000000001,-14.5845,-0.979257,-3.92617,6.46056,-18.8438,105.271,0.144628,0.374134,0.723973,271.8,3.3,52.1701,4.42719,0.1,0.171211,145.61,4.64525,80.9335,31.1617,217.1,1.19075,-0.300334,233.781,3.75148,3.53991,-19.3394775390625,22.003026962280305,-17.822353363037102,22.0,-900552.0,-1384.4,pp-riro,4,0,-1,-1
1570532993.3,2019-10-08,13:09:53.300,14.0,7.0,18.1399993896484,-2.6,23.6,8.6,2.4,-25.1,111.7,-1.8772,22.6817,8.6104,-14.2577,0.2913239999999999,-6.80438,5.4317,-17.5673,109.365,0.0269188,0.0421782,0.734827,271.8,3.3,52.1701,4.42719,0.1,0.262081,148.648,4.64536,83.3285,30.4017,216.3,1.18163,-0.282748,233.781,3.79588,3.5717800000000004,-18.7540512084961,22.0025119781494,-17.1989250183105,22.0,-900667.0,-2276.57,pp-riro,4,0,-1,-1
1570532993.4,2019-10-08,13:09:53.400,14.0,7.0,18.1399993896484,-3.7,23.2,8.4,1.5,-24.3,115.3,-2.43344,22.4528,8.518310000000001,-9.11917,-6.7714300000000005,4.373480000000001,4.87366,-16.9511,111.545,0.0840355,0.190903,0.6230600000000001,271.8,3.3,52.1701,4.42719,0.1,0.26873,154.494,4.64547,85.6943,30.4018,215.4,1.17136,-0.273944,233.806,3.8464,3.60914,-18.0628051757812,22.0025119781494,-16.7393531799316,22.0,-900530.0,2122.75,pp-riro,4,0,-1,-1
1570532993.5,2019-10-08,13:09:53.500,14.0,8.0,17.9400005340576,-4.8,22.9,8.4,0.6,-23.4,118.9,-3.57939,21.9868,8.35346,-11.5253,-4.27914,-1.72748,3.98013,-16.4394,114.983,0.0963553,0.0429586,0.47389,271.8,3.3,52.1701,4.42719,0.1,0.25654,169.729,4.645580000000001,88.1185,30.0218,214.5,1.16133,-0.261502,233.83,3.8945,3.6421,-17.4944534301758,22.003026962280305,-16.2819519042969,22.0,-900576.0,-1384.4,pp-riro,4,0,-1,-1
1570532993.6,2019-10-08,13:09:53.600,14.0,9.0,17.840000152587898,-5.9,22.8,8.5,-0.7,-22.6,122.0,-4.63277,21.7686,8.17453,-8.62025,-1.81526,2.23252,2.88956,-15.6529,118.324,-0.0607931,0.255634,0.49648,271.8,3.3,52.1701,4.42719,0.1,0.325246,191.058,4.6457,90.4551,29.6418,213.7,1.15175,-0.2499199999999999,233.941,3.93544,3.67391,-16.8612365722656,22.003026962280305,-15.8579788208008,22.0,-900511.0,1538.22,pp-riro,4,0,-1,-1
1570532993.7,2019-10-08,13:09:53.700,14.0,8.0,17.6900005340576,-6.8,22.5,8.4,-1.9,-21.8,125.4,-6.07481,21.4456,8.1818,-7.44268,-6.53675,-1.27201,0.881616,-14.702,123.496,-0.2487639999999999,0.10525,0.566426,271.8,3.3,52.1701,4.42719,0.1,0.3352199999999999,195.425,4.64585,92.7625,28.8818,212.8,1.14251,-0.2352429999999999,233.93,3.97848,3.69802,-16.4004058837891,22.003026962280305,-15.5102729797363,22.0,-900518.0,-461.467,pp-riro,4,0,-1,-1
1570532993.8,2019-10-08,13:09:53.800,14.0,11.0,17.7399997711182,-7.9,22.3,8.3,-3.5,-21.0,128.9,-6.07481,21.4456,8.1818,-7.44268,-6.53675,-1.27201,0.881616,-14.702,123.496,-0.2487639999999999,0.10525,0.566426,271.8,3.3,52.1701,4.42719,0.1,0.352396,207.782,4.645919999999999,95.0114,28.5018,211.9,1.13298,-0.2249179999999999,233.969,4.02712,3.73299,-15.9088592529297,22.0035419464111,-15.0754737854004,22.0,-900465.0,676.819,pp-riro,4,0,-1,-1
1570532993.9,2019-10-08,13:09:53.900,14.0,11.0,17.8899993896484,-8.8,22.0,8.5,-5.2,-19.9,132.1,-7.585319999999999,21.1643,7.902419999999999,-8.477360000000001,-3.66544,1.68606,-1.80986,-14.077,128.418,-0.139033,0.192016,0.476567,274.4,3.2,52.1701,4.42719,0.1,0.357937,211.644,4.64607,97.3772,27.7419,210.9,1.1232,-0.211127,233.946,4.07016,3.75511,-15.4736328125,22.0035419464111,-14.8447885513306,22.0,-900452.0,246.116,pp-riro,4,0,-1,-1
1570532994.0,2019-10-08,13:09:54.000,14.0,11.0,17.8899993896484,-9.6,21.4,8.5,-7.2,-19.5,135.5,-8.47557,20.8395,8.08058,-5.14708,-5.57575,-2.75592,-4.02202,-13.4342,131.69299999999998,-0.111095,-0.0411148,0.609634,274.4,3.2,52.1701,4.42719,0.1,0.375668,212.291,4.64627,99.597,26.2219,210.0,1.11483,-0.191218,233.896,4.10654,3.7734,-15.0554733276367,22.0035419464111,-14.4841585159302,22.0,-900399.0,830.6410000000001,pp-riro,4,0,-1,-1
1570532994.1,2019-10-08,13:09:54.100,14.0,12.0,18.0300006866455,-10.4,21.0,8.2,-9.4,-18.7,138.8,-8.87588,20.5462,8.022730000000001,-7.03269,-6.64199,-1.38067,-4.96896,-13.2793,133.435,-0.211923,-0.0425539,0.547495,274.4,3.2,52.1701,4.42719,0.1,0.3618159999999999,215.131,4.64647,101.758,25.4619,209.0,1.10564,-0.179164,233.847,4.15091,3.80006,-14.7482528686523,22.0035419464111,-14.2016143798828,22.0,-900284.0,399.9380000000001,pp-riro,4,0,-1,-1
1570532994.2,2019-10-08,13:09:54.200,14.0,10.0,18.1299991607666,-11.2,20.4,8.4,-10.8,-17.3,141.8,-9.64538,20.1089,7.820810000000001,-8.19363,-6.6490100000000005,-2.44712,-7.287139999999999,-13.0839,136.624,-0.1113519999999999,-0.0316995,0.6013850000000001,274.4,3.2,52.1701,4.42719,0.1,0.375668,220.75,4.646669999999999,103.949,24.7019,208.1,1.09647,-0.167486,233.926,4.19552,3.82459,-14.4068984985352,22.0035419464111,-13.9853506088257,22.0,-900279.0,92.2935,pp-riro,4,0,-1,-1
1570532994.3,2019-10-08,13:09:54.300,14.0,10.0,18.3199996948242,-11.9,19.4,8.5,-12.8,-16.6,144.5,-10.7216,19.161,8.00682,-4.80509,-10.289,4.35049,-10.5899,-12.0113,140.987,-0.196957,0.0963581,0.3897489999999999,274.4,3.2,52.1701,4.42719,0.1,0.395615,227.822,4.64687,105.935,23.1819,207.1,1.08843,-0.149813,233.774,4.225569999999999,3.84814,-14.266937255859402,22.003026962280305,-13.5984554290771,22.0,-900232.0,553.761,pp-riro,4,0,-1,-1
1570532994.4,2019-10-08,13:09:54.400,14.0,10.0,18.4200000762939,-12.5,18.7,8.0,-14.3,-15.6,146.3,-11.1435,18.7463,8.08512,-8.5076,-7.231330000000001,-0.551296,-11.4574,-11.6724,142.213,-0.151397,0.071159,0.4495659999999999,274.4,3.2,52.1701,4.42719,0.1,0.384533,208.863,4.64709,107.863,22.0419,206.201,1.08039,-0.136153,233.75,4.24787,3.875680000000001,-14.0211639404297,22.0035419464111,-13.240498542785598,22.0,-900121.0,1415.17,pp-riro,4,0,-1,-1
1570532994.5,2019-10-08,13:09:54.500,14.0,11.0,18.4599990844727,-13.1,18.2,7.6,-15.3,-14.9,148.0,-12.1215,17.74,7.535039999999999,-4.67787,-6.345,-4.57909,-13.5802,-10.9352,144.99200000000002,0.0273106,-0.0937414,0.302143,274.4,3.2,52.1701,4.42719,0.3,0.329679,193.539,4.64726,109.82,20.9019,205.301,1.07217,-0.1228559999999999,233.764,4.26685,3.89969,-13.7105331420898,22.003026962280305,-12.990912437439,22.0,-899967.0,1199.82,pp-riro,4,0,-1,-1
1570532994.6,2019-10-08,13:09:54.600,14.0,10.0,18.4599990844727,-13.7,17.6,7.8,-16.5,-14.6,149.8,-12.5108,17.4572,7.41255,-10.7528,-3.693130000000001,-1.44138,-14.2122,-10.9941,145.91,-0.262525,-0.110673,0.399574,274.4,3.2,52.1701,4.42719,0.3,0.34741,210.499,4.64746,111.66,19.3819,204.401,1.06455,-0.106843,233.716,4.28196,3.9153,-13.3555221557617,22.003026962280305,-12.8262100219727,22.0,-899967.0,-307.645,pp-riro,4,0,-1,-1
1570532994.7,2019-10-08,13:09:54.700,14.0,10.0,18.5100002288818,-14.2,17.0,7.8,-17.1,-14.3,151.4,-13.1606,16.9211,7.53153,-6.985110000000001,-9.95867,2.87841,-15.3055,-10.5996,147.832,0.0899408,0.0706775,0.300994,274.4,3.2,52.1701,4.42719,0.3,0.395061,228.28,4.64766,113.383,18.2419,203.601,1.05723,-0.0946947,233.756,4.2974,3.93403,-13.0790252685547,22.003026962280305,-12.6837711334229,22.0,-899958.0,338.409,pp-riro,4,0,-1,-1
1570532994.8,2019-10-08,13:09:54.800,14.0,11.0,18.4599990844727,-14.7,16.4,7.5,-17.8,-14.0,153.1,-13.9378,15.9177,7.43106,1.1193,-3.81943,0.64445,-16.7182,-10.0094,150.297,0.0366505,0.0573674,0.328923,274.4,3.2,52.1701,4.42719,0.3,0.391736,226.782,4.64786,115.106,16.7219,202.701,1.04985,-0.0796378999999999,233.702,4.31185,3.95522,-12.857147216796902,22.003026962280305,-12.450550079345698,22.0,-899814.0,984.464,pp-riro,4,0,-1,-1
1570532994.9,2019-10-08,13:09:54.900,14.0,10.0,18.409999847412102,-15.3,16.0,7.6,-17.7,-13.7,154.7,-13.9378,15.9177,7.43106,1.1193,-3.81943,0.64445,-16.7182,-10.0094,150.297,0.0366505,0.0573674,0.328923,267.7,2.7,52.1701,4.42719,0.3,0.390628,228.726,4.64807,116.8,15.2019,201.801,1.04247,-0.065022,233.66,4.32516,3.96956,-12.621612548828098,22.003026962280305,-12.38525390625,22.0,-899780.0,676.819,pp-riro,4,0,-1,-1
1570532995.0,2019-10-08,13:09:55.000,14.0,10.0,18.4599990844727,-15.9,15.4,7.7,-18.1,-13.6,156.4,-14.7813,15.1997,7.3829,-7.34655,-5.78201,0.133709,-17.3356,-10.0136,152.687,0.0763227,-0.058272,0.202626,267.7,2.7,52.1701,4.42719,0.3,0.416116,240.892,4.6483300000000005,118.407,13.6818,200.901,1.03532,-0.0508929,233.599,4.33865,3.98878,-12.5311508178711,22.003026962280305,-12.2392330169678,22.0,-899706.0,615.29,pp-riro,4,0,-1,-1
1570532995.1,2019-10-08,13:09:55.100,14.0,10.0,18.5499992370605,-16.1,15.0,7.5,-18.5,-13.9,158.4,-15.2959,14.6282,7.44308,0.369642,-3.3590800000000005,0.946377,-17.7395,-9.85862,154.60299999999998,0.050804,-0.0971453,0.427089,267.7,2.7,52.1701,4.42719,0.3,0.419994,241.482,4.64842,119.896,11.7818,200.001,1.02864,-0.0338981999999999,233.483,4.35076,3.9934,-12.3143920898438,22.003026962280305,-12.3101654052734,22.0,-899664.0,830.6410000000001,pp-riro,4,0,-1,-1
1570532995.2,2019-10-08,13:09:55.200,14.0,10.0,18.5599994659424,-16.5,14.4,7.4,-18.7,-13.5,160.6,-15.6446,13.8625,7.278469999999999,-3.70989,-3.62039,-0.985072,-18.1896,-9.81077,157.452,0.1943599999999999,-0.0850127,0.339894,267.7,2.7,52.1701,4.42719,0.3,0.415562,238.285,4.6486,121.386,10.2618,199.201,1.02194,-0.0204611,233.497,4.374709999999999,4.01086,-12.26318359375,22.0035419464111,-12.227332115173304,22.0,-899560.0,1076.76,pp-riro,4,0,-1,-1
1570532995.3,2019-10-08,13:09:55.300,14.0,14.0,18.7900009155273,-17.0,13.9,7.4,-18.7,-13.3,162.0,-15.9546,13.6165,7.224310000000001,-3.22706,-7.19808,-0.25682,-18.1886,-9.73781,158.495,0.109041,-0.0469366,0.379681,267.7,2.7,52.1701,4.42719,0.3,0.419994,245.843,4.64878,122.788,8.36178,198.301,1.01534,-0.00429421,233.388,4.38284,4.02485,-12.285369873046902,22.0035419464111,-12.1750316619873,22.0,-899446.0,553.761,pp-riro,4,0,-1,-1
1570532995.4,2019-10-08,13:09:55.400,14.0,10.0,18.8299999237061,-17.0,13.3,7.6,-18.9,-13.0,163.9,-16.2415,13.3348,7.17945,-1.4401700000000002,-7.71701,-0.358369,-18.4444,-9.65824,159.429,-0.0754593,-0.0395523,0.306252,267.7,2.7,52.1701,4.42719,0.3,0.433292,245.179,4.64895,124.161,6.841760000000001,197.501,1.00889,0.00847483,233.386,4.40201,4.02636,-12.3007354736328,22.003026962280305,35.0,22.0,-899371.0,984.464,pp-riro,4,0,-1,-1
1570532995.5,2019-10-08,13:09:55.500,14.0,11.0,18.9699993133545,-17.1,13.0,7.6,-19.5,-12.6,165.9,-16.4761,12.7896,7.35413,1.75741,-5.523,2.56035,-18.7309,-9.45043,161.043,-0.0800266,-0.160264,0.242434,267.7,2.7,52.1701,4.42718,0.6,0.5851109999999999,238.172,4.64913,125.446,4.94174,196.601,1.0025,0.0239733,233.266,4.42124,4.0242,-12.2017364501953,22.0035419464111,35.0,22.0,-900119.0,-14797.7,pp-riro,4,0,-1,-1
1570532995.6,2019-10-08,13:09:55.600,14.0,10.0,18.9699993133545,-17.0,12.7,7.1,-19.5,-12.1,166.6,-16.468,12.2416,7.32938,0.835203,-3.81761,-7.33853,-18.9406,-9.44087,163.032,-0.0555205,-0.2079889999999999,0.359018,267.7,2.7,52.1701,4.42718,0.6,1.08877,180.12400000000002,4.64931,126.088,4.18173,196.201,0.999356,0.030017,233.261,4.430630000000001,4.0337,-11.9457244873047,22.003026962280305,35.0,22.0,-901192.0,18920.2,pp-riro,4,0,-1,-1
1570532995.7,2019-10-08,13:09:55.700,14.0,7.0,18.9300003051758,-16.5,12.3,6.2,-20.0,-11.0,169.1,-16.3621,12.0314,6.82397,2.28693,0.5002270000000001,-8.21203,-19.283,-8.76138,164.81799999999998,0.0606057,0.0639155,0.227898,267.7,2.7,52.1701,4.42718,0.6,0.909249,159.881,4.6494800000000005,127.928,1.90171,195.101,0.990371,0.0480405,233.31,4.46137,4.03275,-11.3329925537109,22.0025119781494,35.0,22.0,-900162.0,19658.5,pp-riro,4,0,-1,-1
1570532995.8,2019-10-08,13:09:55.800,14.0,6.0,18.8299999237061,-16.6,12.0,6.2,-19.9,-10.9,169.6,-16.1795,11.8872,6.19318,1.35012,-4.4153400000000005,-6.9962,-19.6379,-8.11611,166.334,-0.0571526999999999,-0.0754527,0.151567,267.7,2.7,52.1701,4.42718,0.6,0.816717,169.55900000000003,4.64966,129.06799999999998,0.38169,194.701,0.985403,0.0598593,233.596,4.45938,4.0347800000000005,-10.3618392944336,22.003026962280305,35.0,22.0,-900348.0,-8460.23,pp-riro,4,0,-1,-1
1570532995.9,2019-10-08,13:09:55.900,14.0,8.0,18.8799991607666,-16.6,11.0,6.4,-20.0,-10.5,170.3,-16.3333,10.776,6.24683,-2.47342,-9.46089,1.54538,-19.3699,-7.724530000000001,168.014,-0.00156021,-0.0328906,0.18441,264.0,2.8,52.1701,4.42718,0.6,0.975185,212.582,4.64982,130.148,-1.1383299999999998,193.801,0.979398,0.0713858999999999,233.45,4.4633,4.05194,-9.03396606445312,22.003026962280305,35.0,22.0,-900495.0,5599.14,pp-riro,4,0,-1,-1
1570532996.0,2019-10-08,13:09:56.000,14.0,8.0,18.6399993896484,-16.3,10.8,6.1,-20.2,-10.0,170.4,-16.2268,10.4427,6.20657,3.90867,-5.884440000000001,-1.53582,-19.6565,-7.86905,168.638,-0.0464133,-0.22855,-0.0100325,264.0,2.8,52.1701,4.42718,0.6,0.943048,197.541,4.64995,131.2,-3.03836,193.101,0.973881,0.0856546,233.475,4.45745,4.04397,-7.35449981689453,22.003026962280305,35.0,22.0,-900292.0,1322.87,pp-riro,4,0,-1,-1
1570532996.1,2019-10-08,13:09:56.100,14.0,10.0,18.6900005340576,-16.5,10.7,6.0,-20.2,-9.9,170.5,-16.1963,10.3604,5.89609,-1.16306,2.98327,-4.753430000000001,-19.8838,-8.73113,168.917,-0.108708,-0.285326,-0.0634846999999999,264.0,2.8,52.1701,4.42718,0.6,0.945819,207.409,4.65008,131.726,-3.79837,192.801,0.971227,0.0911997,233.534,4.4551,4.05057,-5.32855224609375,22.003026962280305,35.0,22.0,-900136.0,1415.17,pp-riro,4,0,-1,-1
1570532996.2,2019-10-08,13:09:56.200,14.0,10.0,18.729999542236303,-16.9,10.9,6.3,-20.7,-9.4,170.4,-16.4927,10.4625,5.872380000000001,-9.63299,-0.566926,0.929893,-20.2188,-8.980830000000001,169.115,-0.148125,-0.0738741,0.0898761,264.0,2.8,52.1701,4.42718,0.6,0.984604,233.177,4.65021,132.806,-5.31838,192.201,0.965778,0.102269,233.681,4.44919,4.03998,-3.2240982055664102,22.003026962280305,35.0,22.0,-900166.0,-676.819,pp-riro,4,0,-1,-1
1570532996.3,2019-10-08,13:09:56.300,14.0,10.0,18.729999542236303,-16.9,10.8,7.1,-21.3,-9.3,170.7,-16.7327,10.549,6.06335,-7.09157,-2.22961,2.91069,-20.5361,-9.05107,169.416,-0.0758981,0.0475607,-0.108722,264.0,2.8,52.1701,4.42718,0.6,1.03336,246.366,4.65034,133.887,-7.21841,191.501,0.959963,0.115978,233.774,4.44304,4.015,-1.131591796875,22.003026962280305,35.0,22.0,-900165.0,584.525,pp-riro,4,0,-1,-1
1570532996.4,2019-10-08,13:09:56.400,14.0,9.0,18.6900005340576,-16.7,11.0,7.4,-22.5,-9.9,170.9,-16.8015,10.5843,7.02243,4.052919999999999,1.73985,6.13036,-21.8975,-9.4758,170.16400000000002,-0.121893,-0.138419,-0.017056,264.0,2.8,52.1701,4.42718,0.6,1.03059,238.429,4.65054,134.909,-8.738430000000001,190.701,0.954108,0.126671,233.76,4.4311,3.98807,0.9793014526367192,22.003026962280305,35.0,22.0,-900005.0,3230.27,pp-riro,4,0,-1,-1
1570532996.5,2019-10-08,13:09:56.500,14.0,10.0,18.3600006103516,-16.5,11.0,7.5,-23.1,-10.1,170.3,-16.8,10.6598,7.175560000000001,2.0121900000000004,0.585021,-1.68338,-22.2148,-9.97744,170.398,-0.145091,-0.153294,-0.0067223,264.0,2.8,52.1701,4.42719,0.9,0.978509,209.722,4.65059,135.93200000000002,-10.6385,189.901,0.948098,0.139893,233.78,4.409669999999999,3.96919,3.0809783935546897,22.003026962280305,35.0,22.0,-899541.0,4737.73,pp-riro,4,0,-1,-1
1570532996.6,2019-10-08,13:09:56.600,14.0,9.0,18.2099990844727,-16.3,11.2,8.0,-24.4,-10.7,169.0,-16.8,10.6598,7.175560000000001,2.0121900000000004,0.585021,-1.68338,-22.2148,-9.97744,170.398,-0.145091,-0.153294,-0.0067223,264.0,2.8,52.1701,4.42719,0.9,0.935291,198.37,4.65072,137.041,-12.1585,189.101,0.941821,0.150221,233.853,4.37694,3.938730000000001,5.1962890625,22.003026962280305,35.0,22.0,-899268.0,1415.17,pp-riro,4,0,-1,-1
1570532996.7,2019-10-08,13:09:56.700,14.0,10.0,18.0599994659424,-15.8,11.5,8.6,-25.2,-12.1,167.7,-16.6456,11.1429,7.77577,-0.696013,1.19736,8.51551,-24.2853,-12.5903,169.394,-0.11322,-0.244719,-0.3482639999999999,264.0,2.8,52.1701,4.42719,0.9,0.950251,203.778,4.6508400000000005,138.122,-14.0585,188.201,0.935215,0.1629799999999999,233.87,4.33438,3.89234,7.2962646484375,22.003026962280305,35.0,22.0,-899204.0,707.5830000000001,pp-riro,4,0,-1,-1
1570532996.8,2019-10-08,13:09:56.800,14.0,10.0,17.8099994659424,-15.2,11.9,9.2,-26.0,-13.7,166.0,-16.3211,11.508,8.4615,4.36883,3.26074,7.454089999999999,-25.1649,-13.9459,167.947,-0.00219777,-0.0800058999999999,-0.376218,264.0,2.8,52.1701,4.42719,0.9,0.953576,202.15,4.650980000000001,139.232,-15.1985,187.301,0.928721,0.170204,233.877,4.28894,3.84467,9.40645599365234,22.003026962280305,35.0,22.0,-899022.0,2215.04,pp-riro,4,0,-1,-1
1570532996.9,2019-10-08,13:09:56.900,14.0,10.0,17.770000457763697,-14.5,12.4,9.8,-27.1,-15.9,163.6,-16.1113,11.737,8.77805,-2.51921,-0.264136,2.33586,-25.54,-15.0795,167.27700000000002,-0.0171813,-0.257887,-0.462892,260.8,3.0,52.1701,4.42719,0.9,0.938616,195.858,4.65107,140.43,-17.0985,186.301,0.921342,0.1825099999999999,233.925,4.22401,3.78699,11.5081329345703,22.0025119781494,35.0,22.0,-898822.0,1876.63,pp-riro,4,0,-1,-1
1570532997.0,2019-10-08,13:09:57.000,14.0,8.0,17.7099990844727,-13.8,13.2,10.6,-27.1,-17.8,160.7,-15.3245,12.6035,9.80439,6.16045,5.57756,1.60509,-26.5559,-18.664,164.213,-0.34994,-0.377204,-0.741169,260.8,3.0,52.1701,4.42719,0.9,0.935845,195.91,4.65109,141.627,-18.2385,185.301,0.914229,0.189382,233.939,4.15988,3.72363,13.6166229248047,22.0025119781494,35.0,22.0,-898671.0,1353.64,pp-riro,4,0,-1,-1
1570532997.1,2019-10-08,13:09:57.100,14.0,11.0,17.5699996948242,-12.9,13.8,11.3,-27.4,-19.7,157.0,-14.9877,13.0352,10.1977,5.17893,7.148210000000001,9.76568,-27.0149,-20.1582,163.119,-0.242348,-0.1595339999999999,-0.565457,260.8,3.0,52.1701,4.42719,0.9,0.940278,196.477,4.65112,142.912,-19.7585,184.301,0.906629,0.198665,234.054,4.0832,3.65926,15.7285232543945,22.0025119781494,35.0,22.0,-898554.0,1322.87,pp-riro,4,0,-1,-1
1570532997.2,2019-10-08,13:09:57.200,14.0,9.0,17.3099994659424,-11.8,14.3,12.1,-27.3,-22.3,153.5,-13.8259,14.2366,11.4906,12.237,5.67401,7.11385,-27.4201,-24.1468,158.711,0.00203706,-0.223755,-0.561074,260.8,3.0,52.1701,4.42719,0.9,0.935845,194.166,4.65115,144.285,-21.2785,183.101,0.898175,0.207671,234.088,4.00387,3.58956,17.8370132446289,22.0025119781494,35.0,22.0,-898377.0,1907.4,pp-riro,4,0,-1,-1
1570532997.3,2019-10-08,13:09:57.300,14.0,8.0,17.2099990844727,-10.5,14.8,12.7,-26.9,-25.3,149.1,-13.8259,14.2366,11.4906,12.237,5.67401,7.11385,-27.4201,-24.1468,158.711,0.00203706,-0.223755,-0.561074,260.8,3.0,52.1701,4.42719,0.9,0.933629,194.24,4.65118,145.658,-22.0385,182.001,0.890337,0.211385,234.15,3.91403,3.51931,19.9523086547852,22.0025119781494,35.0,22.0,-898249.0,1076.76,pp-riro,4,0,-1,-1
1570532997.4,2019-10-08,13:09:57.400,14.0,8.0,17.1000003814697,-9.1,15.3,13.2,-25.4,-28.2,144.1,-11.3641,15.4976,13.134,14.5283,1.28726,9.14652,-26.915,-31.2181,151.851,-0.0662383999999999,-0.196738,-0.8473649999999999,260.8,3.0,52.1701,4.42719,0.9,0.924763,185.824,4.65121,147.14700000000002,-23.1785,180.701,0.881381,0.217427,234.185,3.81683,3.44443,22.0676116943359,22.003026962280305,35.0,22.0,-897981.0,2307.34,pp-riro,4,0,-1,-1
1570532997.5,2019-10-08,13:09:57.500,14.0,8.0,17.1499996185303,-7.6,15.6,13.7,-23.5,-30.5,138.2,-10.7235,15.8347,13.4773,10.7974,4.61418,8.20091,-26.5485,-33.0556,149.638,-0.411012,0.0498978,-0.778406,260.8,3.0,52.1701,4.42719,1.2,0.911466,180.454,4.6512400000000005,148.666,-24.3185,179.50099999999998,0.872591,0.223304,234.337,3.71402,3.36889,24.176101684570305,22.0025119781494,35.0,22.0,-897814.0,1384.4,pp-riro,4,0,-1,-1
1570532997.6,2019-10-08,13:09:57.600,14.0,10.0,17.1499996185303,-6.0,16.1,14.2,-20.6,-33.1,131.1,-10.0275,16.2712,13.834,14.6796,3.3712800000000005,6.33087,-25.9025,-34.4184,147.05200000000002,-0.18075,-0.100789,-0.93386,260.8,3.0,52.1701,4.42719,1.2,0.908141,176.643,4.651269999999999,150.243,-25.0784,178.201,0.8635370000000001,0.226528,234.431,3.5969300000000004,3.28871,26.2880020141602,22.0025119781494,35.0,22.0,-897665.0,1661.28,pp-riro,4,0,-1,-1
1570532997.7,2019-10-08,13:09:57.700,14.0,9.0,17.2000007629395,-4.3,16.3,14.5,-17.1,-35.4,123.5,-7.64045,17.0778,14.8825,15.4432,-6.035830000000001,7.01394,-22.6907,-39.6235,137.933,-0.193648,-0.185658,-0.996957,260.8,3.0,52.1701,4.42719,1.2,0.902046,175.22099999999998,4.6513,151.821,-25.4584,176.90099999999998,0.8546889999999999,0.227246,234.503,3.47974,3.2111400000000003,28.39990234375,22.0025119781494,35.0,22.0,-897580.0,1722.81,pp-riro,4,0,-1,-1
1570532997.8,2019-10-08,13:09:57.800,14.0,10.0,16.8899993896484,-2.5,16.3,14.6,-13.0,-37.0,115.2,-7.64045,17.0778,14.8825,15.4432,-6.035830000000001,7.01394,-22.6907,-39.6235,137.933,-0.193648,-0.185658,-0.996957,260.8,3.0,52.1701,4.42719,1.2,0.895951,169.043,4.651330000000001,153.398,-25.8383,175.50099999999998,0.845564,0.2279489999999999,234.519,3.3589800000000003,3.1306,30.3789520263672,22.0019989013672,35.0,22.0,-897464.0,922.935,pp-riro,4,0,-1,-1
1570532997.9,2019-10-08,13:09:57.900,14.0,13.0,16.629999160766598,-0.5,16.5,14.6,-8.4,-38.1,106.3,-2.76403,17.8874,15.6469,22.517,0.612901,2.3894,-13.1036,-48.3463,117.887,-0.268542,-0.0073475,-1.237,249.8,2.6,52.1701,4.42719,1.2,0.883761,160.43,4.65134,155.004,-25.8383,174.201,0.836835,0.2262219999999999,234.606,3.2356,3.04069,32.0037536621094,22.0025119781494,23.0116176605225,22.0,-897265.0,2430.39,pp-riro,4,0,-1,-1
1570532998.0,2019-10-08,13:09:58.000,14.0,10.0,16.3600006103516,1.2,16.6,14.6,-3.3,-38.7,97.5,-2.76403,17.8874,15.6469,22.517,0.612901,2.3894,-13.1036,-48.3463,117.887,-0.268542,-0.0073475,-1.237,249.8,2.6,52.1701,4.42719,1.2,0.869909,166.483,4.651269999999999,156.64,-26.2182,172.801,0.8275379999999999,0.226927,234.699,3.11426,2.96341,33.2810974121094,22.0025119781494,23.0116176605225,22.0,-897149.0,215.351,pp-ro,1,1,-1,-1
1570532998.1,2019-10-08,13:09:58.100,14.0,10.0,16.25,3.1,16.3,14.8,2.5,-39.0,87.9,-1.7012,18.069000000000003,15.6003,24.6818,3.09994,-2.42598,-10.2055,-49.2227,112.509,-0.300234,0.00172267,-1.25171,249.8,2.6,52.1701,4.42719,1.2,0.914236,193.293,4.6512,158.246,-25.8382,171.50099999999998,0.8190149999999999,0.2230059999999999,234.781,2.98745,2.8829700000000003,34.1973876953125,22.0025119781494,23.0116176605225,22.0,-897271.0,-1538.22,pp-ro,1,1,-1,-1
1570532998.2,2019-10-08,13:09:58.200,14.0,10.0,16.4699993133545,5.0,16.0,14.9,8.3,-38.3,78.2,1.40296,18.2078,15.7532,15.6031,-1.22361,1.3117299999999998,-0.357998,-51.5497,96.2558,-0.501976,-0.234894,-1.36661,249.8,2.6,52.1701,4.42719,1.2,0.958562,201.257,4.65113,159.852,-25.4581,170.101,0.810198,0.21916,234.80900000000003,2.85805,2.80271,34.759429931640604,22.0025119781494,23.0116176605225,22.0,-897243.0,1538.22,pp-ro,1,1,-1,-1
1570532998.3,2019-10-08,13:09:58.300,14.0,13.0,16.4599990844727,6.7,15.5,14.3,13.8,-37.5,68.7,5.768730000000001,17.6279,15.7724,13.8826,0.930401,-8.12198,13.87,-51.8088,72.9303,-0.794887,-0.385505,-1.40604,249.8,2.6,52.1701,4.42719,1.2,0.930858,186.701,4.65106,161.4,-25.078000000000003,168.701,0.801552,0.215442,234.817,2.73163,2.72265,34.9127197265625,22.003026962280305,23.0139999389648,22.0,-896930.0,3322.56,pp-ro,1,1,-1,-1
1570532998.4,2019-10-08,13:09:58.400,14.0,13.0,16.25,8.7,14.8,13.6,18.6,-35.8,59.8,5.768730000000001,17.6279,15.7724,13.8826,0.930401,-8.12198,13.87,-51.8088,72.9303,-0.794887,-0.385505,-1.40604,249.8,2.6,52.1701,4.42719,1.2,0.922547,189.397,4.65099,162.94799999999998,-24.698,167.40099999999998,0.7932,0.2117909999999999,234.916,2.60803,2.62483,34.958694458007805,22.003026962280305,23.0139999389648,22.0,-896787.0,30.7645,pp-ro,1,1,-1,-1
1570532998.5,2019-10-08,13:09:58.500,14.0,12.0,15.9700002670288,10.2,14.0,13.1,22.4,-33.3,52.2,8.01532,17.0521,15.0394,23.0568,-3.91447,-11.4154,20.851,-50.713,60.7393,-0.496121,-0.247575,-1.24208,249.8,2.6,52.1701,4.4272,1.4,0.931412,189.806,4.650919999999999,164.40900000000002,-23.9379,166.101,0.785275,0.2060219999999999,234.932,2.49531,2.54986,34.6248779296875,22.003026962280305,22.2427101135254,22.0,-896742.0,861.4060000000001,pp-ro,1,1,-1,-1
1570532998.6,2019-10-08,13:09:58.600,14.0,14.0,15.8100004196167,11.5,13.1,12.3,26.5,-30.6,44.4,11.0314,15.786,13.9131,18.8513,-10.2465,-11.2481,28.8312,-46.0494,45.9174,-0.344784,-0.14676,-1.10127,249.8,2.6,52.1701,4.4272,1.4,0.918115,180.33900000000003,4.65086,165.78099999999998,-22.4178,164.90099999999998,0.778207,0.195919,234.901,2.37988,2.47715,33.9197845458984,22.003026962280305,20.9983139038086,22.0,-896520.0,2368.87,pp-ro,1,1,-1,-1
1570532998.7,2019-10-08,13:09:58.700,14.0,14.0,15.75,12.6,12.4,11.2,29.7,-27.4,37.2,11.0314,15.786,13.9131,18.8513,-10.2465,-11.2481,28.8312,-46.0494,45.9174,-0.344784,-0.14676,-1.10127,249.8,2.6,52.1701,4.4272,1.4,0.882099,161.062,4.65077,167.125,-21.6577,163.701,0.770888,0.190438,234.942,2.26229,2.403,32.8570251464844,22.0025119781494,19.7877235412598,22.0,-896237.0,1815.1,pp-ro,1,1,-1,-1
1570532998.8,2019-10-08,13:09:58.800,14.0,13.0,15.8000001907349,13.7,11.5,10.2,32.4,-24.1,30.9,14.5529,13.3928,11.1207,9.78473,-8.036769999999999,-10.3077,37.2617,-35.7057,26.718000000000004,-0.354187,-0.0113002,-1.16818,249.8,2.6,52.1701,4.4272,1.4,0.8748959999999999,159.91299999999998,4.6507,168.38099999999997,-20.5177,162.701,0.764564,0.18294,235.042,2.1547,2.3261700000000003,31.4400024414062,22.0025119781494,18.4674701690674,22.0,-896156.0,1568.99,pp-ro,1,1,-1,-1
1570532998.9,2019-10-08,13:09:58.900,14.0,12.0,15.8000001907349,14.5,10.4,9.4,34.5,-20.4,24.7,14.5529,13.3928,11.1207,9.78473,-8.036769999999999,-10.3077,37.2617,-35.7057,26.718000000000004,-0.354187,-0.0113002,-1.16818,265.2,3.0,52.1701,4.4272,1.4,0.877666,167.59,4.6506300000000005,169.607,-18.6176,161.80100000000002,0.758858,0.171051,235.144,2.04545,2.2613,29.6619262695312,22.0025119781494,17.3307247161865,22.0,-896101.0,61.529,pp-ro,1,1,-1,-1
1570532999.0,2019-10-08,13:09:59.000,14.0,12.0,15.8000001907349,15.0,9.5,8.4,36.1,-17.1,19.7,15.6525,12.0729,10.1558,7.121739999999999,-11.7613,-14.7695,39.1606,-31.7856,20.3706,-0.148084,-0.176761,-0.955701,265.2,3.0,52.1701,4.4272,1.4,0.903154,176.86700000000002,4.6506300000000005,170.688,-17.4775,161.001,0.7536,0.163801,235.29,1.95114,2.19921,27.5960159301758,22.003026962280305,16.2740802764893,22.0,-896093.0,307.645,pp-ro,1,1,-1,-1
1570532999.1,2019-10-08,13:09:59.100,14.0,13.0,15.6899995803833,15.6,8.8,7.5,36.8,-13.8,15.4,16.3901,10.999,9.02185,10.2236,-7.59762,-17.2105,39.9285,-27.5725,14.9896,-0.239089,-0.0623871,-1.06224,265.2,3.0,52.1701,4.4272,1.4,0.904817,171.542,4.6506300000000005,171.71,-15.5774,160.201,0.748694,0.15223,235.354,1.8673,2.14221,24.9680633544922,22.003026962280305,15.2791061401367,22.0,-895960.0,1538.22,pp-ro,1,1,-1,-1
1570532999.2,2019-10-08,13:09:59.200,14.0,12.0,15.630000114440902,16.4,8.1,6.6,37.6,-10.4,11.6,16.3901,10.999,9.02185,10.2236,-7.59762,-17.2105,39.9285,-27.5725,14.9896,-0.239089,-0.0623871,-1.06224,265.2,3.0,52.1701,4.4272,1.4,0.880991,161.799,4.65064,172.703,-14.4374,159.501,0.7439439999999999,0.1451569999999999,235.532,1.7845,2.07533,22.8561706542969,22.003026962280305,14.1180849075317,22.0,-895739.0,1999.69,pp-ro,1,1,-1,-1
1570532999.3,2019-10-08,13:09:59.300,14.0,11.0,15.5200004577637,16.6,7.3,5.8,38.0,-8.0,8.0,17.839000000000002,8.71855,6.51951,7.72352,-11.3672,-9.45024,40.9604,-16.7102,5.0019800000000005,-0.175454,0.104272,-0.480179,265.2,3.0,52.1701,4.4272,1.4,0.8721260000000001,162.89700000000002,4.65064,173.579,-12.5373,158.80100000000002,0.739672,0.133854,235.595,1.71933,2.02714,20.7510833740234,22.0025119781494,13.288610458374,22.0,-895647.0,492.232,pp-ro,1,1,-1,-1
1570532999.4,2019-10-08,13:09:59.400,14.0,12.0,15.460000038147,16.7,6.5,5.0,38.6,-5.5,4.9,17.839000000000002,8.71855,6.51951,7.72352,-11.3672,-9.45024,40.9604,-16.7102,5.0019800000000005,-0.175454,0.104272,-0.480179,265.2,3.0,52.1701,4.4272,1.4,0.89041,168.06599999999997,4.65064,174.338,-11.0172,158.30100000000002,0.736233,0.124858,235.743,1.6569999999999998,1.97743,18.7618103027344,22.0025119781494,12.4099569320679,22.0,-895615.0,615.29,pp-ro,1,1,-1,-1
1570532999.5,2019-10-08,13:09:59.500,14.0,12.0,15.5200004577637,16.7,5.9,4.3,39.2,-3.0,2.2,17.9996,7.30155,5.17149,1.06509,-8.303289999999999,-5.9732400000000005,41.1841,-11.5058,0.2817449999999999,-0.321081,0.0414811,-0.8509459999999999,265.2,3.0,52.1701,4.4272,1.5,0.884315,158.845,4.65065,175.06900000000002,-9.49714,157.80200000000002,0.732841,0.115939,235.882,1.5991799999999998,1.93774,16.946266174316403,22.003026962280305,11.736297607421902,22.0,-895454.0,1845.87,pp-ro,1,1,-1,-1
1570532999.6,2019-10-08,13:09:59.600,14.0,12.0,15.5699996948242,16.9,5.5,3.5,39.3,-0.8,0.3,17.9996,7.30155,5.17149,1.06509,-8.303289999999999,-5.9732400000000005,41.1841,-11.5058,0.2817449999999999,-0.321081,0.0414811,-0.8509459999999999,265.2,3.0,52.1701,4.4272,1.5,0.842759,140.31799999999998,4.65065,175.74,-7.597069999999999,157.30200000000002,0.729626,0.104942,235.979,1.55589,1.89664,15.277191162109402,22.0025119781494,11.0223093032837,22.0,-895192.0,1261.34,pp-ro,1,1,-1,-1
1570532999.7,2019-10-08,13:09:59.700,14.0,12.0,15.6800003051758,17.0,4.9,3.1,40.0,0.6,-1.5,18.1319,6.36937,3.89218,3.08141,-6.563619999999999,-9.64238,41.7017,-6.716060000000001,-3.2897199999999995,0.222124,0.22375,-0.618622,265.2,3.0,52.1701,4.4272,1.5,0.838881,140.463,4.65065,176.38299999999998,-6.07701,156.90200000000002,0.726718,0.096177,236.148,1.52267,1.86407,13.8295135498047,22.0019989013672,10.4809627532959,22.0,-895139.0,1015.23,pp-ro,1,1,-1,-1
1570532999.8,2019-10-08,13:09:59.800,14.0,12.0,15.619999885559098,17.1,4.5,2.5,40.6,1.9,-3.5,18.166,5.37324,3.04888,1.45576,-4.67667,-4.30449,42.1716,-2.9887900000000003,-6.02792,0.203805,0.0813757,-0.3956159999999999,265.2,3.0,52.1701,4.4272,1.5,0.8455299999999999,145.07,4.65066,176.908,-4.17695,156.502,0.72413,0.0853401,236.235,1.48979,1.83132,12.5385360717773,22.0025119781494,9.91766929626465,22.0,-895095.0,338.409,pp-ro,1,1,-1,-1
1570532999.9,2019-10-08,13:09:59.900,14.0,11.0,15.3999996185303,17.2,4.4,2.1,41.7,3.7,-5.0,18.2168,5.18228,2.88862,3.55732,-0.552325,-3.05404,42.5048,-2.08765,-6.89279,-0.170446,0.0345874,-0.2337719999999999,256.9,3.2,52.1701,4.4272,1.5,0.858828,152.591,4.65065,177.43400000000003,-2.65689,156.202,0.721789,0.0767027,236.408,1.45474,1.81561,11.4723663330078,22.0025119781494,9.69717693328857,22.0,-895021.0,553.761,pp-ro,1,1,-1,-1
1570533000.0,2019-10-08,13:10:00.000,14.0,10.0,15.2799997329712,17.3,4.2,1.9,42.6,5.1,-6.9,18.2168,5.18228,2.88862,3.55732,-0.552325,-3.05404,42.5048,-2.08765,-6.89279,-0.170446,0.0345874,-0.2337719999999999,256.9,3.2,52.1701,4.4272,1.5,0.864368,155.993,4.65057,177.90099999999998,-0.376821,155.90200000000002,0.719586,0.0638967,236.547,1.42308,1.80737,10.5935440063477,22.0025119781494,9.6120138168335,22.0,-894992.0,522.996,pp-ro,1,1,-1,-1
1570533000.1,2019-10-08,13:10:00.100,14.0,10.0,15.109999656677198,17.6,3.4,1.6,43.9,6.2,-9.1,18.7215,4.13579,1.91076,5.59001,-5.586,-1.26708,44.2423,3.17213,-10.6967,0.101208,-0.131126,-0.38301,256.9,3.2,52.1701,4.4272,1.5,0.8782209999999999,164.33900000000003,4.6504900000000005,178.33900000000003,1.14323,155.702,0.717722,0.0554411999999999,236.747,1.38901,1.7681900000000002,10.2529144287109,22.0025119781494,8.90950107574463,22.0,-894944.0,461.467,pp-ro,1,1,-1,-1
1570533000.2,2019-10-08,13:10:00.200,14.0,11.0,15.0500001907349,17.6,3.0,1.3,44.8,7.5,-10.8,18.9255,3.48606,1.7534900000000002,-0.898682,-4.86076,-1.19568,45.3415,4.503819999999999,-12.572,0.329634,-0.0299921,-0.43173,256.9,3.2,52.1701,4.4272,1.5,0.888748,166.81099999999998,4.65043,178.69,3.0432900000000003,155.40200000000002,0.715733,0.0449031,236.831,1.35954,1.7482,9.63297271728516,22.0025119781494,8.59915828704834,22.0,-894872.0,861.4060000000001,pp-ro,1,1,-1,-1
1570533000.3,2019-10-08,13:10:00.300,14.0,10.0,14.880000114440902,17.7,2.5,1.0,46.0,8.2,-12.5,18.866,3.0632900000000003,1.4624,-2.1985900000000003,-3.91092,-1.64542,46.3687,5.99669,-14.0949,0.244686,-0.108,-0.323771,256.9,3.2,52.1701,4.4272,1.5,0.883761,162.047,4.65036,179.011,4.94335,155.102,0.713771,0.0343895999999999,236.909,1.33788,1.72347,9.25487518310547,22.0025119781494,8.20045852661133,22.0,-894730.0,1568.99,pp-ro,1,1,-1,-1
1570533000.4,2019-10-08,13:10:00.400,14.0,10.0,14.869999885559098,17.7,2.2,0.9,46.5,8.5,-13.2,18.7977,2.51427,1.14615,-2.00589,-6.568010000000001,-3.07968,47.427,7.06548,-15.9279,0.181138,-0.1604,-0.298701,256.9,3.2,52.1701,4.4272,1.5,0.8782209999999999,165.94099999999997,4.65028,179.274,6.8434,155.002,0.712554,0.0239155,237.09,1.33293,1.7151900000000002,8.86315155029297,22.0025119781494,8.09453678131104,22.0,-894571.0,430.703,pp-ro,1,1,-1,-1
1570533000.5,2019-10-08,13:10:00.500,14.0,10.0,14.8199996948242,17.6,1.2,0.6,48.1,8.9,-15.1,18.7866,1.46064,0.752267,-2.17417,-6.822830000000001,-6.49029,48.9216,7.661789999999999,-17.9225,0.25306,-0.0590196,-0.206583,256.9,3.2,52.1701,4.4272,1.6,0.8965049999999999,172.93099999999998,4.650180000000001,179.47799999999998,8.36345,154.702,0.710856,0.0155778,237.097,1.31142,1.67153,8.47483825683594,22.0025119781494,7.3182048797607395,22.0,-894554.0,184.587,pp-ro,1,1,-1,-1
1570533000.6,2019-10-08,13:10:00.600,14.0,11.0,14.8199996948242,17.6,0.8,0.4,48.7,8.9,-15.5,18.603,0.914364,0.5727800000000001,-1.57328,-3.9833,0.8306399999999999,49.9873,8.32811,-18.7001,0.369915,-0.0572125999999999,-0.221103,256.9,3.2,52.1701,4.4272,1.6,0.901492,172.232,4.65014,179.56599999999997,9.50348,154.702,0.7104600000000001,0.00934036,237.206,1.31099,1.65223,8.08651733398438,22.0025119781494,6.95450592041016,22.0,-894506.0,953.699,pp-ro,1,1,-1,-1
1570533000.7,2019-10-08,13:10:00.700,14.0,9.0,14.6999998092651,17.4,0.5,0.3,49.6,8.9,-16.9,18.5703,0.769047,0.509634,-2.93163,-5.777880000000001,-1.13601,50.1996,8.50902,-19.1767,0.239242,-0.0498191,-0.100004,256.9,3.2,52.1701,4.4272,1.6,0.889856,166.002,4.65006,179.741,12.1635,154.502,0.708901,-0.0052809,237.33,1.30462,1.64668,7.715240478515621,22.0025119781494,6.94474267959595,22.0,-894319.0,1968.93,pp-ro,1,1,-1,-1
1570533000.8,2019-10-08,13:10:00.800,14.0,9.0,14.7600002288818,17.4,0.3,0.3,50.0,9.0,-17.2,18.5161,0.610079,0.491353,-0.0899228999999999,-4.01633,-0.321965,50.4413,8.70687,-19.6477,-0.0521352,-0.0274949,-0.174798,256.9,3.2,52.1701,4.4272,1.6,0.878775,163.588,4.64999,179.77,13.3036,154.40200000000002,0.708281,-0.0115069,237.348,1.30407,1.64325,7.31329345703125,22.0019989013672,6.9210638999939,22.0,-894206.0,615.29,pp-ro,1,1,-1,-1
1570533000.9,2019-10-08,13:10:00.900,14.0,11.0,14.6999998092651,17.3,0.0,0.2,50.4,8.9,-18.0,18.3976,0.168997,0.390828,-1.86055,-4.51609,1.04205,51.1925,9.1273,-20.3391,0.107261,0.059697,-0.117904,256.8,3.1,52.1701,4.4272,1.6,0.880437,158.31,4.64992,179.799,14.8236,154.30200000000002,0.7075560000000001,-0.0197922,237.395,1.30171,1.63312,6.99310302734375,22.0025119781494,6.775848865509031,22.0,-894099.0,1445.93,pp-ro,1,1,-1,-1
1570533001.0,2019-10-08,13:10:01.000,14.0,10.0,14.8199996948242,17.2,-0.3,0.1,50.5,8.6,-19.0,18.2931,-0.254932,0.3309269999999999,-5.59708,-3.84207,-0.7189800000000001,51.5728,8.97357,-21.1134,0.24236,-0.2869739999999999,0.113989,256.8,3.1,52.1701,4.4272,1.6,0.856057,150.27200000000002,4.649859999999999,179.799,16.7237,154.202,0.706782,-0.0302461999999999,237.457,1.30103,1.62417,6.85344696044922,22.0025119781494,6.667108058929441,22.0,-893867.0,1107.52,pp-ro,1,1,-1,-1
1570533001.1,2019-10-08,13:10:01.100,14.0,10.0,14.7600002288818,17.3,-0.5,0.0,50.5,8.6,-19.8,18.2991,-0.354561,0.280025,-1.31013,-0.5234489999999999,1.7415,51.6872,8.7758,-21.5911,0.102949,-0.0687946,-0.0918396,256.8,3.1,52.1701,4.4272,1.6,0.861044,154.72299999999998,4.64979,179.77,18.6237,154.102,0.706033,-0.0406634,237.511,1.29877,1.61908,6.70697784423828,22.0019989013672,6.64161825180054,22.0,-893822.0,338.409,pp-ro,1,1,-1,-1
1570533001.2,2019-10-08,13:10:01.200,14.0,10.0,14.880000114440902,17.4,-0.8,0.0,50.7,8.6,-20.6,18.3989,-0.6607729999999999,0.0938544,-0.077135,0.72306,0.161977,51.7201,8.72475,-22.8491,-0.17634,-0.174361,0.03856,256.8,3.1,52.1701,4.4272,1.6,0.8682469999999999,159.515,4.649719999999999,179.71099999999998,20.5237,154.002,0.70531,-0.0510797,237.558,1.29651,1.61477,6.681427001953121,22.0025119781494,6.63869047164917,22.0,-893804.0,369.174,pp-ro,1,1,-1,-1
1570533001.3,2019-10-08,13:10:01.300,14.0,10.0,15.0500001907349,17.4,-1.2,0.0,50.4,8.4,-21.5,18.5462,-1.27519,0.152638,1.86461,-4.1487,1.74368,51.2175,8.56425,-24.1871,-0.0376592,-0.193606,-0.12295,256.8,3.1,52.1701,4.4272,1.6,0.88764,169.658,4.64966,179.62400000000002,22.0438,154.002,0.70506,-0.059414,237.628,1.29426,1.60533,6.645660400390621,22.0019989013672,6.49889802932739,22.0,-893777.0,307.645,pp-ro,1,1,-1,-1
1570533001.4,2019-10-08,13:10:01.400,14.0,10.0,15.2799997329712,17.3,-1.4,0.1,50.2,8.3,-22.5,18.5462,-1.27519,0.152638,1.86461,-4.1487,1.74368,51.2175,8.56425,-24.1871,-0.0376592,-0.193606,-0.12295,256.8,3.1,52.1701,4.4272,1.6,0.900384,174.107,4.64959,179.47799999999998,23.9438,153.90200000000002,0.704477,-0.0698621,237.637,1.29098,1.6088,6.63714599609375,22.0025119781494,6.65781021118164,22.0,-893651.0,1045.99,pp-ro,1,1,-1,-1
1570533001.5,2019-10-08,13:10:01.500,14.0,10.0,15.630000114440902,17.3,-1.5,0.0,49.8,8.4,-23.4,18.5462,-1.27519,0.152638,1.86461,-4.1487,1.74368,51.2175,8.56425,-24.1871,-0.0376592,-0.193606,-0.12295,256.8,3.1,52.1701,4.42721,1.7,0.895951,170.546,4.64953,179.331,25.4638,153.80200000000002,0.703986,-0.0782217,237.62,1.28485,1.6061299999999998,6.51622772216797,22.0025119781494,6.68529844284058,22.0,-893521.0,1476.7,pp-ro,1,1,-1,-1
1570533001.6,2019-10-08,13:10:01.600,14.0,9.0,15.789999961853,17.1,-1.7,0.0,49.6,8.9,-24.2,18.3852,-1.81093,0.0856002,1.0455,0.43012,-1.7631599999999998,50.2535,8.95071,-26.4452,-0.0209489,-0.148066,-0.176477,256.8,3.1,52.1701,4.42721,1.7,0.8926270000000001,169.102,4.64946,179.15599999999998,27.7439,153.702,0.703226,-0.0907434999999999,237.678,1.27752,1.60609,6.61670684814453,22.0025119781494,6.82117033004761,22.0,-893448.0,1415.17,pp-ro,1,1,-1,-1
1570533001.7,2019-10-08,13:10:01.700,14.0,8.0,15.8500003814697,16.9,-2.0,0.0,49.1,9.3,-25.0,18.3852,-1.81093,0.0856002,1.0455,0.43012,-1.7631599999999998,50.2535,8.95071,-26.4452,-0.0209489,-0.148066,-0.176477,256.8,3.1,52.1701,4.42721,1.7,0.885424,164.44099999999997,4.6494,178.952,29.2639,153.602,0.702804,-0.0991349,237.642,1.2687,1.59944,6.66099548339844,22.0019989013672,6.7824215888977095,22.0,-893320.0,1322.87,pp-ro,1,1,-1,-1
1570533001.8,2019-10-08,13:10:01.800,14.0,8.0,15.8999996185303,16.5,-2.1,-0.2,48.7,9.6,-25.6,17.7791,-2.31352,-0.0527821,-3.47927,-0.337966,-3.18377,49.4449,9.57448,-28.0052,-0.223323,-0.1092089999999999,-0.101406,256.8,3.1,52.1701,4.42721,1.7,0.8704629999999999,156.153,4.64933,178.718,31.164,153.602,0.70257,-0.109613,237.708,1.26488,1.59138,6.80235290527344,22.0025119781494,6.7255859375,22.0,-893124.0,1322.87,pp-ro,1,1,-1,-1
1570533001.9,2019-10-08,13:10:01.900,14.0,10.0,15.8999996185303,16.4,-2.1,-0.3,48.5,10.0,-26.5,17.7791,-2.31352,-0.0527821,-3.47927,-0.337966,-3.18377,49.4449,9.57448,-28.0052,-0.223323,-0.1092089999999999,-0.101406,239.3,3.5,52.1701,4.42721,1.7,0.868801,160.173,4.64931,178.543,32.684,153.602,0.702313,-0.117963,237.78,1.25486,1.59165,6.78020477294922,22.0019989013672,6.829318046569821,22.0,-893040.0,584.525,pp-ro,1,1,-1,-1
1570533002.0,2019-10-08,13:10:02.000,14.0,9.0,16.0100002288818,16.3,-2.4,-0.5,48.1,10.7,-27.3,17.5492,-2.4312400000000003,-0.265052,-7.31878,0.1633869999999999,-3.72065,49.2276,9.8486,-28.7532,0.322685,0.00627537,0.00480244,239.3,3.5,52.1701,4.42721,1.7,0.886532,171.84799999999998,4.64923,178.28,34.584,153.602,0.702058,-0.128486,237.852,1.24357,1.57695,6.73081970214844,22.0019989013672,6.6661677360534695,22.0,-893025.0,92.2935,pp-ro,1,1,-1,-1
1570533002.1,2019-10-08,13:10:02.100,14.0,10.0,16.1800003051758,16.3,-2.7,-0.7,48.0,11.4,-28.2,17.461,-3.03066,-0.546312,1.15474,-0.748872,-2.15461,48.1507,11.1371,-30.5403,-0.0463411,-0.0771285,-0.192415,239.3,3.5,52.1701,4.42721,1.7,0.8987219999999999,178.83599999999998,4.64915,177.988,36.104,153.602,0.702033,-0.13693,237.859,1.22975,1.56167,6.81597900390625,22.0025119781494,6.45965433120728,22.0,-893025.0,0.0,pp-ro,1,1,-1,-1
1570533002.2,2019-10-08,13:10:02.200,14.0,11.0,16.3899993896484,16.4,-2.9,-0.8,47.5,11.8,-29.5,17.4774,-3.1536,-0.672107,0.5288510000000001,-0.160677,-2.74226,47.8035,11.4358,-31.1706,-0.0227429,-0.0838849,-0.238143,239.3,3.5,52.1701,4.42721,1.7,0.926426,193.289,4.64907,177.695,37.6241,153.602,0.701972,-0.145373,237.876,1.21514,1.55582,6.65247344970703,22.003026962280305,6.4553103446960405,22.0,-892997.0,553.761,pp-ro,1,1,-1,-1
1570533002.3,2019-10-08,13:10:02.300,14.0,10.0,16.6000003814697,16.4,-3.3,-1.0,47.5,12.3,-30.8,17.4583,-3.49624,-0.814285,-3.3627300000000004,-5.07158,-0.7141810000000001,47.5524,11.775,-32.4473,-0.00904603,-0.0814867,-0.0408546999999999,239.3,3.5,52.1701,4.42721,1.7,0.945819,202.822,4.64899,177.31599999999997,39.5241,153.702,0.702206,-0.155959,237.965,1.20064,1.53857,6.42425537109375,22.003026962280305,6.23571443557739,22.0,-892943.0,522.996,pp-ro,1,1,-1,-1
1570533002.4,2019-10-08,13:10:02.400,14.0,10.0,16.7099990844727,16.5,-3.5,-1.5,47.5,13.1,-31.7,17.5593,-3.84086,-1.0458,-2.38598,-2.28079,-6.752910000000001,47.2042,12.4696,-33.5351,-0.0858587,0.00641504,-0.274636,239.3,3.5,52.1701,4.42721,1.7,0.965211,218.11,4.64891,176.965,41.0441,153.80200000000002,0.702539,-0.164468,238.026,1.18562,1.51517,6.41573333740234,22.003026962280305,5.86564064025879,22.0,-892801.0,676.819,pp-ro,1,1,-1,-1
1570533002.5,2019-10-08,13:10:02.500,14.0,9.0,16.8099994659424,16.7,-3.9,-1.8,47.7,14.1,-33.1,17.6113,-4.1876,-1.49341,-3.21327,-7.25437,-9.55618,46.8487,13.6977,-34.497,0.0935575,0.00417651,-0.15184,239.3,3.5,52.1701,4.42721,1.8,1.00012,235.995,4.64884,176.585,42.9442,153.903,0.702671,-0.175046,238.144,1.16365,1.49674,6.35102081298828,22.003026962280305,5.66531801223755,22.0,-892784.0,246.116,pp-ro,1,1,-1,-1
1570533002.6,2019-10-08,13:10:02.600,14.0,10.0,17.020000457763697,16.8,-4.4,-1.9,47.8,15.0,-34.6,17.9067,-4.71507,-1.7822900000000002,4.07998,-4.08662,-3.34324,46.6322,14.7153,-35.8119,0.00193532,-0.00963935,-0.297723,239.3,3.5,52.1701,4.42721,1.8,1.01342,244.683,4.64876,176.14700000000002,44.4642,154.003,0.703153,-0.183668,238.163,1.14047,1.48182,5.97802734375,22.003026962280305,-35.0,22.0,-892736.0,892.17,pp-ro,1,1,-1,-1
1570533002.7,2019-10-08,13:10:02.700,14.0,9.0,17.3299999237061,16.4,-4.6,-2.0,47.4,15.6,-36.4,17.6417,-5.32845,-1.88373,-3.82635,-0.647123,1.12509,46.2618,15.718,-38.2926,-0.0748616,-0.142805,-0.358498,239.3,3.5,52.1701,4.42721,1.8,1.03669,253.819,4.648680000000001,175.65099999999998,46.3642,154.203,0.70381,-0.194322,238.288,1.11893,1.47163,5.70722961425781,22.003026962280305,-35.0,22.0,-892659.0,769.112,pp-ro,1,1,-1,-1
1570533002.8,2019-10-08,13:10:02.800,14.0,9.0,17.729999542236303,16.0,-4.7,-2.4,47.7,16.6,-37.7,17.0714,-5.44324,-2.22092,-0.27344,1.22391,-7.37892,46.1072,16.6205,-40.0485,-0.0669351,0.125669,-0.270144,239.3,3.5,52.1701,4.42721,1.8,1.04057,250.522,4.6486,175.183,47.5042,154.403,0.704875,-0.201051,238.298,1.09555,1.44822,5.41258239746094,22.003026962280305,-35.0,22.0,-892397.0,3291.8,pp-ro,1,1,-1,-1
1570533002.9,2019-10-08,13:10:02.900,14.0,9.0,18.0699996948242,15.8,-5.0,-2.5,47.9,17.9,-38.5,16.9809,-5.53871,-2.41657,-0.40689,-4.00828,-1.03054,46.0462,17.5534,-40.3871,0.0777619,0.0526218,-0.33347,233.7,4.2,52.1701,4.42721,1.8,1.0173,241.551,4.64851,174.658,49.4043,154.60299999999998,0.7055130000000001,-0.211833,238.428,1.07732,1.43672,4.78242492675781,22.0035419464111,-35.0,22.0,-892096.0,2584.22,pp-ro,1,1,-1,-1
1570533003.0,2019-10-08,13:10:03.000,14.0,10.0,18.270000457763697,15.4,-5.3,-2.8,47.7,18.7,-39.7,16.8914,-5.71587,-2.50343,-0.681499,-3.42823,-0.142878,46.2203,18.3575,-40.7547,0.139786,0.0643269,-0.288508,233.7,4.2,52.1701,4.42721,1.8,1.0173,243.463,4.64839,174.10299999999998,50.9243,154.903,0.706778,-0.220555,238.537,1.05923,1.41081,3.8014144897460898,22.0035419464111,-35.0,22.0,-891803.0,2061.22,pp-ro,1,1,-1,-1
1570533003.1,2019-10-08,13:10:03.100,14.0,11.0,18.4599990844727,15.0,-5.7,-3.3,47.3,19.3,-40.8,16.434,-5.96577,-2.76439,-7.32136,-1.51929,-2.95551,46.101000000000006,19.6197,-41.6582,0.0808274,-0.0289962,-0.257984,233.7,4.2,52.1701,4.42721,1.8,1.0283799999999998,252.093,4.64826,173.548,52.8243,155.203,0.707702,-0.231404,238.741,1.04621,1.37274,2.4627456665039102,22.0035419464111,-35.0,22.0,-891676.0,1045.99,pp-ro,1,1,-1,-1
1570533003.2,2019-10-08,13:10:03.200,14.0,11.0,18.5499992370605,15.0,-5.8,-3.2,47.7,19.3,-41.7,15.8994,-6.35004,-3.21302,-0.810315,-1.20016,-3.06416,46.0955,20.7418,-42.75,0.031729,0.0165210999999999,-0.0813904,233.7,4.2,52.1701,4.42721,1.8,1.03835,257.541,4.64813,172.93400000000003,53.9643,155.503,0.709339,-0.238284,238.746,1.04017,1.37852,0.783447265625,22.003026962280305,-35.0,22.0,-891617.0,1199.82,pp-ro,1,1,-1,-1
1570533003.3,2019-10-08,13:10:03.300,14.0,11.0,18.7000007629395,15.5,-5.8,-3.3,48.1,19.8,-42.5,16.1374,-6.406680000000001,-3.21831,2.24046,-1.92333,1.93888,46.5739,21.7768,-42.8178,0.0356564,0.165265,-0.136962,233.7,4.2,52.1701,4.42721,1.8,1.08434,288.976,4.64801,172.321,55.4843,155.903,0.710952,-0.2471829999999999,238.911,1.03064,1.39109,-1.24935913085938,22.0035419464111,-35.0,22.0,-891478.0,307.645,pp-ro,1,1,-1,-1
1570533003.4,2019-10-08,13:10:03.400,14.0,10.0,18.7900009155273,15.9,-6.4,-3.0,48.8,20.5,-43.4,16.1374,-6.406680000000001,-3.21831,2.24046,-1.92333,1.93888,46.5739,21.7768,-42.8178,0.0356564,0.165265,-0.136962,233.7,4.2,52.1701,4.42721,1.8,1.10595,299.608,4.647880000000001,171.649,57.3844,156.203,0.712028,-0.258188,239.073,1.019,1.40044,-3.34186553955078,22.004056930542003,-35.0,22.0,-891458.0,369.174,pp-ro,1,1,-1,-1
1570533003.5,2019-10-08,13:10:03.500,14.0,10.0,18.9300003051758,16.4,-6.6,-2.8,49.1,19.9,-44.2,16.5713,-6.75707,-3.04481,1.5224799999999998,-2.31796,2.16449,46.4933,22.9813,-43.4004,0.16814,0.0011645,-0.0764911,233.7,4.2,52.1701,4.42721,1.9,1.14252,309.675,4.64776,170.977,58.9044,156.503,0.713381,-0.267211,239.157,1.02284,1.41877,-5.45143890380859,22.004056930542003,-35.0,22.0,-891131.0,3445.62,pp-ro,1,1,-1,-1
1570533003.6,2019-10-08,13:10:03.600,14.0,10.0,19.2099990844727,16.7,-6.7,-2.6,50.0,19.1,-43.9,17.0759,-7.043539999999999,-2.44812,-0.742055,-1.37468,-1.01136,47.8552,22.968000000000004,-43.3182,0.124599,0.0459136999999999,0.191741,233.7,4.2,52.1701,4.42721,1.9,1.13421,307.857,4.64763,170.27599999999998,60.4244,156.803,0.714767,-0.276304,239.233,1.04231,1.43582,-7.567840576171879,22.004056930542003,-35.0,22.0,-890920.0,4030.15,pp-ro,1,1,-1,-1
1570533003.7,2019-10-08,13:10:03.700,14.0,10.0,19.479999542236303,17.3,-6.8,-2.1,51.3,17.8,-43.4,17.0759,-7.043539999999999,-2.44812,-0.742055,-1.37468,-1.01136,47.8552,22.968000000000004,-43.3182,0.124599,0.0459136999999999,0.191741,233.7,4.2,52.1701,4.42721,1.9,1.12811,308.638,4.64751,169.575,62.3244,157.003,0.715436,-0.287387,239.353,1.07171,1.4712,-9.68083190917969,22.004056930542003,-35.0,22.0,-890637.0,2338.1,pp-ro,1,1,-1,-1
1570533003.8,2019-10-08,13:10:03.800,14.0,10.0,19.7900009155273,17.8,-6.8,-1.5,52.6,15.6,-42.7,17.4795,-7.076389999999999,-2.03625,2.42266,-3.67153,6.690910000000001,49.1243,22.1962,-42.4366,0.1399369999999999,0.170132,0.24249,233.7,4.2,52.1701,4.42721,1.9,1.1403,309.879,4.64738,168.845,64.2244,157.203,0.716117,-0.298528,239.471,1.11476,1.51054,-11.7938232421875,22.004571914672898,-35.0,22.0,-890359.0,3261.04,pp-ro,1,1,-1,-1
1570533003.9,2019-10-08,13:10:03.900,14.0,10.0,19.9699993133545,18.4,-6.4,-0.7,54.0,13.3,-41.3,18.1015,-6.92219,-1.0122,1.65726,2.58841,2.97284,51.3767,19.8482,-40.0204,0.414897,0.0464080999999999,0.5025350000000001,254.2,4.1,52.1701,4.42721,1.9,1.127,304.41,4.64722,168.173,65.7445,157.403,0.716966,-0.307593,239.542,1.16634,1.56863,-13.893157958984402,22.004056930542003,-35.0,22.0,-889878.0,2738.04,pp-ro,1,1,-1,-1
