time,date,time_of_day,airspeed_temperature,airspeed_angle_of_attack,airspeed_apparent_windspeed,kite_0_vx,kite_0_vy,kite_0_vz,kite_0_roll,kite_0_pitch,kite_0_yaw,kite_1_vx,kite_1_vy,kite_1_vz,kite_1_ax,kite_1_ay,kite_1_az,kite_1_roll,kite_1_pitch,kite_1_yaw,kite_1_roll_rate,kite_1_pitch_rate,kite_1_yaw_rate,ground_upwind_direction,ground_wind_velocity,ground_pos_latitude,ground_pos_longitude,ground_pos_altitude,ground_tether_reelout_speed,ground_tether_force,est_upwind_direction,kite_pos_east,kite_pos_north,kite_height,kite_elevation,kite_azimuth,kite_distance,kite_heading,kite_course,kite_actual_steering,kite_actual_depower,kite_set_steering,kite_set_depower,ground_mech_energy,ground_mech_power,flight_phase,flight_phase_index,phase,pattern,pattern_section
1570536181.9,2019-10-08,14:03:01.900,14.0,8.0,15.0,13.2,-0.5,1.7,20.1,0.0,-49.2,12.1582,0.0873206,2.3689,7.510969999999999,10.4087,2.46128,23.3847,14.4019,-49.612,0.0723578999999999,0.096834,0.97009,268.4,6.0,52.1701,4.4272,10.3,-2.1648,103.121,4.560969999999999,67.9078,-14.06,232.618,1.28106,0.355576,242.735,0.526226,1.37465,-34.936004638671896,22.027229309082,-35.0,22.0,-952040.0,-1322.87,pp-riro,4,0,-1,-1
1570536182.0,2019-10-08,14:03:02.000,14.0,7.0,14.8299999237061,13.7,0.6,2.0,22.1,-1.9,-44.0,12.4526,0.646688,2.49154,4.91104,11.8167,3.93912,24.6162,13.784,-46.50899999999999,0.237525,0.209206,0.993889,268.4,6.0,52.1701,4.4272,10.3,-2.15316,98.2981,4.560980000000001,67.9078,-12.54,232.518,1.2821,0.334013,242.556,0.646215,1.4790299999999998,-34.975250244140604,22.0081768035889,-35.0,22.0,-952256.0,-4030.15,pp-riro,4,0,-1,-1
1570536182.1,2019-10-08,14:03:02.100,14.0,8.0,14.5799999237061,14.3,1.8,2.3,24.0,-3.3,-38.7,13.127,2.44662,3.05948,5.28803,12.8536,1.7154,27.9316,11.1353,-37.5264,0.152319,0.126364,0.947243,274.7,5.6,52.1701,4.4272,10.3,-2.18585,90.7731,4.5609,67.9662,-11.3999,232.418,1.28254,0.31764,242.42,0.761725,1.5769,-34.978668212890604,22.0019989013672,-35.0,22.0,-953392.0,-10090.8,pp-riro,4,0,-1,-1
1570536182.2,2019-10-08,14:03:02.200,14.0,7.0,14.640000343322802,14.8,3.0,2.7,25.9,-4.8,-33.4,13.127,2.44662,3.05948,5.28803,12.8536,1.7154,27.9316,11.1353,-37.5264,0.152319,0.126364,0.947243,274.7,5.6,52.1701,4.4272,10.3,-2.21356,91.2739,4.56093,68.1707,-10.2599,232.318,1.28233,0.300845,242.33,0.878127,1.66996,-34.9889068603516,22.0009689331055,-35.0,22.0,-953915.0,-10583.0,pp-riro,4,0,-1,-1
1570536182.3,2019-10-08,14:03:02.300,14.0,8.0,14.460000038147,15.2,4.1,3.3,27.9,-6.9,-27.9,13.3739,3.04279,3.17864,3.99444,11.2938,2.38726,28.8863,10.1341,-34.535,0.300672,0.236958,1.00451,274.7,5.6,52.1701,4.4272,10.3,-2.28171,94.132,4.5609,68.4627,-8.35983,232.118,1.28197,0.272996,242.148,1.01165,1.76561,-34.9889068603516,22.0009689331055,-35.0,22.0,-955267.0,-8614.06,pp-riro,4,0,-1,-1
1570536182.4,2019-10-08,14:03:02.400,14.0,8.0,14.210000038147,15.5,5.3,3.8,29.0,-9.0,-23.0,14.0791,5.20209,4.16024,2.56792,10.1052,7.97657,32.4647,6.33935,-22.3541,0.120656,0.191413,1.07914,274.7,5.6,52.1701,4.4272,10.3,-2.2939,94.298,4.56087,68.8424,-7.21978,231.918,1.28075,0.255995,242.027,1.12402,1.85061,-34.9889068603516,22.0009689331055,-35.0,22.0,-955687.0,-8337.18,pp-riro,4,0,-1,-1
1570536182.5,2019-10-08,14:03:02.500,14.0,9.0,13.960000038147,15.8,6.5,4.2,30.1,-11.2,-17.9,14.0791,5.20209,4.16024,2.56792,10.1052,7.97657,32.4647,6.33935,-22.3541,0.120656,0.191413,1.07914,274.7,5.6,52.1701,4.4272,10.3,-2.33102,91.5945,4.56085,69.3389,-5.31971,231.617,1.27911,0.2281139999999999,241.832,1.25113,1.93835,-34.9889068603516,22.0009689331055,-35.0,22.0,-956492.0,-8398.71,pp-riro,4,0,-1,-1
1570536182.6,2019-10-08,14:03:02.600,14.0,8.0,13.8400001525879,15.9,7.7,4.6,31.1,-13.3,-12.3,14.4904,7.49582,5.0618300000000005,3.54938,10.5304,4.03065,34.6952,1.37807,-10.8586,0.0814506,0.213628,0.968116,274.7,5.6,52.1701,4.4272,10.3,-2.37757,88.5767,4.56082,70.0398,-3.79964,231.317,1.2763799999999998,0.205767,241.718,1.38059,2.02068,-34.9923248291016,22.0009689331055,-35.0,22.0,-957632.0,-11475.2,pp-riro,4,0,-1,-1
1570536182.7,2019-10-08,14:03:02.700,14.0,9.0,13.8400001525879,16.0,8.9,5.1,31.7,-15.6,-7.0,14.5743,8.6435,5.44923,-1.19451,10.655,6.58321,35.4199,-0.982651,-5.149769999999999,0.0215753,0.304051,1.0025700000000002,274.7,5.6,52.1701,4.4272,10.6,-2.464,89.6343,4.56079,70.77,-2.65959,230.917,1.27321,0.18916,241.533,1.49981,2.09438,-35.0093841552734,22.0009689331055,-35.0,22.0,-959407.0,-13228.7,pp-riro,4,0,-1,-1
1570536182.8,2019-10-08,14:03:02.800,14.0,9.0,13.8400001525879,16.0,10.1,5.7,32.2,-17.9,-1.7,14.5452,9.75506,5.94936,-0.507376,10.4832,3.84026,35.8805,-3.45965,0.656846,0.12671,0.223726,1.05859,274.7,5.6,52.1701,4.4272,10.6,-2.4967,91.7958,4.56077,71.6462,-0.75951,230.517,1.26944,0.162224,241.396,1.6282,2.17734,-35.0059814453125,22.0009689331055,-35.0,22.0,-960038.0,-12028.9,pp-riro,4,0,-1,-1
1570536182.9,2019-10-08,14:03:02.900,14.0,9.0,13.8299999237061,15.8,11.4,6.2,32.2,-20.3,4.0,14.5396,10.3209,6.1550400000000005,-0.767085,9.78198,4.860930000000001,35.9317,-4.6765300000000005,3.5991699999999995,0.1323099999999999,0.338712,1.02922,274.7,5.6,52.1701,4.4272,10.6,-2.54102,95.7154,4.56074,72.6684,0.760559,229.917,1.26465,0.141184,241.129,1.7571599999999998,2.25907,-35.0076751708984,22.0009689331055,-35.0,22.0,-960978.0,-8275.65,pp-riro,4,0,-1,-1
1570536183.0,2019-10-08,14:03:03.000,14.0,9.0,13.960000038147,15.5,12.6,6.7,32.0,-22.6,10.1,14.1626,12.032,6.84218,-2.74921,12.243,4.4172400000000005,35.4138,-8.42432,12.5094,0.0539315,0.264332,1.0479,274.7,5.6,52.1701,4.4272,10.6,-2.56374,102.174,4.56071,73.8075,2.6606400000000003,229.317,1.25922,0.115644,240.917,1.89469,2.34049,-35.0076751708984,22.0009689331055,-35.0,22.0,-962057.0,-5199.2,pp-riro,4,0,-1,-1
1570536183.1,2019-10-08,14:03:03.100,14.0,9.0,14.1499996185303,15.0,13.8,7.2,31.4,-25.0,16.4,13.7446,13.155,7.257569999999999,-3.01519,13.2187,6.493119999999999,34.6088,-10.7953,18.7613,-0.0466937,0.305079,1.06841,283.4,7.2,52.1701,4.4272,10.6,-2.56706,105.459,4.56071,75.0926,4.18072,228.717,1.2531,0.0960593999999999,240.765,2.02853,2.41941,-35.0076751708984,22.0009689331055,-35.0,22.0,-962267.0,-4153.21,pp-riro,4,0,-1,-1
1570536183.2,2019-10-08,14:03:03.200,14.0,9.0,14.3999996185303,14.3,15.1,7.8,30.6,-26.8,22.8,13.5677,13.6621,7.49931,-5.06416,11.2354,5.84198,34.0896,-11.9985,22.0253,0.0194821,0.366242,1.1042,283.4,7.2,52.1701,4.4272,10.6,-2.54102,112.691,4.56079,76.4653,5.7007900000000005,227.917,1.24626,0.0771826999999999,240.47,2.15774,2.50488,-35.0059814453125,22.0009689331055,-35.0,22.0,-962394.0,676.819,pp-riro,4,0,-1,-1
1570536183.3,2019-10-08,14:03:03.300,14.0,9.0,14.6999998092651,13.5,16.4,8.4,29.7,-28.6,29.5,12.9669,14.7596,8.037980000000001,-7.57609,8.200460000000001,6.55979,32.7636,-13.8857,28.7213,0.0774748999999999,0.379891,1.09839,283.4,7.2,52.1701,4.4272,10.6,-2.45458,112.64,4.56087,78.0133,7.22087,227.117,1.23862,0.0592247,240.251,2.28862,2.58913,-35.0042724609375,22.0009689331055,-35.0,22.0,-962067.0,1815.1,pp-riro,4,0,-1,-1
1570536183.4,2019-10-08,14:03:03.400,14.0,9.0,15.0,12.6,17.7,9.0,28.8,-30.5,35.9,12.5671,15.3125,8.33388,-7.437869999999999,12.6906,4.85083,32.1628,-14.744000000000002,32.0539,-0.0273861,0.362614,1.0545,283.4,7.2,52.1701,4.4272,10.6,-2.4213400000000003,110.948,4.560919999999999,79.6781,8.36093,226.317,1.23056,0.0469175,240.079,2.40809,2.66781,-35.0059814453125,22.0009689331055,-23.0044822692871,22.0,-962021.0,861.4060000000001,pp-riro,4,0,-1,-1
1570536183.5,2019-10-08,14:03:03.500,14.0,7.0,15.1800003051758,12.2,18.3,9.3,28.3,-31.4,39.3,11.788,16.483,8.83646,-10.086,14.1355,3.4155300000000004,30.9283,-16.2256,38.8533,0.142124,0.314326,1.06505,283.4,7.2,52.1701,4.4272,10.6,-2.36261,120.266,4.56102,80.5835,9.50099,225.817,1.22584,0.0340695,239.953,2.47558,2.7089,-35.0008544921875,22.0009689331055,-23.0044822692871,22.0,-961881.0,1907.4,pp-riro,4,0,-1,-1
1570536183.6,2019-10-08,14:03:03.600,14.0,11.0,15.5200004577637,10.7,20.1,10.3,26.5,-32.8,49.3,9.97664,18.6768,10.0045,-7.385569999999999,10.1892,5.95319,27.9237,-18.8402,51.9472,-0.038794,0.377077,1.01807,283.4,7.2,52.1701,4.4272,10.6,-2.17089,153.007,4.5611,83.4166,11.0211,224.417,1.2120799999999998,0.0199287999999999,239.672,2.64509,2.81554,-34.7294769287109,22.0009689331055,35.0,22.0,-960296.0,16059.1,pp-riro,4,0,-1,-1
1570536183.7,2019-10-08,14:03:03.700,14.0,11.0,15.9099998474121,10.4,20.7,10.6,25.7,-33.2,52.8,9.97664,18.6768,10.0045,-7.385569999999999,10.1892,5.95319,27.9237,-18.8402,51.9472,-0.038794,0.377077,1.01807,283.4,7.2,52.1701,4.4272,11.0,-2.06063,160.197,4.56118,84.3512,11.4011,223.917,1.20753,0.0168635,239.549,2.7016,2.8403,-34.092849731445305,22.0009689331055,35.0,22.0,-959188.0,20889.1,pp-riro,4,0,-1,-1
1570536183.8,2019-10-08,14:03:03.800,14.0,11.0,16.5100002288818,9.2,22.0,11.3,23.7,-34.4,61.2,9.56291,19.13,10.2683,-10.1796,12.7867,5.16444,27.1216,-19.3919,55.3961,0.116213,0.359714,1.05629,283.4,7.2,52.1701,4.4272,11.0,-1.78193,173.921,4.56125,86.5417,12.9212,222.817,1.1966,0.00292332,239.382,2.84191,2.91733,-33.3811187744141,22.0009689331055,23.0044822692871,22.0,-957018.0,22888.8,pp-riro,4,0,-1,-1
1570536183.9,2019-10-08,14:03:03.900,14.0,11.0,17.0400009155273,7.7,23.1,11.8,21.3,-35.7,69.4,8.06439,20.6673,10.9299,-11.0142,10.8742,8.3787,23.4836,-21.4759,66.3338,-0.0563854,0.263545,1.21474,283.4,7.2,52.1701,4.4272,11.0,-1.40571,192.824,4.56133,88.8199,13.6813,221.617,1.18555,-0.00177588,239.144,2.96896,2.9893400000000003,-31.751159667968803,22.0009689331055,9.85706520080566,22.0,-954667.0,23780.9,pp-ro,1,1,-1,-1
1570536184.0,2019-10-08,14:03:04.000,14.0,11.0,17.5499992370605,5.9,23.8,12.2,18.7,-36.9,77.1,8.06439,20.6673,10.9299,-11.0142,10.8742,8.3787,23.4836,-21.4759,66.3338,-0.0563854,0.263545,1.21474,283.4,7.2,52.1701,4.4272,11.0,-0.717537,199.07,4.56141,91.098,14.4413,220.416,1.17448,-0.00619924,238.937,3.08556,3.0646400000000003,-31.3585968017578,22.0009689331055,11.4880285263062,22.0,-951839.0,14705.4,pp-ro,1,1,-1,-1
1570536184.1,2019-10-08,14:03:04.100,14.0,11.0,17.9500007629395,4.2,24.3,12.2,15.6,-37.4,84.7,4.41646,22.6057,11.7687,-18.3754,5.84857,2.38626,16.7199,-24.8216,85.2943,-0.0143018,0.1123359999999999,0.963375,273.5,6.0,52.1701,4.4272,11.0,-0.488147,193.078,4.56145,93.4638,14.8214,219.216,1.16328,-0.00632887,238.77,3.19463,3.12914,-29.0646820068359,22.0009689331055,13.0452499389648,22.0,-951338.0,9629.29,pp-ro,1,1,-1,-1
1570536184.2,2019-10-08,14:03:04.200,14.0,9.0,18.2399997711182,2.4,24.5,11.8,12.9,-36.8,92.2,4.41646,22.6057,11.7687,-18.3754,5.84857,2.38626,16.7199,-24.8216,85.2943,-0.0143018,0.1123359999999999,0.963375,273.5,6.0,52.1701,4.4272,11.0,-0.0698143999999999,177.02200000000002,4.56149,95.9172,15.2014,218.016,1.15174,-0.00628072,238.668,3.30208,3.19529,-26.9516983032227,22.0009689331055,14.6609306335449,22.0,-951088.0,338.409,pp-ro,1,1,-1,-1
1570536184.3,2019-10-08,14:03:04.300,14.0,8.0,18.4300003051758,0.6,24.6,11.6,10.4,-36.0,98.6,3.58109,22.7901,11.6875,-21.1894,2.19849,1.1831200000000002,15.5408,-25.2759,88.7761,0.123629,0.185319,1.04767,273.5,6.0,52.1701,4.4272,11.0,0.437725,163.335,4.5615,98.3414,15.2015,216.916,1.14069,-0.00247831,238.652,3.3915900000000003,3.25821,-24.8523635864258,22.0009689331055,16.3292407989502,22.0,-951685.0,-5752.96,pp-ro,1,1,-1,-1
1570536184.4,2019-10-08,14:03:04.400,14.0,8.0,18.5300006866455,-0.7,24.2,11.5,8.4,-35.2,104.3,1.26883,23.1541,11.2637,-13.5091,0.55714,-2.5065,11.8814,-25.8979,97.8571,0.101751,0.205332,0.8329479999999999,273.5,6.0,52.1701,4.4272,11.0,0.728618,163.77700000000002,4.56151,100.766,15.5815,215.816,1.12943,-0.00253522,238.69,3.47481,3.3061300000000005,-22.7376708984375,22.0009689331055,17.5949592590332,22.0,-952511.0,-9075.52,pp-ro,1,1,-1,-1
1570536184.5,2019-10-08,14:03:04.500,14.0,8.0,18.520000457763697,-1.9,23.9,11.1,6.5,-34.5,109.5,-1.53052,22.6616,10.7836,-14.6897,-4.18508,-2.16976,8.48215,-25.4553,108.657,-0.105741,0.137091,0.7037869999999999,273.5,6.0,52.1701,4.4272,11.0,0.938061,160.408,4.56152,103.102,15.2016,214.716,1.11892,0.0044784,238.672,3.5452,3.3461199999999995,-20.6297988891602,22.0009689331055,18.9194889068604,22.0,-953130.0,-1661.28,pp-ro,1,1,-1,-1
1570536184.6,2019-10-08,14:03:04.600,14.0,7.0,18.4699993133545,-3.0,23.5,10.7,4.9,-33.1,114.0,-2.06076,22.4822,10.6066,-14.1063,-5.9417,-0.278802,7.560460000000001,-25.1533,111.122,0.146919,0.279864,0.657092,273.5,6.0,52.1701,4.4272,11.0,0.830015,152.167,4.56153,105.468,15.2016,213.716,1.10827,0.00770642,238.808,3.61196,3.38732,-18.5168151855469,22.0009689331055,20.1651668548584,22.0,-952388.0,5999.08,pp-ro,1,1,-1,-1
1570536184.7,2019-10-08,14:03:04.700,14.0,7.0,18.4300003051758,-4.0,23.1,10.6,3.6,-31.7,118.3,-3.01724,22.0734,10.0958,-9.70171,-2.3503700000000003,-3.37474,6.037719999999999,-24.4326,115.659,-0.139038,0.168319,0.558974,273.5,6.0,52.1701,4.42721,11.3,0.8272450000000001,155.864,4.56154,107.775,14.8217,212.716,1.09804,0.0141782,238.921,3.67421,3.4216900000000003,-15.874725341796902,22.0009689331055,21.3791198730469,22.0,-952528.0,-2676.51,pp-ro,1,1,-1,-1
1570536184.8,2019-10-08,14:03:04.800,14.0,8.0,18.2800006866455,-4.9,22.8,10.7,2.1,-30.1,122.2,-3.92522,21.908,10.0626,-15.1188,-1.71504,4.7266,4.56915,-23.6276,119.958,0.129859,0.12472,0.681193,273.5,6.0,52.1701,4.42721,11.3,0.91479,176.523,4.56155,110.083,14.4417,211.716,1.08781,0.02039,239.061,3.73287,3.45159,-13.7651443481445,22.0009689331055,22.5084991455078,22.0,-952706.0,430.703,pp-ro,1,1,-1,-1
1570536184.9,2019-10-08,14:03:04.900,14.0,9.0,18.1299991607666,-5.7,22.4,10.6,0.0,-28.9,125.7,-3.92522,21.908,10.0626,-15.1188,-1.71504,4.7266,4.56915,-23.6276,119.958,0.129859,0.12472,0.681193,273.5,6.0,52.1701,4.42721,11.3,0.905371,181.856,4.56156,112.332,14.0617,210.716,1.07779,0.0262914,239.201,3.78471,3.48004,-11.6589889526367,22.0009689331055,23.0044822692871,22.0,-952533.0,830.6410000000001,pp-ro,1,1,-1,-1
1570536185.0,2019-10-08,14:03:05.000,14.0,9.0,18.0799999237061,-6.5,22.4,10.4,-1.7,-27.2,128.7,-5.67989,21.4116,9.85146,-9.00424,-2.08779,-2.54168,0.744374,-22.5637,127.162,-0.181254,0.0652579,0.380981,273.5,6.0,52.1701,4.42721,11.3,0.922547,190.952,4.56161,114.581,13.6818,209.716,1.06777,0.0319327,239.367,3.83307,3.50681,-10.6042022705078,22.0009689331055,23.0044822692871,22.0,-952363.0,1784.34,pp-ro,1,1,-1,-1
1570536185.1,2019-10-08,14:03:05.100,14.0,10.0,18.1299991607666,-7.1,22.3,10.6,-3.4,-25.8,131.0,-6.02329,21.4232,9.83184,-3.49541,1.99344,0.6717529999999999,-0.158094,-22.2096,128.65,-0.163867,0.163747,0.444488,267.1,5.7,52.1701,4.42721,11.3,0.926426,197.893,4.56159,116.83,12.9218,208.615,1.05769,0.0406428,239.451,3.86759,3.5211900000000003,-8.4912109375,22.0009689331055,23.0044822692871,22.0,-952335.0,522.996,pp-ro,1,1,-1,-1
1570536185.2,2019-10-08,14:03:05.200,14.0,10.0,18.1800003051758,-7.7,22.2,11.0,-5.4,-24.7,132.9,-6.773219999999999,21.4724,9.93136,-4.00612,1.88776,3.2573,-2.25856,-21.6778,131.082,-0.298618,0.0481991,0.2929469999999999,267.1,5.7,52.1701,4.42721,11.3,0.964103,212.178,4.56157,119.108,11.7818,207.515,1.0476299999999998,0.0522209,239.558,3.89241,3.53132,-6.36968994140625,22.0009689331055,23.0044822692871,22.0,-952359.0,0.0,pp-ro,1,1,-1,-1
1570536185.3,2019-10-08,14:03:05.300,14.0,11.0,18.1800003051758,-8.2,22.2,11.1,-7.4,-23.7,134.0,-7.718389999999999,21.5035,10.3591,-5.37182,-1.48495,0.2600679999999999,-5.60527,-21.3333,133.89700000000002,-0.179126,-0.0452251999999999,0.186585,267.1,5.7,52.1701,4.42721,11.3,0.978509,218.18400000000003,4.56155,121.298,11.0218,206.315,1.0375,0.0602198,239.585,3.90818,3.54195,-4.25840759277344,22.0009689331055,23.0044822692871,22.0,-952186.0,2430.39,pp-ro,1,1,-1,-1
1570536185.4,2019-10-08,14:03:05.400,14.0,12.0,18.1800003051758,-8.5,22.1,11.5,-9.5,-23.2,135.0,-7.718389999999999,21.5035,10.3591,-5.37182,-1.48495,0.2600679999999999,-5.60527,-21.3333,133.89700000000002,-0.179126,-0.0452251999999999,0.186585,267.1,5.7,52.1701,4.42721,11.3,0.986267,227.37,4.56155,123.606,10.2619,205.115,1.02694,0.0680074,239.7,3.91949,3.54403,-2.14370727539062,22.0009689331055,23.0044822692871,22.0,-951985.0,922.935,pp-ro,1,1,-1,-1
1570536185.5,2019-10-08,14:03:05.500,14.0,12.0,18.1800003051758,-8.8,22.3,12.1,-11.5,-22.9,135.1,-8.41945,21.6825,10.8419,-3.05701,3.63702,8.668660000000001,-9.29636,-21.725,135.608,-0.4761229999999999,-0.140617,-0.00619034,267.1,5.7,52.1701,4.42721,11.3,1.01065,240.953,4.56151,125.913,9.5019,203.715,1.01591,0.075553,239.675,3.91653,3.54176,-0.039253234863281,22.0009689331055,23.0044822692871,22.0,-951886.0,953.699,pp-ro,1,1,-1,-1
1570536185.6,2019-10-08,14:03:05.600,14.0,12.0,18.1800003051758,-8.8,22.3,12.9,-13.5,-23.1,134.4,-8.70202,21.8351,11.1386,-1.88735,0.4623109999999999,5.36046,-10.7717,-21.8085,135.724,-0.453634,0.0834369,0.18358,267.1,5.7,52.1701,4.42721,11.3,1.02228,246.80900000000003,4.5615,128.162,8.36192,202.315,1.00516,0.0857401999999999,239.639,3.89618,3.5271,2.06761169433594,22.0009689331055,23.0044822692871,22.0,-951815.0,1292.11,pp-ro,1,1,-1,-1
1570536185.7,2019-10-08,14:03:05.700,14.0,12.0,18.2199993133545,-8.7,22.3,13.6,-15.2,-24.1,133.3,-8.918280000000001,22.2278,12.7388,2.47458,-1.88605,7.6004,-15.8666,-23.8569,135.244,-0.565134,-0.251539,-0.376992,267.1,5.7,52.1701,4.42721,11.5,1.04223,256.853,4.56148,130.382,7.60195,200.815,0.994164,0.0926725,239.549,3.86727,3.5127300000000004,4.174400329589839,22.0009689331055,23.0044822692871,22.0,-951575.0,1815.1,pp-ro,1,1,-1,-1
1570536185.8,2019-10-08,14:03:05.800,14.0,11.0,18.3700008392334,-8.4,22.6,14.3,-16.4,-25.2,131.2,-8.88825,22.5886,13.4939,-0.697754,6.106269999999999,8.60903,-17.7884,-25.7686,133.983,-0.636735,-0.12249,-0.378781,267.1,5.7,52.1701,4.42721,11.5,1.04722,259.072,4.56146,132.689,6.84198,199.215,0.9826,0.099412,239.457,3.82351,3.48937,6.28630065917969,22.0009689331055,23.0044822692871,22.0,-951481.0,1938.16,pp-ro,1,1,-1,-1
1570536185.9,2019-10-08,14:03:05.900,14.0,10.0,18.6000003814697,-7.6,22.5,15.1,-16.8,-26.8,128.7,-8.88825,22.5886,13.4939,-0.697754,6.106269999999999,8.60903,-17.7884,-25.7686,133.983,-0.636735,-0.12249,-0.378781,267.1,5.7,52.1701,4.42721,11.5,1.05165,262.907,4.56144,134.938,6.08202,197.615,0.971211,0.1059069999999999,239.368,3.77128,3.45235,8.39479064941406,22.0009689331055,23.0044822692871,22.0,-951147.0,2030.46,pp-ro,1,1,-1,-1
1570536186.0,2019-10-08,14:03:06.000,14.0,12.0,18.7399997711182,-6.7,22.4,15.8,-17.2,-29.1,126.0,-8.68003,22.7383,13.9505,3.77497,1.99342,9.84352,-18.5958,-26.3912,132.865,-0.324476,-0.1202029999999999,-0.4168779999999999,267.1,5.7,52.1701,4.42721,11.5,1.05165,251.772,4.56142,137.158,4.94204,195.915,0.959705,0.114951,239.205,3.7105,3.4107,10.496467590332,22.0009689331055,23.0044822692871,22.0,-950904.0,2953.39,pp-ro,1,1,-1,-1
1570536186.1,2019-10-08,14:03:06.100,14.0,10.0,18.8799991607666,-5.2,22.3,16.1,-16.9,-31.1,122.2,-8.68003,22.7383,13.9505,3.77497,1.99342,9.84352,-18.5958,-26.3912,132.865,-0.324476,-0.1202029999999999,-0.4168779999999999,268.9,6.1,52.1701,4.42721,11.5,1.00566,228.234,4.56141,139.465,4.5621,194.114,0.947529,0.118279,239.064,3.64195,3.3549300000000004,12.6015472412109,22.0009689331055,23.0044822692871,22.0,-950439.0,4737.73,pp-ro,1,1,-1,-1
1570536186.2,2019-10-08,14:03:06.200,14.0,8.0,18.8299999237061,-3.8,22.3,16.3,-15.3,-33.2,117.8,-8.68003,22.7383,13.9505,3.77497,1.99342,9.84352,-18.5958,-26.3912,132.865,-0.324476,-0.1202029999999999,-0.4168779999999999,268.9,6.1,52.1701,4.42721,11.5,0.981834,219.874,4.56142,141.743,3.80214,192.414,0.935718,0.124154,239.017,3.56402,3.2999400000000003,14.7202606201172,22.0009689331055,23.0044822692871,22.0,-950257.0,3384.09,pp-ro,1,1,-1,-1
1570536186.3,2019-10-08,14:03:06.300,14.0,7.0,18.8799991607666,-2.4,22.0,16.6,-13.4,-34.9,112.7,-4.75907,22.9978,16.3914,25.8465,5.06433,4.49489,-19.0479,-35.0762,121.772,-0.4895319999999999,-0.0612878,-0.567367,268.9,6.1,52.1701,4.42721,11.5,0.971306,216.18400000000003,4.56142,143.934,3.8022,190.71400000000003,0.92412,0.1245579999999999,238.963,3.48466,3.24953,16.8287506103516,22.0009689331055,23.0044822692871,22.0,-950096.0,1261.34,pp-ro,1,1,-1,-1
1570536186.4,2019-10-08,14:03:06.400,14.0,7.0,18.7800006866455,-0.8,21.7,16.6,-10.4,-36.2,106.2,-2.29226,22.9154,17.0346,20.5573,-3.3260300000000003,1.91324,-16.0331,-39.1747,114.493,0.181753,-0.175786,-0.859984,268.9,6.1,52.1701,4.42721,11.5,0.978509,218.929,4.5614300000000005,146.095,3.42225,189.114,0.912902,0.127538,238.997,3.3872800000000005,3.18946,18.7430801391602,22.0009689331055,23.0044822692871,22.0,-949846.0,1753.58,pp-ro,1,1,-1,-1
1570536186.5,2019-10-08,14:03:06.500,14.0,8.0,18.729999542236303,0.9,21.2,16.6,-6.8,-37.2,99.4,-0.556932,22.7385,17.204,17.6216,-0.949406,2.57095,-12.8998,-41.5932,108.113,-0.107623,-0.375351,-1.0557,268.9,6.1,52.1701,4.42721,11.5,0.976847,217.522,4.56142,148.227,3.42231,187.414,0.901494,0.127885,238.971,3.29035,3.12636,20.2997512817383,22.0009689331055,23.0044822692871,22.0,-949750.0,1815.1,pp-ro,1,1,-1,-1
1570536186.6,2019-10-08,14:03:06.600,14.0,10.0,18.6399993896484,2.6,20.9,16.6,-2.9,-37.6,92.0,1.4498,22.3582,17.281,19.596,-0.8249299999999999,-0.665562,-8.7832,-43.1595,100.802,-0.170735,-0.0512131,-1.08721,268.9,6.1,52.1701,4.42721,11.5,0.974631,216.153,4.56145,150.389,3.4223800000000004,185.814,0.8902530000000001,0.128191,239.072,3.18728,3.06231,21.5055770874023,22.0009689331055,23.0044822692871,22.0,-949558.0,2061.22,pp-ro,1,1,-1,-1
1570536186.7,2019-10-08,14:03:06.700,14.0,10.0,18.4899997711182,4.3,20.6,16.8,1.3,-38.2,84.6,4.34704,22.1533,17.5637,24.5349,-6.35723,5.52291,-2.27774,-44.999,89.3621,-0.392374,0.0232951,-0.905386,268.9,6.1,52.1701,4.427219999999999,11.6,0.975739,221.591,4.56145,152.433,3.80245,184.21400000000003,0.8793700000000001,0.126,239.134,3.08713,3.00056,22.3469314575195,22.0009689331055,23.0044822692871,22.0,-949380.0,1476.7,pp-ro,1,1,-1,-1
1570536186.8,2019-10-08,14:03:06.800,14.0,11.0,18.3999996185303,6.2,20.3,17.0,6.1,-37.8,76.5,5.43329,22.0204,17.5957,12.0223,-0.271866,-4.55561,0.2495929999999999,-45.4625,85.1051,-0.148579,-0.201724,-1.28513,268.9,6.1,52.1701,4.427219999999999,11.6,1.02949,254.019,4.56146,154.44799999999998,4.182519999999999,182.614,0.868585,0.123856,239.206,2.97718,2.93236,22.8357315063477,22.0009689331055,23.0044822692871,22.0,-949354.0,-338.409,pp-ro,1,1,-1,-1
1570536186.9,2019-10-08,14:03:06.900,14.0,11.0,18.25,8.0,19.7,17.1,11.2,-37.5,68.4,6.434069999999999,22.006,17.8557,21.2333,5.40862,7.77573,2.70156,-45.7314,80.7921,-0.282363,-0.135019,-0.961396,268.9,6.1,52.1701,4.427219999999999,11.6,1.0522,264.511,4.56147,156.52200000000002,4.5626,180.914,0.857348,0.121781,239.269,2.86764,2.86608,22.9787979125977,22.0009689331055,23.0044822692871,22.0,-949311.0,861.4060000000001,pp-ro,1,1,-1,-1
1570536187.0,2019-10-08,14:03:07.000,14.0,12.0,18.25,9.8,19.0,17.0,16.0,-36.7,60.7,6.434069999999999,22.006,17.8557,21.2333,5.40862,7.77573,2.70156,-45.7314,80.7921,-0.282363,-0.135019,-0.961396,268.9,6.1,52.1701,4.427219999999999,11.6,1.08711,285.404,4.56147,158.45,5.7026900000000005,179.21400000000003,0.846493,0.114944,239.283,2.76572,2.80153,22.9787979125977,22.0009689331055,23.0044822692871,22.0,-949090.0,1261.34,pp-ro,1,1,-1,-1
1570536187.1,2019-10-08,14:03:07.100,14.0,12.0,18.1499996185303,11.6,18.1,16.9,20.6,-35.4,53.5,11.7403,20.3087,17.9713,20.3386,-9.79111,-7.50845,16.4434,-44.4163,58.2238,-0.0666428999999999,0.046403,-1.21551,252.5,4.7,52.1701,4.427219999999999,11.6,1.10706,291.631,4.56148,160.319,6.84278,177.513,0.8357979999999999,0.108248,239.291,2.66743,2.73488,22.9787979125977,22.0009689331055,22.227430343627898,22.0,-948873.0,2584.22,pp-ro,1,1,-1,-1
1570536187.2,2019-10-08,14:03:07.200,14.0,11.0,18.2900009155273,13.4,16.9,16.5,24.8,-33.7,46.3,12.8053,19.8208,17.8389,25.7085,-7.57715,-0.621664,18.9871,-43.6713,53.8959,-0.182054,-0.125608,-1.21452,252.5,4.7,52.1701,4.427219999999999,11.6,1.10706,289.98,4.5614,162.159,7.98287,175.813,0.825174,0.101797,239.311,2.56567,2.6610400000000003,22.9804992675781,22.0009689331055,21.2148513793945,22.0,-948707.0,3322.56,pp-ro,1,1,-1,-1
1570536187.3,2019-10-08,14:03:07.300,14.0,10.0,18.340000152587898,14.0,16.4,16.2,29.0,-32.2,39.6,15.7304,18.0999,17.1589,14.8873,-8.82209,-6.43489,25.984,-41.1982,42.6684,-0.080546,-0.1778829999999999,-0.996669,252.5,4.7,52.1701,4.427219999999999,11.6,1.08988,281.025,4.561319999999999,163.82399999999998,9.50296,174.113,0.814999,0.0930839,239.257,2.47324,2.63751,22.805076599121104,22.0025119781494,21.1655311584473,22.0,-948342.0,3507.15,pp-ro,1,1,-1,-1
1570536187.4,2019-10-08,14:03:07.400,14.0,10.0,18.4300003051758,15.9,14.5,14.8,32.5,-29.7,33.2,15.7304,18.0999,17.1589,14.8873,-8.82209,-6.43489,25.984,-41.1982,42.6684,-0.080546,-0.1778829999999999,-0.996669,252.5,4.7,52.1701,4.427219999999999,11.6,1.07547,275.926,4.56124,165.40099999999998,10.643,172.513,0.805411,0.0868904,239.231,2.37345,2.53278,22.011413574218803,22.0025119781494,19.5131778717041,22.0,-947881.0,3045.68,pp-ro,1,1,-1,-1
1570536187.5,2019-10-08,14:03:07.500,14.0,10.0,18.4300003051758,17.0,13.3,14.2,35.2,-26.9,27.9,16.5343,17.4448,16.653,17.8368,-7.96634,-9.18824,28.1975,-40.1169,38.6882,-0.14026,-0.165642,-1.10863,252.5,4.7,52.1701,4.427219999999999,11.6,1.07991,279.726,4.56116,166.89,12.1631,171.013,0.796275,0.0784773999999999,239.261,2.2848,2.47435,21.1564331054688,22.0025119781494,18.7456111907959,22.0,-947670.0,1907.4,pp-ro,1,1,-1,-1
1570536187.6,2019-10-08,14:03:07.600,14.0,11.0,18.5300006866455,17.6,12.6,13.8,36.7,-26.0,25.0,18.6875,15.4386,15.3587,12.2766,-15.3843,-13.3299,33.4394,-35.5617,29.201,-0.1874019999999999,0.0124819,-0.910176,252.5,4.7,52.1701,4.427219999999999,11.6,1.08656,281.583,4.5610800000000005,167.533,13.3032,170.313,0.7920560000000001,0.0720712,239.271,2.24379,2.44107,20.2026748657227,22.0019989013672,18.2394523620605,22.0,-947555.0,1938.16,pp-ro,1,1,-1,-1
1570536187.7,2019-10-08,14:03:07.700,14.0,12.0,18.6200008392334,18.7,11.5,13.0,38.9,-23.3,19.9,20.1124,14.0434,14.4947,11.8009,-12.6838,-12.5161,36.1609,-32.3582,23.1845,0.134246,-0.0543747,-0.850416,252.5,4.7,52.1701,4.427219999999999,11.9,1.0932,285.444,4.561,168.87599999999998,14.8233,168.91299999999998,0.7835880000000001,0.0638413999999999,239.312,2.15714,2.3791,19.7615661621094,22.0019989013672,17.3918190002441,22.0,-947296.0,2984.16,pp-ro,1,1,-1,-1
1570536187.8,2019-10-08,14:03:07.800,14.0,12.0,18.7600002288818,19.7,10.2,12.1,40.8,-20.5,15.9,20.7861,13.3489,14.0037,11.6379,-18.06,-14.7481,37.435,-30.9551,20.641,0.164407,-0.116799,-0.617008,252.5,4.7,52.1701,4.427219999999999,11.9,1.09764,292.721,4.56091,170.044,16.7233,167.713,0.776089,0.0534422,239.421,2.08355,2.31391,18.8469696044922,22.0019989013672,16.4157180786133,22.0,-947074.0,1661.28,pp-ro,1,1,-1,-1
1570536187.9,2019-10-08,14:03:07.900,14.0,12.0,18.8999996185303,20.7,8.9,11.3,42.5,-17.9,11.5,22.988000000000003,10.536,12.0799,7.447989999999999,-12.5514,-2.26816,40.9696,-24.5872,11.3117,0.166166,-0.12603,-0.9001629999999999,252.5,4.7,52.1701,4.427219999999999,11.9,1.12312,302.216,4.56083,171.15400000000002,18.6234,166.41299999999998,0.768412,0.043171,239.445,2.00665,2.2498,18.22021484375,22.0025119781494,15.492243766784698,22.0,-946881.0,2430.39,pp-ro,1,1,-1,-1
1570536188.0,2019-10-08,14:03:08.000,14.0,12.0,19.1299991607666,21.5,7.8,10.3,44.0,-15.6,7.3,24.0716,9.37896,11.140999999999998,9.21855,-9.35825,-10.0204,42.5174,-21.5272,7.05824,0.0259253,0.0921721,-0.6507430000000001,252.5,4.7,52.1701,4.427219999999999,11.9,1.12867,308.905,4.56073,172.08900000000003,20.9035,165.313,0.76166,0.0307855,239.541,1.93692,2.19149,17.1966247558594,22.0025119781494,14.6291446685791,22.0,-946594.0,2984.16,pp-ro,1,1,-1,-1
1570536188.1,2019-10-08,14:03:08.100,14.0,12.0,19.4899997711182,22.1,6.7,9.4,45.8,-13.3,3.7,24.835,7.9481,10.1389,7.572089999999999,-7.96892,-9.47736,43.8816,-18.6685,3.23271,0.2296139999999999,-0.1587609999999999,-0.7666390000000001,248.0,4.0,52.1701,4.427219999999999,11.9,1.1464,318.797,4.56067,172.965,22.8036,164.313,0.7554489999999999,0.0206345999999999,239.657,1.8726,2.13725,16.346755981445302,22.003026962280305,13.8535757064819,22.0,-946368.0,2153.51,pp-ro,1,1,-1,-1
1570536188.2,2019-10-08,14:03:08.200,14.0,11.0,19.7999992370605,22.5,5.6,8.5,47.5,-11.1,-0.3,25.1478,7.41028,9.70599,4.14411,-4.70305,-4.0553300000000005,44.6668,-17.1778,1.15989,0.312665,-0.15364,-0.964747,248.0,4.0,52.1701,4.427219999999999,11.9,1.17964,339.136,4.56056,173.753,25.4637,163.312,0.749132,0.00630942,239.811,1.80753,2.08861,15.186920166015598,22.003026962280305,13.1874866485596,22.0,-946048.0,2030.46,pp-ro,1,1,-1,-1
1570536188.3,2019-10-08,14:03:08.300,14.0,9.0,20.1499996185303,23.0,4.6,7.6,49.0,-8.7,-3.5,25.8422,5.52779,8.14458,10.9832,-13.6677,-9.83004,46.4583,-12.832,-4.35393,0.201351,0.0370058,-0.844454,248.0,4.0,52.1701,4.427219999999999,11.9,1.19183,345.798,4.56046,174.396,27.7438,162.512,0.743911,-0.00583139,239.987,1.7477200000000002,2.03879,14.7526168823242,22.003026962280305,12.465163230896,22.0,-945930.0,2215.04,pp-ro,1,1,-1,-1
1570536188.4,2019-10-08,14:03:08.400,14.0,10.0,20.3700008392334,22.8,3.6,6.9,50.4,-6.1,-6.8,25.8422,5.52779,8.14458,10.9832,-13.6677,-9.83004,46.4583,-12.832,-4.35393,0.201351,0.0370058,-0.844454,248.0,4.0,52.1701,4.427219999999999,11.9,1.22452,359.55400000000003,4.56035,174.921,29.6438,161.71200000000002,0.7391270000000001,-0.0158355,240.056,1.68257,2.0016700000000003,13.7852325439453,22.003026962280305,11.9991884231567,22.0,-945515.0,3261.04,pp-ro,1,1,-1,-1
1570536188.5,2019-10-08,14:03:08.500,14.0,10.0,20.590000152587898,22.8,2.9,5.9,51.7,-3.2,-9.7,25.8422,5.52779,8.14458,10.9832,-13.6677,-9.83004,46.4583,-12.832,-4.35393,0.201351,0.0370058,-0.844454,248.0,4.0,52.1701,4.427219999999999,11.9,1.22452,358.095,4.56024,175.447,32.3039,161.012,0.734225,-0.0299382999999999,240.312,1.62083,1.96297,13.0648040771484,22.0035419464111,11.5135087966919,22.0,-945280.0,4368.56,pp-ro,1,1,-1,-1
1570536188.6,2019-10-08,14:03:08.600,14.0,11.0,20.840000152587898,22.9,1.9,4.9,52.7,-0.7,-12.0,25.6487,2.30628,5.14417,2.67115,-8.10323,-3.07022,49.6747,-3.45196,-13.4886,0.0989644,-0.0659746,-1.0259,248.0,4.0,52.1701,4.427219999999999,11.9,1.2322799999999998,374.449,4.5601400000000005,175.826,34.964,160.412,0.729941,-0.0440422,240.561,1.57114,1.91315,12.1774673461914,22.0035419464111,10.7895174026489,22.0,-944734.0,2584.22,pp-ro,1,1,-1,-1
1570536188.7,2019-10-08,14:03:08.700,14.0,10.0,21.1700000762939,23.1,0.6,4.0,53.4,1.2,-14.5,25.6586,1.63568,4.77003,-4.32735,-10.7667,-12.8318,49.8287,-2.17876,-14.7439,-0.139468,-0.133776,-0.466588,248.0,4.0,52.1701,4.42721,12.1,1.27771,398.379,4.56003,176.08900000000003,36.864,159.912,0.726627,-0.0540087,240.704,1.52411,1.85319,11.5779647827148,22.004056930542003,9.82268524169922,22.0,-944608.0,1199.82,pp-ro,1,1,-1,-1
1570536188.8,2019-10-08,14:03:08.800,14.0,11.0,21.5799999237061,23.1,-0.3,2.8,53.8,2.9,-16.2,25.5949,-0.166888,2.86737,-3.49856,-14.1965,-12.5193,50.5019,1.23454,-17.6514,0.275692,0.2483139999999999,-0.314236,248.0,4.0,52.1701,4.42721,12.1,1.32426,420.708,4.55992,176.264,39.5241,159.512,0.7233609999999999,-0.0681703999999999,240.988,1.4917200000000002,1.7990099999999998,11.2577667236328,22.004571914672898,8.985310554504391,22.0,-944283.0,3814.8,pp-ro,1,1,-1,-1
1570536188.9,2019-10-08,14:03:08.900,14.0,11.0,21.9099998474121,23.2,-1.5,2.0,54.3,4.5,-18.0,25.5525,-1.43478,1.93479,0.582939,-12.2985,-7.51616,50.7393,3.03585,-19.712,0.152781,-0.132704,-0.398561,248.0,4.0,52.1701,4.42721,12.1,1.33368,435.042,4.559819999999999,176.293,42.1842,159.112,0.720391,-0.0822941,241.196,1.45951,1.74797,10.3891677856445,22.004571914672898,8.21600341796875,22.0,-944058.0,4245.5,pp-ro,1,1,-1,-1
1570536189.0,2019-10-08,14:03:09.000,14.0,11.0,22.2999992370605,23.3,-2.7,1.2,54.4,6.0,-20.3,25.6747,-2.68439,1.04621,-1.5078,-13.27,-13.657,50.4804,4.87138,-22.1508,-0.249738,-0.130794,-0.453796,248.0,4.0,52.1701,4.42721,12.1,1.39186,463.145,4.55971,176.17700000000002,44.4642,158.912,0.718591,-0.0945416,241.388,1.4215799999999998,1.69629,9.65000152587891,22.004056930542003,7.36000919342041,22.0,-943908.0,953.699,pp-ro,1,1,-1,-1
1570536189.1,2019-10-08,14:03:09.100,14.0,12.0,22.5400009155273,23.1,-3.6,0.5,54.3,7.3,-22.7,25.6747,-2.68439,1.04621,-1.5078,-13.27,-13.657,50.4804,4.87138,-22.1508,-0.249738,-0.130794,-0.453796,263.7,4.1,52.1701,4.42721,12.1,1.42565,471.671,4.5596,176.00099999999998,46.7443,158.71200000000002,0.7168720000000001,-0.1068099999999999,241.55900000000003,1.38517,1.6560400000000002,8.81887054443359,22.004056930542003,6.7468695640564,22.0,-943276.0,8767.88,pp-ro,1,1,-1,-1
1570536189.2,2019-10-08,14:03:09.200,14.0,10.0,22.8099994659424,22.8,-4.3,-0.1,54.5,8.6,-25.0,25.6747,-2.68439,1.04621,-1.5078,-13.27,-13.657,50.4804,4.87138,-22.1508,-0.249738,-0.130794,-0.453796,263.7,4.1,52.1701,4.42721,12.1,1.41236,468.604,4.55959,175.709,49.4043,158.612,0.71542,-0.12129,241.81,1.35135,1.62514,8.00476837158203,22.004056930542003,6.33214616775513,22.0,-942647.0,5229.96,pp-ro,1,1,-1,-1
1570536189.3,2019-10-08,14:03:09.300,14.0,10.0,23.0,22.3,-5.0,-0.7,54.2,10.1,-27.3,24.8068,-5.07449,-0.6837260000000001,-2.55775,-10.4992,-5.0708,50.4009,8.952539999999999,-28.0287,0.154015,-0.0992556,-0.436171,263.7,4.1,52.1701,4.42721,12.1,1.4118,468.087,4.55955,175.3,51.6844,158.512,0.714463,-0.133875,241.924,1.31374,1.591,7.16341400146484,22.004571914672898,5.8225846290588406,22.0,-941967.0,7629.59,pp-ro,1,1,-1,-1
1570536189.4,2019-10-08,14:03:09.400,14.0,10.0,23.190000534057603,21.9,-5.4,-1.2,54.3,11.4,-29.0,24.8068,-5.07449,-0.6837260000000001,-2.55775,-10.4992,-5.0708,50.4009,8.952539999999999,-28.0287,0.154015,-0.0992556,-0.436171,263.7,4.1,52.1701,4.42721,12.1,1.41125,463.704,4.55955,174.833,53.9644,158.611,0.7142029999999999,-0.14655,242.149,1.28571,1.5683200000000002,6.51963043212891,22.004056930542003,5.49694395065308,22.0,-941316.0,6214.43,pp-ro,1,1,-1,-1
1570536189.5,2019-10-08,14:03:09.500,14.0,10.0,23.3799991607666,21.5,-5.9,-1.7,54.2,12.2,-30.7,23.8253,-5.9231,-1.53172,-10.7926,-5.2884400000000005,-9.0266,50.07899999999999,10.908,-31.2857,0.0598516999999999,-0.0869286,-0.252931,263.7,4.1,52.1701,4.42721,12.1,1.38631,456.052,4.55954,174.33599999999998,56.6245,158.611,0.713312,-0.161208,242.398,1.26551,1.54335,5.97802734375,22.004571914672898,5.23717737197876,22.0,-940260.0,6122.13,pp-ro,1,1,-1,-1
1570536189.6,2019-10-08,14:03:09.600,14.0,10.0,23.4899997711182,21.1,-6.4,-2.1,54.3,13.3,-32.1,23.4581,-6.14896,-1.79903,-6.661010000000001,-3.81036,-0.955997,50.151,11.6094,-31.9563,0.0435414,0.0218551,-0.16169,263.7,4.1,52.1701,4.42721,12.1,1.39795,460.05,4.55952,173.78099999999998,58.5245,158.711,0.713435,-0.171974,242.517,1.24236,1.51866,5.76854705810547,22.004571914672898,4.858784198760991,22.0,-939737.0,5660.67,pp-ro,1,1,-1,-1
1570536189.7,2019-10-08,14:03:09.700,14.0,11.0,23.4899997711182,20.7,-6.7,-2.5,54.1,14.1,-34.0,23.2465,-6.38007,-1.95469,-5.97449,-0.945024,-9.15887,49.93,12.069,-32.8014,-0.245569,-0.1380279999999999,-0.320405,263.7,4.1,52.1701,4.42721,12.4,1.3974,463.426,4.55951,173.109,60.8045,158.911,0.713771,-0.1849039999999999,242.728,1.21876,1.50024,5.32572937011719,22.004056930542003,-35.0,22.0,-939436.0,5783.72,pp-ro,1,1,-1,-1
1570536189.8,2019-10-08,14:03:09.800,14.0,10.0,23.4899997711182,20.4,-7.3,-2.8,54.1,15.2,-35.1,22.3117,-7.493239999999999,-2.77678,-11.9726,-4.15451,-9.35655,49.8154,14.1331,-35.6048,0.0336661,0.0518925999999999,-0.2908989999999999,263.7,4.1,52.1701,4.42721,12.4,1.41513,469.23,4.55949,172.437,63.0845,159.111,0.714024,-0.197824,242.962,1.20057,1.47803,4.976585388183589,22.004571914672898,-35.0,22.0,-938984.0,4768.5,pp-ro,1,1,-1,-1
1570536189.9,2019-10-08,14:03:09.900,14.0,11.0,23.4899997711182,20.2,-7.9,-3.3,53.8,15.9,-36.7,22.3117,-7.493239999999999,-2.77678,-11.9726,-4.15451,-9.35655,49.8154,14.1331,-35.6048,0.0336661,0.0518925999999999,-0.2908989999999999,263.7,4.1,52.1701,4.42721,12.4,1.41623,473.733,4.55947,171.678,65.3646,159.311,0.714414,-0.210878,243.158,1.18187,1.45053,4.66661071777344,22.004571914672898,-35.0,22.0,-938320.0,6368.25,pp-ro,1,1,-1,-1
1570536190.0,2019-10-08,14:03:10.000,14.0,10.0,23.5699996948242,19.7,-8.4,-3.5,53.8,16.4,-38.2,21.3958,-8.77621,-3.48559,-3.20348,-7.75334,-3.61022,49.2705,16.2324,-38.9947,0.0002312909999999,-0.158041,-0.221615,263.7,4.1,52.1701,4.42721,12.4,1.42953,478.096,4.55946,170.86,67.6446,159.611,0.715176,-0.224042,243.402,1.1669200000000002,1.43118,4.050071716308589,22.004056930542003,-35.0,22.0,-937435.0,7106.6,pp-ro,1,1,-1,-1
1570536190.1,2019-10-08,14:03:10.100,14.0,10.0,23.530000686645497,19.4,-8.6,-3.7,53.6,16.8,-39.5,21.3958,-8.77621,-3.48559,-3.20348,-7.75334,-3.61022,49.2705,16.2324,-38.9947,0.0002312909999999,-0.158041,-0.221615,266.7,4.5,52.1701,4.42721,12.4,1.42953,477.637,4.55945,170.013,69.1646,159.911,0.716699,-0.233428,243.433,1.15303,1.42012,3.08609771728516,22.004571914672898,-35.0,22.0,-936815.0,5906.78,pp-ro,1,1,-1,-1
1570536190.2,2019-10-08,14:03:10.200,14.0,11.0,23.4599990844727,19.0,-8.9,-3.6,53.5,17.1,-41.3,20.9535,-9.3276,-3.74097,-1.46433,-7.12792,1.2397,49.108,16.9365,-40.2904,0.140645,-0.132206,-0.255368,266.7,4.5,52.1701,4.42721,12.4,1.42455,473.38,4.55946,169.108,71.4446,160.211,0.717527,-0.246802,243.658,1.13722,1.41742,1.76445007324219,22.004571914672898,-35.0,22.0,-936115.0,7721.89,pp-ro,1,1,-1,-1
1570536190.3,2019-10-08,14:03:10.300,14.0,10.0,23.2700004577637,18.9,-9.0,-3.7,53.4,16.9,-42.4,20.9535,-9.3276,-3.74097,-1.46433,-7.12792,1.2397,49.108,16.9365,-40.2904,0.140645,-0.132206,-0.255368,266.7,4.5,52.1701,4.42721,12.4,1.41623,468.021,4.55947,168.173,73.3447,160.511,0.718749,-0.258334,243.773,1.1345299999999998,1.41707,0.109001159667969,22.004571914672898,-35.0,22.0,-935737.0,6952.77,pp-ro,1,1,-1,-1
1570536190.4,2019-10-08,14:03:10.400,14.0,11.0,23.190000534057603,18.7,-8.8,-3.6,54.0,16.7,-43.1,20.7624,-9.43342,-3.78286,6.63195,-0.0638303,3.74459,49.0292,17.2901,-40.9858,-0.1239619999999999,-0.2462599999999999,-0.5440689999999999,266.7,4.5,52.1701,4.42721,12.4,1.40017,455.814,4.559480000000001,167.238,75.2447,160.911,0.720213,-0.269879,243.973,1.1365,1.42954,-1.91841888427734,22.004056930542003,-35.0,22.0,-935001.0,8183.35,pp-ro,1,1,-1,-1
1570536190.5,2019-10-08,14:03:10.500,14.0,11.0,23.1200008392334,18.9,-8.8,-3.0,54.4,15.8,-43.4,20.1031,-9.73055,-3.72029,-1.94845,1.46282,5.000319999999999,48.9704,17.5634,-42.4712,0.313911,-0.228688,-0.297095,266.7,4.5,52.1701,4.42721,12.4,1.38299,461.482,4.55949,166.304,77.1447,161.211,0.7213,-0.281433,244.125,1.15191,1.46223,-4.024574279785161,22.004571914672898,-35.0,22.0,-934376.0,4522.38,pp-ro,1,1,-1,-1
1570536190.6,2019-10-08,14:03:10.600,14.0,12.0,23.190000534057603,19.2,-8.8,-2.4,55.0,14.6,-42.9,20.1031,-9.73055,-3.72029,-1.94845,1.46282,5.000319999999999,48.9704,17.5634,-42.4712,0.313911,-0.228688,-0.297095,266.7,4.5,52.1701,4.42721,12.4,1.41069,461.23800000000006,4.5595,165.398,79.4247,161.411,0.721497,-0.2947929999999999,244.373,1.18181,1.49744,-6.12732696533203,22.004571914672898,-35.0,22.0,-933594.0,7998.77,pp-ro,1,1,-1,-1
1570536190.7,2019-10-08,14:03:10.700,14.0,11.0,23.149999618530305,19.7,-8.4,-1.7,56.4,12.7,-41.7,19.5059,-9.66784,-2.81809,1.03979,-1.72849,6.83535,50.0282,17.0619,-43.9744,0.109765,0.00717309,0.0969468999999999,266.7,4.5,52.1701,4.42721,12.5,1.3841,450.156,4.55951,164.43400000000003,81.7048,161.611,0.721747,-0.308269,244.606,1.22893,1.54954,-8.24031066894531,22.004056930542003,-35.0,22.0,-932813.0,7414.24,pp-ro,1,1,-1,-1
1570536190.8,2019-10-08,14:03:10.800,14.0,11.0,23.190000534057603,20.4,-8.2,-0.5,57.8,10.1,-40.6,20.1892,-8.89531,-0.673474,7.05524,2.90423,13.9416,52.8561,13.7214,-40.9208,0.242365,0.0535924999999999,0.6219100000000001,266.7,4.5,52.1701,4.42721,12.5,1.37856,452.344,4.55952,163.558,83.2248,161.611,0.722017,-0.317821,244.531,1.28134,1.61228,-10.3533020019531,22.004571914672898,-35.0,22.0,-932487.0,6552.84,pp-ro,1,1,-1,-1
1570536190.9,2019-10-08,14:03:10.900,14.0,12.0,23.190000534057603,21.1,-7.6,0.9,59.4,7.8,-39.3,20.1892,-8.89531,-0.673474,7.05524,2.90423,13.9416,52.8561,13.7214,-40.9208,0.242365,0.0535924999999999,0.6219100000000001,266.7,4.5,52.1701,4.42721,12.5,1.41346,465.958,4.5595300000000005,162.68200000000002,85.5048,161.511,0.720983,-0.331051,244.667,1.33504,1.6924400000000002,-12.4560546875,22.004056930542003,-35.0,22.0,-931832.0,4614.67,pp-ro,1,1,-1,-1
1570536191.0,2019-10-08,14:03:11.000,14.0,10.0,23.1599998474121,21.8,-6.9,2.6,60.6,3.6,-37.9,21.1048,-7.674580000000001,2.41309,0.0653821,10.8589,14.0357,56.449,7.38357,-37.1903,0.367813,-0.00701997,0.962497,266.7,4.5,52.1701,4.42721,12.5,1.40072,460.8130000000001,4.55954,161.835,87.7848,161.311,0.719488,-0.344159,244.781,1.41474,1.78177,-14.5587997436523,22.004571914672898,-35.0,22.0,-931061.0,8491.0,pp-ro,1,1,-1,-1
1570536191.1,2019-10-08,14:03:11.100,14.0,10.0,23.1200008392334,22.2,-5.8,4.4,62.0,-0.5,-35.4,21.3385,-7.25333,3.26271,5.72152,12.4821,11.386,57.2394,5.41522,-36.04,0.081715,-0.0266942,0.78604,265.8,4.3,52.1701,4.42721,12.5,1.39352,458.127,4.55954,161.10399999999998,90.0649,160.81,0.716712,-0.35691,244.798,1.50623,1.88056,-16.664962768554698,22.004056930542003,-35.0,22.0,-930705.0,6368.25,pp-ro,1,1,-1,-1
1570536191.2,2019-10-08,14:03:11.200,14.0,12.0,23.1599998474121,22.4,-4.3,6.6,63.2,-5.6,-33.0,21.4098,-6.65318,4.2491,4.82784,14.6568,22.2413,57.9896,3.36735,-34.8577,0.235379,-0.136028,0.853836,265.8,4.3,52.1701,4.42721,12.5,1.39019,448.289,4.55952,160.549,91.9649,160.21,0.713648,-0.367323,244.747,1.60847,1.99852,-18.7881927490234,22.004571914672898,-35.0,22.0,-930076.0,7475.77,pp-ro,1,1,-1,-1
1570536191.3,2019-10-08,14:03:11.300,14.0,11.0,23.1599998474121,22.4,-2.6,8.9,64.4,-12.3,-30.3,21.5268,-5.17989,6.14924,3.45505,16.3978,20.0736,59.6253,-1.47173,-32.0582,0.283054,-0.372323,0.982354,265.8,4.3,52.1701,4.42721,12.5,1.3575,436.076,4.55951,160.111,94.6249,159.31,0.708306,-0.380898,244.886,1.73802,2.12372,-20.9080047607422,22.0050868988037,-35.0,22.0,-929064.0,5537.61,pp-ro,1,1,-1,-1
1570536191.4,2019-10-08,14:03:11.400,14.0,12.0,23.1200008392334,22.2,-0.7,11.3,64.9,-18.6,-25.9,21.5268,-5.17989,6.14924,3.45505,16.3978,20.0736,59.6253,-1.47173,-32.0582,0.283054,-0.372323,0.982354,265.8,4.3,52.1701,4.42721,12.5,1.34974,429.681,4.55951,159.84799999999998,96.9049,158.31,0.702695,-0.392106,244.957,1.87884,2.2517,-23.0312347412109,22.0050868988037,-35.0,22.0,-928467.0,5906.78,pp-ro,1,1,-1,-1
1570536191.5,2019-10-08,14:03:11.500,14.0,12.0,23.0,21.7,1.1,13.7,65.5,-25.1,-21.9,20.8801,-1.66293,10.3658,-4.09543,18.1293,20.6449,61.4022,-13.315,-22.9338,0.2601969999999999,0.226203,1.18255,265.8,4.3,52.1701,4.42721,12.5,1.33201,412.777,4.559480000000001,159.819,98.805,157.01,0.69609,-0.400806,244.86,2.01495,2.37136,-25.1647033691406,22.004056930542003,-35.0,22.0,-927770.0,7998.77,pp-ro,1,1,-1,-1
1570536191.6,2019-10-08,14:03:11.600,14.0,12.0,23.0,20.9,3.5,15.8,65.5,-31.7,-16.7,20.5397,0.3038369999999999,12.6626,-4.84785,20.4559,18.934,61.7254,-19.1282,-17.6331,0.197697,0.387675,1.21351,265.8,4.3,52.1701,4.42721,12.5,1.30985,407.712,4.55944,159.994,101.085,155.61,0.688154,-0.410531,245.012,2.16277,2.50053,-27.260627746582,22.004571914672898,-35.0,22.0,-927353.0,7875.71,pp-ro,1,1,-1,-1
1570536191.7,2019-10-08,14:03:11.700,14.0,12.0,22.9200000762939,19.7,5.7,17.9,64.3,-39.1,-11.2,20.5397,0.3038369999999999,12.6626,-4.84785,20.4559,18.934,61.7254,-19.1282,-17.6331,0.197697,0.387675,1.21351,265.8,4.3,52.1701,4.42721,12.5,1.31872,417.158,4.55943,160.374,102.985,154.11,0.679952,-0.417881,245.103,2.31833,2.62261,-29.3616638183594,22.004571914672898,-35.0,22.0,-926800.0,2984.16,pp-ro,1,1,-1,-1
1570536191.8,2019-10-08,14:03:11.800,14.0,13.0,23.0400009155273,17.7,8.2,19.8,61.7,-46.1,-4.2,19.2016,3.65528,15.7166,-13.3668,23.8933,23.6198,60.1796,-28.8035,-9.16805,0.0126047,0.326948,1.42938,265.8,4.3,52.1701,4.42721,12.5,1.33146,423.837,4.55943,161.016,104.885,152.31,0.6702140000000001,-0.4244,245.205,2.47559,2.75971,-31.1725616455078,22.004571914672898,-35.0,22.0,-926575.0,4214.73,pp-ro,1,1,-1,-1
1570536191.9,2019-10-08,14:03:11.900,14.0,12.0,23.0699996948242,15.5,10.6,21.5,57.0,-53.2,4.8,15.6006,8.00642,19.2821,-17.1529,29.9674,22.5644,52.9195,-42.0485,7.281039999999999,0.330584,0.129305,1.30225,265.8,4.3,52.1701,4.42721,12.5,1.33755,420.095,4.559419999999999,161.951,106.405,150.41,0.6600560000000001,-0.428333,245.302,2.63983,2.88897,-32.6318511962891,22.0050868988037,-35.0,22.0,-926112.0,5106.9,pp-ro,1,1,-1,-1
1570536192.0,2019-10-08,14:03:12.000,14.0,13.0,23.1800003051758,12.9,12.8,22.5,48.4,-59.5,17.3,15.6006,8.00642,19.2821,-17.1529,29.9674,22.5644,52.9195,-42.0485,7.281039999999999,0.330584,0.129305,1.30225,265.8,4.3,52.1701,4.42721,12.5,1.31428,406.298,4.5594,163.06,108.305,148.409,0.648698,-0.4333109999999999,245.65,2.80824,3.01455,-33.742950439453104,22.0050868988037,-35.0,22.0,-925378.0,8152.59,pp-ro,1,1,-1,-1
1570536192.1,2019-10-08,14:03:12.100,14.0,13.0,23.260000228881804,10.0,14.7,23.2,35.2,-63.6,35.0,12.0663,11.082,20.9164,-27.9481,17.7926,1.07596,41.1034,-50.2105,25.1304,-0.119173,0.0999794,1.71407,261.5,4.2,52.1701,4.42721,12.5,1.28824,401.193,4.55937,164.37400000000002,109.065,146.409,0.638484,-0.432804,245.662,2.97493,3.13457,-34.504180908203104,22.0050868988037,-23.0235271453857,22.0,-924847.0,3691.74,pp-ro,1,1,-1,-1
1570536192.2,2019-10-08,14:03:12.200,14.0,14.0,23.3700008392334,6.8,16.4,23.4,18.0,-66.3,57.2,9.45112,12.9804,21.4252,-33.3816,10.0406,8.48348,29.6601,-53.6798,40.636,-0.0493026,0.580732,1.44371,261.5,4.2,52.1701,4.42721,12.5,1.28769,395.869,4.55936,165.952,110.205,144.209,0.626588,-0.433179,245.93,3.14724,3.25789,-34.900146484375,22.004571914672898,-23.0211448669434,22.0,-924035.0,7352.71,pp-ro,1,1,-1,-1
1570536192.3,2019-10-08,14:03:12.300,14.0,13.0,23.440000534057603,3.9,17.7,22.9,-0.6,-65.8,79.7,6.62615,14.4321,21.7786,-26.4717,11.2512,-2.15029,16.570999999999998,-55.5436,57.4008,-0.0297172,0.0410019,1.59138,261.5,4.2,52.1701,4.42721,12.5,1.27882,387.826,4.55932,167.558,110.965,142.109,0.615486,-0.431874,246.138,3.30796,3.3668400000000003,-34.9530639648438,22.0056018829346,-23.0259094238281,22.0,-923602.0,3722.5,pp-ro,1,1,-1,-1
1570536192.4,2019-10-08,14:03:12.400,14.0,13.0,23.3199996948242,0.4,18.8,22.0,-15.5,-62.5,98.6,6.62615,14.4321,21.7786,-26.4717,11.2512,-2.15029,16.570999999999998,-55.5436,57.4008,-0.0297172,0.0410019,1.59138,261.5,4.2,52.1701,4.42721,12.5,1.27716,382.213,4.55929,169.36900000000003,110.965,140.109,0.605308,-0.4269189999999999,246.231,3.46292,3.4933,-34.659500122070305,22.0050868988037,-23.0235271453857,22.0,-923301.0,5691.43,pp-ro,1,1,-1,-1
1570536192.5,2019-10-08,14:03:12.500,14.0,14.0,23.2099990844727,-0.8,19.0,21.4,-20.9,-59.9,106.5,0.631912,16.5547,20.5955,-27.7273,1.15991,-13.0378,-8.31633,-52.553,90.3066,-0.182412,0.314311,1.60011,261.5,4.2,52.1701,4.42721,12.5,1.24281,372.11,4.55926,171.179,110.965,139.209,0.598816,-0.422004,246.971,3.5427800000000005,3.53635,-33.980194091796896,22.0050868988037,-23.0235271453857,22.0,-922714.0,5229.96,pp-ro,1,1,-1,-1
1570536192.6,2019-10-08,14:03:12.600,14.0,14.0,23.0900001525879,-5.0,19.9,19.1,-30.1,-50.3,121.9,0.631912,16.5547,20.5955,-27.7273,1.15991,-13.0378,-8.31633,-52.553,90.3066,-0.182412,0.314311,1.60011,261.5,4.2,52.1701,4.42721,12.5,1.24225,364.259,4.55922,173.078,110.205,136.509,0.587052,-0.413828,246.446,3.76946,3.70278,-32.9219970703125,22.0050868988037,-23.0235271453857,22.0,-922279.0,4460.85,pp-ro,1,1,-1,-1
1570536192.7,2019-10-08,14:03:12.700,14.0,15.0,22.9300003051758,-6.4,19.9,18.5,-31.4,-46.5,125.1,-2.04236,16.857,19.2183,-22.2999,0.287159,-11.5644,-17.1978,-48.1039,103.646,0.410578,0.317627,1.45001,261.5,4.2,52.1701,4.42721,12.5,1.2173200000000002,358.277,4.55919,174.071,110.205,135.609,0.5821310000000001,-0.411206,246.649,3.84394,3.75472,-31.5156097412109,22.0050868988037,-23.0235271453857,22.0,-921710.0,5106.9,pp-ro,1,1,-1,-1
1570536192.8,2019-10-08,14:03:12.800,14.0,15.0,22.7399997711182,-8.8,20.0,16.8,-34.6,-40.5,132.0,-5.83235,17.335,17.4828,-25.171,2.33592,-15.0706,-25.7442,-39.6351,117.152,0.00496774,0.277938,1.22725,261.5,4.2,52.1701,4.42721,12.5,1.21843,354.853,4.55915,175.998,109.445,134.109,0.574318,-0.403098,246.858,3.97766,3.85574,-29.7576293945312,22.0056018829346,-23.0259094238281,22.0,-921108.0,5045.38,pp-ro,1,1,-1,-1
1570536192.9,2019-10-08,14:03:12.900,14.0,15.0,22.5400009155273,-11.6,19.7,14.3,-38.1,-32.0,141.1,-5.83235,17.335,17.4828,-25.171,2.33592,-15.0706,-25.7442,-39.6351,117.152,0.00496774,0.277938,1.22725,261.5,4.2,52.1701,4.42721,12.5,1.21122,357.68300000000005,4.55912,178.89,108.305,131.908,0.562742,-0.391133,247.248,4.16791,3.986,-27.796554565429695,22.0056018829346,-23.0259094238281,22.0,-920864.0,4614.67,pp-ro,1,1,-1,-1
1570536193.0,2019-10-08,14:03:13.000,14.0,15.0,22.3400001525879,-12.2,19.5,13.5,-38.6,-28.5,142.9,-10.6723,17.386,13.9055,-10.5816,-5.13322,-17.092,-34.6633,-25.7131,134.451,0.3185139999999999,0.407882,1.27386,261.5,4.2,52.1701,4.42721,12.5,1.2417,364.315,4.559080000000001,179.88299999999998,107.925,131.208,0.558938,-0.3870969999999999,247.43,4.23287,4.02037,-26.1443939208984,22.0056018829346,-23.0259094238281,22.0,-920478.0,3722.5,pp-ro,1,1,-1,-1
1570536193.1,2019-10-08,14:03:13.100,14.0,15.0,22.1800003051758,-13.6,19.0,11.6,-40.6,-23.3,147.1,-10.6723,17.386,13.9055,-10.5816,-5.13322,-17.092,-34.6633,-25.7131,134.451,0.3185139999999999,0.407882,1.27386,260.4,3.8,52.1701,4.42721,12.5,1.21843,355.182,4.55906,181.694,106.405,130.00799999999998,0.553149,-0.376458,247.461,4.34039,4.10365,-24.845535278320305,22.0056018829346,-22.955078125,22.0,-919890.0,5906.78,pp-ro,1,1,-1,-1
1570536193.2,2019-10-08,14:03:13.200,14.0,15.0,22.0599994659424,-15.5,18.2,8.9,-41.2,-14.7,150.7,-12.8302,16.7902,11.5417,-12.591,-1.33536,-16.0408,-37.9802,-17.8526,141.583,-0.4558319999999999,-0.0280289,0.7943100000000001,260.4,3.8,52.1701,4.42721,12.5,1.2079,353.85400000000004,4.55904,184.41,105.266,128.50799999999998,0.544237,-0.3653409999999999,248.198,4.49521,4.2284,-23.8829193115234,22.0050868988037,-20.6860656738281,22.0,-919656.0,4368.56,pp-ro,1,1,-1,-1
1570536193.3,2019-10-08,14:03:13.300,14.0,15.0,21.899999618530305,-16.2,17.8,8.1,-41.5,-12.7,152.5,-14.1489,16.4122,9.83729,-13.7543,-8.24217,-11.9667,-39.7048,-12.5513,144.514,-0.230857,0.259873,0.9977,260.4,3.8,52.1701,4.42721,12.5,1.2173200000000002,353.879,4.559019999999999,185.286,103.746,128.108,0.542826,-0.357058,248.004,4.5369,4.26804,-23.1046295166016,22.0050868988037,-19.9429664611816,22.0,-919325.0,3814.8,pp-ro,1,1,-1,-1
1570536193.4,2019-10-08,14:03:13.400,14.0,15.0,21.780000686645497,-17.0,17.3,6.5,-42.8,-8.5,155.2,-14.1489,16.4122,9.83729,-13.7543,-8.24217,-11.9667,-39.7048,-12.5513,144.514,-0.230857,0.259873,0.9977,260.4,3.8,52.1701,4.42721,12.5,1.23117,372.547,4.559,186.98,102.226,127.308,0.538513,-0.346929,248.232,4.61873,4.33573,-22.0771484375,22.0050868988037,-18.7144412994385,22.0,-918805.0,1845.87,pp-ro,1,1,-1,-1
1570536193.5,2019-10-08,14:03:13.500,14.0,15.0,21.780000686645497,-17.8,16.4,5.0,-43.4,-3.6,157.8,-15.7969,15.5761,7.532,-5.85623,-2.8595200000000003,-11.6807,-41.9399,-6.32988,149.69799999999998,-0.196233,-0.117017,0.765778,260.4,3.8,52.1701,4.42721,12.5,1.255,383.825,4.55898,188.674,100.326,126.608,0.534876,-0.335304,248.38,4.70977,4.40541,-20.9745712280273,22.0050868988037,-17.4386806488037,22.0,-918711.0,1815.1,pp-ro,1,1,-1,-1
1570536193.6,2019-10-08,14:03:13.600,14.0,16.0,21.899999618530305,-18.7,15.5,3.5,-43.9,0.6,160.9,-15.7969,15.5761,7.532,-5.85623,-2.8595200000000003,-11.6807,-41.9399,-6.32988,149.69799999999998,-0.196233,-0.117017,0.765778,260.4,3.8,52.1701,4.42721,12.5,1.30486,409.492,4.55896,190.164,98.4256,126.108,0.53225,-0.324193,248.502,4.79504,4.47909,-20.4147491455078,22.0056018829346,-16.0622253417969,22.0,-918262.0,3261.04,pp-ro,1,1,-1,-1
1570536193.7,2019-10-08,14:03:13.700,14.0,15.0,22.100000381469695,-19.0,14.5,1.9,-44.2,4.3,163.5,-17.8401,13.6157,3.92451,-1.14772,-4.62429,-15.4897,-44.3884,4.35696,157.74,0.159663,0.07705,0.952014,260.4,3.8,52.1701,4.42721,12.4,1.31872,416.415,4.55893,191.595,96.9056,125.708,0.529678,-0.314803,248.801,4.86914,4.55023,-18.9912948608398,22.0050868988037,-14.733907699584998,22.0,-918064.0,3937.85,pp-ro,1,1,-1,-1
1570536193.8,2019-10-08,14:03:13.800,14.0,16.0,22.1399993896484,-19.7,13.4,0.3,-44.2,7.8,166.2,-17.8401,13.6157,3.92451,-1.14772,-4.62429,-15.4897,-44.3884,4.35696,157.74,0.159663,0.07705,0.952014,260.4,3.8,52.1701,4.42721,12.4,1.33146,426.473,4.55892,192.938,94.6256,125.408,0.528259,-0.3025,248.81,4.93963,4.62987,-17.8306884765625,22.0050868988037,-13.2217750549316,22.0,-917645.0,3968.62,pp-ro,1,1,-1,-1
1570536193.9,2019-10-08,14:03:13.900,14.0,16.0,22.1399993896484,-19.8,12.1,-0.9,-44.1,10.5,168.8,-18.9851,11.5366,0.780758,3.45145,-16.7796,-12.8174,-45.0453,10.7834,163.705,-0.00755395,0.0491263,0.612463,260.4,3.8,52.1701,4.42721,12.4,1.36526,443.569,4.55889,194.136,93.1056,125.208,0.5267270000000001,-0.293692,249.067,4.99898,4.69496,-16.5745010375977,22.0056018829346,-11.9939098358154,22.0,-916960.0,4922.32,pp-ro,1,1,-1,-1
1570536194.0,2019-10-08,14:03:14.000,14.0,15.0,22.1800003051758,-19.6,10.9,-2.0,-43.2,13.2,171.6,-19.021,10.8929,0.162583,-3.66259,-7.53717,-11.2826,-44.8815,12.2564,165.333,-0.075034,0.120251,0.8138810000000001,260.4,3.8,52.1701,4.42721,12.4,1.37634,446.114,4.55887,195.217,90.8256,125.108,0.526373,-0.281952,249.02,5.05871,4.75341,-15.2773513793945,22.0066318511963,-10.8851957321167,22.0,-916452.0,5106.9,pp-ro,1,1,-1,-1
1570536194.1,2019-10-08,14:03:14.100,14.0,15.0,22.219999313354503,-19.5,10.0,-3.3,-42.6,16.2,173.7,-19.0394,10.2987,-0.43461,-0.0990588999999999,-10.9051,-12.2464,-44.4555,13.415,167.03599999999997,0.0839008999999999,-0.0523182,0.677103,258.4,4.9,52.1701,4.42721,12.4,1.38022,443.689,4.55885,196.181,89.3056,125.108,0.525889,-0.273652,249.227,5.11788,4.818919999999999,-13.963134765625,22.0061168670654,-9.62592220306396,22.0,-916127.0,6214.43,pp-ro,1,1,-1,-1
1570536194.2,2019-10-08,14:03:14.200,14.0,16.0,22.1800003051758,-19.5,9.0,-4.3,-41.9,18.5,175.6,-19.0394,10.2987,-0.43461,-0.0990588999999999,-10.9051,-12.2464,-44.4555,13.415,167.03599999999997,0.0839008999999999,-0.0523182,0.677103,258.4,4.9,52.1701,4.42721,12.4,1.35806,439.311,4.55881,197.057,87.0256,125.207,0.526504,-0.26229,249.162,5.16314,4.87573,-12.6130752563477,22.0061168670654,-8.5298318862915,22.0,-915423.0,6983.54,pp-ro,1,1,-1,-1
1570536194.3,2019-10-08,14:03:14.300,14.0,17.0,22.25,-19.4,8.3,-5.2,-41.4,20.9,176.9,-19.0394,10.2987,-0.43461,-0.0990588999999999,-10.9051,-12.2464,-44.4555,13.415,167.03599999999997,0.0839008999999999,-0.0523182,0.677103,258.4,4.9,52.1701,4.42721,12.4,1.36914,445.104,4.55877,197.846,84.7456,125.407,0.527574,-0.251098,249.102,5.20397,4.92239,-11.2715454101562,22.0061168670654,-7.627155303955081,22.0,-914927.0,4214.73,pp-ro,1,1,-1,-1
1570536194.4,2019-10-08,14:03:14.400,14.0,15.0,22.1800003051758,-19.6,7.4,-5.8,-40.9,22.8,179.2,-18.7207,7.139710000000001,-4.47527,-1.01105,-5.49383,-12.1557,-42.4999,21.9181,175.24200000000002,-0.256821,0.118817,0.352428,258.4,4.9,52.1701,4.42721,12.4,1.38244,451.611,4.55872,198.576,82.8456,125.607,0.528403,-0.24158,249.144,5.24782,4.96347,-10.0102386474609,22.0061168670654,-6.835864067077639,22.0,-914137.0,5691.43,pp-ro,1,1,-1,-1
1570536194.5,2019-10-08,14:03:14.500,14.0,14.0,22.1399993896484,-19.4,6.7,-6.4,-40.0,24.2,-178.6,-18.7286,6.66395,-4.80198,3.41137,-14.7847,-5.218369999999999,-42.1949,23.1653,176.071,0.116421,-0.256532,0.4830569999999999,258.4,4.9,52.1701,4.42721,12.4,1.38742,451.253,4.558680000000001,199.16,80.9456,125.907,0.529814,-0.2323349999999999,249.138,5.28374,5.00065,-8.90425109863281,22.0056018829346,-6.107191562652591,22.0,-913829.0,5814.49,pp-ro,1,1,-1,-1
1570536194.6,2019-10-08,14:03:14.600,14.0,13.0,22.100000381469695,-19.1,5.8,-6.6,-39.7,25.0,-177.2,-18.6708,5.31277,-6.18832,2.37767,-9.38508,-2.77765,-41.0633,25.5659,-179.658,-0.269879,0.158457,0.127104,258.4,4.9,52.1701,4.42721,12.4,1.37579,446.43,4.5586400000000005,199.715,79.0456,126.307,0.531589,-0.2231449999999999,249.174,5.30354,5.0290300000000006,-7.856292724609379,22.0056018829346,-5.54583740234375,22.0,-913176.0,6614.37,pp-ro,1,1,-1,-1
1570536194.7,2019-10-08,14:03:14.700,14.0,13.0,22.0200004577637,-18.6,5.5,-6.7,-39.4,25.7,-175.3,-18.6708,5.31277,-6.18832,2.37767,-9.38508,-2.77765,-41.0633,25.5659,-179.658,-0.269879,0.158457,0.127104,258.4,4.9,52.1701,4.4272,12.2,1.36803,436.833,4.5586,200.153,77.1455,126.707,0.5335479999999999,-0.2140949999999999,249.133,5.32699,5.039540000000001,-6.66496276855469,22.0061168670654,-5.33690643310547,22.0,-912559.0,6675.89,pp-ro,1,1,-1,1
1570536194.8,2019-10-08,14:03:14.800,14.0,13.0,22.0200004577637,-18.0,5.1,-6.7,-39.3,27.1,-175.1,-18.511,4.8633,-6.25652,4.04325,-1.6625,-6.705239999999999,-40.7372,25.6239,-178.486,-0.280067,-0.440355,0.0806212,258.4,4.9,52.1701,4.4272,12.2,1.32592,413.931,4.55856,200.621,75.2455,127.107,0.535417,-0.2050139999999999,249.132,5.3432,5.05028,-6.27069091796875,22.0050868988037,-5.12748861312866,22.0,-911512.0,6429.78,pp-ro,1,2,-1,1
1570536194.9,2019-10-08,14:03:14.900,14.0,14.0,21.8600006103516,-17.8,4.6,-7.0,-39.8,27.8,-174.5,-17.4625,3.94981,-6.851780000000001,-1.0699,-4.569369999999999,-3.74611,-40.6846,27.5778,-176.138,-0.16746,0.0495489,0.209984,258.4,4.9,52.1701,4.4272,12.2,1.3165,401.466,4.55851,200.971,73.3455,127.507,0.5374760000000001,-0.1960589999999999,249.052,5.3538,5.07418,-5.64772033691406,22.0050868988037,-4.64980888366699,22.0,-911172.0,6522.07,pp-ro,1,2,-1,1
1570536195.0,2019-10-08,14:03:15.000,14.0,15.0,21.5400009155273,-17.5,4.2,-7.0,-39.7,27.7,-173.7,-17.4625,3.94981,-6.851780000000001,-1.0699,-4.569369999999999,-3.74611,-40.6846,27.5778,-176.138,-0.16746,0.0495489,0.209984,258.4,4.9,52.1701,4.4272,12.2,1.26552,383.064,4.55847,201.351,71.8255,128.007,0.539525,-0.188728,249.172,5.356319999999999,5.08499,-5.1868896484375,22.0050868988037,-4.4237570762634295,22.0,-910376.0,7752.65,pp-ro,1,2,-1,1
1570536195.1,2019-10-08,14:03:15.100,14.0,16.0,21.1299991607666,-17.2,4.1,-7.2,-39.9,28.3,-174.1,-17.2603,3.5570800000000005,-6.83212,-0.0546486,-7.67594,-11.0423,-40.7207,27.9033,-175.35299999999998,0.0873721,-0.174253,-0.0900756,268.7,5.4,52.1701,4.4272,12.2,1.25721,378.723,4.55842,201.643,69.9255,128.507,0.541979,-0.179835,249.126,5.35582,5.09482,-4.77726745605469,22.0056018829346,-4.21687507629395,22.0,-909955.0,3507.15,pp-ro,1,2,-1,1
1570536195.2,2019-10-08,14:03:15.200,14.0,16.0,20.7999992370605,-17.6,3.9,-7.2,-40.1,27.8,-174.3,-17.2603,3.5570800000000005,-6.83212,-0.0546486,-7.67594,-11.0423,-40.7207,27.9033,-175.35299999999998,0.0873721,-0.174253,-0.0900756,268.7,5.4,52.1701,4.4272,12.2,1.25998,383.48800000000006,4.55843,201.96400000000003,68.4055,129.107,0.544431,-0.172613,249.274,5.3432,5.092980000000001,-4.49052429199219,22.0050868988037,-4.23159408569336,22.0,-909494.0,5076.14,pp-ro,1,2,-1,1
1570536195.3,2019-10-08,14:03:15.300,14.0,16.0,20.5499992370605,-17.9,3.6,-7.1,-40.8,27.0,-173.6,-17.2801,3.25143,-7.21358,-1.94865,-2.42325,-4.30459,-41.3997,27.3597,-174.778,-0.143388,-0.254546,-0.0623742,268.7,5.4,52.1701,4.4272,12.2,1.28159,403.016,4.55844,202.198,66.5054,129.707,0.54728,-0.163813,249.261,5.33435,5.09015,-4.2447509765625,22.0050868988037,-4.265864849090581,22.0,-909208.0,1968.93,pp-ro,1,2,-1,1
1570536195.4,2019-10-08,14:03:15.400,14.0,15.0,20.4200000762939,-18.2,3.6,-6.7,-40.4,26.7,-172.4,-17.6779,3.09521,-6.90918,2.14639,-0.498439,6.62338,-41.7473,26.8371,-173.822,-0.180989,0.0831425,-0.105273,268.7,5.4,52.1701,4.4272,12.2,1.32869,420.93,4.55844,202.432,64.6054,130.30700000000002,0.550093,-0.1549819999999999,249.264,5.3373,5.06635,-4.23963165283203,22.0050868988037,-4.72107076644897,22.0,-908945.0,2830.33,pp-ro,1,2,-1,1
1570536195.5,2019-10-08,14:03:15.500,14.0,15.0,20.3799991607666,-18.6,3.4,-6.9,-40.6,26.4,-172.0,-17.9874,3.06786,-6.689080000000001,-5.58801,0.040486,-0.0314394,-41.705,26.5802,-172.986,-0.14682,-0.171296,0.159423,268.7,5.4,52.1701,4.4272,12.2,1.32869,418.592,4.55843,202.666,62.7054,130.80700000000002,0.552531,-0.146103,249.23,5.33234,5.0718,-4.19525146484375,22.0050868988037,-4.604422569274901,22.0,-908050.0,6829.72,pp-ro,1,2,-1,1
