time,date,time_of_day,airspeed_temperature,airspeed_angle_of_attack,airspeed_apparent_windspeed,kite_0_vx,kite_0_vy,kite_0_vz,kite_0_roll,kite_0_pitch,kite_0_yaw,kite_1_vx,kite_1_vy,kite_1_vz,kite_1_ax,kite_1_ay,kite_1_az,kite_1_roll,kite_1_pitch,kite_1_yaw,kite_1_roll_rate,kite_1_pitch_rate,kite_1_yaw_rate,ground_upwind_direction,ground_wind_velocity,ground_pos_latitude,ground_pos_longitude,ground_pos_altitude,ground_tether_reelout_speed,ground_tether_force,est_upwind_direction,kite_pos_east,kite_pos_north,kite_height,kite_elevation,kite_azimuth,kite_distance,kite_heading,kite_course,kite_actual_steering,kite_actual_depower,kite_set_steering,kite_set_depower,ground_mech_energy,ground_mech_power,flight_phase,flight_phase_index,phase,pattern,pattern_section
1570542428.8,2019-10-08,15:47:08.800,14.0,9.0,14.2799997329712,11.1,-5.0,2.9,17.7,-3.2,-70.4,10.4787,-3.98591,3.43087,9.4015,7.571210000000001,2.33084,20.3043,11.5757,-70.2241,0.263289,0.11398,0.8487040000000001,250.0,5.7,52.1701,4.427230000000001,-1.5,-3.4995800000000004,97.1768,4.2647,55.29,4.9404900000000005,239.554,1.34309,0.358566,245.902,0.4467899999999999,1.29664,-34.8557739257812,22.0277442932129,-35.0,22.0,2327450.0,-11629.0,pp-riro,4,0,-1,-1
1570542428.9,2019-10-08,15:47:08.900,14.0,8.0,14.0900001525879,12.1,-4.2,3.3,19.2,-4.8,-65.5,11.4144,-3.10917,3.779430000000001,9.40327,9.35829,1.75478,22.1096,10.5612,-64.6371,0.165555,0.1154109999999999,0.95205,250.0,5.7,52.1701,4.427230000000001,-1.5,-3.50845,96.2008,4.26478,54.8518,6.08053,239.354,1.34419,0.337209,245.634,0.559683,1.40988,-34.970123291015604,22.007661819458,-35.0,22.0,2327020.0,-8121.83,pp-riro,4,0,-1,-1
1570542429.0,2019-10-08,15:47:09.000,14.0,10.0,13.8400001525879,13.2,-3.4,3.5,20.9,-6.4,-60.2,12.2921,-2.2362,4.09114,6.76514,6.8559600000000005,0.980454,23.9672,8.94965,-58.9721,0.062403,0.0913938,1.03777,250.0,5.7,52.1701,4.427230000000001,-1.5,-3.5272900000000003,93.2159,4.26485,54.4137,7.220569999999999,239.054,1.34509,0.315612,245.275,0.680517,1.51106,-34.970123291015604,22.0009689331055,-35.0,22.0,2325880.0,-10767.6,pp-riro,4,0,-1,-1
1570542429.1,2019-10-08,15:47:09.100,14.0,10.0,13.5799999237061,14.1,-2.5,3.9,22.2,-8.0,-55.0,13.1188,-1.39413,4.4608,9.04872,9.4886,4.10982,25.7809,7.340389999999999,-53.253,0.202422,0.110955,0.968882,250.0,5.7,52.1701,4.427230000000001,-1.4,-3.58658,89.9002,4.26492,54.0924,8.3606,238.754,1.34544,0.294116,244.948,0.799838,1.61007,-34.970123291015604,22.0009689331055,-35.0,22.0,2323620.0,-15566.8,pp-riro,4,0,-1,-1
1570542429.2,2019-10-08,15:47:09.200,14.0,9.0,13.5100002288818,14.9,-1.6,4.2,23.4,-9.5,-50.2,13.1188,-1.39413,4.4608,9.04872,9.4886,4.10982,25.7809,7.340389999999999,-53.253,0.202422,0.110955,0.968882,250.0,5.7,52.1701,4.427230000000001,-1.4,-3.6176,89.5161,4.265,53.8587,10.2607,238.454,1.3448,0.259136,244.676,0.925775,1.71225,-34.983795166015604,22.0009689331055,-35.0,22.0,2322760.0,-16489.8,pp-riro,4,0,-1,-1
1570542429.3,2019-10-08,15:47:09.300,14.0,9.0,13.4399995803833,15.6,-0.7,4.6,24.5,-11.1,-45.1,13.9478,-0.508455,4.76066,8.79687,9.993,1.62729,27.2309,5.69899,-47.7829,0.0866788,0.168565,0.992192,250.0,5.7,52.1701,4.427230000000001,-1.4,-3.69628,89.9728,4.26507,53.7419,11.4007,238.154,1.34408,0.238278,244.409,1.04289,1.7955,-34.9991455078125,22.0009689331055,-35.0,22.0,2320270.0,-16059.1,pp-riro,4,0,-1,-1
1570542429.4,2019-10-08,15:47:09.400,14.0,9.0,13.4399995803833,16.4,0.3,4.9,25.6,-12.7,-39.9,14.6129,0.439111,5.13335,6.102469999999999,9.40835,4.93606,28.3962,3.88754,-42.0006,0.00160188,0.152815,0.941883,250.0,5.7,52.1701,4.427230000000001,-1.4,-3.74504,88.3404,4.26515,53.7127,13.3008,237.854,1.34222,0.204535,244.206,1.17482,1.88977,-34.9991455078125,22.0009689331055,-35.0,22.0,2318590.0,-17012.8,pp-riro,4,0,-1,-1
1570542429.5,2019-10-08,15:47:09.500,14.0,7.0,13.4399995803833,17.0,1.4,5.3,26.4,-14.3,-34.7,15.5342,1.96025,5.65929,5.781680000000001,10.4334,4.043069999999999,29.8385,0.983732,-33.7799,0.136275,0.2447389999999999,1.02027,246.5,5.8,52.1701,4.427230000000001,-1.4,-3.77552,87.4561,4.265219999999999,53.7711,14.8208,237.454,1.34009,0.178219,243.917,1.29874,1.9788,-34.9991455078125,22.0009689331055,-35.0,22.0,2317620.0,-18212.6,pp-riro,4,0,-1,-1
1570542429.6,2019-10-08,15:47:09.600,14.0,8.0,13.5799999237061,17.5,2.5,5.7,26.9,-16.3,-29.8,16.0687,2.9856700000000003,6.03904,4.559130000000001,10.0153,4.96779,30.4445,-0.83472,-28.291,0.159266,0.237809,0.965501,246.5,5.8,52.1701,4.427230000000001,-1.4,-3.87027,85.681,4.26526,53.9463,16.3409,236.954,1.33726,0.153006,243.566,1.41777,2.06252,-34.9991455078125,22.0009689331055,-35.0,22.0,2314590.0,-21104.4,pp-riro,4,0,-1,-1
1570542429.7,2019-10-08,15:47:09.700,14.0,8.0,13.6999998092651,17.8,3.7,6.1,27.4,-18.2,-24.7,16.3674,4.01944,6.41078,0.8966729999999999,10.7774,4.49226,30.8869,-2.69656,-22.7534,0.172231,0.203917,0.963626,246.5,5.8,52.1701,4.427230000000001,-1.4,-3.91127,86.09899999999999,4.2653,54.2091,18.241,236.454,1.3334700000000002,0.1225,243.274,1.54463,2.15437,-34.9991455078125,22.0009689331055,-35.0,22.0,2313430.0,-21812.0,pp-riro,4,0,-1,-1
1570542429.8,2019-10-08,15:47:09.800,14.0,10.0,13.7700004577637,18.0,4.9,6.6,27.6,-20.0,-19.6,16.6021,5.17935,6.830210000000001,2.28456,11.4354,5.96701,31.2131,-4.58401,-17.26,0.2408739999999999,0.2295699999999999,0.977291,246.5,5.8,52.1701,4.427230000000001,-1.4,-3.96557,89.2184,4.26534,54.6472,19.761,235.954,1.32932,0.100071,243.005,1.66233,2.23698,-35.0025634765625,22.0009689331055,-35.0,22.0,2311320.0,-19966.2,pp-riro,4,0,-1,-1
1570542429.9,2019-10-08,15:47:09.900,14.0,10.0,14.0200004577637,18.2,6.0,7.0,27.4,-21.6,-14.3,16.747,6.77682,7.44071,-0.964905,9.96022,3.30404,31.1185,-7.240939999999999,-9.20084,0.134728,0.191761,0.975661,246.5,5.8,52.1701,4.427230000000001,-1.4,-4.03317,86.9026,4.26538,55.1437,21.6611,235.355,1.32419,0.0727186,242.697,1.78637,2.31495,-35.0008544921875,22.0009689331055,-35.0,22.0,2309470.0,-18797.1,pp-riro,4,0,-1,-1
1570542430.0,2019-10-08,15:47:10.000,14.0,10.0,14.3299999237061,18.5,7.1,7.1,27.4,-23.1,-8.3,16.747,6.77682,7.44071,-0.964905,9.96022,3.30404,31.1185,-7.240939999999999,-9.20084,0.134728,0.191761,0.975661,246.5,5.8,52.1701,4.427230000000001,-1.4,-4.123480000000001,94.4687,4.26542,55.7863,23.5612,234.755,1.31834,0.0473716999999999,242.44,1.91835,2.38332,-35.0008544921875,22.0009689331055,-35.0,22.0,2306110.0,-21227.5,pp-riro,4,0,-1,-1
1570542430.1,2019-10-08,15:47:10.100,14.0,7.0,14.7600002288818,18.8,8.3,7.5,27.0,-24.3,-2.1,16.747,6.77682,7.44071,-0.964905,9.96022,3.30404,31.1185,-7.240939999999999,-9.20084,0.134728,0.191761,0.975661,246.5,5.8,52.1701,4.427230000000001,-1.4,-4.14564,103.599,4.26545,56.5164,25.4612,234.155,1.31201,0.0236557,242.22,2.0489900000000003,2.45342,-35.0025634765625,22.0009689331055,-35.0,22.0,2305450.0,-13321.0,pp-riro,4,0,-1,-1
1570542430.2,2019-10-08,15:47:10.200,14.0,9.0,15.0,19.0,9.6,8.2,26.4,-26.0,4.1,17.0278,8.28169,7.65158,3.95235,10.4882,2.27047,30.37,-9.91827,-0.605305,0.1125289999999999,0.337084,1.04407,246.5,5.8,52.1701,4.427230000000001,-1.4,-4.11406,121.772,4.26549,57.4218,27.7413,233.355,1.30403,-0.00315345,241.912,2.18331,2.53083,-35.0025634765625,22.0009689331055,-35.0,22.0,2305240.0,3353.33,pp-riro,4,0,-1,-1
1570542430.3,2019-10-08,15:47:10.300,14.0,10.0,15.2299995422363,18.7,11.0,8.8,25.3,-27.8,10.0,17.2452,10.7037,8.85866,-2.38764,14.0391,4.85593,28.2811,-12.8981,12.4484,-0.0925861,0.21945,1.10565,246.5,5.8,52.1701,4.427230000000001,-1.4,-4.01765,127.275,4.26553,58.3856,29.2614,232.555,1.29702,-0.0177309,241.551,2.29979,2.60706,-34.9991455078125,22.0009689331055,-35.0,22.0,2306480.0,15443.8,pp-riro,4,0,-1,-1
1570542430.4,2019-10-08,15:47:10.400,14.0,10.0,15.460000038147,18.2,12.6,9.0,24.5,-28.9,16.2,16.7232,12.0974,9.18844,-5.12661,12.2245,0.337605,26.9364,-14.3339,18.7557,0.0147827,0.228785,0.993953,246.5,5.8,52.1701,4.427230000000001,-1.4,-3.88523,126.333,4.265569999999999,59.5247,31.5415,231.755,1.2879200000000002,-0.0404557,241.347,2.42403,2.69723,-35.0008544921875,22.0009689331055,-23.0044822692871,22.0,2307980.0,13074.9,pp-riro,4,0,-1,-1
1570542430.5,2019-10-08,15:47:10.500,14.0,9.0,15.859999656677198,17.7,14.3,9.3,23.6,-29.8,22.6,16.4474,12.8437,9.32242,-3.96655,18.0959,2.85517,26.5354,-15.0019,21.7048,0.107223,0.231132,0.907537,240.8,5.8,52.1701,4.427230000000001,-1.4,-3.75834,129.654,4.26561,60.8682,33.0616,230.755,1.27918,-0.0508042,240.927,2.53773,2.776,-35.0025634765625,22.0009689331055,-22.4443168640137,22.0,2309660.0,16243.7,pp-riro,4,0,-1,-1
1570542430.6,2019-10-08,15:47:10.600,14.0,10.0,16.1900005340576,17.2,15.8,9.8,22.9,-30.4,28.6,16.2363,13.5615,9.539,-3.66272,15.6142,3.13954,26.0639,-15.5116,24.6729,0.155351,0.348524,0.96022,240.8,5.8,52.1701,4.427230000000001,-1.4,-3.61373,142.403,4.26564,62.2993,34.9616,229.855,1.26946,-0.0646416,240.7,2.64605,2.84878,-34.9445190429688,22.0009689331055,-21.761053085327102,22.0,2311480.0,20150.7,pp-riro,4,0,-1,-1
1570542430.7,2019-10-08,15:47:10.700,14.0,10.0,16.3999996185303,16.4,17.2,10.5,22.2,-31.3,34.6,15.5226,15.7509,10.3599,-3.14456,13.9901,8.73338,24.3438,-16.5501,33.9752,0.0325162,0.329882,1.06652,240.8,5.8,52.1701,4.427230000000001,-1.4,-3.38877,162.519,4.26567,63.9057,36.4817,228.855,1.2597,-0.0719993,240.394,2.74819,2.91835,-34.5178375244141,22.0009689331055,-20.9668369293213,22.0,2314380.0,32918.0,pp-riro,4,0,-1,-1
1570542430.8,2019-10-08,15:47:10.800,14.0,9.0,16.770000457763697,15.4,18.5,11.0,21.0,-32.0,40.8,15.5226,15.7509,10.3599,-3.14456,13.9901,8.73338,24.3438,-16.5501,33.9752,0.0325162,0.329882,1.06652,240.8,5.8,52.1701,4.427230000000001,-1.4,-2.90118,177.813,4.26569,65.6581,38.0018,227.855,1.2494,-0.0779756,240.152,2.85036,2.98656,-33.4818267822266,22.0009689331055,-20.1974315643311,22.0,2320690.0,45039.2,pp-riro,4,0,-1,-1
1570542430.9,2019-10-08,15:47:10.900,14.0,11.0,17.2399997711182,14.4,19.9,11.2,19.7,-32.5,47.6,13.6735,18.1952,11.3314,-11.5248,8.513639999999999,-0.393665,21.6361,-18.6289,46.2179,0.193017,0.1975299999999999,0.979539,240.8,5.8,52.1701,4.427230000000001,-1.4,-2.72331,175.267,4.26572,67.5858,39.9019,226.655,1.23744,-0.0866523,239.859,2.96244,3.05653,-32.246124267578104,22.0009689331055,-19.564208984375,22.0,2322880.0,41808.9,pp-riro,4,0,-1,-1
1570542431.0,2019-10-08,15:47:11.000,14.0,11.0,17.2399997711182,13.4,21.1,11.3,18.2,-32.5,54.0,13.6735,18.1952,11.3314,-11.5248,8.513639999999999,-0.393665,21.6361,-18.6289,46.2179,0.193017,0.1975299999999999,0.979539,240.8,5.8,52.1701,4.427230000000001,-1.4,-2.19915,168.66400000000002,4.26575,69.6302,41.0419,225.555,1.22671,-0.0859654,239.599,3.05883,3.11124,-30.6656494140625,22.0009689331055,-18.921516418457,22.0,2327850.0,29533.9,pp-riro,4,0,-1,-1
1570542431.1,2019-10-08,15:47:11.100,14.0,10.0,17.8899993896484,12.2,22.2,11.6,16.8,-33.1,60.5,11.8064,20.6097,11.6356,-13.1072,10.6524,2.59324,18.6775,-20.5721,58.4147,0.0299820999999999,0.200563,0.876382,240.8,5.8,52.1701,4.427230000000001,-1.4,-1.87723,179.942,4.26577,71.7915,42.562,224.455,1.2148,-0.0885333,239.469,3.15901,3.17136,-28.730163574218803,22.0009689331055,-18.3437480926514,22.0,2330560.0,26611.3,pp-riro,4,0,-1,-1
1570542431.2,2019-10-08,15:47:11.200,14.0,10.0,17.8899993896484,10.8,23.0,11.8,14.8,-33.5,66.6,10.6678,21.5434,11.9009,-12.1789,9.53419,3.2606,17.1316,-21.7322,64.494,-0.0836698999999999,0.135155,1.07016,240.8,5.8,52.1701,4.427230000000001,-1.4,-1.69715,187.253,4.2658,73.9821,43.7021,223.255,1.20339,-0.0869718,239.219,3.24845,3.22753,-26.6137542724609,22.0009689331055,-17.7185115814209,22.0,2331910.0,27318.9,pp-riro,4,0,-1,-1
1570542431.3,2019-10-08,15:47:11.300,14.0,10.0,18.0400009155273,9.5,23.5,11.7,13.0,-33.3,72.1,9.47139,22.2372,12.0601,-9.93219,6.35326,-1.86864,15.1606,-22.7292,70.4105,0.193484,0.0740986,0.929808,240.8,5.8,52.1701,4.427230000000001,-1.4,-1.26774,188.735,4.26583,76.2602,44.4621,222.155,1.19257,-0.0812866,239.051,3.32532,3.27219,-24.512718200683604,22.0009689331055,-17.189302444458,22.0,2334440.0,23381.0,pp-riro,4,0,-1,-1
1570542431.4,2019-10-08,15:47:11.400,14.0,10.0,18.0400009155273,8.3,24.0,11.2,11.0,-32.6,78.3,8.94345,22.4912,11.9968,-11.9821,1.7824799999999998,-2.46101,14.5587,-23.0487,72.947,0.457472,0.19157,0.835838,240.8,5.8,52.1701,4.427230000000001,-1.4,-0.676535,161.059,4.26585,78.7136,45.9822,221.055,1.17966,-0.0821631999999999,239.114,3.4189199999999995,3.32059,-22.4714126586914,22.0009689331055,-16.917947769165,22.0,2336510.0,9106.29,pp-riro,4,0,-1,-1
1570542431.5,2019-10-08,15:47:11.500,14.0,9.0,18.2800006866455,7.0,24.2,10.9,9.0,-32.0,83.8,8.94345,22.4912,11.9968,-11.9821,1.7824799999999998,-2.46101,14.5587,-23.0487,72.947,0.457472,0.19157,0.835838,245.1,7.0,52.1701,4.427230000000001,-1.4,-0.5335810000000001,156.243,4.26588,81.1086,46.7423,219.955,1.16842,-0.0762958,239.047,3.49652,3.36268,-21.553161621093803,22.0009689331055,-16.503023147583,22.0,2336840.0,6122.13,pp-riro,4,0,-1,-1
1570542431.6,2019-10-08,15:47:11.600,14.0,7.0,18.4200000762939,5.8,24.4,10.8,7.6,-31.1,88.3,6.42897,23.3266,11.2036,-12.8546,2.3318,0.8005770000000001,10.912,-23.4868,83.6019,-0.0367743,0.253749,0.624765,245.1,7.0,52.1701,4.427230000000001,-1.4,-0.125223,161.905,4.2659400000000005,83.5035,47.1223,218.955,1.15804,-0.0673217,239.028,3.55785,3.39859,-19.5818405151367,22.0009689331055,-16.0891094207764,22.0,2337230.0,1261.34,pp-riro,4,0,-1,-1
1570542431.7,2019-10-08,15:47:11.700,14.0,9.0,18.229999542236303,4.6,24.3,10.6,5.8,-30.3,92.8,5.29595,23.471,11.0006,-11.8946,0.682361,0.0518755999999999,9.08161,-23.0334,88.3202,0.0573918,0.148946,0.644827,245.1,7.0,52.1701,4.427230000000001,-1.4,0.00886532,162.207,4.26601,85.9569,47.8824,217.955,1.14674,-0.0618583,239.135,3.62222,3.43596,-18.29833984375,22.0009689331055,-15.8315467834473,22.0,2337220.0,-184.587,pp-riro,4,0,-1,-1
1570542431.8,2019-10-08,15:47:11.800,14.0,7.0,18.1299991607666,3.5,24.2,10.2,4.1,-29.5,96.6,4.14813,23.574,10.7531,-7.40842,-0.271795,-6.36692,7.57022,-22.7291,92.584,0.0210949,0.182818,0.641418,245.1,7.0,52.1701,4.427230000000001,-1.4,0.2670679999999999,154.709,4.26607,88.3811,48.2624,216.955,1.13624,-0.0535039999999999,239.186,3.67412,3.46929,-17.2537994384766,22.0009689331055,-15.5428285598755,22.0,2336970.0,-3230.27,pp-riro,4,0,-1,-1
1570542431.9,2019-10-08,15:47:11.900,14.0,7.0,18.1299991607666,2.5,24.3,10.0,3.0,-28.2,99.7,3.58166,23.5507,10.5765,-15.2272,-2.53159,-5.4229400000000005,6.774780000000001,-22.3665,94.5153,-0.0910734,0.0651842,0.6048640000000001,245.1,7.0,52.1701,4.427230000000001,-1.4,0.277595,152.518,4.26614,90.8929,48.2624,215.955,1.12609,-0.0418717,239.222,3.71549,3.49725,-16.263870239257802,22.0009689331055,-15.25989818573,22.0,2337140.0,3137.98,pp-riro,4,0,-1,-1
1570542432.0,2019-10-08,15:47:12.000,14.0,9.0,17.979999542236303,1.7,24.2,10.3,2.1,-27.1,102.6,2.03111,23.626,10.2857,-2.84676,-2.98958,-1.70321,4.40359,-21.6164,99.0874,-0.196093,0.269708,0.636257,245.1,7.0,52.1701,4.427230000000001,-1.4,0.261527,174.00400000000002,4.2662,93.3463,48.6425,215.555,1.11654,-0.0341913,239.882,3.75693,3.51758,-15.6528396606445,22.0009689331055,-15.2393417358398,22.0,2337090.0,-1630.52,pp-riro,4,0,-1,-1
1570542432.1,2019-10-08,15:47:12.100,14.0,9.0,17.7800006866455,1.2,24.2,10.5,0.1,-26.5,104.5,0.860928,23.5129,10.6631,-8.40514,-5.54352,0.492125,2.18477,-20.3033,104.121,-0.178428,0.141495,0.635644,245.1,7.0,52.1701,4.427219999999999,-1.4,0.324692,189.373,4.26626,95.7413,48.6425,214.455,1.10654,-0.0239488,239.84,3.77901,3.5256199999999995,-15.3217239379883,22.0009689331055,-15.4379358291626,22.0,2337130.0,1199.82,pp-riro,4,0,-1,-1
1570542432.2,2019-10-08,15:47:12.200,14.0,11.0,17.479999542236303,0.5,24.2,10.6,-2.5,-25.5,109.2,0.860928,23.5129,10.6631,-8.40514,-5.54352,0.492125,2.18477,-20.3033,104.121,-0.178428,0.141495,0.635644,245.1,7.0,52.1701,4.427219999999999,-1.4,0.3169349999999999,182.31,4.26632,98.1946,48.6426,212.855,1.09536,-0.0138719,239.406,3.84547,3.54187,-15.2654037475586,22.0009689331055,-15.5930490493774,22.0,2337150.0,369.174,pp-riro,4,0,-1,-1
1570542432.3,2019-10-08,15:47:12.300,14.0,15.0,16.9099998474121,-0.7,24.4,10.6,-4.5,-24.8,112.5,0.860928,23.5129,10.6631,-8.40514,-5.54352,0.492125,2.18477,-20.3033,104.121,-0.178428,0.141495,0.635644,245.1,7.0,52.1701,4.427219999999999,-1.4,0.3080699999999999,179.93,4.26639,100.648,48.6426,211.654,1.0848799999999998,-0.0041933,239.361,3.88992,3.5781400000000003,-15.400238037109402,22.0009689331055,-15.3455238342285,22.0,2337220.0,892.17,pp-riro,4,0,-1,-1
1570542432.4,2019-10-08,15:47:12.400,14.0,13.0,16.8600006103516,-1.8,24.7,11.2,-6.7,-23.9,115.8,-1.09956,23.8423,10.6636,-12.6001,1.5059,3.08314,-3.32994,-18.6026,111.849,-0.0540548999999999,-0.031878,0.3139,245.1,7.0,52.1701,4.427219999999999,-1.4,0.356829,209.677,4.26645,103.218,48.6427,210.454,1.07397,0.00557603,239.398,3.93571,3.6054,-15.570915222168,22.0009689331055,35.0,22.0,2337210.0,-307.645,pp-riro,4,0,-1,-1
1570542432.5,2019-10-08,15:47:12.500,14.0,12.0,16.9099998474121,-3.0,24.7,11.4,-8.4,-23.7,118.6,-1.09956,23.8423,10.6636,-12.6001,1.5059,3.08314,-3.32994,-18.6026,111.849,-0.0540548999999999,-0.031878,0.3139,245.2,7.2,52.1701,4.427219999999999,-1.4,0.375668,219.649,4.26652,105.73,48.2627,209.054,1.06339,0.0176512,239.19,3.96756,3.63601,-15.5333709716797,22.0009689331055,35.0,22.0,2337240.0,430.703,pp-riro,4,0,-1,-1
1570542432.6,2019-10-08,15:47:12.600,14.0,11.0,16.9599990844727,-4.1,24.6,11.4,-10.7,-23.3,121.4,-1.6637400000000002,23.9675,10.880999999999998,-8.88274,3.3104,5.71243,-4.58333,-18.2419,113.323,-0.16754,0.111321,0.353819,245.2,7.2,52.1701,4.427219999999999,-1.4,1.05331,220.428,4.26655,108.213,47.8827,207.754,1.05304,0.0292524999999999,239.091,4.001119999999999,3.66496,-15.120330810546902,22.0009689331055,35.0,22.0,2334500.0,-24673.1,pp-riro,4,0,-1,-1
1570542432.7,2019-10-08,15:47:12.700,14.0,12.0,17.0100002288818,-4.9,24.6,11.1,-12.4,-22.8,123.9,-2.8694900000000003,24.0469,11.2647,-8.43946,0.242188,3.83449,-7.05651,-17.8645,116.443,-0.388102,0.00449682,0.3222489999999999,245.2,7.2,52.1701,4.427219999999999,-1.4,1.08212,206.736,4.26658,110.783,47.5028,206.354,1.04213,0.0407311999999999,238.98,4.03103,3.68595,-14.3488616943359,22.0009689331055,35.0,22.0,2335180.0,12890.3,pp-riro,4,0,-1,-1
1570542432.8,2019-10-08,15:47:12.800,14.0,11.0,17.1700000762939,-5.8,24.5,11.1,-13.9,-22.2,125.9,-5.23411,23.9294,10.8284,-5.60398,-2.36798,0.79487,-12.1017,-18.2675,122.431,-0.206651,-0.00798059,0.269877,245.2,7.2,52.1701,4.427219999999999,-1.4,0.842759,185.022,4.26661,113.265,47.1228,205.054,1.03165,0.0515211999999999,238.95,4.05505,3.70842,-13.2223968505859,22.0009689331055,35.0,22.0,2336260.0,3753.27,pp-riro,4,0,-1,-1
1570542432.9,2019-10-08,15:47:12.900,14.0,11.0,17.370000839233402,-6.7,24.2,11.6,-15.2,-22.4,127.8,-5.23411,23.9294,10.8284,-5.60398,-2.36798,0.79487,-12.1017,-18.2675,122.431,-0.206651,-0.00798059,0.269877,245.2,7.2,52.1701,4.427219999999999,-1.4,0.978509,212.945,4.26664,115.719,46.3628,203.754,1.02173,0.0646776,238.864,4.069459999999999,3.72436,-11.7426147460938,22.0009689331055,35.0,22.0,2335740.0,-1599.75,pp-riro,4,0,-1,-1
1570542433.0,2019-10-08,15:47:13.000,14.0,13.0,17.6700000762939,-7.4,23.8,11.5,-16.3,-22.8,129.5,-6.652760000000001,23.5764,11.4243,-8.30719,-4.31222,5.634519999999999,-14.6778,-18.2091,125.715,-0.194769,-0.198088,0.280986,245.2,7.2,52.1701,4.427219999999999,-1.4,1.01896,240.006,4.26668,118.143,45.9828,202.354,1.01112,0.0745371,238.788,4.08181,3.74307,-9.9044189453125,22.0009689331055,35.0,22.0,2335900.0,-369.174,pp-riro,4,0,-1,-1
1570542433.1,2019-10-08,15:47:13.100,14.0,13.0,17.6700000762939,-7.8,23.8,11.5,-16.7,-22.7,130.1,-7.50125,23.2551,11.41,-4.84756,-0.694955,-1.82438,-16.1104,-19.4175,127.836,-0.174115,-0.13779,0.158547,245.2,7.2,52.1701,4.427219999999999,-1.2,1.0184,244.161,4.26671,120.538,44.8429,201.754,1.00329,0.0895225,239.26,4.07837,3.744,-7.805084228515621,22.0009689331055,35.0,22.0,2336180.0,3014.92,pp-riro,4,0,-1,-1
1570542433.2,2019-10-08,15:47:13.200,14.0,12.0,18.1100006103516,-8.2,23.8,12.0,-17.9,-22.3,130.8,-8.17421,23.3605,11.5872,-6.76713,2.42939,9.0846,-17.614,-20.1034,128.764,-0.3251,-0.183035,0.127813,245.2,7.2,52.1701,4.427219999999999,-1.2,1.01896,246.513,4.26674,121.677,44.4629,200.354,0.996825,0.0953055,238.588,4.0865,3.74713,-5.69210052490234,22.0009689331055,35.0,22.0,2336280.0,1722.81,pp-riro,4,0,-1,-1
1570542433.3,2019-10-08,15:47:13.300,14.0,11.0,18.6399993896484,-8.4,23.6,12.6,-18.4,-22.5,131.5,-8.49339,23.2438,12.2073,-2.40849,0.911471,2.4751,-18.6993,-20.7624,130.119,-0.0210184,-0.208455,0.2957849999999999,245.2,7.2,52.1701,4.427219999999999,-1.2,1.02671,242.33900000000003,4.266769999999999,124.16,43.7029,198.954,0.986315,0.10717,238.555,4.08446,3.73843,-3.58934783935547,22.0009689331055,35.0,22.0,2336590.0,3076.45,pp-riro,4,0,-1,-1
1570542433.4,2019-10-08,15:47:13.400,14.0,11.0,18.6399993896484,-8.3,23.5,12.6,-19.1,-22.8,132.0,-8.53157,23.1884,12.4934,1.15634,-1.18059,-1.03302,-19.6676,-21.7245,131.24,0.126476,-0.136352,-0.0424274,245.2,7.2,52.1701,4.427219999999999,-1.2,1.01452,235.281,4.26681,126.525,42.9429,197.454,0.97589,0.1183819999999999,238.414,4.079280000000001,3.72634,-1.4866027832031203,22.0009689331055,35.0,22.0,2336770.0,3199.51,pp-riro,4,0,-1,-1
1570542433.5,2019-10-08,15:47:13.500,14.0,8.0,18.6800003051758,-8.3,23.4,12.7,-19.0,-22.8,131.3,-8.52723,23.1484,12.6119,1.35687,-0.2796639999999999,1.91642,-19.8194,-22.0355,131.014,-0.083357,-0.118219,-0.118473,240.0,6.6,52.1701,4.427219999999999,-1.2,0.994578,227.774,4.26682,128.833,42.1829,196.054,0.965828,0.129142,238.358,4.0602800000000006,3.71694,0.625053405761719,22.0009689331055,35.0,22.0,2337030.0,2399.63,pp-riro,4,0,-1,-1
1570542433.6,2019-10-08,15:47:13.600,14.0,9.0,18.8299999237061,-8.3,23.4,13.3,-18.7,-23.1,129.9,-8.52723,23.1484,12.6119,1.35687,-0.2796639999999999,1.91642,-19.8194,-22.0355,131.014,-0.083357,-0.118219,-0.118473,240.0,6.6,52.1701,4.427219999999999,-1.2,1.00234,241.154,4.26684,131.16899999999998,41.043,194.654,0.956004,0.142302,238.286,4.02714,3.69953,2.73014068603516,22.0009689331055,35.0,22.0,2337180.0,1015.23,pp-riro,4,0,-1,-1
1570542433.7,2019-10-08,15:47:13.700,14.0,10.0,19.1000003814697,-7.8,23.3,14.0,-19.0,-24.2,128.8,-8.52723,23.1484,12.6119,1.35687,-0.2796639999999999,1.91642,-19.8194,-22.0355,131.014,-0.083357,-0.118219,-0.118473,240.0,6.6,52.1701,4.427219999999999,-1.2,1.05608,261.23900000000003,4.26684,133.477,40.283,193.154,0.945575,0.152446,238.217,3.99405,3.66768,4.82841491699219,22.0009689331055,35.0,22.0,2337270.0,1138.29,pp-riro,4,0,-1,-1
1570542433.8,2019-10-08,15:47:13.800,14.0,10.0,19.4200000762939,-7.2,23.7,14.5,-18.8,-25.0,127.1,-8.70551,23.4107,13.282,3.27914,0.310265,6.627269999999999,-20.6557,-24.0224,129.873,-0.2418469999999999,0.0132241,-0.215403,240.0,6.6,52.1701,4.427219999999999,-1.2,1.0583,259.885,4.26684,135.784,39.523,191.654,0.935093,0.162305,238.182,3.95562,3.63287,6.93349456787109,22.0009689331055,35.0,22.0,2337420.0,2922.63,pp-riro,4,0,-1,-1
1570542433.9,2019-10-08,15:47:13.900,14.0,10.0,19.6499996185303,-6.6,24.0,15.0,-18.7,-26.0,125.0,-8.70551,23.4107,13.282,3.27914,0.310265,6.627269999999999,-20.6557,-24.0224,129.873,-0.2418469999999999,0.0132241,-0.215403,240.0,6.6,52.1701,4.427219999999999,-1.2,1.04611,265.913,4.26684,138.091,38.7631,190.154,0.924564,0.171888,238.182,3.91048,3.59947,9.04198455810547,22.0009689331055,35.0,22.0,2337710.0,2153.51,pp-riro,4,0,-1,-1
1570542434.0,2019-10-08,15:47:14.000,14.0,11.0,20.0400009155273,-5.2,24.3,16.9,-18.3,-28.8,120.5,-7.27712,24.2622,14.8843,6.24751,5.50215,5.49859,-20.8493,-26.9122,126.063,-0.057205,-0.332698,-0.4229739999999999,240.0,6.6,52.1701,4.427219999999999,-1.2,1.0970799999999998,305.032,4.26684,140.57399999999998,37.6231,188.454,0.913247,0.184042,238.1,3.81654,3.5272900000000003,11.1504745483398,22.0009689331055,35.0,22.0,2337670.0,-1169.05,pp-riro,4,0,-1,-1
1570542434.1,2019-10-08,15:47:14.100,14.0,11.0,20.1700000762939,-4.6,24.2,17.3,-17.8,-30.0,118.5,-6.00977,24.867,16.8009,13.3414,0.0473996,7.86195,-21.5838,-31.0268,122.795,0.00214175,-0.2139719999999999,-0.5607800000000001,240.0,6.6,52.1701,4.427219999999999,-1.0,1.19183,343.595,4.26684,142.998,37.2431,186.654,0.901155,0.190767,238.066,3.77477,3.4997199999999995,13.2487411499023,22.0009689331055,35.0,22.0,2337800.0,3045.68,pp-riro,4,0,-1,-1
1570542434.2,2019-10-08,15:47:14.200,14.0,11.0,20.1700000762939,-3.1,24.5,18.0,-16.8,-32.3,114.4,-4.7381,25.0145,17.7402,11.8454,3.75342,11.3606,-21.0514,-33.8221,119.375,-0.4592489999999999,-0.309743,-0.809873,240.0,6.6,52.1701,4.427219999999999,-1.0,1.20458,351.335,4.26684,145.364,36.8632,184.854,0.8892260000000001,0.197195,238.035,3.69747,3.44151,15.3623428344727,22.0009689331055,35.0,22.0,2338100.0,3045.68,pp-riro,4,0,-1,-1
1570542434.3,2019-10-08,15:47:14.300,14.0,11.0,20.340000152587898,-1.6,24.4,19.2,-14.9,-34.4,109.6,-3.16375,25.4811,18.7784,16.4504,2.91272,15.6532,-20.1225,-36.7392,114.665,-0.306294,-0.254204,-0.841037,240.0,6.6,52.1701,4.427219999999999,-1.0,1.21676,359.671,4.26684,147.78799999999998,36.4832,182.954,0.8768229999999999,0.203529,238.001,3.61399,3.38197,17.458908081054698,22.0009689331055,35.0,22.0,2338270.0,3230.27,pp-riro,4,0,-1,-1
1570542434.4,2019-10-08,15:47:14.400,14.0,11.0,20.4300003051758,0.4,24.0,20.2,-12.8,-37.8,103.7,-2.37071,25.507,19.5034,20.8226,-6.8343300000000005,11.9716,-19.2488,-38.509,112.043,-0.33399,-0.418934,-0.928278,240.0,6.6,52.1701,4.427219999999999,-1.0,1.24669,384.981,4.26684,150.24200000000002,36.4833,180.854,0.8634790000000001,0.207331,237.932,3.5131,3.3105300000000004,19.5810241699219,22.0009689331055,35.0,22.0,2338500.0,1415.17,pp-riro,4,0,-1,-1
1570542434.5,2019-10-08,15:47:14.500,14.0,12.0,20.6000003814697,2.7,23.2,20.4,-9.1,-40.7,96.1,-0.319927,25.3838,20.7852,16.4265,-2.63446,7.37016,-16.8865,-42.5799,106.501,-0.132166,-0.331677,-0.9543,239.1,6.5,52.1701,4.427219999999999,-1.0,1.29489,398.231,4.26684,152.549,36.4833,178.854,0.8508479999999999,0.210802,237.889,3.39814,3.23105,21.6912231445312,22.0009689331055,35.0,22.0,2339030.0,6183.66,pp-riro,4,0,-1,-1
1570542434.6,2019-10-08,15:47:14.600,14.0,10.0,20.770000457763697,5.0,22.5,20.7,-4.2,-42.6,87.8,3.5858800000000004,24.5052,21.4796,25.3734,-7.673260000000001,0.700754,-10.5885,-47.5162,94.8068,-0.273836,-0.1935579999999999,-1.22697,239.1,6.5,52.1701,4.427219999999999,-1.0,1.28713,399.482,4.266830000000001,154.798,36.8634,176.854,0.8381129999999999,0.211769,237.905,3.28502,3.1528400000000003,23.804817199707,22.0009689331055,-23.0044822692871,22.0,2339520.0,4276.26,pp-riro,4,0,-1,-1
1570542434.7,2019-10-08,15:47:14.700,14.0,10.0,21.0599994659424,7.6,20.9,20.9,2.2,-43.5,76.5,3.5858800000000004,24.5052,21.4796,25.3734,-7.673260000000001,0.700754,-10.5885,-47.5162,94.8068,-0.273836,-0.1935579999999999,-1.22697,239.1,6.5,52.1701,4.427219999999999,-1.0,1.29655,403.838,4.266830000000001,157.017,37.2435,174.75400000000002,0.825184,0.212668,237.867,3.13961,3.05723,25.901390075683604,22.0009689331055,23.0044822692871,22.0,2339750.0,4060.91,pp-ro,1,1,-1,-1
1570542434.8,2019-10-08,15:47:14.800,14.0,11.0,21.2600002288818,10.4,19.3,20.6,8.4,-43.7,65.5,3.5858800000000004,24.5052,21.4796,25.3734,-7.673260000000001,0.700754,-10.5885,-47.5162,94.8068,-0.273836,-0.1935579999999999,-1.22697,239.1,6.5,52.1701,4.427219999999999,-1.0,1.30486,401.644,4.266830000000001,158.974,38.0036,172.854,0.813343,0.210909,237.898,3.0024900000000003,2.9534,27.7271575927734,22.0009689331055,23.0044822692871,22.0,2340190.0,5014.61,pp-ro,1,1,-1,-1
1570542434.9,2019-10-08,15:47:14.900,14.0,11.0,21.5499992370605,12.7,17.7,19.7,15.4,-42.6,54.4,7.771489999999999,22.9485,21.9858,27.8855,-19.8982,1.81179,-0.519457,-50.9612,77.8953,-0.415109,-0.286567,-1.18826,239.1,6.5,52.1701,4.427219999999999,-1.0,1.2804799999999998,385.526,4.266830000000001,160.814,39.5236,170.954,0.8013060000000001,0.204568,238.01,2.86479,2.8618900000000003,29.2174072265625,22.0009689331055,23.0044822692871,22.0,2340880.0,6829.72,pp-ro,1,1,-1,-1
1570542435.0,2019-10-08,15:47:15.000,14.0,11.0,21.5499992370605,15.0,15.8,18.9,22.5,-40.1,42.7,13.9018,19.713,21.0103,27.435,-7.557689999999999,1.41439,15.7409,-51.6152,52.0605,-0.269338,0.0319145,-1.4157,239.1,6.5,52.1701,4.427219999999999,-1.0,1.28215,403.444,4.26682,162.537,40.6637,169.054,0.789876,0.200415,238.015,2.70875,2.7608900000000003,30.3448791503906,22.0009689331055,23.0044822692871,22.0,2341480.0,1661.28,pp-ro,1,1,-1,-1
1570542435.1,2019-10-08,15:47:15.100,14.0,11.0,21.340000152587898,17.0,13.6,18.4,28.8,-36.7,31.7,13.9018,19.713,21.0103,27.435,-7.557689999999999,1.41439,15.7409,-51.6152,52.0605,-0.269338,0.0319145,-1.4157,239.1,6.5,52.1701,4.427219999999999,-0.9,1.31096,413.264,4.266830000000001,163.998,42.5638,167.354,0.779231,0.191618,238.147,2.55388,2.66643,31.124923706054695,22.0025119781494,23.0116176605225,22.0,2341570.0,1722.81,pp-ro,1,1,-1,-1
1570542435.2,2019-10-08,15:47:15.200,14.0,10.0,21.1299991607666,18.3,11.3,16.8,34.0,-32.7,21.9,18.7863,15.457,19.4826,15.2685,-24.6831,-6.925889999999999,30.9131,-45.539,26.9804,-0.145515,-0.120338,-1.55287,239.1,6.5,52.1701,4.427219999999999,-0.9,1.32647,413.611,4.26682,165.253,44.0839,165.554,0.769123,0.1848769999999999,238.034,2.40258,2.56969,31.53369140625,22.0009689331055,23.0044822692871,22.0,2342020.0,5322.26,pp-ro,1,1,-1,-1
1570542435.3,2019-10-08,15:47:15.300,14.0,12.0,21.0,19.5,9.4,15.0,37.3,-27.6,13.7,20.7833,13.0371,17.6565,11.345999999999998,-6.08652,-14.9968,36.6071,-40.7105,15.9422,-0.755896,-0.0732738999999999,-2.13959,239.1,6.5,52.1701,4.427219999999999,-0.9,1.28769,379.92800000000005,4.26681,166.363,45.9839,164.054,0.760015,0.175901,238.128,2.25651,2.47467,31.620544433593803,22.0009689331055,21.5842800140381,22.0,2342750.0,7937.24,pp-ro,1,1,-1,-1
1570542435.4,2019-10-08,15:47:15.400,14.0,13.0,21.0400009155273,20.5,7.2,13.5,40.5,-22.7,7.0,21.5044,11.8798,16.5509,6.7853,-25.3786,-15.5269,38.4324,-38.032,11.7123,-0.321459,0.115199,-1.41654,239.1,6.5,52.1701,4.427219999999999,-0.9,1.21954,367.364,4.26681,167.239,47.504,162.654,0.752124,0.168818,238.08,2.12542,2.37456,31.603515625,22.0009689331055,19.8853702545166,22.0,2343730.0,2461.16,pp-ro,1,1,-1,-1
1570542435.5,2019-10-08,15:47:15.500,14.0,12.0,20.9599990844727,20.9,5.3,11.8,43.0,-17.6,0.2,23.4978,8.20256,13.6831,2.76628,-21.3815,-9.94574,42.07,-29.8253,0.519695,-0.179298,0.00824224,-1.44333,237.6,6.2,52.1701,4.427219999999999,-0.9,1.24059,374.162,4.26681,168.028,49.7841,161.454,0.744454,0.1575349999999999,238.284,1.99108,2.28742,31.0363616943359,22.0009689331055,18.416124343872102,22.0,2343780.0,1138.29,pp-ro,1,1,-1,-1
1570542435.6,2019-10-08,15:47:15.600,14.0,13.0,20.75,21.2,3.6,9.9,45.1,-12.6,-5.7,24.1158,5.9703,11.8083,6.01464,-11.8932,-13.1389,44.1123,-24.4907,-6.43401,-0.1752369999999999,0.0158449,-1.19545,237.6,6.2,52.1701,4.427219999999999,-0.9,1.25223,374.776,4.2668,168.524,51.6841,160.454,0.738458,0.148014,238.363,1.86566,2.19445,30.1626586914062,22.0019989013672,16.7762203216553,22.0,2344450.0,5414.55,pp-ro,1,1,-1,-1
1570542435.7,2019-10-08,15:47:15.700,14.0,13.0,20.659999847412102,21.3,1.8,8.1,46.7,-7.1,-11.3,24.5757,2.76698,8.56138,0.0923192,-17.975,-20.6915,45.2708,-15.5044,-15.3715,-0.155303,0.0632679,-1.54639,237.6,6.2,52.1701,4.427219999999999,-0.9,1.24447,372.635,4.266780000000001,169.021,53.5842,159.554,0.732734,0.138603,238.53,1.73615,2.0969,28.9397888183594,22.0019989013672,15.0422782897949,22.0,2344720.0,4922.32,pp-ro,1,1,-1,-1
1570542435.8,2019-10-08,15:47:15.800,14.0,13.0,20.5300006866455,21.1,0.1,6.4,47.7,-2.5,-16.3,24.4453,1.76207,7.50855,-2.82825,-13.4015,-21.2627,45.8493,-12.809,-18.0761,0.353608,-0.179304,-1.41804,237.6,6.2,52.1701,4.427219999999999,-0.9,1.24835,373.317,4.266769999999999,169.25400000000002,55.4842,158.85399999999998,0.728297,0.128844,238.663,1.62484,2.00217,27.359275817871104,22.0019989013672,13.310866355896,22.0,2345130.0,4522.38,pp-ro,1,1,-1,-1
1570542435.9,2019-10-08,15:47:15.900,14.0,13.0,20.4400005340576,20.6,-1.0,4.6,48.5,1.9,-20.8,24.4453,1.76207,7.50855,-2.82825,-13.4015,-21.2627,45.8493,-12.809,-18.0761,0.353608,-0.179304,-1.41804,237.6,6.2,52.1701,4.427219999999999,-0.9,1.24391,371.371,4.26675,169.37099999999998,57.7643,158.154,0.723785,0.116953,238.822,1.52321,1.92029,24.8999404907227,22.0019989013672,11.8398685455322,22.0,2345580.0,4399.32,pp-ro,1,1,-1,-1
1570542436.0,2019-10-08,15:47:16.000,14.0,13.0,20.3999996185303,20.2,-2.4,2.9,48.9,6.5,-24.9,23.5084,-1.68809,3.45471,-6.41538,-20.3853,-16.2256,46.1864,-2.18105,-27.117,0.138659,0.464122,-1.04195,237.6,6.2,52.1701,4.427219999999999,-0.9,1.24281,367.106,4.26674,169.342,59.6643,157.654,0.720569,0.106898,238.938,1.42246,1.82298,22.7897491455078,22.0025119781494,10.0138301849365,22.0,2346050.0,4983.85,pp-ro,1,1,-1,-1
1570542436.1,2019-10-08,15:47:16.100,14.0,13.0,20.3500003814697,19.8,-3.5,1.6,49.4,9.8,-28.8,23.1579,-2.48204,2.6154,-11.3661,-12.4728,-17.2973,46.2415,0.358717,-29.3204,0.0251690999999999,0.176032,-1.01911,237.6,6.2,52.1701,4.427230000000001,-0.9,1.2322799999999998,369.946,4.26673,169.25400000000002,61.9444,157.254,0.717414,0.0948172,239.192,1.34259,1.7467,20.6795501708984,22.0009689331055,8.606654167175291,22.0,2346490.0,3814.8,pp-ro,1,1,-1,-1
1570542436.2,2019-10-08,15:47:16.200,14.0,13.0,20.3099994659424,19.2,-4.6,0.1,49.5,13.3,-32.4,22.099,-4.61521,0.1681,-10.9634,-8.704239999999999,-18.0367,46.1543,7.067260000000001,-34.9069,-0.113928,-0.066388,-0.979034,237.6,6.2,52.1701,4.427230000000001,-0.9,1.2533299999999998,373.663,4.26671,168.991,63.4644,156.954,0.7156939999999999,0.0864224,239.208,1.2615299999999998,1.65629,18.5744705200195,22.0009689331055,6.86227560043335,22.0,2346800.0,3691.74,pp-ro,1,1,-1,-1
1570542436.3,2019-10-08,15:47:16.300,14.0,13.0,20.3099994659424,18.3,-5.5,-0.9,49.5,15.9,-35.8,21.675,-5.17288,-0.695244,-4.90675,-9.63839,-18.327,46.0027,8.90365,-36.6752,0.1551529999999999,-0.0485278,-0.866768,237.6,6.2,52.1701,4.427230000000001,-0.9,1.2489,379.109,4.2667,168.67,65.7445,156.85399999999998,0.713969,0.074021,239.531,1.19739,1.58739,16.9905471801758,22.0009689331055,5.5433635711669895,22.0,2347300.0,4614.67,pp-ro,1,1,-1,-1
1570542436.4,2019-10-08,15:47:16.400,14.0,12.0,20.3099994659424,17.5,-6.2,-2.0,49.6,18.5,-38.9,19.8892,-6.5472,-2.56507,-9.33534,-8.4906,-11.1862,45.8527,14.054,-41.5331,0.169628,-0.00957038,-0.8831950000000001,237.6,6.2,52.1701,4.427230000000001,-0.9,1.27882,387.759,4.2666900000000005,168.202,68.0245,156.85399999999998,0.712858,0.0613894,239.838,1.1372,1.51795,14.8786468505859,22.0009689331055,4.18756580352783,22.0,2347800.0,4491.62,pp-ro,1,1,-1,-1
1570542436.5,2019-10-08,15:47:16.500,14.0,12.0,20.2600002288818,16.8,-6.9,-2.7,49.6,20.8,-41.8,18.9902,-7.50015,-3.56483,-4.63275,-8.23666,-12.8311,45.5657,17.2466,-44.4682,-0.190613,-0.109029,-0.6535979999999999,238.3,6.0,52.1701,4.427230000000001,-0.9,1.27273,385.157,4.26667,167.64700000000002,69.5445,156.954,0.7130029999999999,0.0524923,239.951,1.08105,1.46109,12.776969909668,22.0009689331055,3.0257282257080096,22.0,2348090.0,5814.49,pp-ro,1,1,-1,-1
1570542436.6,2019-10-08,15:47:16.600,14.0,12.0,20.2600002288818,16.0,-7.4,-3.6,49.0,22.3,-44.8,18.9902,-7.50015,-3.56483,-4.63275,-8.23666,-12.8311,45.5657,17.2466,-44.4682,-0.190613,-0.109029,-0.6535979999999999,238.3,6.0,52.1701,4.427230000000001,-0.9,1.25832,376.934,4.26666,167.03400000000002,71.4445,157.154,0.713163,0.0415537,240.212,1.03532,1.399,10.1439208984375,22.0019989013672,1.7569154500961297,22.0,2348610.0,4860.79,pp-ro,1,1,-1,-1
1570542436.7,2019-10-08,15:47:16.700,14.0,12.0,20.2199993133545,15.4,-8.0,-4.5,48.9,24.1,-47.3,18.9902,-7.50015,-3.56483,-4.63275,-8.23666,-12.8311,45.5657,17.2466,-44.4682,-0.190613,-0.109029,-0.6535979999999999,238.3,6.0,52.1701,4.427230000000001,-0.9,1.24946,376.633,4.26664,166.362,72.9646,157.554,0.7144550000000001,0.0324223,240.465,0.990687,1.33574,8.03543090820312,22.0019989013672,0.402740567922592,22.0,2349130.0,5168.43,pp-ro,1,1,-1,-1
1570542436.8,2019-10-08,15:47:16.800,14.0,13.0,20.1800003051758,14.8,-8.7,-5.2,48.6,25.2,-49.8,17.552,-8.27017,-4.96694,-6.89037,-3.47545,-11.1936,45.2059,20.8847,-48.629,0.0664701,0.0344254,-0.480035,238.3,6.0,52.1701,4.427230000000001,-0.9,1.26165,387.171,4.26663,165.57299999999998,74.8646,157.954,0.715567,0.0211188,240.767,0.956143,1.27912,6.022308349609379,22.0019989013672,-0.8121525645256039,22.0,2349460.0,2953.39,pp-ro,1,1,-1,-1
1570542436.9,2019-10-08,15:47:16.900,14.0,13.0,20.1800003051758,14.3,-9.5,-5.7,47.8,25.8,-52.2,16.1589,-9.72106,-6.5579600000000005,-4.67172,-3.5539400000000003,-1.66747,44.5766,24.7132,-52.997,0.180886,-0.00873846,-0.516232,238.3,6.0,52.1701,4.427230000000001,-0.9,1.29489,404.954,4.26661,164.726,76.3846,158.454,0.717507,0.0115847,240.992,0.927512,1.23063,5.07195281982422,22.0019989013672,-1.91482889652252,22.0,2349770.0,3568.68,pp-ro,1,1,-1,-1
1570542437.0,2019-10-08,15:47:17.000,14.0,13.0,20.270000457763697,13.5,-10.0,-6.3,47.7,26.1,-54.1,15.4031,-10.2681,-7.02004,-6.1466,-8.73419,-5.74661,44.1372,25.7641,-55.0257,0.105576,-0.00270086,-0.211977,238.3,6.0,52.1701,4.427230000000001,-0.9,1.31484,413.61,4.2666,163.733,77.5246,159.054,0.720515,0.00358543,241.074,0.907054,1.17504,2.84765625,22.0019989013672,-3.22946882247925,22.0,2350150.0,3537.92,pp-ro,1,1,-1,-1
1570542437.1,2019-10-08,15:47:17.100,14.0,11.0,20.4400005340576,13.3,-10.1,-6.4,47.4,26.0,-55.6,14.361,-10.8551,-7.38506,-13.6635,-2.70839,-5.57728,43.7103,26.8836,-57.0517,-0.103727,-0.142953,-0.0646567,238.3,6.0,52.1701,4.427230000000001,-1.0,1.3192700000000002,406.835,4.26658,162.799,79.4246,159.654,0.722435,-0.0080875,241.456,0.898308,1.1697,1.20582580566406,22.0025119781494,-3.48142194747925,22.0,2350730.0,6706.66,pp-ro,1,1,-1,-1
1570542437.2,2019-10-08,15:47:17.200,14.0,11.0,20.7000007629395,12.7,-10.0,-6.6,47.4,26.5,-56.5,14.361,-10.8551,-7.38506,-13.6635,-2.70839,-5.57728,43.7103,26.8836,-57.0517,-0.103727,-0.142953,-0.0646567,238.3,6.0,52.1701,4.427230000000001,-1.0,1.27882,385.427,4.26656,161.776,80.5646,160.254,0.725429,-0.0162212,241.544,0.8873770000000001,1.14798,-0.343063354492188,22.0009689331055,-4.13259077072144,22.0,2351430.0,6645.13,pp-ro,1,1,-1,-1
1570542437.3,2019-10-08,15:47:17.300,14.0,10.0,20.909999847412102,12.7,-10.0,-6.4,47.2,26.1,-58.0,14.1288,-10.995,-7.51543,-11.3612,-4.73646,-5.58948,43.4772,27.0239,-57.6482,0.0321771999999999,-0.00191058,-0.279275,238.3,6.0,52.1701,4.427230000000001,-1.0,1.24391,364.19,4.26656,160.813,82.0846,160.954,0.728078,-0.0261314,241.878,0.8806309999999999,1.1624,-1.7204284667968797,22.0009689331055,-4.04947853088379,22.0,2352070.0,6337.48,pp-ro,1,1,-1,-1
1570542437.4,2019-10-08,15:47:17.400,14.0,10.0,21.0799999237061,12.5,-9.8,-6.2,47.6,26.0,-58.1,13.9576,-10.8457,-7.048610000000001,0.012553,1.79512,1.41891,43.9128,27.5992,-58.5782,0.0228013,-0.0684181,-0.0602216,238.3,6.0,52.1701,4.427230000000001,-1.0,1.21012,351.148,4.26653,159.819,83.2246,161.554,0.73092,-0.0342539,242.009,0.886056,1.17278,-3.06365966796875,22.0009689331055,-4.06534814834595,22.0,2352630.0,5414.55,pp-ro,1,1,-1,-1
1570542437.5,2019-10-08,15:47:17.500,14.0,9.0,21.159999847412102,12.4,-9.7,-6.0,47.9,25.9,-58.2,13.8201,-10.6398,-6.721,-0.903835,-1.11905,1.95804,44.4898,27.8235,-58.4512,0.2142639999999999,0.0936881,0.0817223,238.1,5.7,52.1701,4.427230000000001,-1.0,1.20125,341.464,4.26652,159.29399999999998,83.9846,161.85399999999998,0.732154,-0.0393299,242.125,0.889442,1.18279,-3.7378387451171897,22.0009689331055,-3.969502210617069,22.0,2353050.0,4030.15,pp-ro,1,1,-1,-1
1570542437.6,2019-10-08,15:47:17.600,14.0,10.0,21.0799999237061,12.5,-9.5,-5.6,48.7,25.0,-57.8,13.6782,-10.4984,-6.26272,0.300624,-0.230496,3.63506,44.9857,27.7187,-58.0939,0.0432563,-0.0882487,0.00874943,238.1,5.7,52.1701,4.427230000000001,-1.0,1.1741,328.905,4.2665,157.804,85.8847,162.754,0.736062,-0.0525239,242.42,0.9134,1.21653,-4.04846954345703,22.0009689331055,-3.63060975074768,22.0,2353590.0,5568.37,pp-ro,1,1,-1,-1
1570542437.7,2019-10-08,15:47:17.700,14.0,10.0,21.0799999237061,12.8,-9.4,-5.4,49.7,24.7,-56.7,13.6782,-10.4984,-6.26272,0.300624,-0.230496,3.63506,44.9857,27.7187,-58.0939,0.0432563,-0.0882487,0.00874943,238.1,5.7,52.1701,4.427230000000001,-1.0,1.16468,328.65,4.2664800000000005,156.811,87.0247,163.254,0.738479,-0.0607438,242.518,0.93564,1.24369,-4.04335021972656,22.0009689331055,-3.30649733543396,22.0,2353950.0,2984.16,pp-ro,1,1,-1,-1
1570542437.8,2019-10-08,15:47:17.800,14.0,9.0,20.9500007629395,12.9,-9.9,-5.0,50.7,23.9,-55.6,13.9659,-10.2174,-5.45134,1.40049,2.57088,4.15206,46.2254,26.3235,-57.2434,0.0180701,0.00149986,0.1579839999999999,238.1,5.7,52.1701,4.427230000000001,-1.0,1.1802,337.772,4.26646,155.81799999999998,88.1647,163.754,0.7408600000000001,-0.0689727,242.627,0.963621,1.25747,-3.66957092285156,22.0009689331055,-3.25659871101379,22.0,2354220.0,2799.57,pp-ro,1,1,-1,-1
1570542437.9,2019-10-08,15:47:17.900,14.0,9.0,20.9500007629395,12.9,-10.0,-4.7,51.2,22.4,-55.0,14.0809,-10.3412,-5.2636,-0.184557,-3.41059,-2.21528,46.6061,26.0469,-56.8028,0.173416,-0.0155247,0.318476,238.1,5.7,52.1701,4.427230000000001,-1.0,1.19239,342.439,4.266430000000001,155.322,89.3047,163.954,0.741097,-0.0758549,242.86,0.992974,1.27205,-3.4562225341796897,22.0009689331055,-3.0142776966095,22.0,2354500.0,2676.51,pp-ro,1,1,-1,-1
1570542438.0,2019-10-08,15:47:18.000,14.0,10.0,20.8299999237061,12.8,-9.9,-4.3,51.9,20.9,-53.9,14.1116,-10.5473,-4.95812,1.11117,-1.78523,7.71311,47.0633,25.5429,-56.3801,0.0721082,-0.14577,0.19309,238.1,5.7,52.1701,4.427230000000001,-1.0,1.1946,335.98400000000004,4.26641,153.715,91.2047,164.555,0.744111,-0.0895308,242.95,1.03315,1.29724,-3.2650604248046897,22.0009689331055,-2.8320717811584504,22.0,2354910.0,4922.32,pp-ro,1,1,-1,-1
1570542438.1,2019-10-08,15:47:18.100,14.0,10.0,20.659999847412102,12.9,-9.8,-4.1,52.1,20.3,-53.5,14.1527,-10.663,-4.53637,-3.52192,1.92854,1.44239,47.464,23.7878,-55.8261,0.11753,-0.0737776999999999,0.437456,238.1,5.7,52.1701,4.427219999999999,-1.1,1.14141,302.545,4.26639,153.248,91.5847,164.755,0.745294,-0.0926865,242.93400000000003,1.0472,1.31387,-3.04318237304688,22.0009689331055,-2.62005949020386,22.0,2355670.0,5168.43,pp-ro,1,1,-1,-1
1570542438.2,2019-10-08,15:47:18.200,14.0,10.0,20.409999847412102,13.3,-9.2,-3.3,52.7,18.1,-53.0,14.0216,-10.522,-3.86485,2.80443,3.60276,4.25831,48.73,20.9642,-54.3538,0.1257839999999999,-0.206163,0.331307,238.1,5.7,52.1701,4.427219999999999,-1.1,1.12091,292.899,4.266369999999999,151.75799999999998,93.8647,165.255,0.747051,-0.1079069999999999,243.208,1.08991,1.3881,-2.96808624267578,22.0009689331055,-1.3797217607498202,22.0,2355960.0,5752.96,pp-ro,1,1,-1,-1
1570542438.3,2019-10-08,15:47:18.300,14.0,10.0,20.1499996185303,13.5,-9.1,-2.9,52.6,17.5,-52.8,14.3579,-10.2717,-3.29362,0.517972,2.69639,5.7100800000000005,49.3976,18.9859,-53.968,0.0193717,-0.2294409999999999,0.349004,238.1,5.7,52.1701,4.427219999999999,-1.1,1.09154,291.493,4.26635,151.262,94.2447,165.355,0.747972,-0.111165,243.114,1.10176,1.4169200000000002,-2.66769409179688,22.0009689331055,-0.909505188465118,22.0,2356320.0,2276.57,pp-ro,1,1,-1,-1
1570542438.4,2019-10-08,15:47:18.400,14.0,10.0,19.75,13.6,-8.9,-2.3,53.2,16.8,-52.2,14.7274,-9.93054,-2.3243,-4.38954,2.67131,3.75398,50.047,16.8867,-53.7665,0.226178,-0.114913,0.2043849999999999,238.1,5.7,52.1701,4.427219999999999,-1.1,1.13642,304.581,4.26633,150.327,95.7647,165.555,0.74852,-0.121156,243.264,1.12437,1.45923,-2.24099731445312,22.0009689331055,-0.177315637469292,22.0,2356540.0,2707.28,pp-ro,1,1,-1,-1
1570542438.5,2019-10-08,15:47:18.500,14.0,9.0,19.3500003814697,13.8,-8.8,-1.9,53.5,16.0,-51.5,14.7274,-9.93054,-2.3243,-4.38954,2.67131,3.75398,50.047,16.8867,-53.7665,0.226178,-0.114913,0.2043849999999999,235.3,5.5,52.1701,4.427219999999999,-1.1,1.1297700000000002,301.536,4.26631,149.363,97.2847,165.755,0.7490859999999999,-0.131233,243.41,1.1494799999999998,1.49251,-1.40808868408203,22.0009689331055,0.368469834327698,22.0,2356760.0,4430.09,pp-ro,1,1,-1,-1
1570542438.6,2019-10-08,15:47:18.600,14.0,9.0,19.2099990844727,13.6,-8.7,-1.5,53.6,14.7,-51.5,14.8233,-9.66018,-1.73294,2.4932,-0.258717,3.7009,50.512,15.9362,-53.7463,0.047142,0.0231405,0.243081,235.3,5.5,52.1701,4.427219999999999,-1.1,1.10983,294.848,4.26627,148.428,98.4247,165.855,0.749821,-0.139419,243.364,1.17096,1.51406,-0.667350769042969,22.0009689331055,0.6698187589645389,22.0,2357140.0,3230.27,pp-ro,1,1,-1,-1
1570542438.7,2019-10-08,15:47:18.700,14.0,10.0,19.0300006866455,13.5,-8.4,-1.1,53.5,13.7,-50.9,14.8233,-9.66018,-1.73294,2.4932,-0.258717,3.7009,50.512,15.9362,-53.7463,0.047142,0.0231405,0.243081,235.3,5.5,52.1701,4.427219999999999,-1.1,1.1126,296.076,4.26623,147.523,99.5647,165.955,0.750454,-0.147527,243.346,1.19607,1.54547,-0.018775939941406,22.0009689331055,1.17517399787903,22.0,2357410.0,2584.22,pp-ro,1,1,-1,-1
1570542438.8,2019-10-08,15:47:18.800,14.0,10.0,18.979999542236303,13.3,-8.2,-0.8,53.2,12.7,-50.2,14.8233,-9.66018,-1.73294,2.4932,-0.258717,3.7009,50.512,15.9362,-53.7463,0.047142,0.0231405,0.243081,235.3,5.5,52.1701,4.427219999999999,-1.1,1.09431,276.293,4.26619,146.618,101.465,165.955,0.749545,-0.159159,243.583,1.22494,1.56932,0.563743591308594,22.0009689331055,1.6774684190750102,22.0,2357920.0,4214.73,pp-ro,1,1,-1,-1
1570542438.9,2019-10-08,15:47:18.900,14.0,13.0,18.840000152587898,13.3,-7.9,-0.6,53.3,12.0,-50.1,14.3775,-8.768930000000001,-0.374926,1.07935,3.9059,4.80313,51.74100000000001,11.2417,-52.611,0.0516423,-0.0149394,0.0462357,235.3,5.5,52.1701,4.427219999999999,-1.1,1.0716,267.761,4.26614,145.741,102.605,165.955,0.74973,-0.167174,243.535,1.24035,1.59519,1.12237548828125,22.0009689331055,2.12177777290344,22.0,2358180.0,5045.38,pp-ro,1,1,-1,-1
1570542439.0,2019-10-08,15:47:19.000,14.0,12.0,18.75,13.3,-7.8,-0.3,52.9,11.7,-49.9,14.3775,-8.768930000000001,-0.374926,1.07935,3.9059,4.80313,51.74100000000001,11.2417,-52.611,0.0516423,-0.0149394,0.0462357,235.3,5.5,52.1701,4.427219999999999,-1.1,1.05386,266.887,4.2661,144.924,104.125,165.955,0.7491300000000001,-0.176735,243.692,1.25314,1.6197,1.65715789794922,22.0009689331055,2.62555956840515,22.0,2358480.0,2184.28,pp-ro,1,1,-1,-1
1570542439.1,2019-10-08,15:47:19.100,14.0,13.0,18.4200000762939,13.0,-7.9,0.0,52.2,10.7,-50.1,14.2894,-8.74271,0.00495642,-4.45748,-4.43425,2.50113,51.1721,10.4761,-52.344,-0.323022,0.166777,0.188516,235.3,5.5,52.1701,4.427219999999999,-1.1,1.07492,277.548,4.26606,144.047,105.265,165.955,0.7492439999999999,-0.184748,243.662,1.2687,1.62878,2.0999755859375,22.0009689331055,-35.0,22.0,2358620.0,1230.58,pp-ro,1,1,-1,-1
1570542439.2,2019-10-08,15:47:19.200,14.0,12.0,18.229999542236303,12.8,-7.6,0.0,52.1,10.6,-50.2,14.2894,-8.74271,0.00495642,-4.45748,-4.43425,2.50113,51.1721,10.4761,-52.344,-0.323022,0.166777,0.188516,235.3,5.5,52.1701,4.427219999999999,-1.1,1.07492,270.014,4.26602,143.22899999999998,106.405,165.955,0.7491939999999999,-0.192569,243.675,1.27418,1.64117,2.44060516357422,22.0009689331055,-35.0,22.0,2359070.0,4214.73,pp-ro,1,1,-1,-1
1570542439.3,2019-10-08,15:47:19.300,14.0,12.0,18.229999542236303,12.5,-7.8,0.1,51.5,10.5,-49.9,13.9225,-8.838280000000001,0.15787,-3.46366,0.354645,5.170640000000001,51.113,9.63588,-52.2394,-0.00201767,-0.0714236,-0.055912,235.3,5.5,52.1701,4.427219999999999,-1.1,1.05885,266.594,4.26598,142.412,107.925,165.955,0.748474,-0.202085,243.864,1.28564,1.63753,2.76590728759766,22.0009689331055,-35.0,22.0,2359270.0,3568.68,pp-ro,1,1,-1,-1
1570542439.4,2019-10-08,15:47:19.400,14.0,12.0,17.979999542236303,12.2,-7.9,0.2,50.9,9.5,-50.2,13.8324,-8.61125,0.2457119999999999,-1.66127,0.2312789999999999,0.172617,50.8475,9.26808,-52.8251,-0.2240909999999999,-0.124345,-0.0483612,235.3,5.5,52.1701,4.427219999999999,-1.1,1.05608,257.98,4.26593,141.594,109.065,165.855,0.748055,-0.209912,243.827,1.29996,1.63652,2.75909423828125,22.0009689331055,-35.0,22.0,2359630.0,3199.51,pp-ro,1,1,-1,-1
1570542439.5,2019-10-08,15:47:19.500,14.0,13.0,17.840000152587898,12.1,-7.7,0.2,50.6,8.4,-51.0,13.1386,-8.648530000000001,0.473249,1.13711,0.196828,-2.6554,50.2769,8.65873,-53.1174,-0.0143859,0.130805,0.106108,237.0,5.7,52.1701,4.427219999999999,-1.1,1.0427799999999998,251.71,4.26589,140.747,110.205,165.755,0.74767,-0.217792,243.782,1.30959,1.64747,2.37417602539062,22.0009689331055,-35.0,22.0,2359820.0,3814.8,pp-ro,1,1,-1,-1
1570542439.6,2019-10-08,15:47:19.600,14.0,12.0,17.7399997711182,12.4,-7.5,0.3,50.7,8.4,-52.0,13.1386,-8.648530000000001,0.473249,1.13711,0.196828,-2.6554,50.2769,8.65873,-53.1174,-0.0143859,0.130805,0.106108,237.0,5.7,52.1701,4.427219999999999,-1.1,1.0184,239.583,4.26584,139.929,111.725,165.755,0.746831,-0.227241,244.003,1.30414,1.67443,1.638427734375,22.0009689331055,-35.0,22.0,2360140.0,2891.86,pp-ro,1,1,-1,-1
1570542439.7,2019-10-08,15:47:19.700,14.0,13.0,17.7399997711182,12.6,-7.6,0.7,50.9,9.1,-52.8,13.1386,-8.648530000000001,0.473249,1.13711,0.196828,-2.6554,50.2769,8.65873,-53.1174,-0.0143859,0.130805,0.106108,237.0,5.7,52.1701,4.427219999999999,-1.1,1.01508,245.668,4.26579,139.14,112.865,165.655,0.746251,-0.234908,244.008,1.29109,1.70015,0.548408508300781,22.0009689331055,-35.0,22.0,2360350.0,1692.05,pp-ro,1,1,-1,-1
1570542439.8,2019-10-08,15:47:19.800,14.0,11.0,17.5900001525879,12.5,-7.5,1.0,50.4,8.7,-54.3,13.4636,-8.58356,0.950567,-0.807435,1.51851,5.58882,49.5776,9.26182,-54.5703,-0.00716907,-0.229785,-0.138126,237.0,5.7,52.1701,4.427219999999999,-1.1,1.04057,249.2,4.26574,138.322,114.765,165.555,0.744359,-0.245934,244.361,1.28576,1.72452,-0.918243408203125,22.0009689331055,-35.0,22.0,2360560.0,2584.22,pp-ro,1,1,-1,-1
1570542439.9,2019-10-08,15:47:19.900,14.0,12.0,17.4899997711182,12.6,-7.4,1.2,51.0,8.2,-54.5,13.4636,-8.58356,0.950567,-0.807435,1.51851,5.58882,49.5776,9.26182,-54.5703,-0.00716907,-0.229785,-0.138126,237.0,5.7,52.1701,4.427219999999999,-1.1,1.02893,245.102,4.26569,137.563,115.905,165.455,0.743646,-0.253455,244.403,1.29491,1.7459,-2.7342529296875,22.0009689331055,-35.0,22.0,2360750.0,3568.68,pp-ro,1,1,-1,-1
1570542440.0,2019-10-08,15:47:20.000,14.0,12.0,17.4400005340576,12.7,-7.1,1.4,51.2,7.3,-54.9,13.2868,-8.28399,1.55176,-0.756378,5.392580000000001,1.87988,50.0836,9.25437,-55.4442,0.148023,0.0148552,0.0587248,237.0,5.7,52.1701,4.427219999999999,-1.1,1.01619,239.888,4.26564,136.833,117.045,165.355,0.742843,-0.260858,244.469,1.3066,1.77575,-4.833587646484379,22.0009689331055,-35.0,22.0,2361010.0,2461.16,pp-ro,1,1,-1,-1
1570542440.1,2019-10-08,15:47:20.100,14.0,11.0,17.6399993896484,12.9,-7.2,1.8,51.4,5.6,-55.1,13.2868,-8.28399,1.55176,-0.756378,5.392580000000001,1.87988,50.0836,9.25437,-55.4442,0.148023,0.0148552,0.0587248,237.0,5.7,52.1701,4.427219999999999,-1.1,1.01342,242.047,4.26558,136.04399999999998,118.565,165.155,0.7411449999999999,-0.270048,244.626,1.3322,1.8008400000000002,-6.93804168701172,22.0009689331055,-35.0,22.0,2361230.0,2030.46,pp-ro,1,1,-1,-1
1570542440.2,2019-10-08,15:47:20.200,14.0,10.0,17.7900009155273,13.2,-6.8,2.3,52.2,4.2,-54.1,13.354,-8.00187,1.61224,0.614017,4.23951,-3.3392,50.2494,9.09863,-55.3758,-0.107764,-0.0310575999999999,0.162924,237.0,5.7,52.1701,4.427219999999999,-1.1,1.03059,244.523,4.26553,135.314,119.705,164.955,0.73998,-0.27741,244.641,1.36733,1.85228,-9.04249572753906,22.0009689331055,-35.0,22.0,2361470.0,2153.51,pp-ro,1,1,-1,-1
1570542440.3,2019-10-08,15:47:20.300,14.0,10.0,17.979999542236303,13.5,-6.2,3.0,53.1,1.6,-52.5,13.2517,-7.92858,2.04228,0.238903,0.331524,6.58983,50.7039,8.136280000000001,-55.4732,0.0873896999999999,-0.335244,0.2291619999999999,237.0,5.7,52.1701,4.427219999999999,-1.1,1.02339,240.307,4.26548,134.642,120.845,164.655,0.738367,-0.284564,244.629,1.42497,1.921,-11.1640243530273,22.0009689331055,-35.0,22.0,2361640.0,3261.04,pp-ro,1,1,-1,-1
1570542440.4,2019-10-08,15:47:20.400,14.0,11.0,17.9300003051758,14.0,-5.9,3.9,54.4,-1.3,-51.0,13.2517,-7.92858,2.04228,0.238903,0.331524,6.58983,50.7039,8.136280000000001,-55.4732,0.0873896999999999,-0.335244,0.2291619999999999,237.0,5.7,52.1701,4.427219999999999,-1.1,1.00621,235.984,4.26543,134.029,122.365,164.355,0.7359060000000001,-0.293003,244.846,1.48643,1.98546,-13.2718887329102,22.0009689331055,-35.0,22.0,2362000.0,1630.52,pp-ro,1,1,-1,-1
1570542440.5,2019-10-08,15:47:20.500,14.0,8.0,17.840000152587898,14.6,-5.4,4.8,56.2,-3.3,-48.9,13.7898,-6.401009999999999,4.05088,2.41513,2.47087,12.889,53.9982,3.74046,-49.6456,0.4547199999999999,0.357921,0.7104,235.9,5.7,52.1701,4.427219999999999,-1.1,1.01065,236.266,4.26538,133.416,123.885,163.955,0.733112,-0.301363,245.007,1.5433,2.05538,-15.3899993896484,22.0009689331055,-35.0,22.0,2362090.0,1753.58,pp-ro,1,1,-1,-1
1570542440.6,2019-10-08,15:47:20.600,14.0,11.0,17.7399997711182,15.4,-4.8,6.1,57.6,-5.8,-46.8,14.48,-5.82594,4.84021,4.16043,7.27522,7.428539999999999,55.3465,1.64821,-46.8712,0.330523,0.25506,0.648814,235.9,5.7,52.1701,4.427219999999999,-1.1,1.00566,234.328,4.26535,132.861,125.025,163.455,0.730576,-0.307986,244.95,1.60529,2.13865,-17.4807968139648,22.0009689331055,-35.0,22.0,2362330.0,2553.45,pp-ro,1,1,-1,-1
1570542440.7,2019-10-08,15:47:20.700,14.0,11.0,17.7399997711182,16.0,-4.0,7.5,59.2,-9.7,-44.7,15.1272,-4.799180000000001,6.805339999999999,2.28246,7.854939999999999,17.4036,57.767,-2.94143,-43.5572,0.0127804,-0.101769,0.8316370000000001,235.9,5.7,52.1701,4.427219999999999,-1.1,1.0173,248.412,4.2653300000000005,132.422,126.925,162.755,0.725754,-0.317141,245.224,1.68754,2.22768,-19.5971984863281,22.0009689331055,-35.0,22.0,2362560.0,1076.76,pp-ro,1,1,-1,-1
1570542440.8,2019-10-08,15:47:20.800,14.0,11.0,17.8799991607666,16.9,-3.2,9.1,60.9,-14.1,-42.3,15.7164,-3.878530000000001,8.156130000000001,8.850019999999999,12.3801,15.0684,58.9528,-6.48789,-40.069,0.287744,0.127518,0.918664,235.9,5.7,52.1701,4.427219999999999,-1.1,1.03447,258.416,4.2653,132.013,128.445,161.955,0.7212529999999999,-0.324623,245.265,1.77857,2.31095,-21.7136001586914,22.0009689331055,-35.0,22.0,2362580.0,307.645,pp-ro,1,1,-1,-1
1570542440.9,2019-10-08,15:47:20.900,14.0,9.0,18.5100002288818,17.3,-2.4,10.8,62.9,-18.9,-39.1,16.3773,-2.45176,10.5109,1.63476,12.1005,14.5533,59.9277,-13.3326,-34.0451,0.218153,0.0305064,0.950463,235.9,5.7,52.1701,4.427219999999999,-1.1,1.08268,283.441,4.265280000000001,131.692,130.345,161.055,0.715537,-0.3331429999999999,245.502,1.88415,2.39176,-23.3111419677734,22.0009689331055,-35.0,22.0,2362740.0,1722.81,pp-ro,1,1,-1,-1
1570542441.0,2019-10-08,15:47:21.000,14.0,10.0,18.840000152587898,17.6,-1.1,12.7,63.9,-24.6,-36.3,16.3773,-2.45176,10.5109,1.63476,12.1005,14.5533,59.9277,-13.3326,-34.0451,0.218153,0.0305064,0.950463,235.9,5.7,52.1701,4.427219999999999,-1.1,1.09431,288.85400000000004,4.26525,131.458,131.865,159.955,0.70973,-0.339803,245.47,1.99544,2.48823,-25.4207153320312,22.0009689331055,-35.0,22.0,2362820.0,1538.22,pp-ro,1,1,-1,-1
1570542441.1,2019-10-08,15:47:21.100,14.0,10.0,19.5699996948242,17.6,0.3,14.4,64.3,-30.8,-32.3,16.5984,-1.29953,12.2148,4.78608,16.1093,16.2886,60.4008,-19.1714,-30.2466,0.193777,-0.0992299,1.34925,235.9,5.7,52.1701,4.42721,-1.2,1.1126,302.249,4.265219999999999,131.4,133.765,158.655,0.702241,-0.347152,245.623,2.12513,2.57944,-27.5268859863281,22.0009689331055,-35.0,22.0,2363180.0,2584.22,pp-ro,1,1,-1,-1
1570542441.2,2019-10-08,15:47:21.200,14.0,10.0,20.659999847412102,16.9,2.5,16.1,64.1,-37.5,-28.1,16.5682,0.283717,13.8521,-2.7662400000000003,9.97007,13.9674,59.6968,-25.0422,-25.6175,0.118772,0.240411,1.20316,235.9,5.7,52.1701,4.42721,-1.2,1.14086,310.441,4.2652,131.517,135.285,157.155,0.694504,-0.352331,245.553,2.25958,2.70207,-29.5989074707031,22.0009689331055,-35.0,22.0,2363330.0,1845.87,pp-ro,1,1,-1,-1
1570542441.3,2019-10-08,15:47:21.300,14.0,10.0,20.659999847412102,15.8,4.5,17.5,62.9,-44.2,-23.3,15.7811,2.2839,15.2828,-3.42076,21.0502,17.8659,58.5517,-31.4967,-20.1976,0.424907,0.0536566,1.3557,235.9,5.7,52.1701,4.42721,-1.2,1.14418,310.368,4.26517,131.809,137.185,155.555,0.6854140000000001,-0.358166,245.745,2.39629,2.81494,-31.363708496093803,22.0009689331055,-35.0,22.0,2363540.0,3876.33,pp-ro,1,1,-1,-1
1570542441.4,2019-10-08,15:47:21.400,14.0,10.0,20.9899997711182,14.8,6.8,18.4,59.9,-51.3,-15.8,13.9524,5.28281,16.9248,-16.3811,19.6934,3.71791,53.2234,-40.6827,-7.93503,0.0729812,0.44702,1.45745,235.9,5.7,52.1701,4.42721,-1.2,1.12368,297.832,4.26515,132.276,138.325,153.955,0.677417,-0.360507,245.628,2.55281,2.92358,-32.7871704101562,22.0009689331055,-35.0,22.0,2363940.0,4122.44,pp-ro,1,1,-1,-1
1570542441.5,2019-10-08,15:47:21.500,14.0,11.0,21.4500007629395,13.3,9.3,19.4,54.1,-56.5,-4.2,13.9524,5.28281,16.9248,-16.3811,19.6934,3.71791,53.2234,-40.6827,-7.93503,0.0729812,0.44702,1.45745,230.5,5.5,52.1701,4.42721,-1.2,1.09985,285.018,4.26512,133.064,140.225,152.255,0.667144,-0.364326,246.071,2.70938,3.04618,-34.0672454833984,22.0009689331055,-35.0,22.0,2364370.0,4245.5,pp-ro,1,1,-1,-1
1570542441.6,2019-10-08,15:47:21.600,14.0,9.0,21.690000534057603,11.3,11.4,20.3,46.2,-60.9,7.7,13.9524,5.28281,16.9248,-16.3811,19.6934,3.71791,53.2234,-40.6827,-7.93503,0.0729812,0.44702,1.45745,230.5,5.5,52.1701,4.42721,-1.2,1.0921,291.664,4.26503,134.05700000000002,141.365,150.555,0.657924,-0.36457,246.216,2.84566,3.16078,-34.6748657226562,22.0009689331055,-35.0,22.0,2364680.0,2276.57,pp-ro,1,1,-1,-1
1570542441.7,2019-10-08,15:47:21.700,14.0,8.0,21.7700004577637,9.2,13.4,20.6,33.0,-64.1,26.4,10.0812,10.4653,18.9386,-16.4282,21.5924,0.832349,36.346,-51.8876,19.663,0.2851889999999999,0.5823510000000001,1.57572,230.5,5.5,52.1701,4.42721,-1.2,1.12202,301.199,4.26495,135.225,142.505,148.755,0.648097,-0.364161,246.418,3.00985,3.27106,-34.9445190429688,22.0009689331055,-23.0044822692871,22.0,2364790.0,1261.34,pp-ro,1,1,-1,-1
1570542441.8,2019-10-08,15:47:21.800,14.0,13.0,21.6399993896484,7.2,15.4,20.7,18.6,-65.2,45.2,10.0812,10.4653,18.9386,-16.4282,21.5924,0.832349,36.346,-51.8876,19.663,0.2851889999999999,0.5823510000000001,1.57572,230.5,5.5,52.1701,4.42721,-1.2,1.12035,294.406,4.26486,136.59799999999998,143.265,147.055,0.638936,-0.361687,246.595,3.15329,3.3743199999999995,-34.9581909179688,22.0009689331055,-23.0044822692871,22.0,2365170.0,4522.38,pp-ro,1,1,-1,-1
1570542441.9,2019-10-08,15:47:21.900,14.0,13.0,21.6399993896484,4.9,17.3,20.7,3.8,-64.6,64.3,6.13184,14.1258,19.4273,-17.4757,19.3276,-0.141483,14.7642,-54.1984,49.7297,0.0026209,0.3987949999999999,1.36314,230.5,5.5,52.1701,4.42721,-1.2,1.09875,294.235,4.26477,138.11700000000002,144.025,145.355,0.629546,-0.35872,246.876,3.29575,3.4797300000000004,-34.9530639648438,22.0009689331055,-23.0044822692871,22.0,2365520.0,2922.63,pp-ro,1,1,-1,-1
1570542442.0,2019-10-08,15:47:22.000,14.0,13.0,21.8799991607666,2.7,18.5,20.4,-11.7,-62.5,84.1,4.07878,15.7922,19.3025,-18.5642,9.61665,-1.7840900000000002,3.50596,-53.5665,64.9318,-0.0660862,0.431177,1.34296,230.5,5.5,52.1701,4.42721,-1.2,1.13531,319.812,4.26469,139.928,144.405,143.555,0.6200100000000001,-0.353441,247.064,3.45134,3.56651,-34.596343994140604,22.0009689331055,-23.0044822692871,22.0,2365610.0,184.587,pp-ro,1,1,-1,-1
1570542442.1,2019-10-08,15:47:22.100,14.0,13.0,22.0400009155273,0.5,19.7,19.7,-23.0,-57.7,99.1,2.01862,16.8997,19.0048,-18.0606,13.0552,-5.18584,-7.87603,-51.4039,79.995,0.0483971,0.288281,1.48331,230.5,5.5,52.1701,4.42721,-1.3,1.1802,331.474,4.2646,141.738,144.785,141.955,0.61114,-0.3482409999999999,247.394,3.60658,3.65676,-33.843658447265604,22.0025119781494,-23.0116176605225,22.0,2365770.0,3076.45,pp-ro,1,1,-1,-1
1570542442.2,2019-10-08,15:47:22.200,14.0,12.0,21.7999992370605,-1.6,20.6,18.4,-30.1,-52.4,109.5,2.01862,16.8997,19.0048,-18.0606,13.0552,-5.18584,-7.87603,-51.4039,79.995,0.0483971,0.288281,1.48331,230.5,5.5,52.1701,4.42721,-1.3,1.16745,322.32,4.26451,143.666,144.785,140.255,0.602379,-0.341401,247.536,3.74507,3.74735,-32.7342529296875,22.0025119781494,-23.0116176605225,22.0,2366240.0,4614.67,pp-ro,1,1,-1,-1
1570542442.3,2019-10-08,15:47:22.300,14.0,11.0,21.3500003814697,-3.6,21.1,16.9,-34.0,-46.4,116.7,1.0015,17.3961,18.6536,-23.6989,13.0588,-8.61641,-12.853,-49.3922,86.7784,0.0486152,0.184864,1.56539,230.5,5.5,52.1701,4.42721,-1.3,1.13864,306.581,4.264419999999999,145.739,144.785,138.755,0.594042,-0.334148,247.903,3.87728,3.835080000000001,-31.2698364257812,22.0019989013672,-23.0092449188232,22.0,2366730.0,5076.14,pp-ro,1,1,-1,-1
