time,date,time_of_day,airspeed_temperature,airspeed_angle_of_attack,airspeed_apparent_windspeed,kite_0_vx,kite_0_vy,kite_0_vz,kite_0_roll,kite_0_pitch,kite_0_yaw,kite_1_vx,kite_1_vy,kite_1_vz,kite_1_ax,kite_1_ay,kite_1_az,kite_1_roll,kite_1_pitch,kite_1_yaw,kite_1_roll_rate,kite_1_pitch_rate,kite_1_yaw_rate,ground_upwind_direction,ground_wind_velocity,ground_pos_latitude,ground_pos_longitude,ground_pos_altitude,ground_tether_reelout_speed,ground_tether_force,est_upwind_direction,kite_pos_east,kite_pos_north,kite_height,kite_elevation,kite_azimuth,kite_distance,kite_heading,kite_course,kite_actual_steering,kite_actual_depower,kite_set_steering,kite_set_depower,ground_mech_energy,ground_mech_power,flight_phase,flight_phase_index,phase,pattern,pattern_section
1570532456.4,2019-10-08,13:00:56.400,14.0,9.0,14.7700004577637,12.5,-0.9,3.1,21.7,-4.3,-49.0,10.7352,-0.923256,3.56441,6.09368,10.2248,5.27384,25.4295,10.2942,-51.6897,0.0323183,0.208004,0.8842909999999999,275.3,7.6,52.1701,4.42718,4.4,-2.85962,106.001,4.597980000000001,59.3789,6.08057,230.196,1.31709,0.0123795,237.80900000000003,0.848217,1.6618700000000002,-34.968414306640604,22.0107517242432,-35.0,22.0,-688583.0,-2922.63,pp-riro,4,0,-1,-1
1570532456.5,2019-10-08,13:00:56.500,14.0,9.0,14.5200004577637,13.3,0.1,3.6,23.2,-6.2,-43.8,11.6098,0.0341471,3.91686,7.089860000000001,9.46706,4.34476,27.5083,8.71025,-45.9431,0.131025,0.213244,0.992423,275.3,7.6,52.1701,4.42718,4.4,-2.83136,104.148,4.59801,59.2621,7.220610000000001,229.896,1.31672,-0.00684877,237.521,0.965894,1.7623400000000002,-34.970123291015604,22.0019989013672,-35.0,22.0,-688827.0,-2522.69,pp-riro,4,0,-1,-1
1570532456.6,2019-10-08,13:00:56.600,14.0,9.0,14.3400001525879,13.9,1.2,4.0,24.6,-8.4,-38.7,12.3682,1.04449,4.37213,7.142189999999999,10.9062,3.70536,29.2174,6.87635,-40.2066,0.239792,0.21398,0.997283,275.3,7.6,52.1701,4.42718,4.4,-2.81917,93.88,4.59804,59.2913,9.12068,229.696,1.31534,-0.0383021,237.4,1.09559,1.87145,-34.9854888916016,22.0009689331055,-35.0,22.0,-689592.0,-7260.42,pp-riro,4,0,-1,-1
1570532456.7,2019-10-08,13:00:56.700,14.0,8.0,14.1499996185303,14.4,2.4,4.4,25.9,-10.4,-33.4,13.0429,2.72911,4.96873,4.81425,12.738,4.68049,31.311,3.50442,-31.6736,0.162949,0.113588,1.00812,275.3,7.6,52.1701,4.42718,4.4,-2.84743,89.9648,4.59807,59.4081,10.2607,229.296,1.31369,-0.056695,237.08900000000003,1.215,1.96769,-34.9906158447266,22.0009689331055,-35.0,22.0,-690648.0,-11321.3,pp-riro,4,0,-1,-1
1570532456.8,2019-10-08,13:00:56.800,14.0,8.0,14.0900001525879,14.7,3.8,4.8,27.3,-12.1,-27.9,13.0429,2.72911,4.96873,4.81425,12.738,4.68049,31.311,3.50442,-31.6736,0.162949,0.113588,1.00812,275.3,7.6,52.1701,4.42718,4.4,-2.86738,88.3491,4.5981,59.7002,11.4008,228.996,1.31136,-0.0743921,236.925,1.33563,2.0711,-34.9906158447266,22.0009689331055,-35.0,22.0,-691344.0,-13259.5,pp-riro,4,0,-1,-1
1570532456.9,2019-10-08,13:00:56.900,14.0,7.0,13.960000038147,14.9,5.0,5.3,28.1,-14.6,-23.0,13.5878,4.49821,5.541,2.91241,14.1631,4.87946,33.0516,0.149669,-23.2139,0.198939,0.20142,1.03809,275.9,7.3,52.1701,4.42718,4.4,-2.95935,83.2641,4.59813,60.0798,13.3008,228.596,1.30784,-0.1036,236.733,1.46084,2.17021,-34.9957275390625,22.0009689331055,-35.0,22.0,-693752.0,-18058.8,pp-riro,4,0,-1,-1
1570532457.0,2019-10-08,13:00:57.000,14.0,7.0,13.960000038147,15.0,6.2,5.7,28.7,-16.8,-17.8,13.7167,6.21443,6.20399,2.83731,13.7705,4.29179,33.9481,-3.2817800000000004,-14.7536,0.0928192,0.244288,0.958134,275.9,7.3,52.1701,4.42718,4.4,-3.03914,82.6294,4.59815,60.6055,14.4409,228.196,1.30427,-0.119675,236.548,1.57636,2.25245,-34.9974365234375,22.0009689331055,-35.0,22.0,-695716.0,-19935.4,pp-riro,4,0,-1,-1
1570532457.1,2019-10-08,13:00:57.100,14.0,9.0,13.8299999237061,15.1,7.5,6.0,29.2,-18.5,-12.6,13.7933,7.42421,6.54907,2.5657,11.9131,3.13275,34.2878,-5.4067300000000005,-9.09787,0.1365579999999999,0.271601,0.978089,275.9,7.3,52.1701,4.42718,4.4,-3.08513,82.7154,4.59817,61.2189,15.9609,227.696,1.29978,-0.140813,236.322,1.69367,2.33818,-35.0059814453125,22.0009689331055,-35.0,22.0,-696670.0,-18827.9,pp-riro,4,0,-1,-1
1570532457.2,2019-10-08,13:00:57.200,14.0,9.0,13.960000038147,15.1,8.8,6.5,29.8,-20.1,-7.3,13.7574,8.64598,6.95344,1.33961,10.9771,6.52824,34.4981,-7.25926,-3.53221,0.2277239999999999,0.3063639999999999,0.95756,275.9,7.3,52.1701,4.42718,4.4,-3.1615900000000003,84.2003,4.59819,61.9782,17.480999999999998,227.196,1.2946,-0.160701,236.146,1.80997,2.42225,-35.0059814453125,22.0009689331055,-35.0,22.0,-698604.0,-18797.1,pp-riro,4,0,-1,-1
1570532457.3,2019-10-08,13:00:57.300,14.0,9.0,13.960000038147,15.1,10.1,7.0,29.7,-22.1,-2.0,13.7415,9.85963,7.42111,1.09524,12.605,4.53501,34.3726,-9.07881,1.99467,0.033147,0.231758,0.923719,275.9,7.3,52.1701,4.42718,4.4,-3.22975,89.9666,4.59821,62.8544,19.0011,226.596,1.28874,-0.1793819999999999,235.918,1.92609,2.49983,-35.0059814453125,22.0009689331055,-35.0,22.0,-700488.0,-16797.4,pp-riro,4,0,-1,-1
1570532457.4,2019-10-08,13:00:57.400,14.0,9.0,14.0900001525879,15.0,11.3,7.5,29.5,-23.9,3.5,13.7525,10.4315,7.63669,-1.30594,12.4179,6.06399,34.1211,-9.94213,4.88062,0.142991,0.296335,0.98252,275.9,7.3,52.1701,4.42718,4.1,-3.27684,104.243,4.59823,63.8475,20.9011,225.996,1.28185,-0.202201,235.77,2.04705,2.57559,-35.0059814453125,22.0009689331055,-35.0,22.0,-702333.0,-9290.88,pp-riro,4,0,-1,-1
1570532457.5,2019-10-08,13:00:57.500,14.0,9.0,14.210000038147,14.8,12.6,8.0,29.1,-25.4,9.3,13.6795,11.0361,7.8341,-1.4055,11.9012,3.33305,33.7988,-10.867,7.83984,0.152467,0.272765,1.00339,275.9,7.3,52.1701,4.42718,4.1,-3.26632,107.073,4.59826,64.9573,22.0412,225.296,1.27525,-0.212983,235.507,2.15853,2.64276,-35.0059814453125,22.0009689331055,-35.0,22.0,-702525.0,-3845.56,pp-riro,4,0,-1,-1
1570532457.6,2019-10-08,13:00:57.600,14.0,10.0,14.3999996185303,14.4,13.9,8.4,28.2,-27.1,15.2,13.5239,11.5848,8.062999999999999,-3.36986,10.9675,3.27082,33.3043,-11.7932,10.7206,0.0639715,0.229998,0.986171,275.9,7.3,52.1701,4.42718,4.1,-3.23473,109.234,4.59828,66.2424,23.9413,224.596,1.2669,-0.232726,235.382,2.27933,2.71991,-35.0059814453125,22.0009689331055,-35.0,22.0,-702659.0,-1045.99,pp-riro,4,0,-1,-1
1570532457.7,2019-10-08,13:00:57.700,14.0,9.0,14.7600002288818,13.9,15.1,9.0,27.5,-28.9,21.3,12.8242,13.9143,8.850480000000001,-5.60473,9.97472,5.04216,31.3571,-15.1941,23.165,0.127755,0.311684,1.02417,275.9,7.3,52.1701,4.42718,4.1,-3.18542,110.977,4.5983,67.6151,25.0813,223.696,1.25893,-0.241108,235.034,2.39151,2.78422,-35.0059814453125,22.0009689331055,-23.0044822692871,22.0,-702673.0,-1107.52,pp-riro,4,0,-1,-1
1570532457.8,2019-10-08,13:00:57.800,14.0,9.0,15.119999885559098,13.3,16.4,9.4,26.2,-30.5,28.1,12.5723,14.5303,9.02533,-2.76167,12.7338,5.35993,30.7297,-16.0226,26.3542,-0.0114774,0.326928,1.01332,275.9,7.3,52.1701,4.42718,4.1,-3.12724,117.955,4.598319999999999,69.1631,26.2214,222.796,1.25025,-0.248302,234.753,2.51059,2.84908,-35.0042724609375,22.0009689331055,-23.0044822692871,22.0,-702526.0,2461.16,pp-riro,4,0,-1,-1
1570532457.9,2019-10-08,13:00:57.900,14.0,9.0,15.460000038147,12.5,17.7,9.9,24.9,-31.7,34.9,11.6826,16.2723,9.64587,-7.22208,12.6337,4.83646,28.265,-18.1116,36.2187,0.159448,0.3775989999999999,1.0497299999999998,270.5,7.3,52.1701,4.42718,4.1,-3.02695,129.36,4.598330000000001,70.8279,28.1215,221.896,1.23998,-0.263894,234.617,2.63352,2.92521,-34.9462280273438,22.0009689331055,-23.0044822692871,22.0,-701774.0,10890.6,pp-riro,4,0,-1,-1
1570532458.0,2019-10-08,13:00:58.000,14.0,9.0,15.7399997711182,11.5,19.0,10.4,23.0,-32.8,41.9,11.2801,16.797,9.87834,-8.16393,11.779000000000002,5.99097,27.3826,-18.668,39.6236,0.128106,0.294598,1.0607,270.5,7.3,52.1701,4.42718,4.1,-2.79978,139.407,4.598319999999999,72.6095,28.8815,220.896,1.23078,-0.264516,234.31,2.74407,2.99086,-34.5263671875,22.0009689331055,-23.0044822692871,22.0,-699485.0,17505.0,pp-riro,4,0,-1,-1
1570532458.1,2019-10-08,13:00:58.100,14.0,10.0,15.9700002670288,10.5,20.0,10.8,21.6,-33.5,48.5,10.4286,17.9319,10.3218,-9.25827,11.9409,5.58066,25.4607,-19.7238,46.5309,0.106205,0.388517,1.00729,270.5,7.3,52.1701,4.42718,4.1,-2.70448,142.10299999999998,4.598319999999999,74.4496,30.0216,219.796,1.22062,-0.269236,233.996,2.84952,3.05084,-33.746368408203104,22.0025119781494,-23.0116176605225,22.0,-698486.0,19104.7,pp-riro,4,0,-1,-1
1570532458.2,2019-10-08,13:00:58.200,14.0,10.0,16.2399997711182,9.2,21.1,11.2,19.6,-34.0,55.7,9.42541,18.9731,10.7009,-9.66043,9.51128,2.71962,23.3432,-20.476,53.3559,0.0381246,0.318359,1.05863,270.5,7.3,52.1701,4.42718,4.1,-2.50667,149.309,4.598319999999999,76.5525,31.5417,218.696,1.20888,-0.276759,233.844,2.96466,3.12323,-32.611358642578104,22.0025119781494,-23.0116176605225,22.0,-696614.0,19627.7,pp-riro,4,0,-1,-1
1570532458.3,2019-10-08,13:00:58.300,14.0,10.0,16.5599994659424,8.0,22.1,11.6,17.7,-34.4,62.5,9.42541,18.9731,10.7009,-9.66043,9.51128,2.71962,23.3432,-20.476,53.3559,0.0381246,0.318359,1.05863,270.5,7.3,52.1701,4.42718,4.1,-2.2556700000000003,160.072,4.59831,78.6261,32.3017,217.596,1.19838,-0.275728,233.61,3.06523,3.17983,-31.1196441650391,22.0025119781494,-23.0116176605225,22.0,-694415.0,22796.5,pp-riro,4,0,-1,-1
1570532458.4,2019-10-08,13:00:58.400,14.0,10.0,16.879999160766598,6.8,23.0,11.8,15.7,-34.5,69.3,8.332510000000001,19.9218,11.0554,-9.70284,11.9004,4.54427,21.4577,-21.4095,59.8738,0.0460355,0.251723,0.941698,270.5,7.3,52.1701,4.427169999999999,3.8,-1.98029,168.987,4.59828,80.8459,33.0618,216.396,1.18716,-0.274115,233.359,3.16431,3.23221,-29.2763214111328,22.0025119781494,-23.0116176605225,22.0,-691970.0,24550.1,pp-riro,4,0,-1,-1
1570532458.5,2019-10-08,13:00:58.500,14.0,10.0,17.0900001525879,5.4,23.7,12.0,13.5,-34.4,76.2,6.01749,21.6846,11.6351,-11.8268,7.391439999999999,0.411327,17.3617,-22.8103,72.8075,0.0191724,0.193867,1.09152,270.5,7.3,52.1701,4.427169999999999,3.8,-1.46832,174.15099999999998,4.5983,83.2409,33.4418,215.196,1.17584,-0.267903,233.145,3.26053,3.28347,-27.3493804931641,22.003026962280305,-22.890621185302702,22.0,-688540.0,21258.3,pp-riro,4,0,-1,-1
1570532458.6,2019-10-08,13:00:58.600,14.0,9.0,17.3400001525879,4.0,24.2,12.1,11.5,-34.2,82.3,4.82195,22.3367,11.7892,-11.6529,4.42307,1.53516,15.275,-23.3484,79.086,0.0980336,0.130038,1.01497,270.5,7.3,52.1701,4.427169999999999,3.8,-1.10041,170.658,4.5983,85.5774,34.5819,213.996,1.16359,-0.269946,233.053,3.35163,3.33914,-25.7774353027344,22.003026962280305,-22.4274425506592,22.0,-686811.0,15843.7,pp-riro,4,0,-1,-1
1570532458.7,2019-10-08,13:00:58.700,14.0,9.0,17.4400005340576,2.4,24.5,12.0,9.6,-33.9,88.3,4.15503,22.6523,11.7832,-14.4112,5.28062,-0.770971,14.2576,-23.5641,82.0961,0.0759743,0.1177069999999999,0.874876,270.5,7.3,52.1701,4.427169999999999,3.8,-0.782918,165.946,4.59831,87.9724,34.9619,212.696,1.15205,-0.264206,232.811,3.43469,3.39351,-24.4871139526367,22.003026962280305,-21.783510208129897,22.0,-685656.0,10306.1,pp-riro,4,0,-1,-1
1570532458.8,2019-10-08,13:00:58.800,14.0,8.0,17.5900001525879,1.0,24.6,11.8,7.4,-33.5,93.7,3.46434,22.8883,11.705,-15.8927,0.971266,1.22856,13.2503,-23.5879,85.0458,0.0677313,0.187391,0.7162270000000001,270.5,7.3,52.1701,4.427169999999999,3.8,-0.631654,163.454,4.59829,90.3674,34.962,211.496,1.14119,-0.255051,232.635,3.50634,3.4370300000000005,-23.4084320068359,22.003026962280305,-21.2573394775391,22.0,-685243.0,7752.65,pp-riro,4,0,-1,-1
1570532458.9,2019-10-08,13:00:58.900,14.0,8.0,17.5400009155273,-0.2,24.5,11.5,5.3,-32.8,99.4,0.775595,23.2207,11.3663,-11.8535,1.01344,-4.84526,9.40885,-23.5916,95.7228,-0.0126632,0.109713,0.8086810000000001,270.9,7.5,52.1701,4.427169999999999,3.8,-0.322476,155.57,4.59828,92.9376,34.962,210.296,1.12966,-0.2457079999999999,232.56,3.5832,3.47338,-22.4731140136719,22.0025119781494,-20.9212760925293,22.0,-684791.0,3537.92,pp-riro,4,0,-1,-1
1570532459.0,2019-10-08,13:00:59.000,14.0,8.0,17.5400009155273,-1.5,24.4,11.2,3.2,-31.9,104.4,0.192261,23.1986,11.1312,-7.42045,-4.20245,-3.22273,8.49818,-23.412,98.3966,0.153194,0.156672,0.6452640000000001,270.9,7.5,52.1701,4.427169999999999,3.8,-0.0753552,148.825,4.59826,95.3618,34.9621,209.196,1.1188,-0.23729,232.549,3.65183,3.51495,-21.7392044067383,22.0019989013672,-20.4815063476562,22.0,-684673.0,430.703,pp-riro,4,0,-1,-1
1570532459.1,2019-10-08,13:00:59.100,14.0,8.0,17.5900001525879,-2.6,24.1,10.9,1.6,-30.8,109.3,-1.00241,23.0373,10.8216,-15.8451,-5.70378,-4.0891,6.88582,-22.8525,103.152,0.167376,0.24364,0.664413,270.9,7.5,52.1701,4.427169999999999,3.8,0.243242,144.311,4.59825,97.786,34.9621,208.096,1.10792,-0.229234,232.569,3.72073,3.55027,-21.1520690917969,22.0025119781494,-20.1917095184326,22.0,-684857.0,-1999.69,pp-riro,4,0,-1,-1
1570532459.2,2019-10-08,13:00:59.200,14.0,7.0,17.5900001525879,-3.7,23.7,10.6,0.0,-29.8,113.8,-2.54964,22.6433,10.2806,-6.684010000000001,-3.65364,-3.617480000000001,4.352069999999999,-21.4473,109.998,0.2664289999999999,0.339423,0.810285,270.9,7.5,52.1701,4.427169999999999,3.8,0.292001,143.208,4.5982400000000005,100.123,34.5821,206.996,1.09781,-0.218423,232.525,3.7816,3.5843300000000005,-20.5973739624023,22.0019989013672,-19.8406448364258,22.0,-684853.0,61.529,pp-riro,4,0,-1,-1
1570532459.3,2019-10-08,13:00:59.300,14.0,8.0,17.4899997711182,-4.7,23.3,10.4,-1.7,-28.8,118.0,-3.5264800000000003,22.2123,9.97326,-9.78167,-2.90283,-0.7441260000000001,2.74902,-20.409,114.439,-0.0478288,0.175998,0.5567380000000001,270.9,7.5,52.1701,4.427169999999999,3.8,0.222187,145.411,4.59822,102.488,33.8221,205.996,1.0882,-0.204596,232.556,3.83605,3.61229,-20.191162109375,22.0025119781494,-19.536153793335,22.0,-684720.0,799.877,pp-riro,4,0,-1,-1
1570532459.4,2019-10-08,13:00:59.400,14.0,8.0,17.4300003051758,-5.9,23.0,10.4,-2.8,-27.3,121.7,-4.51489,21.8451,9.83239,-9.10464,-7.15603,0.380506,1.18258,-19.3339,118.529,0.0870153999999999,0.248134,0.766545,270.9,7.5,52.1701,4.42716,3.5,0.274271,160.871,4.59821,104.796,33.4422,204.996,1.07829,-0.1947279999999999,232.645,3.89007,3.6498,-19.755935668945305,22.0025119781494,-19.1587181091309,22.0,-684794.0,-799.877,pp-riro,4,0,-1,-1
1570532459.5,2019-10-08,13:00:59.500,14.0,9.0,17.3299999237061,-6.9,22.6,10.4,-4.6,-26.0,125.7,-4.51489,21.8451,9.83239,-9.10464,-7.15603,0.380506,1.18258,-19.3339,118.529,0.0870153999999999,0.248134,0.766545,270.9,7.5,52.1701,4.42716,3.5,0.293664,174.45,4.59819,107.161,32.6822,203.896,1.06836,-0.181825,232.648,3.94531,3.67799,-19.6023254394531,22.003026962280305,-18.925666809082,22.0,-684740.0,246.116,pp-riro,4,0,-1,-1
1570532459.6,2019-10-08,13:00:59.600,14.0,9.0,17.3299999237061,-7.9,22.2,10.3,-6.3,-24.9,129.3,-5.537730000000001,21.6322,9.65489,-8.39563,-1.57031,0.414736,-0.325927,-18.1401,122.313,0.193221,0.333339,0.66923,270.9,7.5,52.1701,4.42716,3.5,0.311394,179.37099999999998,4.59818,109.381,32.3022,202.896,1.0587,-0.172954,232.754,3.99718,3.71104,-19.2575531005859,22.003026962280305,-18.6789512634277,22.0,-684719.0,369.174,pp-riro,4,0,-1,-1
1570532459.7,2019-10-08,13:00:59.700,14.0,11.0,17.2800006866455,-8.4,22.1,10.1,-7.9,-23.7,132.9,-6.957000000000001,21.062,9.57073,-8.81535,1.21526,-2.9862,-2.95622,-16.9798,127.652,-0.0611093,0.0900848,0.593599,270.9,7.5,52.1701,4.42716,3.5,0.312502,183.427,4.59817,111.543,31.5422,201.796,1.04939,-0.16137,232.719,4.04789,3.72217,-18.929855346679695,22.003026962280305,-18.8137092590332,22.0,-684694.0,492.232,pp-riro,4,0,-1,-1
1570532459.8,2019-10-08,13:00:59.800,14.0,10.0,17.1700000762939,-9.8,21.5,10.1,-9.8,-22.5,136.7,-7.862010000000001,20.8034,9.3773,-8.845180000000001,0.504024,-3.47522,-4.93843,-15.7185,131.097,-0.2244,0.1278109999999999,0.518813,270.9,7.5,52.1701,4.42716,3.5,0.324692,190.873,4.59812,113.792,30.0222,200.696,1.04045,-0.143698,232.656,4.096830000000001,3.76319,-18.736984252929695,22.0025119781494,-18.2361450195312,22.0,-684670.0,123.058,pp-riro,4,0,-1,-1
1570532459.9,2019-10-08,13:00:59.900,14.0,10.0,17.1700000762939,-10.7,20.8,10.0,-11.6,-21.8,140.1,-8.38543,20.6577,9.29094,-8.16971,-1.2345700000000002,-1.62424,-5.93564,-15.1125,132.749,-0.305179,0.1225349999999999,0.5771270000000001,268.4,7.8,52.1701,4.42716,3.5,0.342977,201.235,4.59813,115.836,29.2623,199.696,1.03164,-0.133197,232.707,4.142119999999999,3.79533,-18.549240112304695,22.003026962280305,-17.982595443725604,22.0,-684610.0,461.467,pp-riro,4,0,-1,-1
1570532460.0,2019-10-08,13:01:00.000,14.0,11.0,17.1700000762939,-11.2,20.6,9.9,-13.5,-20.6,143.3,-8.75687,20.4062,9.31909,-9.14101,-7.608569999999999,0.8676020000000001,-6.777810000000001,-14.499,134.539,-0.281966,-0.000439248,0.470152,268.4,7.8,52.1701,4.42716,3.5,0.348518,203.618,4.5981,117.939,28.1223,198.596,1.02268,-0.119804,232.682,4.18635,3.8052,-18.2949295043945,22.003026962280305,-18.1551570892334,22.0,-684592.0,338.409,pp-riro,4,0,-1,-1
1570532460.1,2019-10-08,13:01:00.100,14.0,11.0,17.2199993133545,-12.2,19.9,9.6,-15.1,-19.3,145.9,-10.5954,19.3121,9.04472,-7.241280000000001,-5.20654,-0.559519,-10.8643,-13.2295,140.94799999999998,-0.182713,0.0445383,0.328829,268.4,7.8,52.1701,4.42716,3.5,0.358491,206.813,4.59807,119.896,27.3623,197.496,1.01386,-0.110073,232.655,4.22611,3.84513,-18.0593948364258,22.0035419464111,-17.802555084228498,22.0,-684540.0,646.054,pp-riro,4,0,-1,-1
1570532460.2,2019-10-08,13:01:00.200,14.0,11.0,17.370000839233402,-13.1,19.1,9.5,-15.8,-18.8,147.5,-11.57,18.6849,8.842260000000001,-6.07498,-10.6766,-0.310617,-12.6703,-12.2821,143.781,-0.256384,0.247553,0.5531159999999999,268.4,7.8,52.1701,4.42716,3.5,0.360154,210.959,4.59804,121.794,25.4623,196.996,1.00745,-0.0917605,233.001,4.23786,3.87379,-17.8784790039062,22.0035419464111,-17.391498565673803,22.0,-684481.0,461.467,pp-riro,4,0,-1,-1
1570532460.3,2019-10-08,13:01:00.300,14.0,12.0,17.4699993133545,-14.4,18.0,9.0,-18.2,-17.5,151.8,-12.7188,17.4399,8.553980000000001,-9.60457,-10.6461,-2.38138,-15.2442,-11.2157,147.857,-0.26839,-0.101658,0.433642,268.4,7.8,52.1701,4.42716,3.5,0.379546,220.987,4.59802,123.664,24.3223,195.496,0.998168,-0.0798285,232.6,4.30052,3.93322,-17.9143218994141,22.003026962280305,-16.6984577178955,22.0,-684409.0,522.996,pp-riro,4,0,-1,-1
1570532460.4,2019-10-08,13:01:00.400,14.0,11.0,17.5699996948242,-14.8,17.7,9.0,-18.7,-16.9,152.9,-12.7188,17.4399,8.553980000000001,-9.60457,-10.6461,-2.38138,-15.2442,-11.2157,147.857,-0.26839,-0.101658,0.433642,268.4,7.8,52.1701,4.42716,3.5,0.384533,224.187,4.59799,124.511,23.1823,195.096,0.995004,-0.0696917,232.6,4.31316,3.94316,-17.6429443359375,22.0035419464111,-16.5887832641602,22.0,-684377.0,584.525,pp-riro,4,0,-1,-1
1570532460.5,2019-10-08,13:01:00.500,14.0,11.0,17.7199993133545,-15.6,16.9,8.7,-19.7,-15.6,155.4,-13.6265,16.7947,8.29,-6.867789999999999,-11.2514,-3.48004,-16.8387,-10.3904,150.444,-0.186368,-0.0598293,0.338967,268.4,7.8,52.1701,4.42716,3.5,0.397831,232.134,4.59793,126.263,22.0423,194.096,0.987174,-0.0584163,232.597,4.35104,3.979530000000001,-17.0660552978516,22.0035419464111,-16.302007675170902,22.0,-684319.0,584.525,pp-riro,4,0,-1,-1
1570532460.6,2019-10-08,13:01:00.600,14.0,11.0,17.8199996948242,-16.3,16.0,8.5,-20.6,-15.0,158.1,-13.6265,16.7947,8.29,-6.867789999999999,-11.2514,-3.48004,-16.8387,-10.3904,150.444,-0.186368,-0.0598293,0.338967,268.4,7.8,52.1701,4.42716,3.5,0.410575,237.728,4.59793,127.899,20.5223,193.096,0.979916,-0.0446270999999999,232.519,4.38331,4.01179,-16.584739685058597,22.0035419464111,-16.0479907989502,22.0,-684258.0,615.29,pp-riro,4,0,-1,-1
1570532460.7,2019-10-08,13:01:00.700,14.0,10.0,17.9200000762939,-16.8,15.3,8.2,-21.3,-13.9,160.7,-15.3328,14.8459,7.834239999999999,-4.11221,-7.08023,-3.15439,-19.9046,-8.65554,157.078,-0.0457435999999999,0.0436362,0.441884,268.4,7.8,52.1701,4.42716,3.5,0.415562,239.999,4.5979,129.418,18.6222,192.196,0.973415,-0.0284379999999999,232.454,4.41704,4.03413,-16.4106521606445,22.0035419464111,-15.9357814788818,22.0,-684170.0,984.464,pp-riro,4,0,-1,-1
1570532460.8,2019-10-08,13:01:00.800,14.0,10.0,18.0599994659424,-17.3,14.4,7.9,-21.8,-12.7,163.1,-15.7821,14.0194,7.596189999999999,-5.64314,-9.54554,-2.3811400000000003,-20.5966,-7.694189999999999,159.496,-0.0740048,0.113319,0.471607,268.4,7.8,52.1701,4.42716,3.5,0.4139,237.086,4.59784,130.936,17.1022,191.296,0.96662,-0.0153772,232.445,4.45158,4.06451,-16.1341552734375,22.003026962280305,-15.7544031143188,22.0,-684082.0,922.935,pp-riro,4,0,-1,-1
1570532460.9,2019-10-08,13:01:00.900,14.0,10.0,18.159999847412102,-17.5,13.4,7.5,-22.2,-11.8,165.8,-16.1024,13.1798,7.299460000000001,-1.59892,-5.1045,0.460056,-21.1192,-6.91447,162.077,0.0627913,0.0153446,0.262136,267.4,6.8,52.1701,4.42716,3.5,0.405588,232.922,4.59785,132.338,15.2022,190.396,0.960311,0.000181867,232.368,4.485519999999999,4.0900300000000005,-15.9105682373047,22.003026962280305,35.0,22.0,-683983.0,1045.99,pp-riro,4,0,-1,-1
1570532461.0,2019-10-08,13:01:01.000,14.0,10.0,18.2999992370605,-17.9,12.6,7.1,-22.4,-10.9,167.9,-16.5001,12.3363,6.88977,0.7761170000000001,-7.172219999999999,-1.8115,-21.3959,-6.22222,164.407,0.24518,0.103845,0.410034,267.4,6.8,52.1701,4.42716,3.5,0.401156,232.503,4.59782,133.653,13.6822,189.596,0.954309,0.0125265,232.372,4.51362,4.12012,-15.7689056396484,22.003026962280305,35.0,22.0,-683892.0,799.877,pp-riro,4,0,-1,-1
1570532461.1,2019-10-08,13:01:01.100,14.0,9.0,18.3999996185303,-18.2,11.8,6.8,-22.4,-9.8,170.2,-16.6353,11.9239,6.66061,-1.8462,-9.13745,-3.4727900000000003,-21.5893,-5.67066,165.525,0.00676419,0.107589,0.451806,267.4,6.8,52.1701,4.42716,3.5,0.53746,235.31,4.5978,134.821,11.7822,188.796,0.948863,0.027407,232.292,4.54466,4.14431,-15.4599761962891,22.003026962280305,35.0,22.0,-684496.0,-12890.3,pp-riro,4,0,-1,-1
1570532461.2,2019-10-08,13:01:01.200,14.0,9.0,18.5,-18.3,11.0,6.4,-22.6,-9.2,172.9,-16.6353,11.9239,6.66061,-1.8462,-9.13745,-3.4727900000000003,-21.5893,-5.67066,165.525,0.00676419,0.107589,0.451806,267.4,6.8,52.1701,4.42716,3.5,1.15083,213.333,4.59778,135.989,9.88215,187.996,0.94331,0.0420701,232.235,4.57639,4.16676,-14.7823867797852,22.003026962280305,35.0,22.0,-686398.0,6399.01,pp-riro,4,0,-1,-1
1570532461.3,2019-10-08,13:01:01.300,14.0,9.0,18.5,-18.0,10.6,5.6,-22.5,-7.6,174.8,-16.8902,10.4789,5.92686,0.8306,-2.38355,-9.53743,-21.7291,-4.19002,170.537,0.066465,-0.0642915,0.4538149999999999,267.4,6.8,52.1701,4.42716,3.5,1.03226,193.689,4.59775,137.041,7.98212,187.296,0.938315,0.056442,232.215,4.60757,4.17793,-13.748077392578098,22.003026962280305,35.0,22.0,-685236.0,23596.4,pp-riro,4,0,-1,-1
1570532461.4,2019-10-08,13:01:01.400,14.0,8.0,18.4500007629395,-17.8,10.1,5.2,-22.3,-6.1,176.5,-16.5515,10.0641,5.25025,2.09259,-2.6526,-6.75471,-21.5639,-3.3876,172.56099999999998,-0.139441,-0.0799913,0.355089,267.4,6.8,52.1701,4.42716,3.5,0.835002,181.571,4.59773,138.034,6.46211,186.696,0.933621,0.0678643,232.272,4.63744,4.188969999999999,-12.3570556640625,22.0035419464111,35.0,22.0,-684785.0,-4553.14,pp-riro,4,0,-1,-1
1570532461.5,2019-10-08,13:01:01.500,14.0,8.0,18.3500003814697,-17.9,9.2,5.3,-22.5,-5.2,178.3,-16.5676,9.4556,5.117,-2.23984,-7.70372,1.63901,-21.5951,-2.49828,174.46599999999998,-0.0386733,0.0599709,0.2585409999999999,267.4,6.8,52.1701,4.42716,3.5,0.96909,211.315,4.59771,138.998,4.56208,186.096,0.929014,0.0818589,232.321,4.66047,4.206930000000001,-10.6212692260742,22.0035419464111,35.0,22.0,-684849.0,6399.01,pp-riro,4,0,-1,-1
1570532461.6,2019-10-08,13:01:01.600,14.0,9.0,18.2000007629395,-17.7,8.7,5.2,-22.4,-4.6,179.7,-16.663,8.84925,5.1529,0.280866,-7.02613,0.2089329999999999,-21.4117,-1.82159,176.419,0.0928956,-0.0871233,0.214905,267.4,6.8,52.1701,4.42716,3.5,0.942494,206.61,4.59769,139.874,3.04206,185.596,0.92485,0.0929461,232.422,4.67715,4.21248,-8.55947875976562,22.003026962280305,35.0,22.0,-684733.0,2215.04,pp-riro,4,0,-1,-1
1570532461.7,2019-10-08,13:01:01.700,14.0,9.0,18.2000007629395,-17.5,8.6,5.0,-22.6,-3.9,-178.8,-16.5112,8.471160000000001,4.8590800000000005,-1.6349200000000002,-0.304526,-4.9793,-21.754,-1.88326,178.926,-0.17332,-0.186586,-0.00744636,267.4,6.8,52.1701,4.42716,3.5,0.943048,196.681,4.597659999999999,140.692,1.14203,184.996,0.920584,0.106597,232.42,4.69424,4.20538,-6.45161437988281,22.0035419464111,35.0,22.0,-684476.0,3507.15,pp-riro,4,0,-1,-1
1570532461.8,2019-10-08,13:01:01.800,14.0,9.0,18.1100006103516,-17.6,8.4,5.0,-23.0,-2.5,-178.5,-16.5112,8.471160000000001,4.8590800000000005,-1.6349200000000002,-0.304526,-4.9793,-21.754,-1.88326,178.926,-0.17332,-0.186586,-0.00744636,267.4,6.8,52.1701,4.42716,3.5,0.932521,197.824,4.59764,141.56799999999998,-0.758003,184.396,0.91603,0.120091,232.473,4.702319999999999,4.204,-4.34374237060547,22.003026962280305,35.0,22.0,-684373.0,1968.93,pp-riro,4,0,-1,-1
1570532461.9,2019-10-08,13:01:01.900,14.0,9.0,18.0599994659424,-17.6,8.2,5.3,-23.5,-2.2,-178.1,-16.5112,8.471160000000001,4.8590800000000005,-1.6349200000000002,-0.304526,-4.9793,-21.754,-1.88326,178.926,-0.17332,-0.186586,-0.00744636,263.7,6.6,52.1701,4.42716,3.5,0.949697,202.174,4.5976,142.357,-2.65803,183.896,0.911954,0.133429,232.573,4.70033,4.19241,-2.23416900634766,22.003026962280305,35.0,22.0,-684334.0,522.996,pp-riro,4,0,-1,-1
1570532462.0,2019-10-08,13:01:02.000,14.0,9.0,17.8099994659424,-17.4,8.2,5.6,-24.2,-2.7,-177.7,-16.8804,8.29486,4.88623,-1.07818,0.2232469999999999,3.11366,-22.4381,-1.41788,-179.956,-0.114789,0.00692676,0.184184,263.7,6.6,52.1701,4.42716,3.5,0.949697,199.868,4.59755,143.145,-4.17805,183.196,0.907306,0.143991,232.527,4.69198,4.17135,-0.131423950195312,22.003026962280305,35.0,22.0,-684144.0,2245.81,pp-riro,4,0,-1,-1
1570532462.1,2019-10-08,13:01:02.100,14.0,9.0,17.5599994659424,-17.2,8.4,5.6,-25.0,-2.7,-178.2,-16.8032,8.18083,5.30658,1.46046,0.72823,-0.4490449999999999,-23.521,-2.62923,-179.114,-0.261352,-0.204413,-0.12247,263.7,6.6,52.1701,4.42716,3.5,0.933629,188.9,4.59747,143.905,-6.07809,182.596,0.902917,0.157103,232.566,4.67472,4.14917,1.97904968261719,22.0025119781494,35.0,22.0,-683921.0,2215.04,pp-riro,4,0,-1,-1
1570532462.2,2019-10-08,13:01:02.200,14.0,9.0,17.4599990844727,-17.1,8.5,6.0,-26.3,-3.0,-179.3,-16.8032,8.18083,5.30658,1.46046,0.72823,-0.4490449999999999,-23.521,-2.62923,-179.114,-0.261352,-0.204413,-0.12247,263.7,6.6,52.1701,4.42716,3.5,0.915344,186.58,4.59745,144.72299999999998,-7.5981,181.996,0.8983200000000001,0.16737,232.647,4.64831,4.12472,4.07902526855469,22.0025119781494,35.0,22.0,-683667.0,1076.76,pp-riro,4,0,-1,-1
1570532462.3,2019-10-08,13:01:02.300,14.0,9.0,17.3099994659424,-17.1,8.8,6.8,-27.4,-4.4,-179.9,-16.8032,8.18083,5.30658,1.46046,0.72823,-0.4490449999999999,-23.521,-2.62923,-179.114,-0.261352,-0.204413,-0.12247,263.7,6.6,52.1701,4.42716,3.5,0.929196,189.988,4.59739,145.541,-9.49813,181.196,0.893056,0.180138,232.603,4.61488,4.08444,6.18751525878906,22.0025119781494,35.0,22.0,-683605.0,861.4060000000001,pp-riro,4,0,-1,-1
1570532462.4,2019-10-08,13:01:02.400,14.0,9.0,17.2600002288818,-16.7,9.3,7.3,-28.9,-5.7,178.7,-16.8687,8.58738,5.54867,0.5555979999999999,-0.567717,6.15104,-25.1123,-3.85716,-179.646,0.00740794,-0.056098,-0.217954,263.7,6.6,52.1701,4.42716,3.4,0.928088,189.039,4.59734,146.388,-11.0182,180.496,0.887983,0.190147,232.657,4.573869999999999,4.0373,7.24005889892578,22.0025119781494,35.0,22.0,-683435.0,1815.1,pp-riro,4,0,-1,-1
1570532462.5,2019-10-08,13:01:02.500,14.0,10.0,17.2000007629395,-16.2,9.8,7.9,-30.2,-7.4,177.0,-16.561,9.88135,7.385,2.61128,5.9962800000000005,3.14404,-28.8268,-9.47275,177.954,-0.304725,-0.139289,-0.357831,263.7,6.6,52.1701,4.42716,3.4,0.924209,188.296,4.59729,147.322,-12.1582,179.59599999999998,0.882135,0.197415,232.608,4.52663,3.98737,9.35195922851562,22.0025119781494,35.0,22.0,-683358.0,1538.22,pp-riro,4,0,-1,-1
1570532462.6,2019-10-08,13:01:02.600,14.0,9.0,17.1499996185303,-16.0,10.3,8.7,-31.4,-9.3,174.8,-16.5419,10.1732,7.794239999999999,-1.3802299999999998,5.701980000000001,7.35273,-29.5378,-10.4854,176.99400000000003,-0.208614,-0.147901,-0.351167,263.7,6.6,52.1701,4.42716,3.4,0.930858,192.918,4.59724,148.286,-14.0582,178.796,0.876208,0.209648,232.711,4.4668,3.9388,11.4570388793945,22.0025119781494,35.0,22.0,-683215.0,676.819,pp-riro,4,0,-1,-1
1570532462.7,2019-10-08,13:01:02.700,14.0,10.0,17.1000003814697,-15.4,10.9,9.5,-32.5,-11.9,171.9,-16.4788,10.405,8.30916,2.3283,5.16153,10.0842,-30.0402,-11.7993,176.16,-0.467376,-0.3771199999999999,-0.517776,263.7,6.6,52.1701,4.42716,3.4,0.938616,196.507,4.597180000000001,149.279,-15.5782,177.896,0.869974,0.219158,232.753,4.39232,3.87846,13.562126159668,22.0025119781494,35.0,22.0,-683094.0,1322.87,pp-riro,4,0,-1,-1
1570532462.8,2019-10-08,13:01:02.800,14.0,10.0,17.0499992370605,-14.6,11.6,10.4,-32.9,-14.7,168.6,-15.9426,11.470999999999998,9.7261,6.929460000000001,12.1487,10.5061,-32.2125,-16.8542,172.86900000000003,-0.471499,-0.216179,-0.467588,263.7,6.6,52.1701,4.42716,3.4,0.938616,196.123,4.59713,150.36,-17.0982,176.896,0.863135,0.228459,232.793,4.310980000000001,3.80821,15.6774215698242,22.0025119781494,35.0,22.0,-683023.0,1415.17,pp-riro,4,0,-1,-1
1570532462.9,2019-10-08,13:01:02.900,14.0,10.0,17.0,-13.7,12.5,11.3,-33.5,-17.9,164.8,-15.9426,11.470999999999998,9.7261,6.929460000000001,12.1487,10.5061,-32.2125,-16.8542,172.86900000000003,-0.471499,-0.216179,-0.467588,268.2,6.1,52.1701,4.42716,3.4,0.934183,193.247,4.59711,151.499,-18.6182,175.796,0.8557889999999999,0.237563,232.815,4.219609999999999,3.73141,17.7825088500977,22.0025119781494,35.0,22.0,-682773.0,1692.05,pp-riro,4,0,-1,-1
1570532463.0,2019-10-08,13:01:03.000,14.0,10.0,16.8899993896484,-12.7,13.3,12.3,-33.2,-21.2,160.6,-14.3036,13.4174,11.8887,12.7167,13.4983,12.6111,-33.4019,-24.594,166.52,-0.168891,-0.197814,-0.816095,268.2,6.1,52.1701,4.42716,3.4,0.936399,198.311,4.597119999999999,152.726,-19.7582,174.696,0.848283,0.2439329999999999,232.882,4.125030000000001,3.65636,19.8978118896484,22.003026962280305,35.0,22.0,-682636.0,1107.52,pp-riro,4,0,-1,-1
1570532463.1,2019-10-08,13:01:03.100,14.0,10.0,16.8400001525879,-11.5,14.1,13.2,-32.5,-24.7,155.3,-13.2172,14.3699,13.1106,15.6798,10.3249,13.9712,-33.6697,-28.7757,162.826,-0.127046,-0.1633619999999999,-0.940346,268.2,6.1,52.1701,4.42716,3.4,0.941386,200.854,4.597119999999999,154.09799999999998,-21.2782,173.396,0.839562,0.252485,232.949,4.01387,3.57626,22.011413574218803,22.0025119781494,35.0,22.0,-682593.0,830.6410000000001,pp-riro,4,0,-1,-1
1570532463.2,2019-10-08,13:01:03.200,14.0,10.0,16.729999542236303,-10.1,15.0,14.0,-31.0,-28.4,149.5,-12.5559,14.7703,13.6235,12.2859,8.83574,6.07037,-33.4436,-30.7452,160.664,-0.0909746999999999,-0.301246,-0.960511,268.2,6.1,52.1701,4.42716,3.4,0.950251,200.416,4.59713,155.5,-22.0382,172.196,0.8313530000000001,0.256052,233.061,3.90018,3.49421,24.1233062744141,22.003026962280305,35.0,22.0,-682469.0,1538.22,pp-riro,4,0,-1,-1
1570532463.3,2019-10-08,13:01:03.300,14.0,11.0,16.7800006866455,-7.6,16.0,15.3,-27.5,-33.5,139.7,-11.2124,15.8856,14.6147,16.2129,13.3866,12.2471,-32.5128,-35.0767,155.529,0.0657761999999999,-0.258757,-1.01957,268.2,6.1,52.1701,4.42716,3.4,0.944156,201.867,4.59713,156.26,-22.4181,171.49599999999998,0.8267760000000001,0.257757,233.08900000000003,3.84451,3.44791,26.233497619628896,22.003026962280305,35.0,22.0,-682291.0,1661.28,pp-riro,4,0,-1,-1
1570532463.4,2019-10-08,13:01:03.400,14.0,10.0,16.7800006866455,-6.7,16.3,15.7,-25.8,-35.2,135.8,-9.42814,16.7439,15.6511,23.8205,10.2077,16.8169,-31.0698,-39.8718,150.024,-0.133822,-0.269474,-0.715592,268.2,6.1,52.1701,4.42716,3.2,0.95413,209.519,4.59714,158.596,-23.9381,169.396,0.8126899999999999,0.26506,233.283,3.65878,3.32018,27.8106079101562,22.003026962280305,35.0,22.0,-682212.0,584.525,pp-riro,4,0,-1,-1
1570532463.5,2019-10-08,13:01:03.500,14.0,11.0,16.8299999237061,-4.7,16.7,16.2,-21.9,-37.9,128.0,-7.58047,17.6448,16.604,31.0348,9.56253,13.3601,-29.1386,-44.2198,143.643,0.0259921,-0.0473699,-0.893108,268.2,6.1,52.1701,4.42716,3.2,0.971306,213.798,4.59714,160.174,-24.318,167.896,0.803239,0.26592,233.315,3.5392,3.23188,29.8611907958984,22.003026962280305,35.0,22.0,-682091.0,1692.05,pp-riro,4,0,-1,-1
1570532463.6,2019-10-08,13:01:03.600,14.0,11.0,16.879999160766598,-2.7,17.2,16.8,-16.5,-40.7,118.8,-6.59634,17.9613,16.9768,25.2094,8.98754,7.50157,-27.3823,-46.2065,139.39700000000002,-0.393484,-0.0289746,-1.06254,268.2,6.1,52.1701,4.42716,3.2,0.96909,213.55900000000003,4.59715,161.838,-24.698,166.396,0.7935270000000001,0.266683,233.429,3.4056300000000004,3.14466,31.5881805419922,22.003026962280305,35.0,22.0,-681892.0,1968.93,pp-riro,4,0,-1,-1
1570532463.7,2019-10-08,13:01:03.700,14.0,11.0,16.879999160766598,-0.5,17.3,17.0,-10.2,-42.4,108.2,-3.17491,18.8095,18.0176,32.0427,4.8102,7.578460000000001,-19.8083,-51.8947,125.046,-0.2332659999999999,-0.185722,-0.988036,268.2,6.1,52.1701,4.42716,3.2,0.967982,215.911,4.59716,163.591,-25.0779,164.796,0.7832600000000001,0.267349,233.556,3.26368,3.05379,33.250442504882805,22.003026962280305,23.0139999389648,22.0,-681753.0,1138.29,pp-riro,4,0,-1,-1
1570532463.8,2019-10-08,13:01:03.800,14.0,12.0,16.9300003051758,1.6,17.3,17.2,-3.4,-43.7,97.6,-3.17491,18.8095,18.0176,32.0427,4.8102,7.578460000000001,-19.8083,-51.8947,125.046,-0.2332659999999999,-0.185722,-0.988036,268.2,6.1,52.1701,4.42716,3.2,0.983496,222.107,4.59716,165.31400000000002,-25.0779,163.196,0.773263,0.26578,233.646,3.1286400000000003,2.96991,34.173553466796896,22.003026962280305,23.0139999389648,22.0,-681546.0,1753.58,pp-ro,1,1,-1,-1
1570532463.9,2019-10-08,13:01:03.900,14.0,13.0,17.0400009155273,3.8,17.1,17.1,3.9,-43.7,86.4,0.559215,19.3128,18.5144,27.8391,4.67772,0.8961,-8.42256,-55.9104,106.75,0.146102,-0.245838,-1.24193,272.6,5.8,52.1701,4.42716,3.2,0.986821,228.202,4.597169999999999,167.00799999999998,-24.6978,161.596,0.763524,0.262044,233.698,2.99047,2.8829700000000003,34.745803833007805,22.003026962280305,23.0139999389648,22.0,-681389.0,1353.64,pp-ro,1,1,-1,-1
1570532464.0,2019-10-08,13:01:04.000,14.0,13.0,17.1399993896484,6.1,16.8,16.9,11.0,-42.8,74.9,5.74146,19.0261,18.4935,20.4202,1.03261,-3.22063,10.7136,-56.5051,77.2243,-0.581123,-0.282421,-1.48903,272.6,5.8,52.1701,4.42716,3.2,0.99347,231.448,4.597180000000001,168.702,-24.3177,159.996,0.753784,0.258372,233.774,2.847,2.7916,34.960403442382805,22.003026962280305,23.0139999389648,22.0,-681346.0,830.6410000000001,pp-ro,1,1,-1,-1
1570532464.1,2019-10-08,13:01:04.100,14.0,13.0,17.2399997711182,8.1,16.2,16.4,18.0,-40.9,64.1,5.74146,19.0261,18.4935,20.4202,1.03261,-3.22063,10.7136,-56.5051,77.2243,-0.581123,-0.282421,-1.48903,272.6,5.8,52.1701,4.42716,3.2,1.00898,234.28,4.5972,170.36700000000002,-23.9377,158.496,0.7444430000000001,0.254792,233.92,2.70636,2.70755,34.9280395507812,22.0035419464111,23.0163822174072,22.0,-681198.0,1938.16,pp-ro,1,1,-1,-1
1570532464.2,2019-10-08,13:01:04.200,14.0,13.0,17.3400001525879,10.2,15.5,15.7,23.8,-38.2,54.3,5.74146,19.0261,18.4935,20.4202,1.03261,-3.22063,10.7136,-56.5051,77.2243,-0.581123,-0.282421,-1.48903,272.6,5.8,52.1701,4.42716,3.2,1.00012,232.129,4.59721,172.03099999999998,-22.7976,156.89600000000002,0.735082,0.246939,233.946,2.57297,2.61823,34.4852294921875,22.0035419464111,23.0163822174072,22.0,-680954.0,2245.81,pp-ro,1,1,-1,-1
1570532464.3,2019-10-08,13:01:04.300,14.0,13.0,17.4899997711182,12.1,14.8,14.9,28.7,-34.9,45.5,11.9225,17.28,16.6929,22.6875,-3.4931,-4.16601,30.4103,-49.1653,45.3136,-0.2283079999999999,0.062053,-1.18848,272.6,5.8,52.1701,4.42716,3.2,1.0012299999999998,235.806,4.59722,173.638,-21.6575,155.496,0.726498,0.239262,234.09,2.4434,2.53391,33.6813354492188,22.0035419464111,23.0163822174072,22.0,-680802.0,1199.82,pp-ro,1,1,-1,-1
1570532464.4,2019-10-08,13:01:04.400,14.0,12.0,17.6399993896484,13.6,13.8,14.0,32.6,-31.1,37.9,11.9225,17.28,16.6929,22.6875,-3.4931,-4.16601,30.4103,-49.1653,45.3136,-0.2283079999999999,0.062053,-1.18848,272.6,5.8,52.1701,4.427169999999999,2.9,1.0173,240.88,4.597230000000001,175.09799999999998,-20.5174,154.096,0.7183039999999999,0.231807,234.149,2.3199,2.45711,32.519805908203104,22.0035419464111,23.0163822174072,22.0,-680655.0,1784.34,pp-ro,1,1,-1,-1
1570532464.5,2019-10-08,13:01:04.500,14.0,13.0,17.729999542236303,15.0,13.0,12.7,36.0,-27.3,31.1,15.7679,15.1143,14.5546,14.4142,-10.7297,-13.0,38.6626,-39.9283,28.0115,-0.422063,0.1201359999999999,-1.31095,272.6,5.8,52.1701,4.427169999999999,2.9,1.01563,241.05900000000003,4.59722,176.5,-18.9973,152.89600000000002,0.711012,0.222392,234.287,2.20467,2.37736,30.9971923828125,22.003026962280305,21.9756298065186,22.0,-680450.0,2184.28,pp-ro,1,1,-1,-1
1570532464.6,2019-10-08,13:01:04.600,14.0,13.0,17.8299999237061,16.2,12.0,11.7,38.4,-23.0,25.1,15.7679,15.1143,14.5546,14.4142,-10.7297,-13.0,38.6626,-39.9283,28.0115,-0.422063,0.1201359999999999,-1.31095,272.6,5.8,52.1701,4.427169999999999,2.9,1.01896,241.424,4.59726,177.81400000000002,-17.4772,151.796,0.7042510000000001,0.213113,234.447,2.09056,2.30541,29.130554199218803,22.0035419464111,20.765645980835,22.0,-680190.0,1722.81,pp-ro,1,1,-1,-1
1570532464.7,2019-10-08,13:01:04.700,14.0,12.0,17.979999542236303,17.1,11.0,10.4,40.9,-18.8,19.6,17.2778,13.927,13.1223,9.46904,-13.1503,-6.38205,40.7402,-34.1803,21.7276,-0.2197449999999999,0.0528369,-1.39108,272.6,5.8,52.1701,4.427169999999999,2.9,1.01896,241.397,4.59727,179.09900000000002,-15.5771,150.696,0.6976289999999999,0.201882,234.581,1.98305,2.23415,26.6337432861328,22.0035419464111,19.5664291381836,22.0,-680070.0,2245.81,pp-ro,1,1,-1,-1
1570532464.8,2019-10-08,13:01:04.800,14.0,12.0,18.1200008392334,17.8,10.1,9.0,42.5,-14.6,15.1,18.5894,12.6828,11.7479,10.941,-13.0253,-12.1386,42.5733,-29.269,15.8292,-0.1905589999999999,0.149367,-1.0947,272.6,5.8,52.1701,4.427169999999999,2.9,1.01951,244.588,4.5972800000000005,180.238,-14.0571,149.796,0.6919270000000001,0.192948,234.781,1.88408,2.16317,24.811378479003896,22.0035419464111,18.3514442443848,22.0,-679806.0,1445.93,pp-ro,1,1,-1,-1
1570532464.9,2019-10-08,13:01:04.900,14.0,12.0,18.1700000762939,18.6,9.2,7.9,43.6,-10.2,11.2,18.5894,12.6828,11.7479,10.941,-13.0253,-12.1386,42.5733,-29.269,15.8292,-0.1905589999999999,0.149367,-1.0947,272.9,6.2,52.1701,4.427169999999999,2.9,1.02561,246.947,4.5973,181.319,-12.157,148.996,0.686753,0.182049,234.998,1.78948,2.09714,23.0571365356445,22.003026962280305,17.2179164886475,22.0,-679722.0,1599.75,pp-ro,1,1,-1,-1
1570532465.0,2019-10-08,13:01:05.000,14.0,12.0,18.2600002288818,19.2,8.3,6.7,44.8,-6.5,7.3,20.5442,9.73905,8.179860000000001,5.406630000000001,-6.761430000000001,-8.767539999999999,44.6761,-16.2033,4.89812,0.31579,0.129445,-0.775166,272.9,6.2,52.1701,4.427169999999999,2.9,1.03115,251.671,4.59731,182.283,-10.6369,148.296,0.6821149999999999,0.173372,235.227,1.70233,2.03012,21.807029724121104,22.0035419464111,16.0544528961182,22.0,-679529.0,1876.63,pp-ro,1,1,-1,-1
1570532465.1,2019-10-08,13:01:05.100,14.0,11.0,18.3600006103516,19.3,7.9,6.1,45.8,-2.7,3.7,20.5442,9.73905,8.179860000000001,5.406630000000001,-6.761430000000001,-8.767539999999999,44.6761,-16.2033,4.89812,0.31579,0.129445,-0.775166,272.9,6.2,52.1701,4.427169999999999,2.9,1.04167,261.197,4.59733,183.188,-8.356810000000001,147.596,0.6777029999999999,0.160656,235.398,1.61941,2.00673,20.2060852050781,22.003026962280305,15.7583436965942,22.0,-679406.0,922.935,pp-ro,1,1,-1,-1
1570532465.2,2019-10-08,13:01:05.200,14.0,11.0,18.3600006103516,19.8,6.5,4.4,47.0,0.8,2.3,21.6009,7.0183800000000005,5.00139,2.0277,-13.122,-13.217,46.1897,-5.6487,-3.62004,0.0323856,0.0812449,-0.831421,272.9,6.2,52.1701,4.427169999999999,2.9,1.06661,270.221,4.59734,183.976,-6.45674,146.996,0.673825,0.150133,235.577,1.56304,1.90982,18.7175369262695,22.004056930542003,13.9804773330688,22.0,-679279.0,1630.52,pp-ro,1,1,-1,-1
1570532465.3,2019-10-08,13:01:05.300,14.0,11.0,18.3600006103516,20.1,6.1,3.9,47.3,2.5,-0.6,21.6009,7.0183800000000005,5.00139,2.0277,-13.122,-13.217,46.1897,-5.6487,-3.62004,0.0323856,0.0812449,-0.831421,272.9,6.2,52.1701,4.427169999999999,2.9,1.07326,278.717,4.59736,184.327,-5.3167,146.796,0.6723319999999999,0.143872,235.698,1.51218,1.8806,17.2051391601562,22.0035419464111,13.4606447219849,22.0,-679055.0,1845.87,pp-ro,1,1,-1,-1
1570532465.4,2019-10-08,13:01:05.400,14.0,11.0,18.3500003814697,20.5,4.7,2.5,49.2,6.7,-4.8,21.6009,7.0183800000000005,5.00139,2.0277,-13.122,-13.217,46.1897,-5.6487,-3.62004,0.0323856,0.0812449,-0.831421,272.9,6.2,52.1701,4.427169999999999,2.6,1.0921,284.256,4.59741,185.261,-2.6566,146.096,0.667696,0.129322,235.951,1.41835,1.79506,15.917572021484402,22.0035419464111,11.9603729248047,22.0,-678905.0,1784.34,pp-ro,1,1,-1,-1
1570532465.5,2019-10-08,13:01:05.500,14.0,11.0,18.3500003814697,20.6,4.2,2.0,49.5,8.2,-6.3,21.6009,7.0183800000000005,5.00139,2.0277,-13.122,-13.217,46.1897,-5.6487,-3.62004,0.0323856,0.0812449,-0.831421,272.9,6.2,52.1701,4.427169999999999,2.6,1.09764,293.533,4.59739,185.553,-1.13656,145.89600000000002,0.666305,0.121128,236.044,1.38678,1.76656,14.7049331665039,22.004056930542003,11.4620542526245,22.0,-678525.0,2122.75,pp-ro,1,1,-1,-1
1570532465.6,2019-10-08,13:01:05.600,14.0,11.0,18.4500007629395,20.7,3.3,1.2,50.6,10.5,-8.8,21.6009,7.0183800000000005,5.00139,2.0277,-13.122,-13.217,46.1897,-5.6487,-3.62004,0.0323856,0.0812449,-0.831421,272.9,6.2,52.1701,4.427169999999999,2.6,1.12479,305.638,4.59741,185.962,0.763501,145.596,0.664242,0.110881,236.179,1.33485,1.7163099999999998,13.5365753173828,22.004056930542003,10.5667715072632,22.0,-678387.0,1630.52,pp-ro,1,1,-1,-1
1570532465.7,2019-10-08,13:01:05.700,14.0,11.0,18.5,20.9,2.3,0.3,51.8,12.4,-11.4,nan,nan,nan,nan,nan,nan,nan,nan,nan,nan,nan,nan,272.9,6.2,52.1701,4.427169999999999,2.6,1.14307,319.132,4.59743,186.371,3.04357,145.39600000000002,0.662449,0.0986327999999999,236.397,1.28864,1.65977,12.9779434204102,22.004056930542003,9.54538440704346,22.0,-678153.0,2215.04,pp-ro,1,1,-1,-1
1570532465.8,2019-10-08,13:01:05.800,14.0,11.0,18.5400009155273,20.8,1.4,-0.3,52.4,14.4,-13.6,nan,nan,nan,nan,nan,nan,nan,nan,nan,nan,nan,nan,272.9,6.2,52.1701,4.427169999999999,2.6,1.15305,325.86400000000003,4.59744,186.605,4.94362,145.196,0.6610689999999999,0.0884682,236.49,1.24424,1.61705,11.949249267578098,22.004056930542003,8.783679962158201,22.0,-678065.0,1661.28,pp-ro,1,1,-1,-1
1570532465.9,2019-10-08,13:01:05.900,14.0,11.0,18.6800003051758,20.8,0.4,-1.0,53.1,15.7,-15.8,22.2413,2.39111,0.326599,-0.554421,-8.85636,-8.56551,49.3385,9.45235,-15.2883,0.397843,0.0749118,-0.760356,271.0,6.2,52.1701,4.427169999999999,2.6,1.1813,336.185,4.59743,186.751,7.22368,145.096,0.660165,0.0762761999999999,236.602,1.21062,1.5683,10.709358215332,22.004056930542003,7.892709255218509,22.0,-677871.0,2245.81,pp-ro,1,1,-1,-1
1570532466.0,2019-10-08,13:01:06.000,14.0,11.0,18.7800006866455,20.6,-0.4,-1.7,53.6,17.1,-17.8,22.0806,0.305519,-1.23315,-0.6684829999999999,-9.49522,-12.8598,50.1661,13.8706,-19.4932,0.193927,-0.096358,-0.285069,271.0,6.2,52.1701,4.427169999999999,2.6,1.1874,341.75800000000004,4.59739,186.78,9.50373,145.096,0.659825,0.0641376999999999,236.706,1.17788,1.5248700000000002,9.76581573486328,22.004571914672898,7.08825349807739,22.0,-677525.0,3353.33,pp-ro,1,1,-1,-1
1570532466.1,2019-10-08,13:01:06.100,14.0,11.0,18.9599990844727,20.4,-1.2,-2.2,53.5,18.0,-19.6,21.8082,-0.970331,-2.25821,-2.10036,-8.651769999999999,-0.5697939999999999,50.4924,16.5343,-22.0897,-0.0512313,0.104243,-0.512896,271.0,6.2,52.1701,4.427169999999999,2.6,1.19405,339.70300000000003,4.59736,186.78,11.4038,145.196,0.659884,0.0540355,236.851,1.15277,1.4873,8.58724212646484,22.004571914672898,6.3785686492919895,22.0,-677013.0,4060.91,pp-ro,1,1,-1,-1
1570532466.2,2019-10-08,13:01:06.200,14.0,11.0,19.1000003814697,20.0,-1.9,-2.6,53.7,18.6,-21.5,21.8082,-0.970331,-2.25821,-2.10036,-8.651769999999999,-0.5697939999999999,50.4924,16.5343,-22.0897,-0.0512313,0.104243,-0.512896,271.0,6.2,52.1701,4.427169999999999,2.6,1.1874,337.57,4.59732,186.663,13.6838,145.196,0.659791,0.0418754,236.88,1.13183,1.45582,7.660736083984379,22.004571914672898,5.8142204284668,22.0,-676757.0,4491.62,pp-ro,1,1,-1,-1
1570532466.3,2019-10-08,13:01:06.300,14.0,11.0,19.2900009155273,19.7,-2.3,-3.1,53.7,19.6,-23.0,21.8082,-0.970331,-2.25821,-2.10036,-8.651769999999999,-0.5697939999999999,50.4924,16.5343,-22.0897,-0.0512313,0.104243,-0.512896,271.0,6.2,52.1701,4.427169999999999,2.6,1.1741,331.782,4.5972800000000005,186.487,15.5839,145.39600000000002,0.660525,0.0317193,236.982,1.10873,1.42812,6.84322357177734,22.004571914672898,5.27753210067749,22.0,-676420.0,3261.04,pp-ro,1,1,-1,-1
1570532466.4,2019-10-08,13:01:06.400,14.0,10.0,19.4200000762939,19.4,-2.9,-3.3,53.2,20.2,-24.4,20.6604,-2.8603,-3.65221,-5.87608,-5.40186,-3.3542300000000003,50.3871,20.2289,-26.4102,-0.1328329999999999,-0.129546,-0.162898,271.0,6.2,52.1701,4.42718,2.3,1.17299,326.005,4.59724,186.254,17.8639,145.596,0.661267,0.0195289,237.082,1.09326,1.40689,6.46001434326172,22.004571914672898,4.88646984100342,22.0,-676041.0,4430.09,pp-ro,1,1,-1,-1
1570532466.5,2019-10-08,13:01:06.500,14.0,10.0,19.6000003814697,19.1,-3.2,-3.6,52.7,20.7,-25.9,20.6604,-2.8603,-3.65221,-5.87608,-5.40186,-3.3542300000000003,50.3871,20.2289,-26.4102,-0.1328329999999999,-0.129546,-0.162898,271.0,6.2,52.1701,4.42718,2.3,1.15859,323.992,4.5972,185.961,20.1439,145.796,0.662085,0.00724274,237.158,1.07805,1.39017,5.67486572265625,22.004571914672898,4.58833074569702,22.0,-675547.0,2091.99,pp-ro,1,1,-1,-1
1570532466.6,2019-10-08,13:01:06.600,14.0,10.0,19.7399997711182,18.9,-3.5,-3.8,52.3,21.1,-27.1,19.9402,-3.75986,-4.20016,-1.47875,-2.26729,-3.51255,49.6,21.6784,-28.9464,0.0573898,-0.00694584,-0.227407,271.0,6.2,52.1701,4.42718,2.3,1.16579,324.185,4.59716,185.611,22.044,146.096,0.66343,-0.00300541,237.237,1.06616,1.37714,5.046409606933589,22.004571914672898,4.32493543624878,22.0,-675384.0,3076.45,pp-ro,1,1,-1,-1
1570532466.7,2019-10-08,13:01:06.700,14.0,10.0,19.8700008392334,18.6,-3.8,-3.9,52.1,21.8,-28.1,19.9402,-3.75986,-4.20016,-1.47875,-2.26729,-3.51255,49.6,21.6784,-28.9464,0.0573898,-0.00694584,-0.227407,271.0,6.2,52.1701,4.42718,2.3,1.1574799999999998,323.866,4.59713,185.26,23.944000000000003,146.296,0.6643899999999999,-0.0132892,237.27,1.05263,1.36643,4.5916748046875,22.004571914672898,4.134052753448491,22.0,-675003.0,3907.09,pp-ro,1,1,-1,-1
1570532466.8,2019-10-08,13:01:06.800,14.0,11.0,19.909999847412102,18.4,-4.1,-4.0,51.8,22.5,-29.3,19.2703,-4.64126,-4.51915,-10.5608,-6.27574,-4.0221800000000005,48.4383,23.3621,-31.5069,0.128738,-0.00316692,-0.1473819999999999,271.0,6.2,52.1701,4.42718,2.3,1.15859,321.392,4.597090000000001,184.822,25.844,146.696,0.666187,-0.023649,237.375,1.03698,1.35702,4.264671325683589,22.004571914672898,3.92311668395996,22.0,-674726.0,2645.75,pp-ro,1,1,-1,-1
1570532466.9,2019-10-08,13:01:06.900,14.0,10.0,19.9599990844727,18.2,-4.4,-4.2,51.3,22.7,-30.5,19.189,-4.812869999999999,-4.5282,-2.91652,-1.66687,-2.95352,48.1639,23.5873,-32.2137,-0.0254925999999999,-0.0216614,-0.211665,273.0,5.7,52.1701,4.42718,2.3,1.14529,318.064,4.59707,184.384,27.7441,146.996,0.6675989999999999,-0.0340283,237.43400000000003,1.02775,1.34343,4.056884765625,22.004571914672898,3.65520262718201,22.0,-674151.0,3691.74,pp-ro,1,1,-1,-1
1570532467.0,2019-10-08,13:01:07.000,14.0,11.0,19.9599990844727,17.9,-4.5,-4.3,50.9,23.3,-31.5,19.0886,-4.888730000000001,-4.60964,-1.57019,-2.73284,-5.63588,47.9839,23.7563,-32.8449,0.0675865,0.0278401,-0.218123,273.0,5.7,52.1701,4.42718,2.3,1.14529,319.315,4.59707,183.917,29.6441,147.39600000000002,0.669362,-0.044488,237.549,1.01567,1.33791,3.96491241455078,22.004056930542003,3.53033685684204,22.0,-674028.0,2338.1,pp-ro,1,1,-1,-1
1570532467.1,2019-10-08,13:01:07.100,14.0,10.0,19.9599990844727,17.7,-4.8,-4.4,50.8,23.7,-32.6,18.8374,-5.16639,-4.60961,-1.10906,-6.53227,1.41454,47.714,24.3822,-33.897,0.0813556,-0.0665904,-0.177774,273.0,5.7,52.1701,4.42718,2.3,1.1608,321.961,4.59707,183.42,31.5441,147.696,0.670817,-0.0549925999999999,237.597,1.00507,1.32798,3.7298812866210898,22.004056930542003,3.34102463722229,22.0,-673768.0,3322.56,pp-ro,1,1,-1,-1
1570532467.2,2019-10-08,13:01:07.200,14.0,10.0,20.0,17.5,-5.0,-4.5,50.5,24.0,-33.8,18.634,-5.46252,-4.64409,-4.28923,-3.78968,0.74625,47.3201,24.7945,-35.0881,-0.0616194,-0.0350196999999999,-0.219574,273.0,5.7,52.1701,4.42718,2.3,1.15194,319.366,4.59707,182.894,33.0641,148.096,0.6727989999999999,-0.0635327,237.647,0.993371,1.3197,3.54764556884766,22.004056930542003,3.13108325004578,22.0,-673402.0,3568.68,pp-ro,1,1,-1,-1
1570532467.3,2019-10-08,13:01:07.300,14.0,10.0,20.0,17.2,-5.2,-4.6,50.6,24.2,-34.7,18.2707,-5.6163300000000005,-4.75645,-3.18482,2.69792,1.2777,47.3135,25.0174,-36.2099,0.2102659999999999,-0.0500077,-0.161343,273.0,5.7,52.1701,4.42718,2.3,1.14972,315.858,4.59704,182.31,34.9642,148.496,0.674709,-0.0741372,237.72,0.987584,1.31057,3.4403533935546897,22.004056930542003,2.93286538124084,22.0,-673089.0,3076.45,pp-ro,1,1,-1,-1
1570532467.4,2019-10-08,13:01:07.400,14.0,10.0,19.9599990844727,17.1,-5.4,-4.6,50.4,24.6,-35.7,18.0188,-5.82055,-4.8015300000000005,4.82115,-2.08474,-2.56507,47.1636,25.4667,-37.2279,0.142678,-0.2308329999999999,-0.182864,273.0,5.7,52.1701,4.42718,2.1,1.14196,317.29900000000004,4.59707,181.755,36.8642,148.89600000000002,0.6764859999999999,-0.0847919999999999,237.832,0.978196,1.30931,3.06565856933594,22.004571914672898,2.90523791313171,22.0,-672614.0,2461.16,pp-ro,1,1,-1,-1
1570532467.5,2019-10-08,13:01:07.500,14.0,10.0,19.9599990844727,16.9,-5.7,-4.7,50.3,24.8,-36.5,17.8991,-6.07977,-4.86621,0.6384380000000001,1.11753,-2.11761,47.0836,25.9247,-37.9166,-0.0755385,-0.00594907,-0.177626,273.0,5.7,52.1701,4.42718,2.1,1.14861,318.686,4.59707,181.171,38.7642,149.39600000000002,0.678609,-0.0954701,238.002,0.973561,1.29901,2.91748046875,22.004571914672898,2.67484974861145,22.0,-672499.0,2184.28,pp-ro,1,1,-1,-1
1570532467.6,2019-10-08,13:01:07.600,14.0,10.0,19.9200000762939,16.6,-5.9,-4.7,50.3,24.8,-37.4,17.4699,-6.45885,-4.83078,-2.2959,-0.928117,-0.0470185,46.9428,26.0547,-39.3976,0.139368,-0.154279,-0.133852,273.0,5.7,52.1701,4.42718,2.1,1.1569200000000002,319.909,4.59707,180.528,40.2842,149.796,0.680717,-0.104234,238.017,0.96905,1.29223,2.83744049072266,22.004571914672898,2.49212861061096,22.0,-672189.0,3660.97,pp-ro,1,1,-1,-1
1570532467.7,2019-10-08,13:01:07.700,14.0,11.0,19.9599990844727,16.4,-6.0,-4.7,50.2,25.0,-38.2,17.2371,-6.64037,-4.89132,-2.44061,-1.53092,-2.3548400000000003,46.8734,26.4153,-40.1287,0.1783819999999999,-0.0816527,-0.130945,273.0,5.7,52.1701,4.42718,2.1,1.14418,313.991,4.59707,179.915,42.1842,150.196,0.682483,-0.114992,238.134,0.96448,1.29159,2.7114028930664102,22.004056930542003,2.4890904426574703,22.0,-671843.0,3076.45,pp-ro,1,1,-1,-1
1570532467.8,2019-10-08,13:01:07.800,14.0,10.0,19.9200000762939,16.2,-6.2,-4.8,49.9,25.1,-39.0,17.2371,-6.64037,-4.89132,-2.44061,-1.53092,-2.3548400000000003,46.8734,26.4153,-40.1287,0.1783819999999999,-0.0816527,-0.130945,273.0,5.7,52.1701,4.42718,2.1,1.13753,305.149,4.59707,179.243,43.3242,150.696,0.685144,-0.121843,238.148,0.958593,1.2814299999999998,2.57855987548828,22.004571914672898,2.16494703292847,22.0,-671470.0,4183.97,pp-ro,1,1,-1,-1
1570532467.9,2019-10-08,13:01:07.900,14.0,10.0,19.9200000762939,15.9,-6.4,-4.7,49.7,24.9,-39.8,16.9826,-6.78045,-4.88933,1.93457,1.01141,-1.60666,46.7645,26.5792,-40.8526,-0.0657815,-0.11308,-0.0778544,275.7,6.4,52.1701,4.42718,2.1,1.11814,306.496,4.597090000000001,178.571,44.8443,151.096,0.6872119999999999,-0.130726,238.178,0.957676,1.27825,2.42868041992188,22.004056930542003,2.0588152408599902,22.0,-671132.0,2522.69,pp-ro,1,1,-1,-1
1570532468.0,2019-10-08,13:01:08.000,14.0,10.0,19.9200000762939,15.7,-6.5,-4.8,49.5,24.8,-40.3,16.6222,-6.94653,-4.90563,-3.48036,-2.62643,-3.36398,46.5062,26.5288,-41.6654,-0.117729,-0.109818,-0.0481238,275.7,6.4,52.1701,4.42718,2.1,1.14086,309.064,4.59713,177.87,46.7443,151.597,0.6893819999999999,-0.141713,238.337,0.960275,1.27317,2.29753875732422,22.004571914672898,1.9408245086669904,22.0,-670796.0,3814.8,pp-ro,1,1,-1,-1
1570532468.1,2019-10-08,13:01:08.100,14.0,10.0,19.9200000762939,15.6,-6.7,-4.7,49.6,24.9,-40.8,16.3267,-7.184769999999999,-4.93848,-4.27327,-2.26022,-1.80108,46.511,26.5233,-42.358,0.0308572,-0.0820138999999999,0.0418802,275.7,6.4,52.1701,4.42718,2.1,1.13199,307.84,4.597169999999999,177.169,48.2643,152.097,0.691759,-0.150728,238.436,0.959156,1.2747700000000002,2.0590972900390603,22.004056930542003,1.90519678592682,22.0,-670589.0,3907.09,pp-ro,1,1,-1,-1
1570532468.2,2019-10-08,13:01:08.200,14.0,10.0,19.9200000762939,15.4,-6.8,-4.6,49.5,24.7,-41.6,16.1878,-7.34991,-4.84427,-0.499853,1.3524200000000002,-0.910585,46.3896,26.5037,-43.085,0.0392858,-0.0101316,-0.164675,275.7,6.4,52.1701,4.42718,2.1,1.12811,305.862,4.59721,176.468,50.1643,152.497,0.6934939999999999,-0.1617829999999999,238.564,0.959593,1.27796,1.94158172607422,22.004571914672898,2.0024938583374,22.0,-670338.0,2153.51,pp-ro,1,1,-1,-1
1570532468.3,2019-10-08,13:01:08.300,14.0,11.0,19.8799991607666,15.2,-6.9,-4.7,49.3,24.6,-42.4,15.9404,-7.501519999999999,-4.7777,-10.8875,-3.824,-3.70412,46.2011,26.3513,-43.7646,0.190335,-0.0759938,0.175515,275.7,6.4,52.1701,4.42718,2.1,1.12922,303.10200000000003,4.59725,175.767,51.3043,152.997,0.696064,-0.168837,238.609,0.956168,1.27018,1.93306732177734,22.004056930542003,1.72137796878815,22.0,-670008.0,3937.85,pp-ro,1,1,-1,-1
1570532468.4,2019-10-08,13:01:08.400,14.0,10.0,19.9200000762939,15.1,-7.0,-4.6,49.0,24.7,-42.8,15.8296,-7.45276,-4.73465,1.39904,-1.93792,0.155657,46.1749,26.2424,-44.1357,-0.0682306,-0.138874,-0.0894638999999999,275.7,6.4,52.1701,4.42718,2.0,1.11648,300.42400000000004,4.59729,175.00799999999998,53.2044,153.497,0.6981689999999999,-0.1800109999999999,238.788,0.957635,1.27597,1.93817901611328,22.004056930542003,1.84159243106842,22.0,-669675.0,2768.8,pp-ro,1,1,-1,-1
1570532468.5,2019-10-08,13:01:08.500,14.0,10.0,19.9200000762939,14.9,-7.1,-4.6,48.9,24.5,-43.5,15.8296,-7.45276,-4.73465,1.39904,-1.93792,0.155657,46.1749,26.2424,-44.1357,-0.0682306,-0.138874,-0.0894638999999999,275.7,6.4,52.1701,4.42718,2.0,1.12146,299.745,4.59732,174.248,54.3444,153.89700000000002,0.700503,-0.1872349999999999,238.747,0.956645,1.27234,1.8223648071289096,22.004056930542003,-35.0,22.0,-669420.0,2799.57,pp-ro,1,1,-1,-1
1570532468.6,2019-10-08,13:01:08.600,14.0,10.0,19.840000152587898,14.7,-7.2,-4.6,48.8,24.4,-44.2,15.4372,-7.72677,-4.660819999999999,-0.232186,-2.64996,1.10453,46.0187,26.3937,-45.1308,0.212506,-0.129505,-0.110616,275.7,6.4,52.1701,4.42718,2.0,1.11537,299.95,4.59736,173.518,55.8644,154.39700000000002,0.702743,-0.196427,238.889,0.955735,1.26984,1.7559432983398402,22.004056930542003,-35.0,22.0,-669086.0,3107.21,pp-ro,1,1,-1,-1
1570532468.7,2019-10-08,13:01:08.700,14.0,10.0,19.7900009155273,14.6,-7.2,-4.5,48.6,24.5,-44.8,15.2601,-7.77845,-4.6282,-2.82178,2.74495,0.458867,45.8481,26.1549,-45.9253,0.118015,-0.2125909999999999,-0.2212199999999999,275.7,6.4,52.1701,4.42718,2.0,1.12202,297.593,4.59744,172.759,57.3844,154.89700000000002,0.705013,-0.205692,239.022,0.953638,1.27734,1.7508316040039098,22.004056930542003,-35.0,22.0,-668722.0,2891.86,pp-ro,1,1,-1,-1
1570532468.8,2019-10-08,13:01:08.800,14.0,10.0,19.6100006103516,14.5,-7.4,-4.3,48.4,24.2,-45.5,15.2087,-7.86171,-4.55962,-0.8659450000000001,0.6793319999999999,-0.71012,45.7511,26.333,-46.4719,-0.00289241,0.0335147,0.0390550999999999,275.7,6.4,52.1701,4.42718,2.0,1.11648,295.464,4.59744,171.99900000000002,58.9044,155.297,0.706921,-0.214981,239.104,0.955165,1.28329,1.38294982910156,22.004056930542003,-35.0,22.0,-668511.0,4030.15,pp-ro,1,1,-1,-1
1570532468.9,2019-10-08,13:01:08.900,14.0,10.0,19.5300006866455,14.5,-7.5,-4.3,48.2,23.8,-46.1,15.2087,-7.86171,-4.55962,-0.8659450000000001,0.6793319999999999,-0.71012,45.7511,26.333,-46.4719,-0.00289241,0.0335147,0.0390550999999999,274.0,7.0,52.1701,4.42718,2.0,1.10096,293.091,4.5974900000000005,171.18200000000002,60.4244,155.797,0.709252,-0.224401,239.222,0.959096,1.28645,0.636978149414062,22.004056930542003,-35.0,22.0,-668211.0,2215.04,pp-ro,1,1,-1,-1
1570532469.0,2019-10-08,13:01:09.000,14.0,10.0,19.4400005340576,14.5,-7.5,-4.2,48.5,23.4,-46.3,14.9812,-7.95168,-4.35215,1.73291,-1.32221,-0.871827,45.5819,25.8923,-47.4106,-0.231803,-0.0599406,-0.0831378999999999,274.0,7.0,52.1701,4.42718,2.0,1.10983,292.362,4.59755,170.393,61.5644,156.197,0.711499,-0.231846,239.21,0.966372,1.29564,-0.460830688476562,22.004056930542003,-35.0,22.0,-667816.0,3691.74,pp-ro,1,1,-1,-1
1570532469.1,2019-10-08,13:01:09.100,14.0,10.0,19.3899993896484,14.6,-7.5,-3.9,48.7,23.1,-46.2,14.9083,-7.93493,-4.23177,4.581,0.911805,0.1618869999999999,45.6639,25.7272,-47.684,0.0247541,0.0546769999999999,0.0902799,274.0,7.0,52.1701,4.42718,2.0,1.10152,289.101,4.59765,169.634,63.0844,156.597,0.713283,-0.241233,239.328,0.977331,1.3175,-1.91841888427734,22.004056930542003,-35.0,22.0,-667628.0,3353.33,pp-ro,1,1,-1,-1
1570532469.2,2019-10-08,13:01:09.200,14.0,10.0,19.3899993896484,14.8,-7.4,-3.5,49.1,22.0,-46.4,14.8987,-7.9835,-3.99112,-1.68067,-2.70278,6.817419999999999,45.9843,25.8692,-47.2291,0.0285557,-0.0515979,-0.0222997,274.0,7.0,52.1701,4.42718,2.0,1.08656,279.791,4.59768,168.81599999999997,64.6044,157.097,0.715487,-0.250754,239.483,0.994385,1.3494700000000002,-3.72589111328125,22.0035419464111,-35.0,22.0,-667192.0,3137.98,pp-ro,1,1,-1,-1
1570532469.3,2019-10-08,13:01:09.300,14.0,10.0,19.3899993896484,15.1,-7.3,-3.2,49.6,20.9,-46.2,15.0729,-7.867489999999999,-3.595,1.66373,3.17525,7.60582,46.4819,25.5913,-46.9413,0.00539625,-0.00704122,0.145494,274.0,7.0,52.1701,4.42718,2.0,1.08212,279.098,4.59774,168.05599999999998,66.1245,157.39700000000002,0.716865,-0.26018,239.56,1.01622,1.37926,-5.823516845703121,22.0035419464111,-35.0,22.0,-667034.0,3137.98,pp-ro,1,1,-1,-1
1570532469.4,2019-10-08,13:01:09.400,14.0,10.0,19.4400005340576,15.6,-7.2,-2.7,50.5,19.8,-45.4,15.0729,-7.867489999999999,-3.595,1.66373,3.17525,7.60582,46.4819,25.5913,-46.9413,0.00539625,-0.00704122,0.145494,274.0,7.0,52.1701,4.42719,1.8,1.0788,278.149,4.5978,167.297,67.6445,157.697,0.718199,-0.269622,239.651,1.04529,1.42172,-7.92967987060547,22.0035419464111,-35.0,22.0,-666792.0,2245.81,pp-ro,1,1,-1,-1
1570532469.5,2019-10-08,13:01:09.500,14.0,9.0,19.5300006866455,16.1,-7.0,-2.0,51.4,18.1,-44.5,15.0729,-7.867489999999999,-3.595,1.66373,3.17525,7.60582,46.4819,25.5913,-46.9413,0.00539625,-0.00704122,0.145494,274.0,7.0,52.1701,4.42719,1.8,1.08212,276.66200000000003,4.59786,166.567,69.1645,157.997,0.719414,-0.279015,239.773,1.08295,1.47448,-10.0392532348633,22.0035419464111,-35.0,22.0,-666544.0,2830.33,pp-ro,1,1,-1,-1
1570532469.6,2019-10-08,13:01:09.600,14.0,10.0,19.6200008392334,16.7,-6.7,-1.3,52.5,15.6,-43.5,15.783,-7.402819999999999,-2.33563,4.562,0.394757,7.309489999999999,48.5563,23.597,-44.5905,0.150929,0.0504936999999999,0.2190619999999999,274.0,7.0,52.1701,4.42719,1.8,1.07381,275.826,4.59793,165.83599999999998,71.0645,158.197,0.719861,-0.290387,239.955,1.13327,1.53185,-12.1420059204102,22.003026962280305,-35.0,22.0,-666162.0,1999.69,pp-ro,1,1,-1,-1
1570532469.7,2019-10-08,13:01:09.700,14.0,9.0,19.6700000762939,17.3,-6.2,-0.4,53.8,13.0,-42.0,16.4454,-6.87435,-1.20535,5.80682,3.1508700000000003,10.5003,50.5742,21.0151,-42.1891,0.158878,-0.0276741,0.291524,274.0,7.0,52.1701,4.42719,1.8,1.07769,277.197,4.59799,165.165,72.2045,158.297,0.7206239999999999,-0.297699,239.898,1.18845,1.59934,-14.2464599609375,22.0035419464111,-35.0,22.0,-666045.0,2215.04,pp-ro,1,1,-1,-1
1570532469.8,2019-10-08,13:01:09.800,14.0,9.0,19.6700000762939,18.1,-5.8,0.7,55.4,10.2,-40.0,17.3311,-6.13584,0.322675,4.61944,5.18118,5.72691,52.7946,17.2604,-38.8822,0.165411,0.174564,0.6633979999999999,274.0,7.0,52.1701,4.42719,1.8,1.08489,282.64,4.59805,164.493,73.7245,158.39700000000002,0.720935,-0.30698,239.96400000000003,1.25383,1.67202,-16.354324340820302,22.003026962280305,-35.0,22.0,-665826.0,2276.57,pp-ro,1,1,-1,-1
1570532469.9,2019-10-08,13:01:09.900,14.0,9.0,19.7099990844727,18.7,-5.1,1.9,56.8,6.5,-37.8,17.643,-5.81637,0.8775620000000001,6.78992,4.876469999999999,13.3363,53.8537,15.8963,-37.4198,0.28197,0.1446069999999999,0.6112,276.2,6.2,52.1701,4.42719,1.8,1.09099,284.233,4.59812,163.90900000000002,76.0046,158.297,0.719483,-0.3198809999999999,240.21,1.33607,1.75518,-18.4638977050781,22.0035419464111,-35.0,22.0,-665621.0,1999.69,pp-ro,1,1,-1,-1
