time,date,time_of_day,airspeed_temperature,airspeed_angle_of_attack,airspeed_apparent_windspeed,kite_0_vx,kite_0_vy,kite_0_vz,kite_0_roll,kite_0_pitch,kite_0_yaw,kite_1_vx,kite_1_vy,kite_1_vz,kite_1_ax,kite_1_ay,kite_1_az,kite_1_roll,kite_1_pitch,kite_1_yaw,kite_1_roll_rate,kite_1_pitch_rate,kite_1_yaw_rate,ground_upwind_direction,ground_wind_velocity,ground_pos_latitude,ground_pos_longitude,ground_pos_altitude,ground_tether_reelout_speed,ground_tether_force,est_upwind_direction,kite_pos_east,kite_pos_north,kite_height,kite_elevation,kite_azimuth,kite_distance,kite_heading,kite_course,kite_actual_steering,kite_actual_depower,kite_set_steering,kite_set_depower,ground_mech_energy,ground_mech_power,flight_phase,flight_phase_index,phase,pattern,pattern_section
1570538401.1,2019-10-08,14:40:01.100,15.0,8.0,14.7200002670288,12.9,-3.3,2.4,18.8,-2.8,-61.6,12.0825,-1.97553,2.97006,8.93871,11.8388,4.9963,22.9847,11.3941,-59.26,0.183618,0.1824859999999999,1.0169700000000002,257.7,3.3,52.1701,4.427219999999999,2.7,-2.84688,105.309,4.4294,59.3206,0.760382,236.864,1.32538,0.270171,244.181,0.5276529999999999,1.38314,-34.877960205078104,22.0256862640381,-35.0,22.0,-246196.0,-2922.63,pp-riro,4,0,-1,-1
1570538401.2,2019-10-08,14:40:01.200,15.0,8.0,14.6000003814697,13.9,-2.4,2.6,20.7,-4.2,-56.3,12.9235,-1.00847,3.27815,6.52054,9.88731,2.83985,24.9834,10.0423,-53.0669,0.162018,0.2625889999999999,1.04746,257.7,3.3,52.1701,4.427219999999999,2.7,-2.8297,102.339,4.429469999999999,59.0285,2.66045,236.664,1.32613,0.237882,243.929,0.658806,1.49312,-34.975250244140604,22.007146835327102,-35.0,22.0,-246508.0,-3599.45,pp-riro,4,0,-1,-1
1570538401.3,2019-10-08,14:40:01.300,15.0,8.0,14.6599998474121,14.8,-1.2,3.0,22.4,-5.4,-50.9,12.9235,-1.00847,3.27815,6.52054,9.88731,2.83985,24.9834,10.0423,-53.0669,0.162018,0.2625889999999999,1.04746,255.9,3.6,52.1701,4.427219999999999,2.7,-2.82416,99.1877,4.42959,58.7949,3.80049,236.46400000000003,1.32661,0.2182489999999999,243.694,0.778306,1.60377,-34.973541259765604,22.0009689331055,-35.0,22.0,-246994.0,-5568.37,pp-riro,4,0,-1,-1
1570538401.4,2019-10-08,14:40:01.400,15.0,8.0,14.6000003814697,15.5,-0.2,3.3,23.9,-6.8,-45.8,12.9235,-1.00847,3.27815,6.52054,9.88731,2.83985,24.9834,10.0423,-53.0669,0.162018,0.2625889999999999,1.04746,255.9,3.6,52.1701,4.427219999999999,2.7,-2.83413,96.4541,4.42971,58.7072,4.94053,236.264,1.3264200000000002,0.198723,243.499,0.893058,1.69091,-34.973541259765604,22.0009689331055,-35.0,22.0,-247684.0,-7352.71,pp-riro,4,0,-1,-1
1570538401.5,2019-10-08,14:40:01.500,15.0,9.0,14.4799995422363,16.3,0.8,3.8,25.6,-8.7,-40.7,14.4417,1.0310700000000002,4.02054,2.78284,7.98577,3.4132300000000004,28.4318,6.9746,-41.462,0.2511469999999999,0.235999,1.03756,255.9,3.6,52.1701,4.427219999999999,2.7,-2.85463,95.6777,4.42983,58.6488,6.8406,236.064,1.3257,0.166451,243.337,1.02255,1.78636,-34.9940185546875,22.0009689331055,-35.0,22.0,-248524.0,-8429.47,pp-riro,4,0,-1,-1
1570538401.6,2019-10-08,14:40:01.600,15.0,8.0,14.2299995422363,16.8,2.0,4.3,26.9,-10.4,-35.4,15.3478,2.59681,4.65145,7.180219999999999,10.4021,4.12346,30.7441,4.08645,-32.9196,0.240261,0.204272,0.974444,255.9,3.6,52.1701,4.427219999999999,2.7,-2.88732,94.5497,4.43,58.7948,8.36065,235.764,1.32404,0.141139,243.129,1.14778,1.88225,-34.9957275390625,22.0009689331055,-35.0,22.0,-249849.0,-9167.82,pp-riro,4,0,-1,-1
1570538401.7,2019-10-08,14:40:01.700,15.0,8.0,14.039999961853,17.4,3.1,4.6,27.6,-12.2,-30.5,15.7995,3.6238,5.15888,3.26305,9.56153,4.02768,31.7112,2.0494,-27.4887,0.0363411,0.161738,1.01637,255.9,3.6,52.1701,4.427219999999999,2.7,-2.90782,93.0971,4.43006,58.9992,10.2607,235.46400000000003,1.32175,0.1101369999999999,242.96,1.2720200000000002,1.96874,-34.9957275390625,22.0009689331055,-35.0,22.0,-250354.0,-9475.46,pp-riro,4,0,-1,-1
1570538401.8,2019-10-08,14:40:01.800,15.0,8.0,13.9799995422363,17.7,4.2,5.0,28.7,-13.9,-25.1,16.1223,4.69816,5.44155,3.3071300000000003,10.9736,4.3716,32.7129,-0.1728819999999999,-21.9202,0.0098252999999999,0.2111829999999999,0.980506,255.9,3.6,52.1701,4.427219999999999,2.8,-2.94495,92.029,4.43018,59.3205,11.7808,235.064,1.31897,0.0861647,242.72,1.3969999999999998,2.049,-34.9991455078125,22.0009689331055,-35.0,22.0,-251544.0,-12059.7,pp-riro,4,0,-1,-1
1570538401.9,2019-10-08,14:40:01.900,15.0,9.0,14.109999656677198,18.1,5.4,5.4,29.4,-15.8,-19.6,16.4524,5.75735,5.88351,2.75976,11.8452,3.64223,33.2884,-2.23795,-16.4334,-0.0699128999999999,0.155842,0.991788,255.9,3.6,52.1701,4.427219999999999,2.8,-2.98207,95.9844,4.4303,59.7586,13.6809,234.664,1.31526,0.0570932,242.54,1.52909,2.1334,-34.9991455078125,22.0009689331055,-35.0,22.0,-252771.0,-11044.5,pp-riro,4,0,-1,-1
1570538402.0,2019-10-08,14:40:02.000,15.0,9.0,13.9799995422363,18.3,6.7,6.0,30.1,-18.1,-14.5,16.6155,6.312530000000001,6.0722,0.1603619999999999,10.9409,5.62662,33.5541,-3.30449,-13.5828,0.102477,0.277475,1.03198,255.9,3.6,52.1701,4.427219999999999,2.8,-3.01033,101.446,4.43042,60.3427,15.5809,234.164,1.3106799999999998,0.0292851,242.316,1.65429,2.22225,-34.9974365234375,22.0009689331055,-35.0,22.0,-253960.0,-6152.9,pp-riro,4,0,-1,-1
1570538402.1,2019-10-08,14:40:02.100,15.0,10.0,14.039999961853,18.5,7.9,6.4,30.1,-20.1,-9.2,16.9294,8.03327,6.79453,-0.610957,11.4908,3.42518,33.4582,-6.49292,-5.2322,0.0400904,0.2074679999999999,0.991309,255.9,3.6,52.1701,4.427219999999999,2.8,-3.00811,103.195,4.4305900000000005,61.0437,17.480999999999998,233.664,1.30546,0.00289735,242.138,1.7791,2.2991,-34.9991455078125,22.0009689331055,-35.0,22.0,-254559.0,-4983.85,pp-riro,4,0,-1,-1
1570538402.2,2019-10-08,14:40:02.200,15.0,9.0,14.1700000762939,18.6,9.2,6.8,29.9,-22.1,-3.5,16.9668,8.64279,6.98037,-1.92142,11.5534,3.61284,33.3002,-7.518560000000001,-2.39887,-0.0465434,0.2250719999999999,1.01599,255.9,3.6,52.1701,4.427219999999999,2.8,-2.99592,104.627,4.43065,61.8614,19.0011,233.064,1.29995,-0.0162705,241.882,1.90249,2.37175,-34.9991455078125,22.0009689331055,-35.0,22.0,-254864.0,-5968.31,pp-riro,4,0,-1,-1
1570538402.3,2019-10-08,14:40:02.300,15.0,11.0,14.3500003814697,18.6,10.5,7.2,29.6,-23.9,2.2,16.9744,9.79855,7.33104,-2.22861,10.9506,6.09333,32.7345,-9.6394,3.37976,0.0266890999999999,0.34287,0.967258,254.7,4.4,52.1701,4.427219999999999,2.8,-2.97542,111.594,4.4307300000000005,62.7668,21.2812,232.46400000000003,1.29306,-0.0452256999999999,241.728,2.03274,2.45224,-35.0008544921875,22.0009689331055,-35.0,22.0,-255122.0,-769.112,pp-riro,4,0,-1,-1
1570538402.4,2019-10-08,14:40:02.400,15.0,10.0,14.6599998474121,18.4,11.8,7.8,29.0,-25.8,8.6,16.9744,9.79855,7.33104,-2.22861,10.9506,6.09333,32.7345,-9.6394,3.37976,0.0266890999999999,0.34287,0.967258,254.7,4.4,52.1701,4.427219999999999,2.8,-2.88178,121.274,4.4308,63.8767,22.8012,231.764,1.2861,-0.0612333,241.485,2.16089,2.52352,-35.0042724609375,22.0009689331055,-35.0,22.0,-254645.0,4460.85,pp-riro,4,0,-1,-1
1570538402.5,2019-10-08,14:40:02.500,15.0,11.0,15.0200004577637,18.1,13.2,8.3,27.9,-27.6,14.9,16.7726,12.2088,8.24598,-3.089,13.355,5.54674,30.7422,-13.4736,15.8675,-0.0689914,0.3586519999999999,1.03225,254.7,4.4,52.1701,4.427219999999999,2.8,-2.78648,126.173,4.43087,65.045,24.7013,231.064,1.27832,-0.0814181,241.312,2.28879,2.60055,-35.0025634765625,22.0009689331055,-35.0,22.0,-253920.0,9198.58,pp-riro,4,0,-1,-1
1570538402.6,2019-10-08,14:40:02.600,15.0,11.0,15.4300003051758,17.7,14.6,8.7,26.9,-29.1,21.4,16.4523,13.4216,8.69332,-4.62641,14.6932,4.98069,29.3764,-15.1609,22.3654,0.134226,0.249851,1.06003,254.7,4.4,52.1701,4.427219999999999,2.8,-2.72054,130.161,4.4309400000000005,66.4177,26.6014,230.164,1.26941,-0.099471,241.028,2.41465,2.67435,-35.0025634765625,22.0025119781494,-23.0116176605225,22.0,-253408.0,9967.69,pp-riro,4,0,-1,-1
1570538402.7,2019-10-08,14:40:02.700,15.0,11.0,15.8199996948242,17.1,16.1,9.3,25.9,-30.6,28.0,16.2434,14.0983,8.91333,-4.99284,13.0304,6.79563,28.6735,-15.9883,25.7141,0.0342741,0.317963,1.07948,254.7,4.4,52.1701,4.427219999999999,2.8,-2.5775900000000003,142.683,4.431019999999999,67.9072,28.5015,229.364,1.26011,-0.1160109999999999,240.898,2.53848,2.75278,-35.0042724609375,22.0019989013672,-23.0092449188232,22.0,-252077.0,14767.0,pp-riro,4,0,-1,-1
1570538402.8,2019-10-08,14:40:02.800,15.0,11.0,16.1499996185303,16.4,17.6,9.8,24.5,-31.7,34.6,15.5102,16.1302,9.69966,-5.50714,12.4832,4.070209999999999,26.1208,-17.9351,35.8574,0.1201839999999999,0.276696,1.0480200000000002,254.7,4.4,52.1701,4.427230000000001,2.9,-2.3637200000000003,155.106,4.43109,69.5136,30.0216,228.46400000000003,1.25076,-0.126384,240.685,2.65337,2.82423,-34.970123291015604,22.0025119781494,-23.0116176605225,22.0,-250075.0,21535.1,pp-riro,4,0,-1,-1
1570538402.9,2019-10-08,14:40:02.900,15.0,10.0,16.479999542236303,15.5,19.0,10.4,23.0,-32.6,41.8,15.1857,16.8368,9.99217,-8.71049,14.041,7.330539999999999,25.2681,-18.5134,39.2716,0.101549,0.317073,1.14628,254.7,4.4,52.1701,4.427230000000001,2.9,-2.1093900000000003,165.097,4.43116,71.2952,31.9216,227.46400000000003,1.24,-0.139711,240.504,2.77766,2.8988,-34.594635009765604,22.003026962280305,-23.0139999389648,22.0,-247642.0,24334.7,pp-riro,4,0,-1,-1
1570538403.0,2019-10-08,14:40:03.000,15.0,10.0,16.7999992370605,14.3,20.3,10.7,21.1,-33.6,48.7,14.2645,18.1222,10.4731,-8.24264,12.0475,4.27255,23.4155,-19.6232,46.0655,0.1698329999999999,0.317035,1.13615,254.7,4.4,52.1701,4.427230000000001,2.9,-1.629,173.987,4.43123,73.1645,33.0617,226.46400000000003,1.23009,-0.143263,240.275,2.88723,2.96748,-33.8624267578125,22.003026962280305,-23.0139999389648,22.0,-244086.0,22796.5,pp-riro,4,0,-1,-1
1570538403.1,2019-10-08,14:40:03.100,15.0,10.0,17.1100006103516,12.9,21.6,11.0,19.4,-34.0,56.1,13.744000000000002,18.7903,10.7121,-11.3678,10.2402,2.30546,22.4938,-20.1611,49.4744,-0.0512761,0.264214,1.11075,254.7,4.4,52.1701,4.427230000000001,2.9,-1.29489,178.648,4.43131,75.2966,34.9618,225.364,1.21785,-0.153616,240.168,3.0076400000000003,3.04645,-32.7649841308594,22.003026962280305,-22.611928939819304,22.0,-242036.0,19320.1,pp-riro,4,0,-1,-1
1570538403.2,2019-10-08,14:40:03.200,15.0,10.0,17.4200000762939,11.5,22.6,11.3,17.6,-34.5,63.2,11.2972,21.0174,11.2438,-11.6552,13.1478,1.5523,18.5925,-22.0505,62.9713,0.112479,0.193555,1.00578,254.7,4.4,52.1701,4.427230000000001,2.9,-1.08711,180.478,4.43138,77.4579,36.1019,224.264,1.20672,-0.155138,239.995,3.11479,3.10998,-30.9045867919922,22.0035419464111,-21.9109134674072,22.0,-241127.0,16889.7,pp-riro,4,0,-1,-1
1570538403.3,2019-10-08,14:40:03.300,15.0,10.0,17.6200008392334,10.0,23.4,11.5,15.4,-34.5,70.1,11.2972,21.0174,11.2438,-11.6552,13.1478,1.5523,18.5925,-22.0505,62.9713,0.112479,0.193555,1.00578,254.4,4.9,52.1701,4.427230000000001,2.9,-0.7214149999999999,181.485,4.43142,79.6776,36.8619,223.164,1.196,-0.152346,239.811,3.21433,3.16847,-29.0203094482422,22.003026962280305,-21.1864223480225,22.0,-239821.0,11690.5,pp-riro,4,0,-1,-1
1570538403.4,2019-10-08,14:40:03.400,15.0,10.0,17.8199996948242,8.4,23.9,11.4,12.9,-34.2,77.2,9.96626,21.8508,11.4601,-11.688,7.257680000000001,0.77833,16.5549,-22.7641,69.8574,0.276122,0.140217,1.10404,254.4,4.9,52.1701,4.427230000000001,2.9,-0.326909,173.26,4.43146,82.0726,38.382,221.96400000000003,1.18325,-0.156517,239.74400000000003,3.32246,3.23233,-26.9329223632812,22.003026962280305,-20.6688175201416,22.0,-239183.0,4953.08,pp-riro,4,0,-1,-1
1570538403.5,2019-10-08,14:40:03.500,15.0,9.0,17.8700008392334,6.9,24.2,11.1,10.8,-34.0,83.8,7.136360000000001,22.7636,11.1586,-15.5302,4.92696,-3.27383,12.4466,-23.9912,82.5742,0.180864,0.0734366,0.8494719999999999,254.4,4.9,52.1701,4.427230000000001,2.9,0.0,160.211,4.43151,84.5259,39.1421,220.864,1.1716799999999998,-0.152792,239.703,3.41616,3.28419,-25.0708312988281,22.003026962280305,-20.1305694580078,22.0,-239095.0,-399.9380000000001,pp-riro,4,0,-1,-1
1570538403.6,2019-10-08,14:40:03.600,15.0,7.0,17.8099994659424,5.4,24.4,10.9,8.9,-33.5,90.0,7.136360000000001,22.7636,11.1586,-15.5302,4.92696,-3.27383,12.4466,-23.9912,82.5742,0.180864,0.0734366,0.8494719999999999,254.4,4.9,52.1701,4.427230000000001,2.9,0.279258,153.654,4.43155,87.0085,39.5221,219.764,1.16061,-0.145527,239.643,3.50155,3.33255,-23.445983886718803,22.0035419464111,-19.5574359893799,22.0,-239333.0,-3014.92,pp-riro,4,0,-1,-1
1570538403.7,2019-10-08,14:40:03.700,15.0,8.0,17.8199996948242,4.0,24.4,10.8,7.1,-33.1,95.7,5.08179,23.117,10.7541,-13.2206,0.461568,-3.37784,10.0211,-23.9034,91.4141,-0.0235996,0.0534528,0.915981,254.4,4.9,52.1701,4.427230000000001,2.9,0.235485,162.996,4.43159,89.4327,40.2822,218.664,1.14913,-0.142403,239.656,3.5826800000000003,3.38007,-22.7257232666016,22.003026962280305,-19.1575031280518,22.0,-239160.0,492.232,pp-riro,4,0,-1,-1
1570538403.8,2019-10-08,14:40:03.800,15.0,8.0,17.8099994659424,3.4,24.3,10.8,6.1,-32.5,98.4,4.4447,23.1423,10.6905,-13.1783,-4.84747,2.04067,9.21139,-23.6573,94.2798,0.205486,0.323915,0.889524,254.4,4.9,52.1701,4.427230000000001,3.1,0.323584,180.707,4.43163,90.6594,40.2822,218.164,1.14402,-0.137367,239.661,3.61974,3.3965,-21.4422302246094,22.003026962280305,-18.9813899993896,22.0,-239267.0,-769.112,pp-riro,4,0,-1,-1
1570538403.9,2019-10-08,14:40:03.900,15.0,9.0,17.8600006103516,2.1,24.2,10.9,4.3,-31.5,103.7,2.6516900000000003,23.0131,10.6386,-14.5896,0.668024,3.24888,6.29294,-22.7973,102.311,-0.0259562,0.315609,0.720275,254.4,4.9,52.1701,4.427230000000001,3.1,0.339652,185.805,4.43167,93.1128,40.6622,217.064,1.13301,-0.131023,239.667,3.69515,3.43737,-20.1621398925781,22.003026962280305,-18.6301727294922,22.0,-239214.0,1015.23,pp-riro,4,0,-1,-1
1570538404.0,2019-10-08,14:40:04.000,15.0,9.0,17.8600006103516,1.0,24.1,10.8,2.2,-30.4,108.6,1.55192,23.102,10.5164,-7.358630000000001,1.23538,-1.48824,4.26391,-22.0283,107.37,0.010428,0.220973,0.796383,254.4,4.9,52.1701,4.427230000000001,3.1,0.301421,185.049,4.431719999999999,95.537,41.0423,216.064,1.12226,-0.125084,239.782,3.76611,3.4727900000000003,-19.4470062255859,22.003026962280305,-18.4035987854004,22.0,-239138.0,276.88,pp-riro,4,0,-1,-1
1570538404.1,2019-10-08,14:40:04.100,15.0,10.0,17.909999847412102,-0.7,24.0,10.6,-0.8,-28.5,115.5,-0.133596,23.0583,10.2442,-8.285160000000001,1.08631,-0.198118,1.03702,-20.6645,114.228,-0.1416859999999999,0.237388,0.743728,254.4,4.9,52.1701,4.427230000000001,3.1,0.3346659999999999,188.353,4.43176,99.1879,41.0424,214.364,1.10654,-0.111702,239.739,3.86474,3.52523,-18.864990234375,22.003026962280305,-17.9747524261475,22.0,-239133.0,399.9380000000001,pp-riro,4,0,-1,-1
1570538404.2,2019-10-08,14:40:04.200,15.0,10.0,18.0100002288818,-1.9,23.9,10.5,-3.0,-27.0,119.5,-0.724843,23.0087,10.1825,-12.9988,-2.68034,-3.55648,-0.0487246,-20.1106,116.197,-0.0348116999999999,0.1895869999999999,0.8011729999999999,254.4,4.9,52.1701,4.427230000000001,3.1,0.324692,195.833,4.4318,101.583,41.0424,213.364,1.09641,-0.1033859999999999,239.849,3.9245,3.56342,-18.4417114257812,22.003026962280305,-17.646297454834002,22.0,-239064.0,430.703,pp-riro,4,0,-1,-1
1570538404.3,2019-10-08,14:40:04.300,15.0,10.0,18.1000003814697,-2.4,23.7,10.4,-5.0,-25.7,123.2,-1.28733,22.9284,10.0986,-10.6842,-3.61188,0.6246649999999999,-1.2673299999999998,-19.424,118.235,-0.145035,0.281494,0.590487,253.7,4.7,52.1701,4.427230000000001,3.1,0.3623699999999999,210.212,4.43184,103.978,40.6624,212.264,1.08658,-0.0922334,239.835,3.97687,3.5730699999999995,-18.0867004394531,22.0035419464111,-17.8186473846436,22.0,-239028.0,646.054,pp-riro,4,0,-1,-1
1570538404.4,2019-10-08,14:40:04.400,15.0,11.0,18.2000007629395,-4.2,23.4,10.3,-6.9,-24.2,126.7,-2.42377,22.7482,9.9994,-17.462,-2.16048,4.4627,-3.35872,-18.2895,121.938,-0.341601,0.193052,0.486192,253.7,4.7,52.1701,4.427230000000001,3.1,0.373452,222.917,4.4318800000000005,106.314,40.2825,211.164,1.0769,-0.0816716,239.824,4.02873,3.63283,-17.8136215209961,22.0035419464111,-17.0185527801514,22.0,-238988.0,153.822,pp-riro,4,0,-1,-1
1570538404.5,2019-10-08,14:40:04.500,15.0,11.0,18.3899993896484,-5.4,23.3,10.2,-9.0,-22.5,130.1,-3.5261400000000003,22.5445,9.81666,-12.6272,-3.07167,-1.91762,-5.7574,-17.2296,125.505,-0.102386,0.126547,0.38013,253.7,4.7,52.1701,4.427230000000001,3.1,0.390628,229.506,4.43191,108.651,39.9025,210.064,1.06718,-0.0714852,239.842,4.08151,3.66989,-17.8050842285156,22.004056930542003,-16.7110290527344,22.0,-238984.0,92.2935,pp-riro,4,0,-1,-1
1570538404.6,2019-10-08,14:40:04.600,15.0,11.0,18.5799999237061,-6.7,22.9,10.2,-10.9,-21.0,133.4,-3.5261400000000003,22.5445,9.81666,-12.6272,-3.07167,-1.91762,-5.7574,-17.2296,125.505,-0.102386,0.126547,0.38013,253.7,4.7,52.1701,4.427230000000001,3.1,0.414454,241.49,4.43197,110.988,39.5225,208.96400000000003,1.05742,-0.0616749,239.888,4.132219999999999,3.71136,-17.584915161132802,22.004056930542003,-16.3550128936768,22.0,-238920.0,799.877,pp-riro,4,0,-1,-1
1570538404.7,2019-10-08,14:40:04.700,15.0,12.0,18.7199993133545,-7.8,22.6,10.1,-12.9,-19.3,136.2,-5.91341,22.1194,9.66743,-10.0066,-4.8038,-1.0417,-10.5374,-14.4272,132.047,-0.153019,0.148586,0.524519,253.7,4.7,52.1701,4.427230000000001,3.1,0.430522,256.375,4.43198,113.237,38.7625,207.764,1.04816,-0.0494075,239.772,4.17565,3.74388,-17.0250854492188,22.004571914672898,-16.1107616424561,22.0,-238873.0,307.645,pp-riro,4,0,-1,-1
1570538404.8,2019-10-08,14:40:04.800,15.0,12.0,18.9599990844727,-9.1,22.2,10.1,-14.3,-18.1,139.0,-7.70403,21.5254,9.60766,-15.5976,-4.5545,2.38472,-14.1215,-13.0079,136.56799999999998,-0.347665,-0.0771338,0.367863,253.7,4.7,52.1701,4.427230000000001,3.4,0.487592,284.571,4.43202,115.456,37.6225,206.664,1.03956,-0.0346415,239.699,4.21345,3.78101,-16.398704528808597,22.004571914672898,-15.6958532333374,22.0,-238800.0,984.464,pp-riro,4,0,-1,-1
1570538404.9,2019-10-08,14:40:04.900,15.0,12.0,19.0499992370605,-10.3,21.8,10.0,-16.0,-16.8,141.5,-8.43572,21.3672,9.57279,-16.5955,-0.1879549999999999,-3.4485900000000003,-15.3797,-12.5208,137.96200000000002,-0.46706,0.180045,0.578825,253.7,4.7,52.1701,4.427230000000001,3.4,0.496458,291.178,4.43206,116.566,37.2426,205.564,1.03384,-0.0289152,239.23,4.25575,3.82333,-15.9805450439453,22.004571914672898,-15.1790046691895,22.0,-238751.0,922.935,pp-riro,4,0,-1,-1
1570538405.0,2019-10-08,14:40:05.000,15.0,12.0,19.3199996948242,-11.4,21.2,9.9,-17.5,-16.3,144.6,-9.04747,21.2023,9.47544,-9.10406,-3.7786,-3.3389300000000004,-16.6564,-11.802,139.283,-0.331422,-0.0274687999999999,0.396467,253.7,4.7,52.1701,4.427230000000001,3.4,0.521946,301.17,4.4320900000000005,119.779,35.7226,204.364,1.02188,-0.00954372,239.557,4.28831,3.85264,-15.6118774414062,22.004571914672898,-15.1639633178711,22.0,-238666.0,984.464,pp-riro,4,0,-1,-1
1570538405.1,2019-10-08,14:40:05.100,15.0,11.0,19.6000003814697,-12.0,20.9,9.7,-17.9,-15.7,146.0,-10.1318,20.5619,9.46383,-8.08452,-8.19655,-4.845219999999999,-18.3337,-10.9346,142.287,-0.129962,-0.154129,0.777699,253.7,4.7,52.1701,4.427230000000001,3.4,0.5346890000000001,316.341,4.43213,120.83,35.3426,203.764,1.01736,-0.0043005,239.518,4.30924,3.87489,-15.2363891601562,22.004056930542003,-14.9978771209717,22.0,-238534.0,1169.05,pp-riro,4,0,-1,-1
1570538405.2,2019-10-08,14:40:05.200,15.0,9.0,19.9500007629395,-13.0,19.4,9.3,-18.9,-14.4,148.1,-11.3623,20.0357,9.23162,-10.4503,-3.67709,-5.002,-20.2011,-10.3584,144.887,-0.128289,0.0794891,0.608162,253.7,4.7,52.1701,4.427230000000001,3.4,0.5768,333.126,4.432169999999999,122.904,33.8226,202.564,1.00911,0.0116755,239.335,4.33745,3.92183,-15.1681137084961,22.004571914672898,35.0,22.0,-238487.0,399.9380000000001,pp-riro,4,0,-1,-1
1570538405.3,2019-10-08,14:40:05.300,15.0,10.0,20.340000152587898,-14.0,18.8,9.1,-19.4,-13.9,150.5,-12.8787,18.4009,8.809339999999999,-11.6313,-8.02088,-2.5039,-21.7406,-9.09206,148.474,-0.212747,-0.0341394,0.460495,264.1,4.4,52.1701,4.427230000000001,3.4,0.957454,333.599,4.4322,125.766,31.9226,201.46400000000003,0.998608,0.0316175999999999,239.633,4.35957,3.95072,-15.0452270507812,22.0050868988037,35.0,22.0,-240369.0,-23442.5,pp-riro,4,0,-1,-1
1570538405.4,2019-10-08,14:40:05.400,15.0,9.0,20.6900005340576,-14.5,18.2,8.5,-20.2,-12.9,152.4,-13.3792,17.8873,8.63906,-7.161860000000001,-11.583,-3.61004,-22.1121,-8.72738,149.619,-0.315175,0.108397,0.517174,264.1,4.4,52.1701,4.427230000000001,3.4,1.31816,295.617,4.432259999999999,126.643,31.5426,200.46400000000003,0.993684,0.0360613,239.205,4.39226,3.9832,-14.5809860229492,22.004571914672898,35.0,22.0,-240888.0,22027.4,pp-riro,4,0,-1,-1
1570538405.5,2019-10-08,14:40:05.500,15.0,9.0,20.8099994659424,-14.6,17.5,7.6,-20.3,-11.3,154.5,-13.7249,16.8676,7.5623,-0.506497,-6.02803,-12.8555,-22.9306,-7.46625,152.673,-0.166263,0.0356259,0.330802,264.1,4.4,52.1701,4.427230000000001,3.4,1.16191,270.31,4.43232,128.483,29.6426,199.46400000000003,0.986684,0.0533263,239.107,4.42282,4.00022,-13.7600250244141,22.004571914672898,35.0,22.0,-239496.0,26180.6,pp-riro,4,0,-1,-1
1570538405.6,2019-10-08,14:40:05.600,15.0,7.0,20.770000457763697,-14.7,16.6,7.4,-20.2,-10.6,156.4,-13.8035,16.5195,7.224880000000001,-2.21984,-5.2988800000000005,-4.71347,-23.0182,-7.013139999999999,153.832,0.0930008,-0.0854265,0.4732119999999999,264.1,4.4,52.1701,4.427230000000001,3.4,0.964657,261.76,4.43238,130.235,28.5026,198.564,0.979517,0.0645526,239.168,4.4472,4.01585,-12.5806427001953,22.004056930542003,35.0,22.0,-238955.0,-4368.56,pp-riro,4,0,-1,-1
1570538405.7,2019-10-08,14:40:05.700,15.0,9.0,20.6800003051758,-15.3,15.8,7.4,-20.4,-9.4,158.1,-13.9955,15.5724,7.1303,-6.7151,-5.1882,-1.73965,-23.1145,-6.54387,156.05100000000002,-0.0579932,-0.0287687,0.393962,264.1,4.4,52.1701,4.427230000000001,3.4,1.14695,290.871,4.43244,131.812,26.6026,197.764,0.973651,0.0808034,239.15,4.4695,4.03877,-11.0479583740234,22.004056930542003,35.0,22.0,-239497.0,646.054,pp-riro,4,0,-1,-1
1570538405.8,2019-10-08,14:40:05.800,15.0,9.0,20.6000003814697,-15.1,15.0,6.9,-20.4,-8.5,159.9,-14.3854,14.4048,6.78701,0.8401639999999999,-6.196969999999999,-5.28378,-22.7429,-5.34091,159.09,-0.0605748,-0.154187,0.206865,264.1,4.4,52.1701,4.427230000000001,3.6,1.06218,275.067,4.4325,133.33100000000002,25.0826,196.96400000000003,0.967622,0.0939702,239.167,4.49302,4.04936,-9.15685272216797,22.004056930542003,35.0,22.0,-238607.0,430.703,pp-riro,4,0,-1,-1
1570538405.9,2019-10-08,14:40:05.900,15.0,10.0,20.6000003814697,-15.4,14.7,6.6,-20.1,-7.4,160.8,-14.3854,14.4048,6.78701,0.8401639999999999,-6.196969999999999,-5.28378,-22.7429,-5.34091,159.09,-0.0605748,-0.154187,0.206865,264.1,4.4,52.1701,4.427230000000001,3.6,1.09099,280.825,4.43256,134.762,23.9426,196.264,0.961822,0.103997,239.277,4.50827,4.063969999999999,-7.048980712890621,22.004571914672898,35.0,22.0,-238394.0,3537.92,pp-riro,4,0,-1,-1
1570538406.0,2019-10-08,14:40:06.000,15.0,7.0,20.5100002288818,-15.7,14.3,6.9,-20.5,-6.6,161.6,-14.6195,13.9824,6.43561,-7.962510000000001,-4.73499,-5.10706,-22.9188,-5.56102,160.591,0.000328151,0.000496107,0.204431,264.1,4.4,52.1701,4.427230000000001,3.6,1.08212,285.407,4.43262,136.252,22.0425,195.46400000000003,0.955965,0.119379,239.283,4.5149300000000006,4.06435,-4.93940734863281,22.004571914672898,35.0,22.0,-238224.0,3445.62,pp-riro,4,0,-1,-1
1570538406.1,2019-10-08,14:40:06.100,15.0,9.0,20.340000152587898,-15.7,14.3,7.3,-21.6,-6.8,163.4,-15.0294,13.5787,6.758439999999999,4.17335,-1.7836900000000002,6.0203,-23.545,-4.711790000000001,162.342,-0.294348,-0.239696,0.159545,264.1,4.4,52.1701,4.427230000000001,3.6,1.09985,278.861,4.43268,137.566,20.5225,194.663,0.950399,0.131646,239.248,4.52845,4.046130000000001,-2.84349060058594,22.004056930542003,35.0,22.0,-237825.0,5014.61,pp-riro,4,0,-1,-1
1570538406.2,2019-10-08,14:40:06.200,15.0,10.0,20.1200008392334,-15.3,14.6,7.5,-22.2,-6.5,164.3,-15.0564,13.5853,6.94568,0.0343936999999999,4.48909,1.6956099999999998,-23.8582,-5.113230000000001,163.33700000000002,-0.241477,-0.162465,0.316086,264.1,4.4,52.1701,4.427230000000001,3.6,1.07104,272.096,4.43274,138.968,19.0025,193.863,0.944468,0.143749,239.283,4.53425,4.01231,-0.7424468994140621,22.0035419464111,35.0,22.0,-237565.0,5168.43,pp-riro,4,0,-1,-1
1570538406.3,2019-10-08,14:40:06.300,15.0,9.0,19.8500003814697,-15.2,14.7,8.0,-23.4,-6.5,164.2,-14.8848,14.2075,7.30059,-3.17751,2.95831,2.7667900000000003,-25.1687,-5.325019999999999,164.822,-0.175668,-0.0825726,0.0943464,274.4,4.6,52.1701,4.427230000000001,3.6,1.06273,265.612,4.43288,140.458,17.4825,192.963,0.937929,0.155678,239.30900000000003,4.52305,3.98712,1.37273406982422,22.004056930542003,35.0,22.0,-237165.0,3137.98,pp-riro,4,0,-1,-1
1570538406.4,2019-10-08,14:40:06.400,15.0,9.0,19.5300006866455,-15.1,15.0,8.6,-24.6,-6.6,164.0,-14.9507,14.3366,7.51852,-4.57476,4.530480000000001,2.3541,-25.7794,-5.74126,165.162,-0.197901,-0.134501,-0.000173214,274.4,4.6,52.1701,4.427230000000001,3.6,1.05719,268.209,4.43305,141.86,15.5825,192.063,0.931757,0.17002,239.281,4.507630000000001,3.95393,3.47270965576172,22.004056930542003,35.0,22.0,-236932.0,1661.28,pp-riro,4,0,-1,-1
1570538406.5,2019-10-08,14:40:06.500,15.0,9.0,19.3500003814697,-14.8,15.2,9.2,-25.8,-8.0,163.5,-14.9507,14.3366,7.51852,-4.57476,4.530480000000001,2.3541,-25.7794,-5.74126,165.162,-0.197901,-0.134501,-0.000173214,274.4,4.6,52.1701,4.427230000000001,3.6,1.06605,269.338,4.43321,143.291,14.4425,191.163,0.925141,0.178726,239.342,4.479080000000001,3.92149,5.58631134033203,22.0035419464111,35.0,22.0,-236851.0,1445.93,pp-riro,4,0,-1,-1
1570538406.6,2019-10-08,14:40:06.600,15.0,10.0,19.1299991607666,-14.5,15.5,9.8,-26.9,-9.6,162.3,-14.9382,15.2452,9.13236,1.80359,1.02921,7.50719,-28.8587,-9.07851,164.43,-0.191351,-0.4234479999999999,-0.2619599999999999,274.4,4.6,52.1701,4.427230000000001,3.6,1.07326,270.846,4.4333800000000005,144.722,12.9225,190.163,0.918351,0.1899559999999999,239.319,4.43679,3.88547,7.69649505615234,22.0035419464111,35.0,22.0,-236571.0,3261.04,pp-riro,4,0,-1,-1
1570538406.7,2019-10-08,14:40:06.700,15.0,10.0,19.0799999237061,-13.9,15.9,10.6,-28.2,-11.3,160.2,-14.9382,15.2452,9.13236,1.80359,1.02921,7.50719,-28.8587,-9.07851,164.43,-0.191351,-0.4234479999999999,-0.2619599999999999,274.4,4.6,52.1701,4.427230000000001,3.6,1.06328,270.245,4.43354,146.183,11.4025,189.063,0.911147,0.201002,239.258,4.38129,3.83484,9.80158233642578,22.0035419464111,35.0,22.0,-236296.0,2245.81,pp-riro,4,0,-1,-1
1570538406.8,2019-10-08,14:40:06.800,15.0,10.0,18.9899997711182,-13.1,16.5,11.5,-29.2,-13.6,157.6,-14.2729,16.4373,10.9415,7.97737,6.60837,7.74011,-31.3254,-13.7532,160.93200000000002,-0.197867,-0.299381,-0.582076,274.4,4.6,52.1701,4.427219999999999,3.7,1.06772,266.272,4.43371,147.76,10.2625,187.963,0.903413,0.209338,239.308,4.315169999999999,3.77548,11.9066619873047,22.0035419464111,35.0,22.0,-235900.0,3722.5,pp-riro,4,0,-1,-1
1570538406.9,2019-10-08,14:40:06.900,15.0,10.0,19.0300006866455,-12.2,16.9,12.3,-29.6,-16.2,154.6,-14.2729,16.4373,10.9415,7.97737,6.60837,7.74011,-31.3254,-13.7532,160.93200000000002,-0.197867,-0.299381,-0.582076,274.4,4.6,52.1701,4.427219999999999,3.7,1.05276,266.813,4.43387,149.33700000000002,9.12251,186.763,0.895387,0.217503,239.302,4.2411,3.71898,14.011749267578098,22.0035419464111,35.0,22.0,-235601.0,2122.75,pp-riro,4,0,-1,-1
1570538407.0,2019-10-08,14:40:07.000,15.0,9.0,19.0699996948242,-11.1,17.5,13.2,-29.7,-19.4,151.1,-13.5069,17.0466,11.9352,7.805560000000001,6.16485,8.68055,-32.006,-17.1586,158.577,0.0160967999999999,-0.476916,-0.5807939999999999,274.4,4.6,52.1701,4.427219999999999,3.7,1.06938,268.284,4.43404,150.94299999999998,7.60251,185.463,0.887033,0.2280239999999999,239.245,4.15313,3.65036,16.1253509521484,22.0035419464111,35.0,22.0,-235425.0,2184.28,pp-riro,4,0,-1,-1
1570538407.1,2019-10-08,14:40:07.100,15.0,10.0,19.1200008392334,-9.7,18.1,14.1,-29.4,-22.7,146.7,-11.3985,18.5588,14.1035,8.00543,6.07519,8.17867,-32.5125,-24.9437,152.20600000000002,-0.337239,-0.144664,-0.8920020000000001,274.4,4.6,52.1701,4.427219999999999,3.7,1.06328,268.147,4.43421,152.608,6.46253,184.163,0.878384,0.235861,239.264,4.05537,3.5748800000000003,18.2338409423828,22.003026962280305,35.0,22.0,-235092.0,3476.39,pp-riro,4,0,-1,-1
1570538407.2,2019-10-08,14:40:07.200,15.0,10.0,19.0300006866455,-8.2,18.7,15.1,-28.5,-26.0,141.6,-10.7739,18.976,14.66,12.4574,8.0266,11.4703,-32.3478,-26.8565,150.054,-0.4828399999999999,-0.251065,-1.00712,274.4,4.6,52.1701,4.427219999999999,3.7,1.0655,271.874,4.43437,154.39,5.70256,182.863,0.869289,0.2410969999999999,239.39,3.95195,3.4990300000000003,20.3491439819336,22.0035419464111,35.0,22.0,-234903.0,1322.87,pp-riro,4,0,-1,-1
1570538407.3,2019-10-08,14:40:07.300,15.0,11.0,18.979999542236303,-6.5,19.2,16.1,-26.6,-29.8,135.9,-10.0362,19.446,15.4,19.829,12.5129,12.6961,-32.1344,-28.9779,147.859,-0.335339,-0.250459,-0.767255,257.8,4.2,52.1701,4.427219999999999,3.7,1.07547,275.413,4.43444,156.172,4.5625800000000005,181.363,0.859683,0.248738,239.38,3.8368,3.41775,22.459342956543,22.0035419464111,35.0,22.0,-234808.0,1815.1,pp-riro,4,0,-1,-1
1570538407.4,2019-10-08,14:40:07.400,15.0,10.0,18.979999542236303,-4.6,19.7,16.9,-24.0,-33.5,129.1,-10.0362,19.446,15.4,19.829,12.5129,12.6961,-32.1344,-28.9779,147.859,-0.335339,-0.250459,-0.767255,257.8,4.2,52.1701,4.427219999999999,3.7,1.08711,284.545,4.43447,158.041,4.1826300000000005,179.863,0.849716,0.251461,239.468,3.71542,3.33706,24.5644226074219,22.004056930542003,35.0,22.0,-234442.0,2491.92,pp-riro,4,0,-1,-1
1570538407.5,2019-10-08,14:40:07.500,15.0,11.0,19.020000457763697,-2.2,20.0,17.8,-20.3,-36.5,121.7,-5.05401,21.3903,18.2739,29.353,3.65969,14.8157,-27.7299,-39.745,133.058,-0.267439,-0.00851038,-0.988855,257.8,4.2,52.1701,4.427219999999999,3.7,1.09265,287.108,4.43449,159.939,3.802680000000001,178.263,0.839385,0.2541239999999999,239.526,3.5955800000000004,3.24132,26.6729125976562,22.004056930542003,35.0,22.0,-234340.0,1968.93,pp-riro,4,0,-1,-1
1570538407.6,2019-10-08,14:40:07.600,15.0,11.0,19.020000457763697,0.1,19.8,18.4,-15.6,-39.5,112.7,-2.49105,21.682,19.3192,22.983,-1.1976,10.088,-23.6957,-44.1329,125.003,-0.442734,-0.119153,-1.17452,257.8,4.2,52.1701,4.427219999999999,3.7,1.1031799999999998,287.589,4.43452,161.86700000000002,3.80274,176.66299999999998,0.82894,0.254382,239.636,3.46144,3.1551,28.7848052978516,22.004056930542003,35.0,22.0,-233912.0,3599.45,pp-riro,4,0,-1,-1
1570538407.7,2019-10-08,14:40:07.700,15.0,11.0,19.020000457763697,2.6,19.7,18.7,-9.9,-41.9,102.4,0.3339789999999999,21.859,20.0155,28.2464,0.512129,9.57744,-19.1162,-48.1593,115.271,-0.620947,-0.114897,-1.28206,257.8,4.2,52.1701,4.427219999999999,3.7,1.09431,284.982,4.43454,163.736,3.8028,174.963,0.818399,0.254625,239.658,3.3191900000000003,3.06301,30.7025451660156,22.0035419464111,35.0,22.0,-233716.0,3660.97,pp-riro,4,0,-1,-1
1570538407.8,2019-10-08,14:40:07.800,15.0,11.0,18.9300003051758,5.2,19.2,18.7,-3.1,-43.4,91.0,3.3644800000000004,21.8632,20.3822,30.4501,-3.81195,-0.10097,-12.2134,-51.4991,103.975,-0.4101729999999999,-0.0254599,-1.64742,257.8,4.2,52.1701,4.427219999999999,3.5,1.09154,283.056,4.43457,165.66400000000002,4.18288,173.363,0.807945,0.252578,239.826,3.17261,2.96807,32.267730712890604,22.004056930542003,23.018762588501,22.0,-233312.0,2830.33,pp-riro,4,0,-1,-1
1570538407.9,2019-10-08,14:40:07.900,15.0,12.0,18.8299999237061,7.8,18.2,18.8,4.5,-43.7,79.2,4.79936,21.6104,20.5521,31.3478,-3.23333,10.1184,-8.06752,-52.5712,97.3401,-0.1817099999999999,-0.079704,-1.40117,257.8,4.2,52.1701,4.427219999999999,3.5,1.09043,286.483,4.43459,167.533,4.56295,171.66299999999998,0.797388,0.250567,239.909,3.02524,2.87082,33.480377197265604,22.004056930542003,23.018762588501,22.0,-233052.0,2307.34,pp-ro,1,1,-1,-1
1570538408.0,2019-10-08,14:40:08.000,15.0,12.0,18.6900005340576,10.3,17.4,18.2,11.7,-42.8,67.4,4.79936,21.6104,20.5521,31.3478,-3.23333,10.1184,-8.06752,-52.5712,97.3401,-0.1817099999999999,-0.079704,-1.40117,257.8,4.2,52.1701,4.427219999999999,3.5,1.10096,286.26,4.43462,169.285,5.7030400000000006,169.963,0.787112,0.244108,239.953,2.8796,2.77665,34.331939697265604,22.004056930542003,23.018762588501,22.0,-232819.0,2799.57,pp-ro,1,1,-1,-1
1570538408.1,2019-10-08,14:40:08.100,15.0,13.0,18.6399993896484,12.5,16.3,17.8,18.8,-40.9,56.4,10.6858,20.1849,20.1976,27.0822,-16.2636,0.301201,10.4061,-53.9248,68.6479,-0.6781520000000001,0.1603619999999999,-1.53633,257.8,4.2,52.1701,4.427219999999999,3.5,1.09985,286.31,4.43464,170.95,6.46311,168.363,0.777416,0.239959,240.024,2.7364,2.68934,34.830963134765604,22.004056930542003,23.018762588501,22.0,-232623.0,3537.92,pp-ro,1,1,-1,-1
1570538408.2,2019-10-08,14:40:08.200,15.0,14.0,18.6299991607666,14.6,15.0,17.1,25.8,-38.1,45.0,10.6858,20.1849,20.1976,27.0822,-16.2636,0.301201,10.4061,-53.9248,68.6479,-0.6781520000000001,0.1603619999999999,-1.53633,257.8,4.2,52.1701,4.427219999999999,3.5,1.09376,291.085,4.43467,172.58599999999998,7.983210000000001,166.763,0.7677069999999999,0.2314989999999999,240.124,2.58279,2.60167,34.968917846679695,22.004571914672898,23.0211448669434,22.0,-232357.0,2122.75,pp-ro,1,1,-1,-1
1570538408.3,2019-10-08,14:40:08.300,15.0,13.0,18.6299991607666,16.4,13.5,15.9,31.0,-34.5,35.6,17.2319,16.7843,18.2628,25.475,-10.5455,-9.93279,31.2956,-47.688,35.7162,-0.265237,-0.409974,-1.38245,254.2,4.2,52.1701,4.427219999999999,3.5,1.11703,298.943,4.43466,174.017,9.50329,165.263,0.7588590000000001,0.223176,240.175,2.44316,2.51111,34.7883911132812,22.004571914672898,22.736234664917003,22.0,-232217.0,1661.28,pp-ro,1,1,-1,-1
1570538408.4,2019-10-08,14:40:08.400,15.0,13.0,18.6299991607666,18.3,12.2,14.7,35.2,-30.2,27.1,18.3778,16.0724,17.5864,24.9602,-13.2311,-8.06875,34.1827,-45.4998,30.4511,-0.18206,-0.1690569999999999,-1.40149,254.2,4.2,52.1701,4.427219999999999,3.5,1.1198,295.661,4.43464,175.36,11.0234,163.863,0.750534,0.214975,240.258,2.30356,2.41877,34.3728179931641,22.004571914672898,21.171344757080103,22.0,-231866.0,4276.26,pp-ro,1,1,-1,-1
1570538408.5,2019-10-08,14:40:08.500,15.0,12.0,18.6800003051758,19.7,10.7,13.5,38.9,-25.8,19.8,21.3642,13.5084,15.4058,14.1206,-16.6837,-14.417,39.7799,-37.6356,17.5776,-0.28738,0.205648,-1.28315,254.2,4.2,52.1701,4.427219999999999,3.5,1.10152,295.086,4.43462,176.645,12.9235,162.463,0.74227,0.204743,240.343,2.17522,2.33639,33.5076293945312,22.004571914672898,19.7981777191162,22.0,-231484.0,3045.68,pp-ro,1,1,-1,-1
1570538408.6,2019-10-08,14:40:08.600,15.0,11.0,18.7199993133545,20.7,9.1,12.0,41.5,-21.3,13.2,21.3642,13.5084,15.4058,14.1206,-16.6837,-14.417,39.7799,-37.6356,17.5776,-0.28738,0.205648,-1.28315,254.2,4.2,52.1701,4.427219999999999,3.5,1.12922,307.498,4.43459,177.667,14.4435,161.263,0.735396,0.196677,240.375,2.05012,2.25143,31.9237060546875,22.004056930542003,18.338466644287102,22.0,-231386.0,769.112,pp-ro,1,1,-1,-1
1570538408.7,2019-10-08,14:40:08.700,15.0,12.0,18.7600002288818,21.3,7.6,10.3,42.9,-16.8,7.7,21.3642,13.5084,15.4058,14.1206,-16.6837,-14.417,39.7799,-37.6356,17.5776,-0.28738,0.205648,-1.28315,254.2,4.2,52.1701,4.427219999999999,3.5,1.12534,296.761,4.43457,178.66,16.7236,160.16299999999998,0.728691,0.184481,240.523,1.93877,2.1714900000000004,30.2580261230469,22.004056930542003,16.957311630249,22.0,-230833.0,4614.67,pp-ro,1,1,-1,-1
1570538408.8,2019-10-08,14:40:08.800,15.0,12.0,18.7600002288818,21.9,6.2,8.6,44.3,-12.5,3.0,24.3269,8.87352,10.9562,7.24406,-11.7925,-16.6367,44.1542,-24.1876,1.7863099999999998,0.0416972,0.144816,-1.06614,254.2,4.2,52.1701,4.427219999999999,3.0,1.0970799999999998,289.077,4.43455,179.449,18.6237,159.263,0.723214,0.174423,240.652,1.83653,2.0879,28.2517242431641,22.004056930542003,15.4725914001465,22.0,-230408.0,3691.74,pp-ro,1,1,-1,-1
1570538408.9,2019-10-08,14:40:08.900,15.0,13.0,18.7600002288818,22.2,5.0,7.2,45.9,-8.0,-1.2,24.4532,7.90596,9.9264,3.62155,-6.49115,-16.5159,44.6678,-21.6432,-0.589964,0.0840868,-0.0436875,-1.15527,254.2,4.2,52.1701,4.427219999999999,3.0,1.09653,294.198,4.4345300000000005,180.15,20.9038,158.463,0.718124,0.1623369999999999,240.834,1.73794,2.02078,26.1517486572266,22.004056930542003,14.300464630127,22.0,-230295.0,2338.1,pp-ro,1,1,-1,-1
1570538409.0,2019-10-08,14:40:09.000,15.0,10.0,18.8500003814697,22.5,3.6,6.0,46.8,-3.4,-5.7,24.4532,7.90596,9.9264,3.62155,-6.49115,-16.5159,44.6678,-21.6432,-0.589964,0.0840868,-0.0436875,-1.15527,254.2,4.2,52.1701,4.427219999999999,3.0,1.13365,311.811,4.4345,180.704,22.8038,157.763,0.713809,0.152357,240.963,1.6327,1.95009,24.0585861206055,22.004056930542003,13.0408658981323,22.0,-230228.0,369.174,pp-ro,1,1,-1,-1
1570538409.1,2019-10-08,14:40:09.100,15.0,11.0,18.9500007629395,22.3,2.6,4.5,47.8,0.7,-10.0,25.2885,3.85713,5.97186,-0.832716,-11.5418,-14.9059,45.9202,-8.179969999999999,-11.6614,-0.16781,0.173285,-1.08873,254.2,4.2,52.1701,4.427219999999999,3.0,1.15415,315.65,4.43449,181.201,25.4639,157.16299999999998,0.709638,0.138283,241.21,1.53877,1.88727,21.9466934204102,22.004056930542003,11.9279041290283,22.0,-229928.0,3599.45,pp-ro,1,1,-1,-1
1570538409.2,2019-10-08,14:40:09.200,15.0,12.0,18.9500007629395,22.5,1.7,3.2,48.3,4.8,-13.7,25.1951,3.23259,5.1033800000000005,-4.15965,-12.3046,-22.0675,46.0179,-5.369269999999999,-13.5845,0.0375863,0.203895,-0.99802,254.2,4.2,52.1701,4.427219999999999,3.0,1.13199,306.139,4.43447,181.551,27.744,156.66299999999998,0.706238,0.126275,241.4,1.45034,1.8258,20.892448425293,22.004571914672898,10.8238143920898,22.0,-229503.0,4153.21,pp-ro,1,1,-1,-1
1570538409.3,2019-10-08,14:40:09.300,15.0,12.0,18.9899997711182,22.6,0.5,2.1,49.5,8.4,-17.0,25.1951,3.23259,5.1033800000000005,-4.15965,-12.3046,-22.0675,46.0179,-5.369269999999999,-13.5845,0.0375863,0.203895,-0.99802,249.6,4.0,52.1701,4.427219999999999,3.0,1.13975,321.596,4.43451,181.843,29.644,156.16299999999998,0.703092,0.116281,241.521,1.37189,1.7607,18.7822494506836,22.004571914672898,9.64879417419434,22.0,-229084.0,1845.87,pp-ro,1,1,-1,-1
1570538409.4,2019-10-08,14:40:09.400,15.0,12.0,19.090000152587898,22.4,-0.5,1.1,49.9,11.7,-20.7,25.1518,2.66133,4.19677,3.22752,-11.6977,-23.6242,46.1559,-2.79956,-15.6032,0.0207855,-0.0202594,-1.23748,249.6,4.0,52.1701,4.427219999999999,3.0,1.1840700000000002,339.98,4.43456,181.989,32.3041,155.763,0.70025,0.1021519999999999,241.71400000000003,1.29582,1.70753,16.178146362304698,22.004571914672898,8.69932079315186,22.0,-229000.0,1261.34,pp-ro,1,1,-1,-1
1570538409.5,2019-10-08,14:40:09.500,15.0,14.0,19.3099994659424,22.0,-1.6,0.1,50.1,14.1,-23.9,24.7818,-0.562807,0.964586,-0.289758,-12.2884,-6.26241,46.9972,7.922510000000001,-24.1016,0.228266,0.13955,-0.8133279999999999,249.6,4.0,52.1701,4.427219999999999,3.0,1.19959,342.376,4.43456,181.989,34.5842,155.463,0.698204,0.0900341,241.836,1.23622,1.64852,13.7886428833008,22.004571914672898,7.60696983337402,22.0,-228860.0,2768.8,pp-ro,1,1,-1,-1
1570538409.6,2019-10-08,14:40:09.600,15.0,13.0,19.5400009155273,21.9,-2.0,-0.5,50.4,15.0,-25.2,24.7818,-0.562807,0.964586,-0.289758,-12.2884,-6.26241,46.9972,7.922510000000001,-24.1016,0.228266,0.13955,-0.8133279999999999,249.6,4.0,52.1701,4.427219999999999,3.0,1.1846299999999998,343.741,4.43459,181.872,36.8642,155.263,0.696708,0.0778202,241.956,1.21775,1.62337,12.4090957641602,22.004056930542003,7.17247772216797,22.0,-228192.0,3291.8,pp-ro,1,1,-1,-1
1570538409.7,2019-10-08,14:40:09.700,15.0,13.0,19.7199993133545,21.8,-3.0,-1.6,51.1,16.7,-27.4,24.7818,-0.562807,0.964586,-0.289758,-12.2884,-6.26241,46.9972,7.922510000000001,-24.1016,0.228266,0.13955,-0.8133279999999999,249.6,4.0,52.1701,4.427219999999999,3.0,1.21455,360.119,4.43461,181.814,37.6242,155.263,0.6964560000000001,0.0737333999999999,242.029,1.1736,1.55813,10.338073730468802,22.004571914672898,5.87951803207397,22.0,-227986.0,2430.39,pp-ro,1,1,-1,-1
1570538409.8,2019-10-08,14:40:09.800,15.0,11.0,19.9400005340576,21.6,-4.4,-2.4,52.0,18.8,-31.5,23.6298,-2.56131,-1.57999,-10.7067,-10.6069,-15.4907,47.7718,14.2082,-28.8119,0.4147699999999999,0.0692868,-0.394293,249.6,4.0,52.1701,4.42721,2.6,1.2356,372.193,4.43464,181.346,41.0443,155.263,0.6957479999999999,0.0551728,242.235,1.11238,1.50118,8.93468475341797,22.0056018829346,4.779545307159419,22.0,-227865.0,2307.34,pp-ro,1,1,-1,-1
1570538409.9,2019-10-08,14:40:09.900,15.0,12.0,20.25,21.4,-4.7,-2.8,51.9,19.5,-33.1,23.3152,-4.60205,-3.09781,-1.21075,-3.92812,-7.33242,48.5976,18.1565,-33.7138,0.29428,-0.139376,-0.4623739999999999,249.6,4.0,52.1701,4.42721,2.6,1.26829,395.354,4.43466,181.171,42.5643,155.263,0.695297,0.0469733,242.366,1.09067,1.48222,8.255126953125,22.0056018829346,4.42954969406128,22.0,-227656.0,1661.28,pp-ro,1,1,-1,-1
1570538410.0,2019-10-08,14:40:10.000,15.0,11.0,20.5100002288818,21.2,-5.6,-3.4,52.5,20.7,-35.2,22.8019,-5.815869999999999,-4.114809999999999,-6.80421,-16.276,-9.37865,49.0364,20.8936,-36.9747,0.364902,0.187278,-0.1094869999999999,249.6,4.0,52.1701,4.42721,2.6,1.31816,408.463,4.43469,180.733,44.4644,155.463,0.695882,0.0364719,242.508,1.05849,1.44158,6.911346435546879,22.0056018829346,3.59344673156738,22.0,-227400.0,3691.74,pp-ro,1,1,-1,-1
1570538410.1,2019-10-08,14:40:10.100,15.0,10.0,20.7600002288818,20.6,-6.3,-3.9,52.6,21.6,-37.3,22.8019,-5.815869999999999,-4.114809999999999,-6.80421,-16.276,-9.37865,49.0364,20.8936,-36.9747,0.364902,0.187278,-0.1094869999999999,249.6,4.0,52.1701,4.42721,2.6,1.3032,406.983,4.43471,180.149,47.1244,155.563,0.695965,0.0218250999999999,242.64,1.03286,1.40696,5.76343536376953,22.0050868988037,2.91497254371643,22.0,-226587.0,3691.74,pp-ro,1,1,-1,-1
1570538410.2,2019-10-08,14:40:10.200,15.0,10.0,21.1800003051758,20.0,-6.8,-4.5,52.7,22.4,-38.6,22.8019,-5.815869999999999,-4.114809999999999,-6.80421,-16.276,-9.37865,49.0364,20.8936,-36.9747,0.364902,0.187278,-0.1094869999999999,249.6,4.0,52.1701,4.42721,2.6,1.31262,407.794,4.434740000000001,179.56400000000002,49.4044,155.863,0.696843,0.00916193,242.852,1.01636,1.37175,4.55079650878906,22.0056018829346,2.18058681488037,22.0,-226353.0,4430.09,pp-ro,1,1,-1,-1
1570538410.3,2019-10-08,14:40:10.300,15.0,10.0,21.5599994659424,20.0,-7.4,-4.6,53.0,23.1,-39.7,21.6115,-6.804410000000001,-5.07189,-4.04282,-7.69185,-6.253340000000001,49.0525,23.2454,-40.3864,0.0918918,-0.00633287,-0.19844,248.4,3.9,52.1701,4.42721,2.6,1.30376,408.36300000000006,4.4347900000000005,178.922,50.9245,156.16299999999998,0.698343,0.00031055,242.885,1.00089,1.35867,3.6890106201171897,22.0050868988037,1.8447570800781203,22.0,-225796.0,5291.49,pp-ro,1,1,-1,-1
1570538410.4,2019-10-08,14:40:10.400,15.0,10.0,21.9599990844727,19.5,-7.5,-4.7,52.9,23.5,-40.9,21.3042,-7.35152,-5.32736,-2.35556,-1.91154,-1.01273,49.1085,23.9661,-41.3679,0.0186727999999999,-0.159781,-0.222456,248.4,3.9,52.1701,4.42721,2.6,1.30874,403.934,4.43485,178.19099999999997,53.2045,156.463,0.699455,-0.0125837,243.03,0.990675,1.35202,3.2325592041015603,22.0050868988037,1.6710536479949998,22.0,-225036.0,6491.31,pp-ro,1,1,-1,-1
1570538410.5,2019-10-08,14:40:10.500,15.0,10.0,22.2399997711182,19.0,-7.8,-5.0,52.5,24.1,-41.9,20.8593,-7.367319999999999,-5.30485,-9.76294,5.11561,-2.04368,49.1698,24.4918,-42.3613,0.101673,0.00589737,-0.257279,248.4,3.9,52.1701,4.42721,2.6,1.29434,400.422,4.434880000000001,177.082,55.8645,157.063,0.7020850000000001,-0.0280841,243.202,0.981991,1.33443,2.30945587158203,22.0050868988037,1.1866500377655,22.0,-224696.0,6337.48,pp-ro,1,1,-1,-1
1570538410.6,2019-10-08,14:40:10.600,15.0,10.0,22.3899993896484,18.7,-8.0,-5.2,52.5,24.2,-42.0,20.8593,-7.367319999999999,-5.30485,-9.76294,5.11561,-2.04368,49.1698,24.4918,-42.3613,0.101673,0.00589737,-0.257279,248.4,3.9,52.1701,4.42721,2.6,1.28547,396.273,4.43495,176.731,57.3845,157.263,0.702368,-0.0365228,243.43,0.985108,1.32165,1.82576751708984,22.0050868988037,0.936847567558289,22.0,-223928.0,5752.96,pp-ro,1,1,-1,-1
1570538410.7,2019-10-08,14:40:10.700,15.0,12.0,22.469999313354503,18.6,-8.2,-5.3,52.5,24.0,-42.2,20.0886,-7.717919999999999,-5.682259999999999,-7.880739999999999,1.09629,-4.56583,48.6111,25.2273,-43.3341,0.083366,-0.0577594,0.0115018999999999,248.4,3.9,52.1701,4.42721,2.6,1.28325,405.288,4.435,175.942,58.9046,157.66299999999998,0.7043470000000001,-0.0456808,243.481,0.991187,1.31701,1.4510726928710902,22.0056018829346,0.7347393035888671,22.0,-223714.0,4245.5,pp-ro,1,1,-1,-1
1570538410.8,2019-10-08,14:40:10.800,15.0,13.0,22.510000228881804,18.7,-8.4,-5.3,52.8,23.7,-43.1,20.1586,-8.21317,-5.77265,-1.61609,-1.92541,0.7601140000000001,48.4521,24.7703,-43.8895,0.0348705999999999,-0.0296069999999999,0.0276432,248.4,3.9,52.1701,4.42721,2.4,1.33755,430.136,4.43506,175.06599999999997,61.1846,158.063,0.7058399999999999,-0.0588928,243.671,0.993143,1.32263,0.991233825683594,22.0056018829346,0.7849313616752621,22.0,-223624.0,246.116,pp-ro,1,1,-1,-1
1570538410.9,2019-10-08,14:40:10.900,15.0,12.0,22.6299991607666,18.8,-8.7,-5.2,52.7,23.8,-44.1,20.1586,-8.21317,-5.77265,-1.61609,-1.92541,0.7601140000000001,48.4521,24.7703,-43.8895,0.0348705999999999,-0.0296069999999999,0.0276432,248.4,3.9,52.1701,4.42721,2.4,1.37468,453.96,4.43511,174.21900000000002,62.7046,158.463,0.707861,-0.0682047,243.71,0.986495,1.32697,0.7664108276367191,22.0061168670654,0.7544816136360172,22.0,-223155.0,5076.14,pp-ro,1,1,-1,-1
1570538411.0,2019-10-08,14:40:11.000,15.0,12.0,22.8299999237061,18.9,-9.1,-5.1,52.8,23.7,-44.9,20.3602,-8.550510000000001,-5.63321,-2.1361,-8.09286,3.68425,48.2427,24.3761,-45.2376,0.0908276,-0.00690221,-0.0861784999999999,248.4,3.9,52.1701,4.42721,2.4,1.44172,483.141,4.43516,173.31400000000002,64.9846,158.863,0.709277,-0.0815053999999999,243.922,0.987202,1.33146,0.790252685546875,22.0061168670654,0.788207590579987,22.0,-222658.0,4953.08,pp-ro,1,1,-1,-1
1570538411.1,2019-10-08,14:40:11.100,15.0,12.0,22.899999618530305,18.6,-9.5,-5.1,52.4,22.7,-46.0,20.3747,-9.01575,-5.4235,-4.7091400000000005,-0.527818,2.0361700000000003,47.8143,23.3886,-46.9832,0.138667,-0.369077,-0.0539269999999999,248.4,3.9,52.1701,4.42721,2.4,1.44449,484.017,4.435219999999999,172.32,66.5046,159.263,0.711557,-0.0911514,243.889,0.992782,1.32204,0.7800369262695309,22.0066318511963,0.456269443035126,22.0,-222299.0,7229.65,pp-ro,1,1,-1,-1
1570538411.2,2019-10-08,14:40:11.200,15.0,11.0,22.9799995422363,18.3,-9.4,-5.0,52.5,22.3,-46.3,19.9579,-9.47332,-5.24565,0.586453,3.71367,2.92669,48.0218,21.8335,-48.346,0.3295369999999999,-0.00781607,0.143471,248.4,3.9,52.1701,4.42721,2.4,1.42842,469.599,4.43527,171.357,68.7847,159.66299999999998,0.712963,-0.104604,244.104,1.00302,1.33005,0.7715225219726559,22.0066318511963,0.5613672733306879,22.0,-221520.0,7598.83,pp-ro,1,1,-1,-1
1570538411.3,2019-10-08,14:40:11.300,15.0,11.0,22.9500007629395,18.2,-9.5,-4.8,52.9,21.5,-46.7,19.6015,-9.4415,-5.11771,1.3092700000000002,3.58287,7.8487,48.6376,21.5134,-48.4944,0.250161,0.0941005,-0.0292082,250.4,5.0,52.1701,4.42721,2.4,1.39352,455.426,4.43529,170.364,70.3047,160.063,0.715132,-0.114289,244.104,1.01437,1.33884,0.572257995605469,22.0066318511963,0.5942078828811651,22.0,-220652.0,8860.17,pp-ro,1,1,-1,-1
1570538411.4,2019-10-08,14:40:11.400,15.0,12.0,22.8700008392334,18.1,-9.6,-4.7,52.9,21.5,-47.1,19.5153,-9.76696,-4.89116,1.61641,3.06346,10.236,48.8646,20.7662,-49.381,0.0278264999999999,-0.349453,-0.20925,250.4,5.0,52.1701,4.42721,2.4,1.38798,453.944,4.43532,169.34099999999998,72.2047,160.363,0.7166170000000001,-0.125977,244.144,1.01747,1.34539,0.4819869995117189,22.0066318511963,0.651397347450256,22.0,-219814.0,5937.55,pp-ro,1,1,-1,-1
1570538411.5,2019-10-08,14:40:11.500,15.0,12.0,22.8700008392334,17.9,-9.7,-4.5,53.1,21.2,-47.3,19.3108,-9.8615,-4.82599,-10.7992,-4.07578,-4.76101,48.8885,20.7524,-49.2837,-0.0915723,-0.226609,0.0536283,250.4,5.0,52.1701,4.42721,2.4,1.38576,452.029,4.43535,168.34799999999998,74.4847,160.763,0.717858,-0.139515,244.405,1.0278,1.35445,0.570556640625,22.0066318511963,0.795425534248352,22.0,-219239.0,5445.31,pp-ro,1,1,-1,-1
1570538411.6,2019-10-08,14:40:11.600,15.0,12.0,22.6800003051758,17.7,-9.9,-4.4,52.9,20.1,-48.1,19.0187,-10.1361,-4.52234,-1.48234,0.180786,-0.472106,49.1928,19.7753,-50.3373,0.212913,-0.13956,0.0628098,250.4,5.0,52.1701,4.42721,2.4,1.3885299999999998,449.978,4.43538,167.297,76.0047,161.16299999999998,0.719999,-0.149425,244.414,1.03822,1.3553,0.62335205078125,22.0066318511963,0.659471094608307,22.0,-218940.0,5968.31,pp-ro,1,1,-1,-1
1570538411.7,2019-10-08,14:40:11.700,15.0,12.0,22.6800003051758,17.6,-9.9,-4.2,52.7,20.3,-48.6,19.0187,-10.1361,-4.52234,-1.48234,0.180786,-0.472106,49.1928,19.7753,-50.3373,0.212913,-0.13956,0.0628098,250.4,5.0,52.1701,4.42721,2.4,1.38299,458.818,4.43541,166.274,77.5247,161.463,0.721713,-0.159303,244.392,1.03649,1.36671,0.6965866088867191,22.0061168670654,0.772959649562836,22.0,-218109.0,3384.09,pp-ro,1,1,-1,-1
1570538411.8,2019-10-08,14:40:11.800,15.0,11.0,22.5599994659424,17.2,-9.9,-3.8,52.5,19.9,-48.9,18.8855,-10.1987,-4.50637,5.52733,-2.31216,6.52599,48.9982,19.2861,-50.8119,0.0341394,-0.1229529999999999,-0.116921,250.4,5.0,52.1701,4.42721,2.3,1.41125,456.287,4.43544,165.28099999999998,79.4247,161.763,0.722863,-0.170996,244.527,1.04565,1.37991,0.7085113525390621,22.0061168670654,0.996425032615662,22.0,-217561.0,7660.36,pp-ro,1,1,-1,-1
1570538411.9,2019-10-08,14:40:11.900,15.0,13.0,22.4799995422363,17.0,-9.9,-3.5,52.3,18.8,-48.9,18.3526,-10.1476,-3.90077,1.33357,-7.84508,-2.08273,49.2787,18.5518,-51.3395,0.0388904,0.141664,-0.0176514999999999,250.4,5.0,52.1701,4.42721,2.3,1.38631,447.762,4.43547,164.259,80.9447,162.063,0.72447,-0.18094,244.535,1.06562,1.39302,0.737457275390625,22.0061168670654,1.15065264701843,22.0,-217062.0,9629.29,pp-ro,1,1,-1,-1
1570538412.0,2019-10-08,14:40:12.000,15.0,13.0,22.3199996948242,16.9,-9.9,-3.4,52.4,18.9,-49.1,18.3526,-10.1476,-3.90077,1.33357,-7.84508,-2.08273,49.2787,18.5518,-51.3395,0.0388904,0.141664,-0.0176514999999999,250.4,5.0,52.1701,4.42721,2.3,1.35196,429.008,4.4355,163.208,82.8448,162.363,0.725634,-0.192821,244.667,1.07007,1.40232,0.9929275512695308,22.0066318511963,-35.0,22.0,-216063.0,6306.72,pp-ro,1,1,-1,-1
1570538412.1,2019-10-08,14:40:12.100,15.0,13.0,22.1299991607666,16.7,-10.0,-3.2,52.4,19.0,-49.5,17.9671,-10.3319,-3.4349800000000004,-4.66218,0.631361,-0.38334,49.4086,18.6518,-52.0185,-0.179697,-0.157342,-0.12747,250.4,5.0,52.1701,4.42721,2.3,1.33146,421.804,4.43553,162.214,84.3648,162.66299999999998,0.727062,-0.202721,244.725,1.07076,1.40927,1.13599395751953,22.0066318511963,-35.0,22.0,-215442.0,5968.31,pp-ro,1,1,-1,-1
1570538412.2,2019-10-08,14:40:12.200,15.0,13.0,21.969999313354503,16.4,-9.9,-3.1,51.9,18.3,-50.4,17.5704,-10.3523,-3.24039,-6.07523,-3.46137,-1.9379,49.0877,18.4898,-52.5282,-0.0475466,0.0247958,-0.0254238,250.4,5.0,52.1701,4.42721,2.3,1.3253700000000002,411.799,4.43556,161.192,86.2648,162.963,0.728025,-0.214551,244.911,1.07652,1.41662,1.0321044921875,22.0061168670654,-35.0,22.0,-214882.0,6183.66,pp-ro,1,1,-1,-1
1570538412.3,2019-10-08,14:40:12.300,15.0,13.0,21.8899993896484,16.1,-9.9,-2.7,51.6,17.6,-51.0,17.2888,-10.3526,-3.09094,-7.93077,3.18452,-2.9542200000000003,49.0359,17.7533,-52.956,-0.0386496999999999,-0.148679,0.0545715,248.2,4.7,52.1701,4.42721,2.3,1.30985,406.443,4.4355400000000005,160.111,87.7848,163.263,0.729554,-0.2246699999999999,244.942,1.08467,1.43186,0.548408508300781,22.0061168670654,-35.0,22.0,-214504.0,6983.54,pp-ro,1,1,-1,-1
1570538412.4,2019-10-08,14:40:12.400,15.0,13.0,21.7299995422363,15.6,-9.6,-2.3,51.1,16.9,-51.8,17.1316,-10.3339,-2.94566,-7.886360000000001,-2.57042,3.04419,49.0736,17.7273,-53.2524,-0.0717091,-0.0728531,-0.0799533,248.2,4.7,52.1701,4.42721,2.3,1.29323,397.744,4.43552,159.148,89.6848,163.563,0.730247,-0.236307,245.202,1.0915,1.45206,-0.279914855957031,22.0061168670654,-35.0,22.0,-213997.0,4676.2,pp-ro,1,1,-1,-1
1570538412.5,2019-10-08,14:40:12.500,15.0,14.0,21.5699996948242,15.4,-9.2,-2.0,51.1,16.1,-51.9,16.5883,-10.1524,-2.58291,-0.802717,5.00235,11.0813,49.3282,17.3965,-53.2687,0.0886963,-0.0727546,-0.170767,248.2,4.7,52.1701,4.42721,2.3,1.27661,382.772,4.4355,158.125,90.8248,163.763,0.731739,-0.244486,245.094,1.10556,1.47666,-1.49513244628906,22.0066318511963,-35.0,22.0,-213405.0,6399.01,pp-ro,1,1,-1,-1
1570538412.6,2019-10-08,14:40:12.600,15.0,14.0,21.3600006103516,15.7,-9.0,-1.9,51.6,16.2,-51.7,16.4353,-9.96569,-2.33734,-3.78396,6.6783,0.92469,49.3399,17.2453,-53.3693,-0.0561026999999999,0.029267,0.189489,248.2,4.7,52.1701,4.42721,2.3,1.23671,359.356,4.43548,157.191,92.7248,163.963,0.731942,-0.256044,245.338,1.11479,1.50111,-3.0551300048828103,22.0056018829346,-35.0,22.0,-212749.0,6183.66,pp-ro,1,1,-1,-1
1570538412.7,2019-10-08,14:40:12.700,15.0,14.0,21.1499996185303,16.0,-9.1,-1.5,51.9,16.0,-51.8,16.4353,-9.96569,-2.33734,-3.78396,6.6783,0.92469,49.3399,17.2453,-53.3693,-0.0561026999999999,0.029267,0.189489,248.2,4.7,52.1701,4.42721,2.3,1.20347,351.346,4.43546,156.227,94.2449,164.263,0.732985,-0.265884,245.502,1.12277,1.5274299999999998,-4.454681396484379,22.0050868988037,-35.0,22.0,-212176.0,5229.96,pp-ro,1,1,-1,-1
1570538412.8,2019-10-08,14:40:12.800,15.0,14.0,20.9400005340576,16.3,-9.1,-0.9,52.4,14.6,-51.6,16.3888,-9.61622,-1.96018,-2.69815,4.14641,1.15005,49.8772,17.8153,-52.57,-0.183075,-0.116814,0.0768388999999999,248.2,4.7,52.1701,4.42721,2.1,1.2356,367.41,4.43544,155.292,95.7649,164.363,0.733305,-0.275645,245.564,1.14904,1.56402,-6.55060577392578,22.0056018829346,-35.0,22.0,-211820.0,2891.86,pp-ro,1,1,-1,-1
1570538412.9,2019-10-08,14:40:12.900,15.0,14.0,20.9400005340576,16.8,-9.0,-0.3,53.3,12.7,-51.0,16.6673,-9.54247,-1.41004,5.63748,0.451368,3.0472200000000003,50.3028,16.5983,-52.1682,-0.150445,-0.0970294999999999,0.0936342,248.2,4.7,52.1701,4.42721,2.1,1.24447,375.518,4.43542,154.299,97.6649,164.563,0.7334609999999999,-0.287336,245.82,1.18781,1.6076700000000002,-8.65676879882812,22.0061168670654,-35.0,22.0,-211452.0,3414.86,pp-ro,1,1,-1,-1
1570538413.0,2019-10-08,14:40:13.000,15.0,13.0,20.8600006103516,17.3,-8.6,0.7,54.0,9.7,-51.0,17.0293,-9.20403,-0.313876,2.54997,6.00698,10.5527,51.4834,14.6058,-51.1443,0.163996,-0.237645,0.269516,248.2,4.7,52.1701,4.42721,2.1,1.25444,376.947,4.4354,153.394,99.1849,164.563,0.733308,-0.297008,245.862,1.23184,1.67325,-10.7646331787109,22.0066318511963,-35.0,22.0,-211272.0,3322.56,pp-ro,1,1,-1,-1
1570538413.1,2019-10-08,14:40:13.100,15.0,12.0,20.8999996185303,17.6,-8.2,1.9,55.0,6.1,-49.6,17.3654,-8.53461,1.47655,0.908319,6.58051,9.86896,53.4671,10.5711,-49.3811,0.304071,0.112079,0.6547229999999999,248.2,4.7,52.1701,4.42721,2.1,1.25777,376.507,4.43539,152.517,101.085,164.463,0.732169,-0.308299,246.024,1.30223,1.74322,-12.8725051879883,22.0061168670654,-35.0,22.0,-210817.0,4953.08,pp-ro,1,1,-1,-1
1570538413.2,2019-10-08,14:40:13.200,15.0,13.0,20.8999996185303,18.3,-7.1,3.1,57.2,2.9,-46.5,17.498,-8.124319999999999,2.1407,0.35829,7.801810000000001,14.0283,54.5487,9.25418,-47.9327,0.198623,0.220002,0.629731,248.2,4.7,52.1701,4.42721,2.1,1.23062,353.286,4.43536,151.67,102.605,164.16299999999998,0.730876,-0.317754,245.929,1.38723,1.83747,-14.9889068603516,22.0050868988037,-35.0,22.0,-210277.0,5660.67,pp-ro,1,1,-1,-1
1570538413.3,2019-10-08,14:40:13.300,15.0,12.0,21.0300006866455,19.3,-6.4,4.4,59.3,-0.1,-43.1,18.0174,-7.08025,3.25991,8.496739999999999,10.9647,12.5453,56.6309,7.203939999999999,-43.98,0.313715,0.562888,0.627487,248.0,4.6,52.1701,4.42721,2.1,1.17632,320.79900000000004,4.4353,150.998,104.505,163.863,0.728562,-0.328348,246.116,1.47394,1.91941,-17.0984802246094,22.0056018829346,-35.0,22.0,-209534.0,8152.59,pp-ro,1,1,-1,-1
1570538413.4,2019-10-08,14:40:13.400,15.0,12.0,20.9899997711182,19.9,-5.5,6.2,61.0,-5.0,-41.7,18.0174,-7.08025,3.25991,8.496739999999999,10.9647,12.5453,56.6309,7.203939999999999,-43.98,0.313715,0.562888,0.627487,248.0,4.6,52.1701,4.42721,2.1,1.1403,321.185,4.43526,150.327,106.405,163.363,0.725589,-0.338845,246.186,1.56213,2.0169200000000003,-19.2080535888672,22.0056018829346,-35.0,22.0,-209018.0,615.29,pp-ro,1,1,-1,-1
1570538413.5,2019-10-08,14:40:13.500,15.0,12.0,21.0300006866455,20.3,-4.2,8.0,62.4,-10.3,-39.5,19.2245,-5.4379800000000005,6.39145,1.38193,10.1349,12.4739,59.8034,-1.18612,-37.4982,0.328081,0.0375707,1.20519,248.0,4.6,52.1701,4.42721,2.1,1.19183,349.021,4.4352,149.77200000000002,108.305,162.763,0.722003,-0.3488989999999999,246.279,1.66527,2.12163,-21.3142166137695,22.0056018829346,-35.0,22.0,-208911.0,1476.7,pp-ro,1,1,-1,-1
1570538413.6,2019-10-08,14:40:13.600,15.0,12.0,20.9899997711182,20.7,-2.7,10.0,63.5,-16.4,-35.8,19.2989,-4.65916,7.21011,4.0169,20.9187,18.4975,60.4926,-4.10464,-36.1476,0.299824,-0.39247,1.08388,248.0,4.6,52.1701,4.42721,2.1,1.2151,359.894,4.43515,149.363,110.205,161.863,0.71714,-0.358432,246.28,1.79588,2.2313,-23.4306182861328,22.0061168670654,-35.0,22.0,-208832.0,1507.46,pp-ro,1,1,-1,-1
1570538413.7,2019-10-08,14:40:13.700,15.0,12.0,21.1100006103516,20.7,-1.6,12.2,64.3,-23.4,-31.8,19.5621,-3.13974,8.96631,-0.604103,16.3502,18.3218,61.621,-9.90059,-32.7111,0.00331627,0.234891,1.20008,248.0,4.6,52.1701,4.42721,2.1,1.24669,380.027,4.4351,149.1,112.485,160.963,0.711316,-0.369037,246.562,1.94174,2.32852,-25.560676574707,22.0066318511963,-35.0,22.0,-208582.0,2522.69,pp-ro,1,1,-1,-1
1570538413.8,2019-10-08,14:40:13.800,15.0,13.0,21.3600006103516,20.5,0.3,14.4,64.9,-29.8,-27.2,19.269,-0.245383,12.9028,-5.32575,20.5195,21.9242,61.724,-22.4878,-21.8568,0.0102882,0.0851083,1.17595,248.0,4.6,52.1701,4.42721,2.0,1.27882,387.587,4.43504,148.954,114.765,159.763,0.704282,-0.379132,246.74400000000003,2.08337,2.44588,-27.6634216308594,22.0061168670654,-35.0,22.0,-208322.0,3045.68,pp-ro,1,1,-1,-1
1570538413.9,2019-10-08,14:40:13.900,15.0,13.0,21.6100006103516,19.6,2.6,16.3,64.5,-36.8,-21.7,19.0935,0.702818,13.8619,-7.591069999999999,22.5176,23.957,61.1801,-25.3122,-18.9496,0.0801245,0.236169,1.33039,248.0,4.6,52.1701,4.42721,2.0,1.25555,368.1230000000001,4.43499,149.07,116.665,158.363,0.696659,-0.386653,246.803,2.2370400000000004,2.5713,-29.7286224365234,22.0061168670654,-35.0,22.0,-207664.0,6952.77,pp-ro,1,1,-1,-1
1570538414.0,2019-10-08,14:40:14.000,15.0,12.0,21.7700004577637,18.0,4.9,18.0,63.4,-44.1,-15.8,19.0935,0.702818,13.8619,-7.591069999999999,22.5176,23.957,61.1801,-25.3122,-18.9496,0.0801245,0.236169,1.33039,248.0,4.6,52.1701,4.42721,2.0,1.20679,348.718,4.43494,149.391,118.565,156.863,0.688289,-0.393434,246.944,2.3927,2.7011,-31.4763641357422,22.0056018829346,-35.0,22.0,-207005.0,6245.19,pp-ro,1,1,-1,-1
1570538414.1,2019-10-08,14:40:14.100,15.0,12.0,21.8799991607666,16.2,7.2,19.2,60.5,-50.1,-7.8,19.0935,0.702818,13.8619,-7.591069999999999,22.5176,23.957,61.1801,-25.3122,-18.9496,0.0801245,0.236169,1.33039,248.0,4.6,52.1701,4.42721,2.0,1.18795,327.348,4.434880000000001,149.917,120.085,155.263,0.679791,-0.397851,246.986,2.54108,2.82472,-32.8759155273438,22.0050868988037,-35.0,22.0,-206409.0,4399.32,pp-ro,1,1,-1,-1
1570538414.2,2019-10-08,14:40:14.200,15.0,14.0,21.8400001525879,14.6,9.8,20.1,54.6,-56.1,2.9,15.5107,6.10163,17.7363,-18.0436,21.7393,7.34068,54.1166,-40.788,-0.00568272,0.168844,0.1619,1.35781,248.0,4.6,52.1701,4.42721,2.0,1.13254,300.767,4.434830000000001,150.735,121.985,153.463,0.669482,-0.402809,247.29,2.70154,2.94616,-33.923873901367195,22.0050868988037,-35.0,22.0,-205706.0,7168.13,pp-ro,1,1,-1,-1
1570538414.3,2019-10-08,14:40:14.300,15.0,13.0,21.9200000762939,13.2,12.0,21.0,45.3,-61.1,17.1,13.8635,8.29658,18.7102,-18.9601,25.6664,7.577539999999999,48.9479,-46.3166,9.90118,0.303008,0.406702,1.56726,246.2,4.7,52.1701,4.42721,2.0,1.10872,312.079,4.4348,151.69899999999998,123.125,151.763,0.660415,-0.404208,247.395,2.86211,3.04386,-34.603179931640604,22.0050868988037,-35.0,22.0,-205431.0,584.525,pp-ro,1,1,-1,-1
1570538414.4,2019-10-08,14:40:14.400,15.0,13.0,22.0400009155273,10.6,13.6,22.2,32.3,-65.0,34.7,12.3623,10.4147,19.3761,-16.5938,23.7708,13.2039,40.6212,-50.7547,22.1337,0.328532,0.584868,1.611,246.2,4.7,52.1701,4.42721,2.0,1.19682,353.436,4.43476,152.89600000000002,124.265,149.963,0.65059,-0.404851,247.604,3.02027,3.15411,-34.937698364257805,22.0056018829346,-23.0259094238281,22.0,-205536.0,-153.822,pp-ro,1,1,-1,-1
1570538414.5,2019-10-08,14:40:14.500,15.0,15.0,22.1200008392334,8.1,15.4,22.4,14.8,-66.7,56.4,10.3991,12.1471,20.39,-20.822,10.9213,12.2347,28.7847,-53.9139,38.4143,0.2317699999999999,0.6787529999999999,1.63396,246.2,4.7,52.1701,4.42721,2.0,1.2261799999999998,369.908,4.43472,154.181,125.405,148.063,0.640295,-0.4051659999999999,247.832,3.18075,3.26295,-34.963302612304695,22.0061168670654,-23.0282897949219,22.0,-205461.0,1507.46,pp-ro,1,1,-1,-1
