time,date,time_of_day,airspeed_temperature,airspeed_angle_of_attack,airspeed_apparent_windspeed,kite_0_vx,kite_0_vy,kite_0_vz,kite_0_roll,kite_0_pitch,kite_0_yaw,kite_1_vx,kite_1_vy,kite_1_vz,kite_1_ax,kite_1_ay,kite_1_az,kite_1_roll,kite_1_pitch,kite_1_yaw,kite_1_roll_rate,kite_1_pitch_rate,kite_1_yaw_rate,ground_upwind_direction,ground_wind_velocity,ground_pos_latitude,ground_pos_longitude,ground_pos_altitude,ground_tether_reelout_speed,ground_tether_force,est_upwind_direction,kite_pos_east,kite_pos_north,kite_height,kite_elevation,kite_azimuth,kite_distance,kite_heading,kite_course,kite_actual_steering,kite_actual_depower,kite_set_steering,kite_set_depower,ground_mech_energy,ground_mech_power,flight_phase,flight_phase_index,phase,pattern,pattern_section
1570539316.7,2019-10-08,14:55:16.700,15.0,12.0,13.8000001907349,12.8,-3.5,4.2,22.0,-6.0,-59.2,11.2233,-3.09841,4.53415,8.13893,7.520169999999999,3.2768900000000003,25.1368,9.01668,-60.5282,0.0413301,0.188891,0.957598,253.9,6.2,52.1701,4.4271400000000005,2.5,-3.69074,95.489,4.44613,50.6751,15.2008,239.318,1.35323,-0.0251693,245.096,0.8582110000000001,1.66282,-34.971832275390604,22.0009689331055,-35.0,22.0,41380.8,-8460.23,pp-riro,4,0,-1,-1
1570539316.8,2019-10-08,14:55:16.800,15.0,12.0,13.4700002670288,13.7,-2.7,4.5,23.3,-7.4,-54.7,11.658,-2.77385,4.68641,10.1651,7.70395,5.4416400000000005,26.1168,8.3354,-57.7941,0.216146,0.209587,0.951999,253.9,6.2,52.1701,4.4271400000000005,2.5,-3.69684,93.7607,4.44613,50.3538,16.7209,238.918,1.35227,-0.0543564,244.738,0.971606,1.76252,-34.970123291015604,22.0009689331055,-35.0,22.0,40747.7,-11567.4,pp-riro,4,0,-1,-1
1570539316.9,2019-10-08,14:55:16.900,15.0,13.0,13.2700004577637,14.6,-1.9,4.7,24.4,-9.0,-49.7,13.6082,-0.770864,5.3815,5.46232,8.15278,2.2745900000000003,29.1731,4.21633,-44.8655,0.0486270999999999,0.182221,0.93437,253.9,6.2,52.1701,4.4271400000000005,2.4,-3.73285,92.4299,4.44614,50.0909,17.8609,238.618,1.35151,-0.0762625,244.472,1.08702,1.8459,-34.9991455078125,22.0009689331055,-35.0,22.0,39369.6,-15320.7,pp-riro,4,0,-1,-1
1570539317.0,2019-10-08,14:55:17.000,15.0,12.0,13.3999996185303,15.3,-1.0,5.0,25.7,-10.9,-44.5,13.94,-0.355317,5.54713,6.9789,6.726039999999999,2.46749,29.8217,3.26678,-42.1959,0.0527677,0.161692,0.93457,253.9,6.2,52.1701,4.4271400000000005,2.4,-3.76222,93.8633,4.44614,49.9156,19.381,238.218,1.34969,-0.1041059999999999,244.162,1.21307,1.9359,-34.9991455078125,22.0009689331055,-35.0,22.0,37948.7,-13967.1,pp-riro,4,0,-1,-1
1570539317.1,2019-10-08,14:55:17.100,15.0,13.0,13.3299999237061,16.0,-0.1,5.4,26.5,-12.7,-39.2,14.571,0.427459,5.84489,4.97972,7.588830000000001,4.631390000000001,30.666,1.1978799999999998,-36.7177,0.141967,0.183534,1.05159,253.9,6.2,52.1701,4.4271400000000005,2.4,-3.7999,97.5113,4.44614,49.828,20.901,237.918,1.3474700000000002,-0.130922,243.976,1.33925,2.02054,-34.9991455078125,22.0009689331055,-35.0,22.0,36329.1,-10244.6,pp-riro,4,0,-1,-1
1570539317.2,2019-10-08,14:55:17.200,15.0,13.0,13.5299997329712,16.6,0.8,5.7,26.7,-14.7,-33.9,15.4241,1.85955,6.38099,5.51489,10.2943,3.10868,31.2577,-2.03668,-28.0537,0.0368087,0.172999,1.0173,253.9,6.2,52.1701,4.4271400000000005,2.4,-3.82261,95.8186,4.44614,49.828,22.4211,237.418,1.34459,-0.156581,243.624,1.46476,2.09829,-34.9974365234375,22.0009689331055,-35.0,22.0,35229.4,-12152.0,pp-riro,4,0,-1,-1
1570539317.3,2019-10-08,14:55:17.300,15.0,13.0,13.6000003814697,17.1,1.9,6.0,27.0,-16.7,-28.3,15.4241,1.85955,6.38099,5.51489,10.2943,3.10868,31.2577,-2.03668,-28.0537,0.0368087,0.172999,1.0173,255.8,6.5,52.1701,4.4271400000000005,2.4,-3.82483,93.7253,4.44614,49.9156,24.3211,236.918,1.34059,-0.187146,243.337,1.59981,2.18825,-34.9991455078125,22.0009689331055,-35.0,22.0,34489.9,-13997.8,pp-riro,4,0,-1,-1
1570539317.4,2019-10-08,14:55:17.400,15.0,11.0,13.8500003814697,17.7,3.2,6.3,27.1,-18.3,-22.3,15.8608,2.92946,6.699139999999999,4.42959,10.2459,3.0585,31.2615,-4.2653300000000005,-22.3493,0.0315747,0.193982,0.990118,255.8,6.5,52.1701,4.4271400000000005,2.4,-3.86583,92.0144,4.44618,50.1784,25.8412,236.418,1.33645,-0.2093539999999999,243.062,1.7307099999999995,2.27456,-34.9991455078125,22.0009689331055,-35.0,22.0,33093.3,-14151.7,pp-riro,4,0,-1,-1
1570539317.5,2019-10-08,14:55:17.500,15.0,11.0,14.109999656677198,18.3,4.5,6.6,27.4,-19.9,-16.6,16.4306,4.0639,6.90182,4.25438,9.95997,1.4132,31.0143,-6.0865,-16.5851,0.0998167,0.233141,1.06565,255.8,6.5,52.1701,4.4271400000000005,2.4,-3.89077,99.825,4.44621,50.4997,27.7413,235.918,1.33126,-0.2361579999999999,242.852,1.86002,2.35922,-34.9991455078125,22.0009689331055,-35.0,22.0,31477.2,-15597.6,pp-riro,4,0,-1,-1
1570539317.6,2019-10-08,14:55:17.600,15.0,10.0,14.4799995422363,18.7,5.8,7.2,26.9,-21.9,-10.9,17.207,5.7583400000000005,7.5319,2.86219,11.8667,5.92551,30.2984,-8.69898,-7.41149,0.134667,0.288805,1.10311,255.8,6.5,52.1701,4.4271400000000005,2.4,-3.8481,125.851,4.44625,50.9962,29.2613,235.318,1.32596,-0.254789,242.552,1.98202,2.43613,-34.9974365234375,22.0009689331055,-35.0,22.0,31440.3,7229.65,pp-riro,4,0,-1,-1
1570539317.7,2019-10-08,14:55:17.700,15.0,8.0,14.8999996185303,19.1,7.4,7.7,26.7,-23.8,-4.7,17.5261,7.04372,8.04663,4.28279,13.9772,4.5854,29.2697,-10.5527,-1.00262,0.00758926,0.297575,1.07707,255.8,6.5,52.1701,4.4271400000000005,2.4,-3.80045,131.701,4.4463,51.6387,31.5414,234.618,1.31839,-0.2822409999999999,242.295,2.11903,2.52831,-34.9974365234375,22.0025119781494,-35.0,22.0,32097.8,12305.8,pp-riro,4,0,-1,-1
1570539317.8,2019-10-08,14:55:17.800,15.0,8.0,15.4899997711182,19.0,9.2,8.1,26.5,-25.1,1.2,17.6101,7.796839999999999,8.23725,1.40163,16.6191,2.92081,28.7972,-11.3976,2.08822,0.151024,0.192389,1.12026,255.8,6.5,52.1701,4.4271400000000005,2.4,-3.64032,137.898,4.44632,52.4273,33.0615,233.918,1.31178,-0.29656,241.99,2.23449,2.61927,-34.9974365234375,22.0025119781494,-35.0,22.0,33946.3,21196.7,pp-riro,4,0,-1,-1
1570539317.9,2019-10-08,14:55:17.900,15.0,8.0,15.8299999237061,18.8,11.0,8.7,26.0,-26.7,7.1,17.6339,8.65735,8.42408,-0.679664,15.0321,5.06606,28.4483,-12.1211,5.1698,0.1090589999999999,0.323136,0.989391,255.8,6.5,52.1701,4.4271400000000005,2.3,-3.37048,141.024,4.446359999999999,53.4203,35.3416,233.218,1.30276,-0.318438,241.854,2.35696,2.71517,-34.9974365234375,22.0025119781494,-23.0116176605225,22.0,37375.5,22458.1,pp-riro,4,0,-1,-1
1570539318.0,2019-10-08,14:55:18.000,15.0,8.0,16.1000003814697,18.3,12.7,9.0,25.8,-28.0,12.5,17.6339,8.65735,8.42408,-0.679664,15.0321,5.06606,28.4483,-12.1211,5.1698,0.1090589999999999,0.323136,0.989391,255.8,6.5,52.1701,4.4271400000000005,2.3,-3.16935,144.689,4.44639,54.5594,36.8616,232.318,1.29461,-0.328182,241.468,2.45746,2.79694,-34.9974365234375,22.0025119781494,-23.0116176605225,22.0,39687.6,23565.6,pp-riro,4,0,-1,-1
1570539318.1,2019-10-08,14:55:18.100,15.0,8.0,16.3199996948242,17.7,14.3,9.4,25.0,-28.5,18.4,16.8651,12.7623,9.67257,-5.5580300000000005,12.6427,3.9673,26.5812,-15.1888,20.0289,0.0782286,0.256529,0.888624,255.8,6.5,52.1701,4.4271400000000005,2.3,-3.06518,145.99200000000002,4.44643,55.8153,39.1417,231.518,1.28443,-0.345619,241.346,2.56894,2.88184,-34.775558471679695,22.0019989013672,-23.0092449188232,22.0,40936.5,24027.1,pp-riro,4,0,-1,-1
1570539318.2,2019-10-08,14:55:18.200,15.0,9.0,16.5900001525879,17.2,15.7,9.8,24.5,-29.4,24.9,16.5543,13.4832,9.78012,-4.31085,13.5,1.85002,26.236,-15.771,22.8891,0.371662,0.3229619999999999,0.919293,255.8,6.5,52.1701,4.4271400000000005,2.3,-2.83746,147.269,4.44648,57.2756,40.6618,230.618,1.27514,-0.351451,241.078,2.6792,2.94376,-34.167938232421896,22.0025119781494,-23.0116176605225,22.0,43430.3,23504.1,pp-riro,4,0,-1,-1
1570539318.3,2019-10-08,14:55:18.300,15.0,8.0,16.9099998474121,16.5,17.0,10.3,23.4,-30.5,31.3,15.6758,15.364,10.3335,-8.026110000000001,10.2509,5.74779,24.9834,-17.2686,32.2564,0.0996638999999999,0.235665,1.01125,255.8,7.8,52.1701,4.4271400000000005,2.3,-2.62136,150.636,4.4465,58.8236,42.5619,229.618,1.26454,-0.360469,240.824,2.78987,3.00874,-33.201904296875,22.0025119781494,-23.0116176605225,22.0,45645.0,23073.4,pp-riro,4,0,-1,-1
1570539318.4,2019-10-08,14:55:18.400,15.0,8.0,17.3199996948242,15.5,18.2,10.5,22.4,-31.0,37.8,14.9664,16.5038,10.7274,-6.905810000000001,12.1783,4.58706,23.7254,-18.3945,38.7379,0.248565,0.334123,1.08742,255.8,7.8,52.1701,4.4271400000000005,2.3,-2.24847,158.423,4.44654,60.4883,44.0819,228.618,1.25441,-0.363925,240.558,2.89439,3.07198,-31.88427734375,22.003026962280305,-23.0139999389648,22.0,49121.6,23504.1,pp-riro,4,0,-1,-1
1570539318.5,2019-10-08,14:55:18.500,15.0,9.0,17.5799999237061,14.5,19.4,10.8,21.0,-31.5,44.9,14.9664,16.5038,10.7274,-6.905810000000001,12.1783,4.58706,23.7254,-18.3945,38.7379,0.248565,0.334123,1.08742,255.8,7.8,52.1701,4.4271400000000005,2.3,-1.98251,158.567,4.44658,62.3576,45.982,227.618,1.24271,-0.369576,240.443,3.00897,3.13566,-30.2082214355469,22.003026962280305,-23.0139999389648,22.0,51438.1,22335.0,pp-riro,4,0,-1,-1
1570539318.6,2019-10-08,14:55:18.600,15.0,8.0,17.6800003051758,13.5,20.3,11.0,19.0,-32.0,51.7,14.0301,17.595,10.9295,-10.9541,6.335030000000001,3.3147300000000004,22.0866,-19.3027,45.1407,0.0720955,0.341129,0.93949,255.8,7.8,52.1701,4.4271400000000005,2.3,-1.83069,157.72,4.446619999999999,64.2852,47.1221,226.618,1.23259,-0.366776,240.226,3.11038,3.18338,-28.2351989746094,22.0025119781494,-23.0116176605225,22.0,52468.9,20458.4,pp-riro,4,0,-1,-1
1570539318.7,2019-10-08,14:55:18.700,15.0,8.0,17.5799999237061,12.1,21.1,11.0,17.5,-32.4,57.9,12.1188,19.4728,11.2149,-13.8064,3.5450800000000005,2.4382200000000003,19.0272,-21.4167,57.8687,0.0374385999999999,0.291084,0.939067,255.8,7.8,52.1701,4.4271400000000005,2.3,-1.45059,147.833,4.44667,66.2713,48.2621,225.618,1.22226,-0.363714,240.051,3.20141,3.24096,-26.490867614746104,22.003026962280305,-23.0139999389648,22.0,54935.3,14120.9,pp-riro,4,0,-1,-1
1570539318.8,2019-10-08,14:55:18.800,15.0,8.0,17.4200000762939,10.5,21.5,10.9,15.5,-33.0,64.4,12.1188,19.4728,11.2149,-13.8064,3.5450800000000005,2.4382200000000003,19.0272,-21.4167,57.8687,0.0374385999999999,0.291084,0.939067,255.8,7.8,52.1701,4.4271400000000005,2.3,-1.21898,139.971,4.4467,68.4618,49.7822,224.518,1.21025,-0.363034,239.945,3.29771,3.30059,-25.1100845336914,22.0025119781494,-23.0116176605225,22.0,55982.1,9413.93,pp-riro,4,0,-1,-1
1570539318.9,2019-10-08,14:55:18.900,15.0,8.0,17.370000839233402,9.8,21.7,10.8,13.8,-33.0,67.1,10.0912,20.2082,11.0492,-8.92008,2.69366,-3.45972,16.6267,-22.6462,66.899,0.101646,0.208686,0.894294,255.8,7.8,52.1701,4.4271400000000005,2.3,-1.12534,136.339,4.44675,70.5939,50.5423,223.518,1.2003,-0.355713,239.788,3.3313900000000003,3.3212900000000003,-24.0706634521484,22.003026962280305,-23.0139999389648,22.0,56369.1,7691.12,pp-riro,4,0,-1,-1
1570539319.0,2019-10-08,14:55:19.000,15.0,8.0,17.4699993133545,8.0,22.4,10.5,12.1,-31.2,75.0,8.81685,20.6836,10.9387,-9.97798,4.04927,1.91959,15.3831,-22.7758,71.8134,-0.110001,0.199138,0.694503,255.8,7.8,52.1701,4.4271400000000005,2.3,-0.954684,132.011,4.44679,72.7844,51.6823,222.518,1.18928,-0.351853,239.756,3.4493400000000003,3.39241,-23.340164184570305,22.0025119781494,-22.019855499267603,22.0,56958.2,5229.96,pp-riro,4,0,-1,-1
1570539319.1,2019-10-08,14:55:19.100,15.0,8.0,17.3199996948242,7.0,22.6,10.5,10.7,-30.7,80.1,7.750139999999999,21.0662,10.6878,-8.83739,2.5702,-2.96498,13.8092,-22.1922,76.5907,0.0582126999999999,0.259814,0.7349899999999999,255.8,7.8,52.1701,4.4271400000000005,2.3,-0.816717,127.581,4.44683,75.0918,52.8224,221.518,1.17789,-0.347468,239.79,3.52286,3.4268400000000003,-22.8008193969727,22.0025119781494,-21.7503662109375,22.0,57352.7,3722.5,pp-riro,4,0,-1,-1
1570539319.2,2019-10-08,14:55:19.200,15.0,8.0,17.1599998474121,6.0,22.7,10.5,8.5,-30.9,84.9,7.750139999999999,21.0662,10.6878,-8.83739,2.5702,-2.96498,13.8092,-22.1922,76.5907,0.0582126999999999,0.259814,0.7349899999999999,255.8,7.8,52.1701,4.4271400000000005,2.3,-0.6854,127.75,4.44687,77.3407,52.8224,220.518,1.16916,-0.333694,239.583,3.58165,3.45191,-22.186378479003896,22.0025119781494,-21.3487319946289,22.0,57629.0,2614.98,pp-riro,4,0,-1,-1
1570539319.3,2019-10-08,14:55:19.300,15.0,9.0,16.7900009155273,5.4,22.7,10.4,7.7,-30.8,87.4,6.76266,21.4108,10.5508,-8.81604,1.79221,-1.77348,12.2546,-21.5935,81.7248,-0.0549646999999999,0.257799,0.737499,260.4,7.2,52.1701,4.4271400000000005,2.3,-0.495904,131.937,4.44691,78.5382,53.5825,220.018,1.16291,-0.333232,239.681,3.61837,3.47406,-21.9576721191406,22.0019989013672,-21.188325881958,22.0,58015.0,2522.69,pp-riro,4,0,-1,-1
1570539319.4,2019-10-08,14:55:19.400,15.0,8.0,16.5799999237061,3.9,22.7,10.0,5.5,-29.5,94.2,4.40113,21.4933,10.0694,-12.7256,0.589724,-5.54157,7.97498,-20.6929,93.5212,0.0746933,0.247876,0.611106,260.4,7.2,52.1701,4.4271400000000005,2.3,-0.354059,122.994,4.44698,80.7871,53.9625,219.018,1.15329,-0.323492,239.598,3.71586,3.5239300000000005,-21.6641082763672,22.0025119781494,-20.4349308013916,22.0,58189.6,1415.17,pp-riro,4,0,-1,-1
1570539319.5,2019-10-08,14:55:19.500,15.0,9.0,16.3600006103516,3.4,22.7,9.8,3.8,-28.9,96.4,4.40113,21.4933,10.0694,-12.7256,0.589724,-5.54157,7.97498,-20.6929,93.5212,0.0746933,0.247876,0.611106,260.4,7.2,52.1701,4.4271400000000005,2.3,-0.259311,118.771,4.44706,83.0361,54.3425,218.018,1.14364,-0.314163,239.541,3.7425,3.53582,-21.3364028930664,22.0025119781494,-20.461935043335,22.0,58258.3,522.996,pp-riro,4,0,-1,-1
1570539319.6,2019-10-08,14:55:19.600,15.0,7.0,16.3099994659424,2.3,22.7,9.8,2.0,-27.6,100.9,3.4681,21.4097,9.72766,-10.0621,1.21948,-2.3345700000000003,6.17391,-19.5324,97.5251,0.0613071,0.2249929999999999,0.5394760000000001,260.4,7.2,52.1701,4.4271400000000005,2.3,-0.174536,124.009,4.4471300000000005,86.4825,54.7226,217.017,1.13014,-0.298903,239.938,3.80179,3.5646400000000003,-20.9165344238281,22.0025119781494,-20.2270431518555,22.0,58296.8,369.174,pp-riro,4,0,-1,-1
1570539319.7,2019-10-08,14:55:19.700,15.0,9.0,16.0300006866455,1.3,22.6,9.8,0.0,-26.7,104.5,3.4681,21.4097,9.72766,-10.0621,1.21948,-2.3345700000000003,6.17391,-19.5324,97.5251,0.0613071,0.2249929999999999,0.5394760000000001,260.4,7.2,52.1701,4.4271400000000005,2.3,-0.126885,127.277,4.44721,87.7092,55.1026,216.017,1.12368,-0.295745,239.568,3.85706,3.60029,-20.5444641113281,22.0025119781494,-19.7716503143311,22.0,58315.4,369.174,pp-riro,4,0,-1,-1
1570539319.8,2019-10-08,14:55:19.800,15.0,10.0,15.8100004196167,-0.3,22.5,9.6,-2.0,-25.1,109.5,0.881935,21.5804,9.53759,-9.60162,3.53018,-3.06754,1.85482,-17.3773,106.555,0.105127,0.0027991999999999,0.5442020000000001,260.4,7.2,52.1701,4.4271400000000005,2.3,-0.00498674,131.031,4.4473,91.0972,55.1027,214.517,1.11011,-0.278912,239.484,3.92539,3.649680000000001,-20.2372436523438,22.0025119781494,-19.1297607421875,22.0,58325.9,0.0,pp-riro,4,0,-1,-1
1570539319.9,2019-10-08,14:55:19.900,15.0,11.0,15.5299997329712,-0.8,22.5,9.4,-3.0,-24.8,111.0,0.881935,21.5804,9.53759,-9.60162,3.53018,-3.06754,1.85482,-17.3773,106.555,0.105127,0.0027991999999999,0.5442020000000001,260.4,7.2,52.1701,4.4271400000000005,2.2,0.112479,129.185,4.44736,92.2655,55.1027,214.017,1.10544,-0.273339,239.484,3.94441,3.66636,-19.8600463867188,22.0019989013672,-18.9258422851562,22.0,58284.2,-553.761,pp-riro,4,0,-1,-1
1570539320.0,2019-10-08,14:55:20.000,15.0,12.0,15.4700002670288,-1.5,22.4,9.3,-4.5,-23.7,114.1,-0.6477970000000001,21.4586,9.2771,-6.55171,-1.62791,-3.13506,-0.401904,-16.4177,111.114,-0.2917659999999999,0.193442,0.619764,260.4,7.2,52.1701,4.4271400000000005,2.2,0.222187,124.072,4.447430000000001,94.5436,55.1027,213.017,1.09624,-0.262739,239.481,3.98779,3.68555,-19.2933959960938,22.0025119781494,-18.8140144348145,22.0,58208.6,-830.6410000000001,pp-riro,4,0,-1,-1
1570539320.1,2019-10-08,14:55:20.100,15.0,10.0,15.5299997329712,-2.4,22.3,9.2,-6.1,-22.5,117.0,-1.33512,21.3512,9.08498,-8.16235,-3.00216,-2.02809,-2.1198,-15.6441,113.881,-0.198603,0.1492369999999999,0.413388,260.4,7.2,52.1701,4.4271400000000005,2.2,0.1983619999999999,124.415,4.4475,97.8732,54.7228,212.017,1.08431,-0.2449329999999999,239.844,4.02285,3.70658,-18.9503326416016,22.0025119781494,-18.6861171722412,22.0,58265.8,61.529,pp-riro,4,0,-1,-1
1570539320.2,2019-10-08,14:55:20.200,15.0,10.0,15.4099998474121,-3.2,21.9,9.3,-7.7,-22.0,119.8,-1.33512,21.3512,9.08498,-8.16235,-3.00216,-2.02809,-2.1198,-15.6441,113.881,-0.198603,0.1492369999999999,0.413388,260.4,7.2,52.1701,4.4271400000000005,2.2,0.214984,127.823,4.44758,100.093,54.3428,211.017,1.07587,-0.2325829999999999,239.792,4.05679,3.72687,-18.8171997070312,22.0025119781494,-18.508367538452102,22.0,58252.9,-246.116,pp-riro,4,0,-1,-1
1570539320.3,2019-10-08,14:55:20.300,15.0,9.0,15.289999961853,-4.0,21.7,9.2,-9.9,-21.6,123.8,-3.06663,20.8435,9.09106,-11.5776,-0.8273290000000001,-0.156033,-5.06968,-14.619000000000002,119.585,-0.0204164,-0.00693718,0.474711,261.0,6.3,52.1701,4.4271400000000005,2.2,0.22662,132.002,4.44765,102.254,53.9628,209.517,1.06654,-0.22085,239.302,4.108140000000001,3.75013,-18.5680160522461,22.0025119781494,-18.3468894958496,22.0,58278.5,215.351,pp-riro,4,0,-1,-1
1570539320.4,2019-10-08,14:55:20.400,15.0,11.0,15.119999885559098,-4.8,21.4,9.0,-10.5,-21.1,124.9,-3.85465,20.5429,8.93249,-6.998419999999999,-1.2572299999999998,-3.99164,-6.81463,-14.1813,122.07,-0.133068,0.0681534999999999,0.318659,261.0,6.3,52.1701,4.4271400000000005,2.2,0.226066,130.346,4.44781,103.393,53.9628,208.917,1.06164,-0.2164489999999999,239.267,4.12387,3.78163,-18.4178161621094,22.0025119781494,-17.915945053100604,22.0,58286.6,153.822,pp-riro,4,0,-1,-1
1570539320.5,2019-10-08,14:55:20.500,15.0,11.0,15.0600004196167,-5.7,21.2,8.9,-12.6,-20.4,128.2,-4.68606,20.3203,8.72145,-8.76719,-1.96621,0.108102,-8.10084,-13.7853,124.289,-0.125883,0.0628253,0.363137,261.0,6.3,52.1701,4.4271400000000005,2.2,0.223295,132.05200000000002,4.44795,106.606,53.2029,207.417,1.0494,-0.198451,239.202,4.1615,3.80404,-18.2505569458008,22.0025119781494,-17.855789184570302,22.0,58310.6,246.116,pp-riro,4,0,-1,-1
1570539320.6,2019-10-08,14:55:20.600,15.0,11.0,14.9399995803833,-6.5,20.9,9.1,-13.2,-20.2,129.1,-5.633719999999999,20.1257,8.74463,-8.2665,-4.1653,1.0613,-9.49286,-13.2412,126.543,-0.423544,0.0149729999999999,0.280719,261.0,6.3,52.1701,4.4271400000000005,2.2,0.238255,140.618,4.448,107.628,52.8229,207.017,1.04586,-0.191867,239.229,4.17039,3.82914,-17.8579940795898,22.0019989013672,-17.4483299255371,22.0,58312.2,0.0,pp-riro,4,0,-1,-1
1570539320.7,2019-10-08,14:55:20.700,15.0,10.0,14.880000114440902,-7.3,20.5,9.1,-14.7,-20.3,131.6,-6.35796,19.7314,8.7932,-8.43389,-5.78734,0.119264,-10.7794,-13.1994,128.74200000000002,0.0130831,-0.14188,0.361869,261.0,6.3,52.1701,4.4271400000000005,2.2,0.2509989999999999,144.358,4.448119999999999,110.783,51.6829,205.917,1.03505,-0.172243,239.47,4.18855,3.84645,-17.607101440429698,22.0025119781494,-17.4204711914062,22.0,58329.1,246.116,pp-riro,4,0,-1,-1
1570539320.8,2019-10-08,14:55:20.800,15.0,12.0,14.9399995803833,-8.0,20.0,8.8,-15.9,-20.4,134.0,-7.164910000000001,19.2999,8.647639999999999,-6.64381,-5.07282,-6.08397,-12.0368,-13.7062,131.24,-0.0305976,-0.306683,0.109067,261.0,6.3,52.1701,4.4271400000000005,2.2,0.247121,143.928,4.44824,111.747,51.3029,204.917,1.03034,-0.166245,238.978,4.21691,3.87725,-17.3800964355469,22.0025119781494,-16.9966659545898,22.0,58359.4,246.116,pp-riro,4,0,-1,-1
1570539320.9,2019-10-08,14:55:20.900,15.0,11.0,15.289999961853,-8.7,19.6,8.6,-16.7,-19.8,135.8,-7.50812,19.0246,8.4935,-5.440519999999999,-6.1391800000000005,-2.82916,-12.781,-13.7393,132.221,-0.1218839999999999,-0.0261857,0.271128,261.0,6.3,52.1701,4.4271400000000005,2.3,0.252107,147.007,4.44835,113.762,50.5429,203.917,1.02272,-0.154058,238.911,4.237019999999999,3.90111,-17.3186569213867,22.0025119781494,-16.8021125793457,22.0,58390.0,215.351,pp-riro,4,0,-1,-1
1570539321.0,2019-10-08,14:55:21.000,15.0,10.0,15.3999996185303,-9.3,19.2,8.7,-17.8,-19.5,137.8,-7.50812,19.0246,8.4935,-5.440519999999999,-6.1391800000000005,-2.82916,-12.781,-13.7393,132.221,-0.1218839999999999,-0.0261857,0.271128,261.0,6.3,52.1701,4.4271400000000005,2.3,0.25654,148.605,4.44847,115.69,49.7829,203.017,1.0155299999999998,-0.142447,238.911,4.2579400000000005,3.91725,-17.1582183837891,22.0025119781494,-16.759801864624,22.0,58414.9,246.116,pp-riro,4,0,-1,-1
1570539321.1,2019-10-08,14:55:21.100,15.0,12.0,15.3999996185303,-10.0,18.8,8.5,-18.5,-19.7,139.7,-9.20105,18.0092,8.398530000000001,-6.22604,-5.709919999999999,3.22765,-15.0839,-13.5777,136.985,-0.410096,-0.0896628,0.185559,261.0,6.3,52.1701,4.4271400000000005,2.3,0.257094,148.52700000000002,4.44859,117.559,48.2629,202.017,1.00929,-0.1257609999999999,238.664,4.26883,3.93804,-16.893669128418,22.0025119781494,-16.5021381378174,22.0,58430.8,307.645,pp-riro,4,0,-1,-1
1570539321.2,2019-10-08,14:55:21.200,15.0,9.0,15.5200004577637,-10.8,18.6,8.0,-18.8,-19.0,141.3,-9.50671,17.8726,8.21003,-6.5056,1.74114,-7.905130000000001,-15.5868,-13.7059,137.894,-0.175144,-0.0720896,0.133931,261.0,6.3,52.1701,4.4271400000000005,2.3,0.259311,154.033,4.44871,119.487,47.5029,201.117,1.00195,-0.114717,238.708,4.28798,3.97007,-16.753707885742198,22.0019989013672,-16.197172164917,22.0,58458.1,246.116,pp-riro,4,0,-1,-1
1570539321.3,2019-10-08,14:55:21.300,15.0,10.0,15.7399997711182,-11.4,17.9,8.1,-19.2,-18.9,142.6,-10.6801,17.2883,7.77493,-9.88375,-10.2657,2.7751900000000003,-16.4101,-12.8957,139.835,-0.0283904,-0.1065599999999999,0.213526,249.4,6.1,52.1701,4.4271400000000005,2.3,0.280366,166.084,4.44882,121.239,46.3629,200.217,0.995615,-0.101684,238.611,4.29593,3.99001,-16.5779113769531,22.0019989013672,-16.055198669433597,22.0,58461.3,0.0,pp-riro,4,0,-1,-1
1570539321.4,2019-10-08,14:55:21.400,15.0,8.0,16.129999160766598,-12.1,17.5,8.1,-19.9,-19.2,144.3,-11.3302,16.8018,7.88858,0.918909,1.76703,2.64818,-17.2884,-13.1535,141.575,0.053194,-0.1529839999999999,0.197034,249.4,6.1,52.1701,4.4271400000000005,2.3,0.303083,175.19799999999998,4.448840000000001,122.962,44.8429,199.317,0.989753,-0.0861478,238.449,4.30384,4.00908,-16.3082427978516,22.003026962280305,-15.8833179473877,22.0,58500.8,399.9380000000001,pp-riro,4,0,-1,-1
1570539321.5,2019-10-08,14:55:21.500,15.0,8.0,16.5599994659424,-12.5,17.0,7.6,-20.1,-18.6,146.0,-11.8047,16.2798,7.51791,-0.702976,-6.93646,-0.934887,-17.7895,-13.3108,143.221,-0.0172557999999999,0.0928838,0.383898,249.4,6.1,52.1701,4.4271400000000005,2.3,0.304191,177.02599999999998,4.44885,124.715,43.7029,198.317,0.983007,-0.0735135,238.314,4.32239,4.03102,-16.0590515136719,22.0035419464111,-15.778263092041,22.0,58524.2,430.703,pp-riro,4,0,-1,-1
1570539321.6,2019-10-08,14:55:21.600,15.0,8.0,16.9300003051758,-13.1,16.3,7.4,-19.9,-17.9,147.3,-12.2824,15.643,7.16,-4.74812,-5.877269999999999,-0.373777,-18.1956,-12.6875,144.721,-0.0289424,-0.0548949,0.227988,249.4,6.1,52.1701,4.4271400000000005,2.3,0.314719,185.568,4.44886,126.35,42.9429,197.517,0.976614,-0.0640993,238.373,4.33897,4.06163,-15.8781356811523,22.0035419464111,-15.5329103469849,22.0,58553.7,246.116,pp-riro,4,0,-1,-1
1570539321.7,2019-10-08,14:55:21.700,15.0,8.0,17.1900005340576,-13.5,15.7,7.4,-20.7,-17.7,148.5,-12.2824,15.643,7.16,-4.74812,-5.877269999999999,-0.373777,-18.1956,-12.6875,144.721,-0.0289424,-0.0548949,0.227988,249.4,6.1,52.1701,4.4271400000000005,2.3,0.328017,184.769,4.44888,127.927,41.0429,196.717,0.971598,-0.0469445,238.218,4.34335,4.07345,-15.6699066162109,22.003026962280305,-15.4939460754395,22.0,58590.2,461.467,pp-riro,4,0,-1,-1
1570539321.8,2019-10-08,14:55:21.800,15.0,9.0,17.5900001525879,-13.6,15.6,7.1,-21.4,-17.2,150.0,-12.9312,15.0064,7.18878,0.887285,-4.11252,-1.34383,-18.537,-12.2953,146.04399999999998,-0.0547355,-0.0428741999999999,0.232593,249.4,6.1,52.1701,4.4271400000000005,2.3,0.303083,172.476,4.4488900000000005,129.417,39.9029,195.817,0.965724,-0.0355831,238.087,4.359380000000001,4.07586,-15.5162963867188,22.003026962280305,-15.7946901321411,22.0,58680.9,984.464,pp-riro,4,0,-1,-1
1570539321.9,2019-10-08,14:55:21.900,15.0,6.0,17.8899993896484,-13.9,15.3,6.6,-21.1,-15.6,151.5,-12.8853,14.6334,6.61678,3.48389,-1.26023,-4.00709,-19.5841,-12.1592,148.418,0.0963134,0.0560584,0.21805,249.4,6.1,52.1701,4.42715,2.5,0.296988,181.16,4.44891,130.936,38.7629,195.117,0.96017,-0.0243418,238.154,4.38649,4.094069999999999,-15.543609619140598,22.0035419464111,-15.7769832611084,22.0,58717.2,123.058,pp-riro,4,0,-1,-1
1570539322.0,2019-10-08,14:55:22.000,15.0,7.0,18.229999542236303,-14.7,14.7,7.0,-21.4,-14.8,153.1,-13.5358,14.3086,6.39395,-10.0269,-4.25818,3.14766,-20.2764,-10.7177,149.91,-0.1617,0.205448,0.387418,249.4,6.1,52.1701,4.42715,2.5,0.35018,207.174,4.44894,132.455,37.2429,194.417,0.954915,-0.0106451,238.179,4.40528,4.11452,-15.6886825561523,22.0035419464111,-15.6939659118652,22.0,58688.4,-369.174,pp-riro,4,0,-1,-1
1570539322.1,2019-10-08,14:55:22.100,15.0,8.0,18.4200000762939,-15.0,14.1,6.8,-21.9,-14.9,154.7,-14.3466,13.7639,6.70153,-2.08558,-6.699960000000001,2.16112,-20.7626,-9.27002,151.35399999999998,-0.131156,0.0901756,0.323129,249.4,6.1,52.1701,4.42715,2.5,0.373452,211.731,4.448930000000001,133.798,35.7229,193.617,0.949908,0.00254953,238.046,4.41551,4.131959999999999,-15.8132781982422,22.003026962280305,35.0,22.0,58781.4,1076.76,pp-riro,4,0,-1,-1
1570539322.2,2019-10-08,14:55:22.200,15.0,7.0,18.5699996948242,-15.1,13.7,6.3,-22.3,-14.1,156.4,-14.265,13.2238,6.321619999999999,-4.64499,-10.2895,-7.47088,-21.2499,-9.43205,153.125,0.118948,-0.0803257,0.140313,249.4,6.1,52.1701,4.42715,2.5,0.363478,214.541,4.44895,135.142,34.5829,192.917,0.944741,0.012916,238.068,4.43842,4.147930000000001,-15.6955108642578,22.003026962280305,35.0,22.0,58858.7,492.232,pp-riro,4,0,-1,-1
1570539322.3,2019-10-08,14:55:22.300,15.0,8.0,18.659999847412102,-15.6,13.1,6.2,-22.9,-12.4,157.4,-14.6311,12.7763,5.88911,-5.8262,-8.24797,-0.803656,-21.9319,-8.90047,154.519,0.0826345,0.150636,0.217988,253.9,6.7,52.1701,4.42715,2.5,0.541339,218.106,4.44896,136.45600000000002,32.6828,192.217,0.940229,0.0283434,237.983,4.456980000000001,4.16886,-15.6426010131836,22.003026962280305,35.0,22.0,58140.1,-13290.3,pp-riro,4,0,-1,-1
1570539322.4,2019-10-08,14:55:22.400,15.0,12.0,18.7600002288818,-15.7,12.8,5.9,-23.5,-11.6,159.4,-14.9885,12.2438,5.82849,-2.47233,-1.49099,-3.94747,-22.5829,-7.59635,155.935,-0.182555,0.102898,0.444696,253.9,6.7,52.1701,4.42715,2.5,1.06273,208.976,4.449,137.683,31.1628,191.517,0.935609,0.0408059,237.921,4.48264,4.17697,-15.2841796875,22.003026962280305,35.0,22.0,55954.7,-25011.5,pp-riro,4,0,-1,-1
1570539322.5,2019-10-08,14:55:22.500,15.0,9.0,18.7999992370605,-15.5,12.3,5.3,-24.0,-11.0,161.3,-14.9885,12.2438,5.82849,-2.47233,-1.49099,-3.94747,-22.5829,-7.59635,155.935,-0.182555,0.102898,0.444696,253.9,6.7,52.1701,4.42715,2.5,0.804528,157.686,4.4490300000000005,138.88,29.6428,190.917,0.93126,0.0530741,237.941,4.50505,4.18944,-14.5639190673828,22.003026962280305,35.0,22.0,58124.5,5199.2,pp-riro,4,0,-1,-1
1570539322.6,2019-10-08,14:55:22.600,15.0,9.0,18.9400005340576,-15.4,11.7,5.3,-24.4,-10.6,163.1,-14.7418,11.7235,5.0403400000000005,0.72854,0.1315079999999999,-9.32738,-23.0016,-6.69354,158.985,0.307536,-0.232893,0.2114489999999999,253.9,6.7,52.1701,4.42715,2.5,0.922547,179.267,4.44906,140.019,28.1228,190.317,0.927033,0.0651146,237.943,4.52416,4.19384,-13.4886474609375,22.003026962280305,35.0,22.0,57588.9,-3568.68,pp-riro,4,0,-1,-1
1570539322.7,2019-10-08,14:55:22.700,15.0,9.0,18.9400005340576,-15.6,11.5,5.1,-24.7,-9.3,164.1,-14.8628,11.098,5.03878,-2.62851,-3.7064,1.8048,-23.6242,-6.423430000000001,160.614,-0.358617,-0.0113704,0.2058019999999999,253.9,6.7,52.1701,4.42715,2.5,0.924763,194.508,4.4491,141.1,26.6028,189.717,0.92293,0.0769424,237.928,4.541930000000001,4.201630000000001,-12.049835205078098,22.003026962280305,35.0,22.0,57894.2,3045.68,pp-riro,4,0,-1,-1
1570539322.8,2019-10-08,14:55:22.800,15.0,7.0,18.75,-15.5,11.0,5.2,-24.8,-7.2,164.6,-15.1018,10.9156,4.94348,1.63142,2.1689,-3.99869,-23.9515,-5.45632,161.915,-0.157195,0.107268,0.310494,253.9,6.7,52.1701,4.42715,2.5,0.945819,193.859,4.44913,142.181,25.0828,189.217,0.919015,0.088642,238.008,4.56149,4.201569999999999,-10.2645492553711,22.003026962280305,35.0,22.0,57944.1,861.4060000000001,pp-riro,4,0,-1,-1
1570539322.9,2019-10-08,14:55:22.900,15.0,7.0,18.520000457763697,-15.4,10.1,5.4,-25.3,-7.4,166.1,-15.0087,10.0149,5.20591,-1.39827,-2.92949,4.41352,-24.2993,-5.7483,164.293,-0.144744,-0.189153,0.244421,253.9,6.7,52.1701,4.42715,2.5,0.924209,186.71,4.44916,143.232,23.1827,188.617,0.91508,0.102764,237.969,4.5686800000000005,4.20972,-8.17375183105469,22.003026962280305,35.0,22.0,58194.9,2091.99,pp-riro,4,0,-1,-1
1570539323.0,2019-10-08,14:55:23.000,15.0,7.0,18.0300006866455,-15.2,10.2,5.3,-26.0,-7.2,166.9,-15.0232,9.73424,5.25236,1.00462,-4.213830000000001,1.17479,-24.3956,-5.81168,164.86,0.0287013,-0.145069,0.106928,253.9,6.7,52.1701,4.42715,2.5,0.8981680000000001,155.649,4.4492,144.167,22.0427,188.017,0.911057,0.111471,237.951,4.57471,4.196280000000001,-6.064178466796879,22.003026962280305,35.0,22.0,58452.1,3537.92,pp-riro,4,0,-1,-1
1570539323.1,2019-10-08,14:55:23.100,15.0,8.0,17.9300003051758,-14.6,10.4,4.9,-25.7,-5.5,166.4,-14.446,10.0434,4.83735,8.05626,4.50215,-0.736545,-25.1458,-5.77945,165.90400000000002,0.214034,0.1202569999999999,0.0671505,253.9,6.7,52.1701,4.42715,2.5,0.833894,140.425,4.44923,145.16,20.5227,187.517,0.907243,0.1227109999999999,238.024,4.57704,4.17321,-3.95459747314453,22.0025119781494,35.0,22.0,58840.0,3045.68,pp-riro,4,0,-1,-1
1570539323.2,2019-10-08,14:55:23.200,15.0,6.0,17.6399993896484,-14.6,9.9,5.4,-25.9,-6.1,167.2,-14.446,10.0434,4.83735,8.05626,4.50215,-0.736545,-25.1458,-5.77945,165.90400000000002,0.214034,0.1202569999999999,0.0671505,253.9,6.7,52.1701,4.42715,2.5,0.8521790000000001,154.97,4.44926,146.124,19.0027,187.017,0.903465,0.1338079999999999,238.094,4.57275,4.16632,-1.84844207763672,22.0025119781494,35.0,22.0,58776.9,-1415.17,pp-riro,4,0,-1,-1
1570539323.3,2019-10-08,14:55:23.300,15.0,7.0,17.479999542236303,-14.5,9.6,6.0,-26.4,-7.0,167.0,-14.446,10.0434,4.83735,8.05626,4.50215,-0.736545,-25.1458,-5.77945,165.90400000000002,0.214034,0.1202569999999999,0.0671505,255.3,6.5,52.1701,4.42715,2.5,0.8771120000000001,161.62,4.4493,147.029,17.8627,186.317,0.89915,0.1422119999999999,238.014,4.55362,4.14896,0.2503662109375,22.0025119781494,35.0,22.0,58737.2,-738.3480000000001,pp-riro,4,0,-1,-1
1570539323.4,2019-10-08,14:55:23.400,15.0,8.0,17.1800003051758,-13.6,9.8,5.8,-26.7,-8.0,166.3,-14.2894,9.92527,4.78431,0.7290220000000001,-2.07118,0.903367,-25.2937,-5.73263,165.97400000000002,-0.1708609999999999,0.0158227999999999,-0.054036,255.3,6.5,52.1701,4.42715,2.5,0.880991,155.579,4.44931,147.993,15.9627,185.717,0.895143,0.155642,238.008,4.5227,4.10668,2.35885620117188,22.0025119781494,35.0,22.0,58888.6,2338.1,pp-riro,4,0,-1,-1
1570539323.5,2019-10-08,14:55:23.500,15.0,7.0,16.6000003814697,-13.2,10.2,5.9,-27.2,-8.9,165.5,-13.9902,9.63374,5.79899,7.09288,5.04154,-2.19166,-25.8308,-8.73546,166.93599999999998,-0.0764984,-0.297514,-0.107281,255.3,6.5,52.1701,4.42715,2.5,0.8483,142.727,4.449319999999999,148.928,14.8227,185.117,0.890905,0.163866,238.05,4.49561,4.06994,4.46563720703125,22.0019989013672,35.0,22.0,59129.9,2215.04,pp-riro,4,0,-1,-1
1570539323.6,2019-10-08,14:55:23.600,15.0,7.0,16.3899993896484,-13.4,10.5,6.5,-27.5,-9.1,163.1,-13.5071,10.1228,5.67525,-0.0683174,1.0797,3.07494,-26.3089,-10.2645,165.859,-0.0977844,0.159861,-0.381414,255.3,6.5,52.1701,4.42715,2.5,0.86049,154.523,4.449330000000001,149.95,13.6827,184.517,0.886352,0.17206,238.157,4.4545900000000005,4.045,6.57752990722656,22.0025119781494,35.0,22.0,59198.3,-30.7645,pp-riro,4,0,-1,-1
1570539323.7,2019-10-08,14:55:23.700,15.0,7.0,15.8400001525879,-13.1,10.5,7.5,-28.4,-10.8,161.4,-13.5071,10.1228,5.67525,-0.0683174,1.0797,3.07494,-26.3089,-10.2645,165.859,-0.0977844,0.159861,-0.381414,255.3,6.5,52.1701,4.42715,2.5,0.876558,157.894,4.44935,150.914,12.1626,183.817,0.881792,0.182625,238.142,4.40511,3.99884,8.684326171875,22.0025119781494,35.0,22.0,59269.5,1169.05,pp-riro,4,0,-1,-1
1570539323.8,2019-10-08,14:55:23.800,15.0,8.0,15.4399995803833,-12.1,10.9,8.1,-29.4,-13.6,160.4,-13.5071,10.1228,5.67525,-0.0683174,1.0797,3.07494,-26.3089,-10.2645,165.859,-0.0977844,0.159861,-0.381414,255.3,6.5,52.1701,4.42715,2.5,0.8726799999999999,154.972,4.44936,151.966,11.0226,183.017,0.87654,0.190624,238.139,4.35535,3.92668,10.791107177734402,22.0019989013672,35.0,22.0,59356.0,1538.22,pp-riro,4,0,-1,-1
1570539323.9,2019-10-08,14:55:23.900,15.0,9.0,15.1000003814697,-11.2,11.4,8.2,-29.4,-15.6,158.2,-12.6765,11.1065,7.900060000000001,11.5381,8.368160000000001,6.883589999999999,-28.1979,-16.6311,162.543,-0.125276,-0.32025,-0.429064,255.3,6.5,52.1701,4.42715,2.5,0.855503,144.888,4.44937,153.017,9.88264,182.217,0.871257,0.198524,238.149,4.2984800000000005,3.86707,12.8996047973633,22.0025119781494,35.0,22.0,59513.6,1599.75,pp-riro,4,0,-1,-1
1570539324.0,2019-10-08,14:55:24.000,15.0,9.0,15.1000003814697,-10.7,11.8,8.8,-29.2,-17.3,154.2,-12.3853,11.4213,8.02472,7.092910000000001,4.888380000000001,4.06529,-28.4944,-17.9809,161.566,-0.281363,-0.0651031999999999,-0.528709,255.3,6.5,52.1701,4.42715,2.5,0.837773,136.655,4.449380000000001,154.185,8.362630000000001,181.417,0.8656389999999999,0.208823,238.234,4.21935,3.81356,15.0200119018555,22.0025119781494,35.0,22.0,59668.6,1599.75,pp-riro,4,0,-1,-1
1570539324.1,2019-10-08,14:55:24.100,15.0,8.0,15.2700004577637,-10.1,11.9,9.7,-29.2,-20.0,150.6,-11.9929,11.6946,8.10485,8.38054,8.36782,3.16626,-28.5427,-19.082,160.058,-0.327336,-0.0167968,-0.640202,255.3,6.5,52.1701,4.42715,2.5,0.83334,137.27100000000002,4.44939,155.32399999999998,7.602639999999999,180.517,0.8596799999999999,0.214087,238.264,4.13952,3.76107,17.1216888427734,22.0025119781494,35.0,22.0,59810.8,707.5830000000001,pp-riro,4,0,-1,-1
1570539324.2,2019-10-08,14:55:24.200,15.0,8.0,15.2700004577637,-8.9,12.0,10.2,-28.8,-23.2,146.8,-11.3379,12.3616,9.29287,6.52962,-0.97846,9.12177,-28.3921,-23.099,155.165,-0.0490238,-0.5229060000000001,-0.736949,255.3,6.5,52.1701,4.42715,2.5,0.835556,136.66,4.449409999999999,156.464,6.84266,179.61700000000002,0.853709,0.219277,238.306,4.053059999999999,3.68903,19.2369918823242,22.0025119781494,35.0,22.0,59835.6,461.467,pp-riro,4,0,-1,-1
1570539324.3,2019-10-08,14:55:24.300,15.0,12.0,15.3299999237061,-7.5,12.6,10.6,-28.4,-26.2,142.8,-9.78509,12.7939,10.3966,9.71097,7.748369999999999,0.646904,-28.6788,-29.4366,151.452,-0.345325,-0.326843,-0.806485,265.0,8.2,52.1701,4.42715,2.5,0.831678,129.194,4.44942,157.719,6.082669999999999,178.517,0.8468049999999999,0.224423,238.287,3.96741,3.59839,21.3454818725586,22.0025119781494,35.0,22.0,59956.9,1507.46,pp-riro,4,0,-1,-1
1570539324.4,2019-10-08,14:55:24.400,15.0,9.0,15.2700004577637,-6.3,12.9,11.1,-27.2,-28.6,137.7,-7.7284,13.8219,11.1466,12.8021,2.89675,7.555339999999999,-27.3946,-33.7945,144.27100000000002,-0.237863,-0.0440427,-0.809846,265.0,8.2,52.1701,4.42715,2.5,0.807298,119.41,4.44946,158.946,4.94268,177.61700000000002,0.840576,0.231846,238.403,3.87261,3.51965,23.457374572753896,22.0025119781494,35.0,22.0,60115.4,1384.4,pp-riro,4,0,-1,-1
1570539324.5,2019-10-08,14:55:24.500,15.0,9.0,15.1499996185303,-5.1,13.4,11.8,-25.5,-31.4,132.3,-7.02565,13.9635,11.5138,14.2557,2.44484,10.1003,-26.9877,-35.6209,141.719,-0.222541,-0.315494,-0.815175,265.0,8.2,52.1701,4.42715,2.5,0.8067439999999999,131.259,4.44949,160.231,4.1827,176.517,0.8335530000000001,0.2367969999999999,238.432,3.77385,3.4393800000000003,25.5624618530273,22.0025119781494,35.0,22.0,60195.6,0.0,pp-riro,4,0,-1,-1
1570539324.6,2019-10-08,14:55:24.600,15.0,10.0,15.1499996185303,-4.3,13.8,12.2,-24.8,-32.6,128.9,-6.52643,14.2832,11.9311,8.21235,5.11267,8.155389999999999,-26.5391,-37.7109,139.19899999999998,-0.434699,-0.206894,-0.8790709999999999,265.0,8.2,52.1701,4.42715,2.5,0.832786,144.832,4.44953,160.903,4.18272,175.917,0.8297760000000001,0.236869,238.441,3.71946,3.39039,27.6641464233398,22.0025119781494,35.0,22.0,60130.9,-1292.11,pp-riro,4,0,-1,-1
1570539324.7,2019-10-08,14:55:24.700,15.0,11.0,15.0299997329712,-2.7,14.3,13.2,-22.4,-35.0,121.7,-5.03011,15.1178,12.9021,14.2138,6.54275,8.47649,-25.6882,-41.4645,133.341,-0.5259149999999999,-0.294087,-1.05778,265.0,8.2,52.1701,4.42715,2.5,0.881545,166.255,4.44957,162.276,3.80276,174.817,0.822448,0.239392,238.556,3.60516,3.29665,29.7368621826172,22.0025119781494,35.0,22.0,60058.4,-430.703,pp-riro,4,0,-1,-1
1570539324.8,2019-10-08,14:55:24.800,15.0,13.0,15.1499996185303,-0.7,14.2,14.1,-18.7,-38.5,114.0,-3.0827400000000003,15.7264,13.9658,22.5796,0.110166,12.0516,-24.4953,-45.3386,127.532,-0.251241,-0.392609,-0.94249,265.0,8.2,52.1701,4.42715,2.5,0.8987219999999999,172.99900000000002,4.4496,163.736,3.42279,173.417,0.813995,0.241883,238.526,3.4814800000000004,3.1914,31.479187011718803,22.0019989013672,35.0,22.0,60142.9,1230.58,pp-riro,4,0,-1,-1
1570539324.9,2019-10-08,14:55:24.900,15.0,13.0,15.3199996948242,1.2,14.2,14.2,-14.4,-41.2,105.8,-1.00898,15.8929,14.9344,19.2519,1.54589,7.96802,-21.7472,-50.1033,121.467,-0.425966,-0.272296,-1.09063,265.0,8.2,52.1701,4.42716,2.5,0.902046,178.33900000000003,4.4496400000000005,165.138,3.4228400000000003,172.11700000000002,0.8059810000000001,0.242023,238.551,3.36329,3.09656,32.875762939453104,22.003026962280305,35.0,22.0,60238.9,646.054,pp-riro,4,0,-1,-1
1570539325.0,2019-10-08,14:55:25.000,15.0,14.0,15.6000003814697,3.2,14.0,14.5,-6.2,-43.8,91.7,0.0408981999999999,15.9972,15.1016,20.9478,-3.9774,8.17879,-19.651,-52.3424,117.082,-0.609798,-0.2347719999999999,-1.09046,265.0,8.2,52.1701,4.42716,2.5,0.929196,192.857,4.44968,167.18200000000002,3.80292,170.017,0.793674,0.2399659999999999,238.475,3.17942,2.99992,33.9180755615234,22.003026962280305,23.0139999389648,22.0,60342.9,984.464,pp-riro,4,0,-1,-1
1570539325.1,2019-10-08,14:55:25.100,15.0,13.0,15.8299999237061,6.0,13.4,14.9,0.1,-44.3,80.9,1.27148,15.9684,15.1595,21.2105,-5.51749,-2.8,-17.1253,-53.9964,112.092,-0.16922,-0.239415,-1.12563,265.0,8.2,52.1701,4.42716,2.5,0.934183,195.182,4.44971,167.88299999999998,3.80294,168.61700000000002,0.78745,0.240035,237.973,3.04428,2.86553,34.602752685546896,22.003026962280305,23.0139999389648,22.0,60390.4,892.17,pp-ro,1,1,-1,-1
1570539325.2,2019-10-08,14:55:25.200,15.0,12.0,16.2099990844727,7.0,12.9,14.7,3.7,-44.8,75.3,5.74541,15.511,15.9439,23.0643,-4.55004,1.37646,-1.52988,-57.8551,86.3744,0.160998,-0.280512,-1.23054,265.0,8.2,52.1701,4.42716,2.5,0.93917,192.617,4.44975,169.19799999999998,4.563,167.917,0.781417,0.235673,238.421,2.97939,2.81529,34.9297485351562,22.0035419464111,23.0163822174072,22.0,60606.3,1907.4,pp-ro,1,1,-1,-1
1570539325.3,2019-10-08,14:55:25.300,15.0,12.0,16.3199996948242,8.6,11.9,14.2,10.7,-44.0,64.5,8.97794,14.2223,15.3255,26.697,-10.8215,-10.7914,12.2938,-57.9411,65.7099,-0.202153,-0.313104,-1.20433,259.8,7.2,52.1701,4.42716,2.5,0.91756,174.92700000000002,4.44979,170.424,4.94305,166.517,0.773591,0.233602,238.321,2.8465700000000003,2.72493,34.9416656494141,22.003026962280305,23.0139999389648,22.0,60859.8,2891.86,pp-ro,1,1,-1,-1
1570539325.4,2019-10-08,14:55:25.400,15.0,12.0,16.5300006866455,10.2,11.1,13.2,16.5,-42.3,54.7,8.97794,14.2223,15.3255,26.697,-10.8215,-10.7914,12.2938,-57.9411,65.7099,-0.202153,-0.313104,-1.20433,259.8,7.2,52.1701,4.42716,2.5,0.8737879999999999,157.661,4.44979,171.53400000000002,6.08312,165.217,0.7663270000000001,0.227154,238.238,2.72371,2.62997,34.566970825195305,22.003026962280305,23.0139999389648,22.0,61125.3,2030.46,pp-ro,1,1,-1,-1
1570539325.5,2019-10-08,14:55:25.500,15.0,12.0,16.479999542236303,11.7,10.4,12.6,20.9,-40.1,46.5,10.9736,13.3101,14.2519,24.2467,-0.5133949999999999,-16.8763,21.768,-55.9427,51.5057,-0.5550149999999999,0.0477609,-1.37316,259.8,7.2,52.1701,4.42716,2.5,0.8693549999999999,157.22299999999998,4.4497800000000005,172.644,7.22319,164.11700000000002,0.759646,0.220793,238.312,2.6144700000000003,2.54658,33.815887451171896,22.003026962280305,23.0139999389648,22.0,61193.7,1261.34,pp-ro,1,1,-1,-1
1570539325.6,2019-10-08,14:55:25.600,15.0,12.0,16.370000839233402,13.1,9.5,12.1,25.0,-36.5,38.5,13.6507,12.0875,13.1011,3.62785,-11.6546,-2.9562,29.5293,-50.3183,36.9954,-0.790083,0.414247,-1.35411,259.8,7.2,52.1701,4.42716,2.5,0.88487,172.11900000000003,4.4497800000000005,173.695,7.983239999999999,163.017,0.7531680000000001,0.216683,238.345,2.49107,2.46428,32.7139587402344,22.003026962280305,21.9849166870117,22.0,61235.3,30.7645,pp-ro,1,1,-1,-1
1570539325.7,2019-10-08,14:55:25.700,15.0,12.0,16.3099994659424,14.3,8.4,11.4,28.6,-33.3,31.1,14.4883,11.4793,12.8044,8.686689999999999,-15.2998,-7.33075,31.1001,-48.1631,33.2779,-0.542755,0.0765366,-1.17647,259.8,7.2,52.1701,4.42716,2.5,0.932521,191.27,4.44977,174.601,9.88332,161.917,0.746927,0.2060719999999999,238.328,2.37957,2.3846700000000003,31.2560729980469,22.0035419464111,20.577472686767603,22.0,61227.2,399.9380000000001,pp-ro,1,1,-1,-1
1570539325.8,2019-10-08,14:55:25.800,15.0,15.0,16.2600002288818,15.3,7.6,10.4,31.5,-30.0,24.3,16.4504,9.67043,11.3952,11.7996,-10.9213,-8.03985,36.2474,-42.2242,21.2941,-0.437502,-0.166784,-1.14717,259.8,7.2,52.1701,4.42716,2.5,0.927534,185.252,4.44977,175.44799999999998,11.0234,161.017,0.741553,0.199874,238.39,2.26903,2.30831,29.443923950195305,22.003026962280305,19.2354774475098,22.0,61436.4,2491.92,pp-ro,1,1,-1,-1
1570539325.9,2019-10-08,14:55:25.900,15.0,15.0,16.3099994659424,16.3,6.9,9.5,34.1,-24.5,15.6,16.4504,9.67043,11.3952,11.7996,-10.9213,-8.03985,36.2474,-42.2242,21.2941,-0.437502,-0.166784,-1.14717,259.8,7.2,52.1701,4.42716,2.5,0.917006,183.961,4.44976,176.265,12.1634,160.11700000000002,0.736246,0.1937289999999999,238.442,2.10883,2.23723,27.359275817871104,22.003026962280305,18.000957489013697,22.0,61556.7,2276.57,pp-ro,1,1,-1,-1
1570539326.0,2019-10-08,14:55:26.000,15.0,14.0,16.3099994659424,16.9,5.9,8.8,36.7,-20.9,10.2,17.129,9.23625,10.8816,11.8296,-1.37909,-12.1816,37.5856,-40.1368,17.8814,-0.478376,0.0749093999999999,-1.15199,259.8,7.2,52.1701,4.42716,2.5,0.922547,191.857,4.44976,177.025,14.0635,159.317,0.731234,0.183353,238.574,2.00986,2.17765,25.2593078613281,22.003026962280305,16.965145111084002,22.0,61636.6,307.645,pp-ro,1,1,-1,-1
1570539326.1,2019-10-08,14:55:26.100,15.0,14.0,16.3600006103516,17.3,5.0,7.8,37.5,-19.3,8.0,18.8756,7.09731,8.89027,5.685569999999999,-13.6025,-11.3264,40.3735,-30.4619,6.27489,-0.0291184,-0.0373439,-1.03991,259.8,7.2,52.1701,4.42716,2.5,0.939724,190.811,4.44975,177.93,16.7236,158.517,0.725577,0.168921,238.886,1.97436,2.11817,23.1593322753906,22.003026962280305,15.9480810165405,22.0,61713.0,1230.58,pp-ro,1,1,-1,-1
1570539326.2,2019-10-08,14:55:26.200,15.0,14.0,16.3600006103516,17.5,4.4,6.7,38.6,-15.8,4.0,19.2514,6.05058,7.87928,0.26114,-10.4201,-16.926,41.5004,-26.1647,2.31997,-0.5185350000000001,0.161942,-0.980811,259.8,7.2,52.1701,4.42716,2.5,0.904817,167.687,4.44975,178.222,17.4836,157.817,0.7223729999999999,0.164853,238.694,1.88699,2.06038,21.231369018554695,22.003026962280305,14.9150047302246,22.0,62061.4,3845.56,pp-ro,1,1,-1,-1
1570539326.3,2019-10-08,14:55:26.300,15.0,12.0,16.4699993133545,17.9,4.0,5.8,39.9,-12.4,0.6,19.2514,6.05058,7.87928,0.26114,-10.4201,-16.926,41.5004,-26.1647,2.31997,-0.5185350000000001,0.161942,-0.980811,262.6,7.0,52.1701,4.42716,2.5,0.863814,157.17700000000002,4.44974,178.77700000000002,19.3837,157.217,0.718421,0.154642,238.86,1.8111,2.01452,19.4430694580078,22.003026962280305,14.1306381225586,22.0,62293.4,1722.81,pp-ro,1,1,-1,-1
1570539326.4,2019-10-08,14:55:26.400,15.0,12.0,16.4699993133545,18.5,3.3,5.2,40.9,-8.9,-2.4,20.0211,4.7433,5.71744,2.48622,-12.1191,-8.29166,42.6152,-16.9929,-4.70148,-0.423523,0.177572,-0.767101,262.6,7.0,52.1701,4.42716,2.5,0.909803,183.86900000000003,4.44975,179.273,21.2838,156.717,0.7148979999999999,0.144468,239.065,1.73793,1.96617,17.7893218994141,22.003026962280305,13.2848682403564,22.0,62248.7,-215.351,pp-ro,1,1,-1,-1
1570539326.5,2019-10-08,14:55:26.500,15.0,11.0,16.4099998474121,18.7,2.7,4.7,42.2,-5.9,-5.9,20.4818,3.79171,5.175619999999999,-0.983192,-10.0867,-5.49087,43.1547,-13.1727,-7.997610000000001,-0.2471449999999999,0.0964211,-0.8134239999999999,262.6,7.0,52.1701,4.42716,2.5,0.923655,189.715,4.44974,179.653,22.8038,156.217,0.711778,0.136392,239.163,1.6640099999999998,1.9304,16.3178100585938,22.0035419464111,12.685821533203098,22.0,62266.8,338.409,pp-ro,1,1,-1,-1
1570539326.6,2019-10-08,14:55:26.600,15.0,9.0,16.3600006103516,18.7,2.0,4.0,43.1,-3.1,-8.9,20.5226,2.59061,4.00367,3.00897,-10.1698,-10.3786,44.3209,-8.052810000000001,-12.5036,0.0822883,0.0847173,-0.72208,262.6,7.0,52.1701,4.42716,2.5,0.928642,184.544,4.44977,180.033,25.0839,155.61700000000002,0.7080310000000001,0.1241849999999999,239.285,1.60094,1.88876,15.0029754638672,22.003026962280305,11.9932193756104,22.0,62405.6,1845.87,pp-ro,1,1,-1,-1
1570539326.7,2019-10-08,14:55:26.700,15.0,9.0,16.3600006103516,18.8,1.4,3.3,43.8,-0.4,-11.0,20.4978,2.21328,3.6764,1.87383,-7.0909,-4.1036,44.9436,-6.50142,-13.6188,0.0616946,0.0173636,-0.709773,262.6,7.0,52.1701,4.42716,2.5,0.8793290000000001,161.266,4.44977,180.324,27.3639,155.217,0.705086,0.112017,239.495,1.54928,1.84847,13.8840103149414,22.003026962280305,11.2997312545776,22.0,62806.0,2584.22,pp-ro,1,1,-1,-1
1570539326.8,2019-10-08,14:55:26.800,15.0,8.0,16.3600006103516,18.9,0.6,2.7,44.6,1.2,-12.8,20.3896,1.47414,2.9209400000000003,0.47225,0.28328,-6.83705,45.6575,-3.82312,-15.845999999999998,0.351414,0.0911463999999999,-0.499579,262.6,7.0,52.1701,4.42716,2.5,0.877666,166.11700000000002,4.4497800000000005,180.5,28.884,154.717,0.702394,0.103932,239.482,1.51296,1.8021,12.8689422607422,22.003026962280305,10.488245010376,22.0,62868.7,0.0,pp-ro,1,1,-1,-1
1570539326.9,2019-10-08,14:55:26.900,15.0,9.0,16.25,18.7,0.0,2.5,45.5,2.2,-14.2,20.3366,1.04054,2.58778,4.78868,-3.84177,-4.27498,45.9792,-2.70943,-16.6056,0.307425,-0.0328857,-0.413705,262.6,7.0,52.1701,4.42716,2.6,0.8953969999999999,168.451,4.44979,180.646,31.164,154.317,0.699724,0.0917695,239.62,1.4918,1.78246,12.1876831054688,22.003026962280305,10.2113885879517,22.0,62913.6,922.935,pp-ro,1,1,-1,-1
1570539327.0,2019-10-08,14:55:27.000,15.0,8.0,16.0799999237061,18.5,-0.1,2.3,46.5,3.2,-15.4,19.9761,0.2261929999999999,2.3105,-3.45923,-2.57947,-1.89444,46.5673,-1.05494,-18.0415,0.117868,0.0987044,-0.535618,262.6,7.0,52.1701,4.42716,2.6,0.890965,163.05100000000002,4.44979,180.733,33.0641,153.917,0.697322,0.0816523999999999,239.683,1.47155,1.77845,11.3310012817383,22.0025119781494,10.2442569732666,22.0,63006.2,1784.34,pp-ro,1,1,-1,-1
1570539327.1,2019-10-08,14:55:27.100,15.0,8.0,15.6999998092651,18.5,-0.2,2.0,47.5,4.6,-16.2,19.8373,0.0363928,2.0328,-1.6618400000000002,-3.57154,-5.96031,47.6679,0.8025939999999999,-18.935,0.120826,0.262397,-0.268711,262.6,7.0,52.1701,4.42716,2.6,0.864368,148.87,4.4498,180.85,34.9641,153.517,0.6947949999999999,0.0716128,239.784,1.4504,1.76917,10.6207962036133,22.0025119781494,10.1863136291504,22.0,63240.9,2368.87,pp-ro,1,1,-1,-1
1570539327.2,2019-10-08,14:55:27.200,15.0,8.0,15.1899995803833,18.5,-0.6,1.9,48.8,5.7,-17.1,19.8373,0.0363928,2.0328,-1.6618400000000002,-3.57154,-5.96031,47.6679,0.8025939999999999,-18.935,0.120826,0.262397,-0.268711,262.6,7.0,52.1701,4.42716,2.6,0.8444219999999999,144.16899999999998,4.44981,180.879,36.8642,153.217,0.692771,0.061533,239.899,1.43212,1.75745,10.2512130737305,22.0019989013672,10.0611600875854,22.0,63403.7,1261.34,pp-ro,1,1,-1,-1
1570539327.3,2019-10-08,14:55:27.300,15.0,11.0,14.7700004577637,18.3,-1.0,1.9,49.7,6.4,-18.5,19.5235,-0.6358590000000001,1.72889,-4.84532,-5.92928,0.00949972,49.495,4.386819999999999,-20.4773,0.3392719999999999,-0.084918,-0.206788,260.1,7.6,52.1701,4.42716,2.6,0.853841,150.983,4.44981,180.879,38.7642,152.917,0.690774,0.0514579,240.007,1.4136,1.75029,10.2001190185547,22.0025119781494,10.0333566665649,22.0,63432.2,123.058,pp-ro,1,1,-1,-1
1570539327.4,2019-10-08,14:55:27.400,15.0,14.0,14.289999961853,18.2,-1.3,1.6,50.5,7.2,-19.7,19.3212,-1.17779,1.51265,3.29785,-3.10128,-2.97519,50.6377,5.6496,-22.612,-0.00248993,-0.111328,-0.221331,260.1,7.6,52.1701,4.42716,2.6,0.874342,159.51,4.44981,180.791,40.6642,152.61700000000002,0.6889569999999999,0.0413361,240.064,1.39602,1.73383,10.0757904052734,22.0019989013672,9.81813526153564,22.0,63467.1,430.703,pp-ro,1,1,-1,-1
1570539327.5,2019-10-08,14:55:27.500,15.0,15.0,13.9799995422363,18.2,-1.8,1.3,51.2,7.8,-20.8,19.2872,-1.45087,1.35496,-0.878667,-3.57623,-3.21922,51.0646,6.16901,-23.2585,0.166036,-0.0280827,-0.286686,260.1,7.6,52.1701,4.42716,2.6,0.878775,164.002,4.4498,180.704,42.5643,152.417,0.687412,0.0312567,240.201,1.38221,1.71005,10.0757904052734,22.0019989013672,9.4492769241333,22.0,63618.9,1015.23,pp-ro,1,1,-1,-1
1570539327.6,2019-10-08,14:55:27.600,15.0,13.0,13.8500003814697,18.3,-2.3,1.1,51.8,8.5,-22.4,19.1891,-1.73374,1.20413,0.1712779999999999,-4.29934,-3.26676,51.2441,6.57272,-24.0196,0.1476819999999999,-0.135473,-0.264475,260.1,7.6,52.1701,4.42716,2.6,0.892073,174.136,4.4498,180.557,44.4643,152.217,0.6859689999999999,0.0211368,240.308,1.36155,1.69077,9.94975280761719,22.0025119781494,9.17280292510986,22.0,63668.0,307.645,pp-ro,1,1,-1,-1
1570539327.7,2019-10-08,14:55:27.700,15.0,16.0,13.789999961853,18.5,-2.9,0.6,52.4,9.3,-24.1,19.1891,-1.73374,1.20413,0.1712779999999999,-4.29934,-3.26676,51.2441,6.57272,-24.0196,0.1476819999999999,-0.135473,-0.264475,260.1,7.6,52.1701,4.42716,2.6,0.916452,184.913,4.44979,180.353,46.3644,152.017,0.6846260000000001,0.01097,240.387,1.33848,1.6565,9.66362762451172,22.0025119781494,8.59947967529297,22.0,63705.0,615.29,pp-ro,1,1,-1,-1
1570539327.8,2019-10-08,14:55:27.800,15.0,15.0,13.789999961853,18.4,-3.8,0.3,52.2,9.4,-26.0,19.5506,-3.23721,0.39687,0.380902,-9.0496,-2.0399,51.9328,8.40705,-27.7328,-0.0128784,-0.1728029999999999,-0.356702,260.1,7.6,52.1701,4.42716,2.6,0.923655,189.368,4.4497800000000005,180.06099999999998,48.2644,151.917,0.683778,0.000718265,240.479,1.32256,1.61998,9.26168823242188,22.003026962280305,7.960345268249509,22.0,63759.7,984.464,pp-ro,1,1,-1,-1
1570539327.9,2019-10-08,14:55:27.900,15.0,11.0,13.789999961853,17.8,-4.7,-0.1,51.8,8.5,-27.7,19.4927,-3.64763,0.180687,-6.87321,-10.2216,-6.35709,51.7443,8.3325,-28.6884,-0.1064069999999999,-0.221482,-0.0822643999999999,260.1,7.6,52.1701,4.427169999999999,2.7,0.936953,200.678,4.4497800000000005,179.65200000000002,50.5444,151.817,0.682905,-0.0116438,240.578,1.32347,1.57675,8.88700103759766,22.0035419464111,7.20726346969604,22.0,63823.5,399.9380000000001,pp-ro,1,1,-1,-1
1570539328.0,2019-10-08,14:55:28.000,15.0,12.0,13.789999961853,17.3,-5.1,-0.5,51.4,7.9,-28.5,18.5222,-4.85915,-0.476315,-5.01222,-4.64265,-4.98356,51.5664,7.18533,-31.1631,0.0109430999999999,-0.234985,0.00693737,260.1,7.6,52.1701,4.427169999999999,2.7,0.954684,196.438,4.44977,179.21400000000003,52.0645,151.817,0.682914,-0.020114,240.575,1.32792,1.54681,8.22447204589844,22.003026962280305,6.65367698669434,22.0,64018.0,2645.75,pp-ro,1,1,-1,-1
1570539328.1,2019-10-08,14:55:28.100,15.0,10.0,13.7200002670288,17.2,-5.3,-0.6,51.5,7.4,-29.4,18.5222,-4.85915,-0.476315,-5.01222,-4.64265,-4.98356,51.5664,7.18533,-31.1631,0.0109430999999999,-0.234985,0.00693737,260.1,7.6,52.1701,4.427169999999999,2.7,0.934737,184.833,4.44976,178.74599999999998,53.9645,151.817,0.682675,-0.0305778999999999,240.646,1.33121,1.54134,7.50404357910156,22.003026962280305,6.622685432434079,22.0,64204.3,3445.62,pp-ro,1,1,-1,-1
1570539328.2,2019-10-08,14:55:28.200,15.0,8.0,13.9099998474121,17.3,-5.1,-0.7,51.2,7.7,-30.1,18.2084,-5.20479,-0.912186,0.0148132999999999,-2.65367,-2.85933,51.6277,7.0212,-31.696,-0.0549693,0.0241288,-0.0172591,260.1,7.6,52.1701,4.427169999999999,2.7,0.8732340000000001,160.954,4.44976,178.25,55.4845,151.817,0.682751,-0.0391353,240.624,1.32484,1.55021,6.81938171386719,22.003026962280305,6.8520679473877,22.0,64578.0,1568.99,pp-ro,1,1,-1,-1
1570539328.3,2019-10-08,14:55:28.300,15.0,8.0,14.039999961853,17.2,-5.2,-0.5,50.9,8.1,-31.8,18.3088,-5.4626,-0.933805,0.996584,-0.0174873,-3.1797,51.1943,7.943989999999999,-32.4479,0.00672304,-0.0219654,-0.175656,259.1,7.6,52.1701,4.427169999999999,2.7,0.87545,165.195,4.44975,177.782,57.7645,151.917,0.68243,-0.0515181,240.878,1.30835,1.56217,6.68653869628906,22.003026962280305,7.20548248291016,22.0,64607.8,584.525,pp-ro,1,1,-1,-1
1570539328.4,2019-10-08,14:55:28.400,15.0,9.0,14.289999961853,17.0,-5.3,-0.5,50.7,9.1,-33.4,18.3088,-5.4626,-0.933805,0.996584,-0.0174873,-3.1797,51.1943,7.943989999999999,-32.4479,0.00672304,-0.0219654,-0.175656,259.1,7.6,52.1701,4.427169999999999,2.7,0.904262,177.113,4.44976,177.28599999999997,59.2846,151.917,0.682419,-0.0600842,240.881,1.2825,1.5619299999999998,6.65928649902344,22.0025119781494,7.272717475891111,22.0,64606.3,-30.7645,pp-ro,1,1,-1,-1
1570539328.5,2019-10-08,14:55:28.500,15.0,9.0,14.4099998474121,16.6,-5.2,-0.6,50.7,10.1,-34.6,17.9171,-5.869330000000001,-0.7477590000000001,-0.8300559999999999,2.76053,-0.929682,50.4548,8.92799,-36.6286,0.1819839999999999,-0.0733873,-0.29695,259.1,7.6,52.1701,4.427169999999999,2.7,0.907033,173.567,4.44977,176.76,61.1846,152.017,0.682442,-0.0706213,241.033,1.26251,1.56273,7.06633758544922,22.0025119781494,7.38352203369141,22.0,64755.4,1876.63,pp-ro,1,1,-1,-1
1570539328.6,2019-10-08,14:55:28.600,15.0,8.0,14.7700004577637,16.3,-5.3,-0.8,50.3,11.1,-35.8,17.9171,-5.869330000000001,-0.7477590000000001,-0.8300559999999999,2.76053,-0.929682,50.4548,8.92799,-36.6286,0.1819839999999999,-0.0733873,-0.29695,259.1,7.6,52.1701,4.427169999999999,2.7,0.8760040000000001,160.752,4.44979,176.205,62.7046,152.017,0.682495,-0.0792835,241.017,1.2413299999999998,1.55193,7.25368499755859,22.003026962280305,7.25038766860962,22.0,65051.6,1599.75,pp-ro,1,1,-1,-1
1570539328.7,2019-10-08,14:55:28.700,15.0,9.0,14.9499998092651,16.2,-5.4,-0.9,50.2,12.7,-36.6,17.9171,-5.869330000000001,-0.7477590000000001,-0.8300559999999999,2.76053,-0.929682,50.4548,8.92799,-36.6286,0.1819839999999999,-0.0733873,-0.29695,259.1,7.6,52.1701,4.427169999999999,2.7,0.874342,161.90200000000002,4.4498,175.65,64.6046,152.11700000000002,0.682491,-0.0898544999999999,241.177,1.21817,1.54925,7.38482666015625,22.0025119781494,7.31341791152954,22.0,65102.3,984.464,pp-ro,1,1,-1,-1
1570539328.8,2019-10-08,14:55:28.800,15.0,8.0,15.2399997711182,15.8,-5.8,-0.9,49.9,13.4,-37.8,17.9171,-5.869330000000001,-0.7477590000000001,-0.8300559999999999,2.76053,-0.929682,50.4548,8.92799,-36.6286,0.1819839999999999,-0.0733873,-0.29695,259.1,7.6,52.1701,4.427169999999999,2.7,0.88487,163.743,4.44981,175.06599999999997,66.1246,152.11700000000002,0.682534,-0.0985668,241.164,1.20106,1.5352,7.27241516113281,22.0025119781494,7.134149074554441,22.0,65223.1,1322.87,pp-ro,1,1,-1,-1
1570539328.9,2019-10-08,14:55:28.900,15.0,9.0,15.3000001907349,15.7,-5.9,-1.1,49.7,13.6,-38.4,17.5393,-5.74924,-0.889697,-2.26074,1.03883,-1.03735,50.2801,10.0137,-38.0089,0.1429349999999999,-0.149303,-0.364444,259.1,7.6,52.1701,4.427169999999999,2.8,0.883207,162.784,4.44982,174.482,68.0247,152.217,0.682501,-0.109172,241.332,1.19853,1.52767,7.29966735839844,22.0025119781494,7.126102447509769,22.0,65296.8,1476.7,pp-ro,1,1,-1,-1
1570539329.0,2019-10-08,14:55:29.000,15.0,9.0,15.4099998474121,15.6,-6.1,-1.4,49.3,14.5,-39.8,16.5189,-6.51081,-1.47204,-3.47026,-0.8321799999999999,-5.27051,49.2223,13.4552,-42.4518,-0.0420978,-0.0488913,-0.0416778,259.1,7.6,52.1701,4.427169999999999,2.8,0.878775,164.09400000000002,4.44983,173.81,69.1647,152.317,0.683365,-0.1161609999999999,241.234,1.1754,1.50983,7.16001129150391,22.0025119781494,6.79825210571289,22.0,65435.6,1138.29,pp-ro,1,1,-1,-1
1570539329.1,2019-10-08,14:55:29.100,15.0,10.0,15.4099998474121,15.5,-6.4,-1.3,49.1,15.5,-40.8,16.5189,-6.51081,-1.47204,-3.47026,-0.8321799999999999,-5.27051,49.2223,13.4552,-42.4518,-0.0420978,-0.0488913,-0.0416778,259.1,7.6,52.1701,4.427169999999999,2.8,0.888748,170.179,4.44984,173.167,71.0647,152.417,0.683383,-0.126879,241.388,1.15808,1.5094,7.01694488525391,22.0025119781494,6.95296287536621,22.0,65487.0,399.9380000000001,pp-ro,1,1,-1,-1
1570539329.2,2019-10-08,14:55:29.200,15.0,10.0,15.3000001907349,15.3,-6.5,-1.5,48.7,16.3,-42.1,16.442,-6.8964300000000005,-1.55608,-3.11662,-6.320209999999999,-2.10927,48.7182,14.5211,-43.3303,-0.138599,-0.0266169,-0.23245,259.1,7.6,52.1701,4.427169999999999,2.8,0.905925,178.18900000000002,4.44986,172.525,72.5847,152.517,0.6837300000000001,-0.135708,241.443,1.1387,1.49876,6.81256866455078,22.0025119781494,6.858609199523929,22.0,65557.5,830.6410000000001,pp-ro,1,1,-1,-1
1570539329.3,2019-10-08,14:55:29.300,15.0,11.0,15.0699996948242,15.2,-6.6,-1.5,48.5,16.9,-42.8,16.442,-6.8964300000000005,-1.55608,-3.11662,-6.320209999999999,-2.10927,48.7182,14.5211,-43.3303,-0.138599,-0.0266169,-0.23245,260.2,6.8,52.1701,4.427169999999999,2.8,0.91479,182.151,4.44987,172.145,73.3447,152.61700000000002,0.684191,-0.140244,241.465,1.12596,1.49644,6.8670654296875,22.003026962280305,6.851995468139651,22.0,65716.9,1230.58,pp-ro,1,1,-1,-1
1570539329.4,2019-10-08,14:55:29.400,15.0,10.0,15.0100002288818,15.0,-7.0,-1.9,48.2,18.4,-45.0,16.1604,-7.29518,-1.7141400000000002,1.62989,-3.74671,0.448161,48.0152,16.7188,-46.1958,0.000759019,-0.172456,-0.332552,260.2,6.8,52.1701,4.427169999999999,2.8,0.913682,182.697,4.44992,171.123,75.6247,152.717,0.684591,-0.153658,241.505,1.09044,1.46924,6.86196136474609,22.003026962280305,6.5303030014038095,22.0,65858.5,1445.93,pp-ro,1,1,-1,-1
1570539329.5,2019-10-08,14:55:29.500,15.0,9.0,15.130000114440902,14.4,-7.3,-2.1,47.8,18.7,-46.3,16.0002,-7.544410000000001,-1.99469,1.95673,-5.51542,-2.86127,47.4486,17.6868,-47.7157,-0.2424849999999999,-0.0951653,-0.289675,260.2,6.8,52.1701,4.427169999999999,2.8,0.921993,189.192,4.44998,170.334,77.1447,152.917,0.685492,-0.162852,241.554,1.07769,1.44289,6.860260009765621,22.003026962280305,6.113280773162839,22.0,65953.2,830.6410000000001,pp-ro,1,1,-1,-1
1570539329.6,2019-10-08,14:55:29.600,15.0,10.0,15.25,13.8,-7.4,-2.1,47.4,18.9,-47.4,15.4943,-7.77945,-2.27793,-5.83305,-4.40565,-0.381923,46.9911,18.4473,-48.9395,-0.0137301,-0.0498444,-0.235931,260.2,6.8,52.1701,4.427169999999999,2.8,0.930304,191.578,4.45003,169.574,78.6648,153.11700000000002,0.686282,-0.171989,241.637,1.06844,1.43108,6.95733642578125,22.0025119781494,6.00982236862183,22.0,65994.8,830.6410000000001,pp-ro,1,1,-1,-1
1570539329.7,2019-10-08,14:55:29.700,15.0,11.0,15.3000001907349,13.5,-7.4,-2.2,47.2,19.0,-47.7,14.8097,-7.904310000000001,-2.2747900000000003,-1.81411,2.25681,-1.94305,46.7534,18.6508,-50.2078,-0.0346876,-0.222326,-0.273072,260.2,6.8,52.1701,4.427169999999999,2.8,0.926426,183.115,4.450080000000001,169.22400000000002,79.4248,153.217,0.686592,-0.17652,241.703,1.06666,1.42145,6.80916595458984,22.0025119781494,5.89655303955078,22.0,66165.7,1815.1,pp-ro,1,1,-1,-1
1570539329.8,2019-10-08,14:55:29.800,15.0,10.0,15.359999656677198,13.1,-7.2,-2.3,46.5,19.5,-48.2,14.8097,-7.904310000000001,-2.2747900000000003,-1.81411,2.25681,-1.94305,46.7534,18.6508,-50.2078,-0.0346876,-0.222326,-0.273072,260.2,6.8,52.1701,4.427169999999999,2.8,0.89041,159.42,4.45014,168.085,81.7048,153.417,0.68735,-0.190208,241.795,1.06359,1.42104,6.33568572998047,22.0019989013672,-35.0,22.0,66469.6,3568.68,pp-ro,1,1,-1,-1
1570539329.9,2019-10-08,14:55:29.900,15.0,8.0,15.4200000762939,12.6,-7.2,-2.3,46.9,19.6,-48.7,14.8097,-7.904310000000001,-2.2747900000000003,-1.81411,2.25681,-1.94305,46.7534,18.6508,-50.2078,-0.0346876,-0.222326,-0.273072,260.2,6.8,52.1701,4.427169999999999,2.8,0.843867,143.532,4.45019,167.734,82.0848,153.61700000000002,0.688379,-0.192912,241.808,1.05827,1.40884,5.96440124511719,22.0025119781494,-35.0,22.0,66727.0,769.112,pp-ro,1,1,-1,-1
1570539330.0,2019-10-08,14:55:30.000,15.0,7.0,15.3000001907349,12.3,-7.0,-2.2,46.6,19.5,-48.9,14.8097,-7.904310000000001,-2.2747900000000003,-1.81411,2.25681,-1.94305,46.7534,18.6508,-50.2078,-0.0346876,-0.222326,-0.273072,260.2,6.8,52.1701,4.427169999999999,2.8,0.8466379999999999,142.53,4.45024,167.00400000000002,83.2248,153.917,0.6897300000000001,-0.200174,241.883,1.0619,1.41684,5.83837127685547,22.0025119781494,-35.0,22.0,66748.7,399.9380000000001,pp-ro,1,1,-1,-1
