time,date,time_of_day,airspeed_temperature,airspeed_angle_of_attack,airspeed_apparent_windspeed,kite_0_vx,kite_0_vy,kite_0_vz,kite_0_roll,kite_0_pitch,kite_0_yaw,kite_1_vx,kite_1_vy,kite_1_vz,kite_1_ax,kite_1_ay,kite_1_az,kite_1_roll,kite_1_pitch,kite_1_yaw,kite_1_roll_rate,kite_1_pitch_rate,kite_1_yaw_rate,ground_upwind_direction,ground_wind_velocity,ground_pos_latitude,ground_pos_longitude,ground_pos_altitude,ground_tether_reelout_speed,ground_tether_force,est_upwind_direction,kite_pos_east,kite_pos_north,kite_height,kite_elevation,kite_azimuth,kite_distance,kite_heading,kite_course,kite_actual_steering,kite_actual_depower,kite_set_steering,kite_set_depower,ground_mech_energy,ground_mech_power,flight_phase,flight_phase_index,phase,pattern,pattern_section
1570532184.5,2019-10-08,12:56:24.500,14.0,8.0,14.8299999237061,13.6,0.2,2.5,18.6,-2.9,-42.1,12.3953,0.00735654,3.0153,9.18172,13.1257,2.22075,22.3085,11.2429,-46.2435,0.0935531,0.134269,0.8717799999999999,265.3,4.4,52.1701,4.427230000000001,0.0,-3.05133,92.6309,4.65814,51.2011,-15.2003,232.028,1.34455,0.342827,238.096,0.565167,1.34382,-34.973541259765604,22.0050868988037,-35.0,22.0,-624976.0,-11167.5,pp-riro,4,0,-1,-1
1570532184.6,2019-10-08,12:56:24.600,14.0,8.0,14.6499996185303,14.2,1.3,2.7,20.1,-4.2,-37.3,12.9525,1.11216,3.22439,4.7812,9.31939,1.79869,24.2503,10.2229,-40.8496,0.240851,0.240338,0.8848389999999999,265.3,4.4,52.1701,4.427230000000001,0.0,-3.1034200000000003,92.8112,4.658119999999999,51.2595,-13.3002,231.928,1.34631,0.308143,237.897,0.6888529999999999,1.45413,-34.975250244140604,22.0009689331055,-35.0,22.0,-626835.0,-12521.1,pp-riro,4,0,-1,-1
1570532184.7,2019-10-08,12:56:24.700,14.0,8.0,14.460000038147,14.8,2.4,3.2,21.7,-5.7,-32.3,13.7765,2.63486,3.66325,4.18765,9.97097,5.570119999999999,26.9571,8.35545,-32.4918,0.149334,0.203184,0.953888,265.3,4.4,52.1701,4.427230000000001,0.0,-3.13167,99.166,4.6580900000000005,51.3179,-12.1602,231.728,1.34702,0.286962,237.654,0.8031560000000001,1.54805,-34.9871978759766,21.997879028320305,-35.0,22.0,-627960.0,-9352.4,pp-riro,4,0,-1,-1
1570532184.8,2019-10-08,12:56:24.800,14.0,9.0,14.2200002670288,15.3,3.5,3.6,23.1,-7.4,-27.3,14.0273,3.14801,3.8669,4.63189,10.8106,6.31755,27.7505,7.58241,-29.6651,0.255781,0.267829,0.938786,265.3,4.4,52.1701,4.427230000000001,0.0,-3.1278,100.018,4.65807,51.5515,-11.0201,231.528,1.34692,0.264913,237.454,0.919242,1.63557,-34.9906158447266,21.997879028320305,-35.0,22.0,-628290.0,-6614.36,pp-riro,4,0,-1,-1
1570532184.9,2019-10-08,12:56:24.900,14.0,8.0,14.1499996185303,15.5,4.7,3.9,24.1,-9.1,-22.3,14.477,4.83352,4.48497,3.737330000000001,10.5994,3.69991,29.7485,4.77146,-21.1295,0.194413,0.238661,0.964592,266.4,4.4,52.1701,4.427230000000001,0.0,-3.13223,94.789,4.65807,51.8728,-9.50007,231.328,1.34666,0.235456,237.263,1.04289,1.7341099999999998,-34.9957275390625,21.9983940124512,-35.0,22.0,-629127.0,-7691.12,pp-riro,4,0,-1,-1
1570532185.0,2019-10-08,12:56:25.000,14.0,8.0,14.0299997329712,15.6,5.9,4.2,25.0,-10.9,-17.3,14.6028,6.04954,4.81453,0.980232,11.6071,3.83296,30.7456,2.86324,-15.6774,0.174082,0.159512,0.912603,266.4,4.4,52.1701,4.427230000000001,0.0,-3.16492,84.676,4.65807,52.3401,-7.6,231.028,1.34575,0.198519,237.005,1.17436,1.83716,-34.9991455078125,21.9983940124512,-35.0,22.0,-630293.0,-15290.0,pp-riro,4,0,-1,-1
1570532185.1,2019-10-08,12:56:25.100,14.0,8.0,13.960000038147,15.7,7.1,4.5,25.9,-12.5,-12.3,14.6028,6.04954,4.81453,0.980232,11.6071,3.83296,30.7456,2.86324,-15.6774,0.174082,0.159512,0.912603,266.4,4.4,52.1701,4.427230000000001,0.0,-3.27075,82.1844,4.65806,52.895,-6.45995,230.629,1.34373,0.17585,236.705,1.29073,1.922,-34.9957275390625,21.9983940124512,-35.0,22.0,-633469.0,-22888.8,pp-riro,4,0,-1,-1
1570532185.2,2019-10-08,12:56:25.200,14.0,8.0,13.960000038147,15.7,8.3,4.9,26.7,-14.2,-7.0,14.6141,7.191610000000001,5.08982,-1.62792,9.66324,3.32314,31.5388,0.981069,-10.4622,0.146989,0.198968,0.926624,266.4,4.4,52.1701,4.427230000000001,0.0,-3.32062,85.8205,4.65806,53.6252,-4.55987,230.329,1.34125,0.139153,236.533,1.42614,2.01963,-35.0059814453125,21.997879028320305,-35.0,22.0,-634619.0,-21381.3,pp-riro,4,0,-1,-1
1570532185.3,2019-10-08,12:56:25.300,14.0,8.0,13.8999996185303,15.7,9.5,5.3,26.9,-16.0,-1.7,14.5723,8.85719,5.60382,-0.967765,7.46979,5.30396,32.3796,-1.79608,-2.20089,0.117147,0.253188,0.920653,266.4,4.4,52.1701,4.427230000000001,0.0,-3.37658,91.9725,4.65806,54.443000000000005,-3.03981,229.929,1.33795,0.1101029999999999,236.306,1.55386,2.10564,-35.0059814453125,21.997879028320305,-35.0,22.0,-636400.0,-16151.4,pp-riro,4,0,-1,-1
1570532185.4,2019-10-08,12:56:25.400,14.0,9.0,13.8999996185303,15.5,10.6,5.7,27.4,-18.0,3.4,14.5723,8.85719,5.60382,-0.967765,7.46979,5.30396,32.3796,-1.79608,-2.20089,0.117147,0.253188,0.920653,266.4,4.4,52.1701,4.427230000000001,-0.3,-3.41647,92.6067,4.65806,55.3484,-1.13973,229.429,1.3340299999999998,0.0749165,236.013,1.6842700000000002,2.19541,-35.0059814453125,21.997879028320305,-35.0,22.0,-637649.0,-12336.6,pp-riro,4,0,-1,-1
1570532185.5,2019-10-08,12:56:25.500,14.0,9.0,13.960000038147,15.2,11.9,6.1,27.2,-19.5,8.8,14.2338,11.0503,6.37868,-2.04273,12.2368,2.73846,32.3473,-5.30048,9.36352,0.0864585,0.230837,1.03386,266.4,4.4,52.1701,4.427230000000001,-0.3,-3.4513800000000003,90.8916,4.65806,56.3998,0.000320447,228.929,1.32924,0.0543226999999999,235.774,1.80259,2.27886,-35.0042724609375,21.9983940124512,-35.0,22.0,-639159.0,-16089.8,pp-riro,4,0,-1,-1
1570532185.6,2019-10-08,12:56:25.600,14.0,10.0,14.1499996185303,14.9,13.1,6.5,27.3,-21.2,14.3,13.892,12.2428,6.683039999999999,-3.62277,12.2955,5.27479,32.0619,-6.949260000000001,15.0308,0.0534422,0.275034,0.915279,266.4,4.4,52.1701,4.427230000000001,-0.3,-3.48185,96.146,4.65806,57.5681,1.9004,228.329,1.32369,0.02133,235.482,1.93423,2.36653,-35.0042724609375,21.9983940124512,-35.0,22.0,-640699.0,-15074.6,pp-riro,4,0,-1,-1
1570532185.7,2019-10-08,12:56:25.700,14.0,10.0,14.3999996185303,14.6,14.3,7.0,27.1,-22.7,19.9,13.892,12.2428,6.683039999999999,-3.62277,12.2955,5.27479,32.0619,-6.949260000000001,15.0308,0.0534422,0.275034,0.915279,266.4,4.4,52.1701,4.427230000000001,-0.3,-3.48795,105.95,4.65806,58.8824,3.42047,227.729,1.3173700000000002,-0.00369382,235.243,2.05779,2.44384,-35.0042724609375,21.9983940124512,-35.0,22.0,-641626.0,-6583.6,pp-riro,4,0,-1,-1
1570532185.8,2019-10-08,12:56:25.800,14.0,10.0,14.5799999237061,14.2,15.6,7.5,26.6,-24.3,25.9,13.4453,13.9675,7.33339,-4.87375,11.3487,6.783939999999999,31.394,-9.15722,23.7009,0.0676643,0.350009,0.969,266.4,4.4,52.1701,4.427230000000001,-0.3,-3.4536,114.29,4.65806,60.372,4.56053,227.029,1.31018,-0.021065,234.963,2.17981,2.51658,-35.0042724609375,21.9983940124512,-35.0,22.0,-641667.0,3630.21,pp-riro,4,0,-1,-1
1570532185.9,2019-10-08,12:56:25.900,14.0,10.0,14.7600002288818,13.5,16.8,8.0,25.8,-25.8,31.8,12.4333,16.257,8.218639999999999,-6.0378300000000005,11.6751,5.45745,29.6708,-12.0267,35.8168,0.0257372,0.364545,0.947045,255.9,4.0,52.1701,4.427230000000001,-0.3,-3.38378,119.451,4.65802,61.9492,6.46061,226.329,1.30225,-0.0495801,234.743,2.30849,2.60363,-35.0059814453125,21.9983940124512,-35.0,22.0,-641289.0,3445.62,pp-riro,4,0,-1,-1
1570532186.0,2019-10-08,12:56:26.000,14.0,10.0,15.119999885559098,12.8,18.1,8.5,24.9,-27.0,38.0,12.4333,16.257,8.218639999999999,-6.0378300000000005,11.6751,5.45745,29.6708,-12.0267,35.8168,0.0257372,0.364545,0.947045,255.9,4.0,52.1701,4.427230000000001,-0.3,-3.21922,128.80100000000002,4.65796,63.5848,7.60067,225.529,1.29413,-0.064544,234.444,2.42672,2.67699,-35.0059814453125,21.9983940124512,-23.0,22.0,-640126.0,10398.4,pp-riro,4,0,-1,-1
1570532186.1,2019-10-08,12:56:26.100,14.0,10.0,15.5200004577637,11.9,19.2,8.9,24.0,-28.5,44.6,11.7328,17.3715,8.621,-8.3112,8.73285,4.76566,28.4454,-13.4001,42.13,0.0214032,0.290987,1.02921,255.9,4.0,52.1701,4.427230000000001,-0.3,-3.14719,132.411,4.6579,65.4832,9.12075,224.629,1.28455,-0.0839343,234.157,2.55467,2.75318,-35.0042724609375,21.9983940124512,-23.0,22.0,-639380.0,14890.0,pp-riro,4,0,-1,-1
1570532186.2,2019-10-08,12:56:26.200,14.0,11.0,15.8000001907349,10.9,20.3,9.5,22.9,-30.0,51.0,10.8868,18.4097,9.06599,-11.26,10.8121,5.110469999999999,27.2223,-14.7334,48.417,0.0563139,0.248917,1.05029,255.9,4.0,52.1701,4.427230000000001,-0.3,-2.97819,140.739,4.65784,67.4109,10.2608,223.729,1.27496,-0.0965315,233.889,2.67129,2.82459,-34.8233489990234,21.9983940124512,-22.9811058044434,22.0,-637681.0,18766.3,pp-riro,4,0,-1,-1
1570532186.3,2019-10-08,12:56:26.300,14.0,10.0,16.0799999237061,9.7,21.4,9.9,21.4,-31.1,57.8,10.8868,18.4097,9.06599,-11.26,10.8121,5.110469999999999,27.2223,-14.7334,48.417,0.0563139,0.248917,1.05029,255.9,4.0,52.1701,4.427230000000001,-0.3,-2.78482,146.61,4.657769999999999,69.4262,11.4009,222.729,1.26483,-0.108147,233.577,2.79019,2.89854,-34.2618103027344,21.9994239807129,-22.2320041656494,22.0,-635450.0,22150.4,pp-riro,4,0,-1,-1
1570532186.4,2019-10-08,12:56:26.400,14.0,10.0,16.2999992370605,8.3,22.2,10.2,19.7,-31.7,65.0,8.06638,20.6684,10.0273,-13.4606,6.93924,1.33718,23.232,-17.9495,65.2411,0.0647778,0.267762,1.05824,255.9,4.0,52.1701,4.42724,-0.6,-2.54933,148.972,4.65771,71.6459,12.1609,221.729,1.25408,-0.1134869999999999,233.334,2.9069700000000003,2.96676,-33.338455200195305,21.9994239807129,-21.4563808441162,22.0,-633239.0,22396.5,pp-riro,4,0,-1,-1
1570532186.5,2019-10-08,12:56:26.500,14.0,10.0,16.620000839233402,6.8,23.0,10.5,18.1,-32.3,72.0,6.7634,21.3598,10.3048,-11.9467,6.05876,1.61189,21.6764,-18.9621,71.8458,0.12217,0.156887,1.11949,255.9,4.0,52.1701,4.42724,-0.6,-2.3193900000000003,152.009,4.65765,73.8657,13.300999999999998,220.729,1.24303,-0.123419,233.141,3.02338,3.0411200000000003,-31.693115234375,21.9994239807129,-20.7228412628174,22.0,-631087.0,22119.7,pp-riro,4,0,-1,-1
1570532186.6,2019-10-08,12:56:26.600,14.0,9.0,16.8299999237061,5.2,23.5,10.7,16.3,-32.6,78.8,5.36639,21.9789,10.5828,-13.4841,8.95734,1.04372,19.8466,-19.9239,78.4017,0.0908683,0.1155099999999999,1.00494,255.9,4.0,52.1701,4.42724,-0.6,-2.05565,157.487,4.65758,76.2022,14.0611,219.629,1.2316200000000002,-0.127666,232.898,3.1303400000000003,3.10924,-29.9726867675781,21.9994239807129,-19.9832172393799,22.0,-628940.0,21504.4,pp-riro,4,0,-1,-1
1570532186.7,2019-10-08,12:56:26.700,14.0,9.0,17.0400009155273,3.7,23.8,10.9,14.4,-32.7,85.2,4.67265,22.1938,10.6771,-14.3433,2.76254,2.4151700000000003,18.9715,-20.2869,81.6246,0.0703057,0.0973406999999999,1.0227,255.9,4.0,52.1701,4.42724,-0.6,-1.79634,159.57299999999998,4.65752,78.5096,14.4411,218.629,1.22071,-0.127071,232.747,3.22622,3.16688,-27.9313888549805,21.9994239807129,-19.3076629638672,22.0,-626861.0,20089.2,pp-riro,4,0,-1,-1
1570532186.8,2019-10-08,12:56:26.800,14.0,8.0,17.1399993896484,2.3,23.9,10.8,12.8,-32.6,91.4,3.93765,22.3718,10.8147,-13.9168,1.3262,2.30396,18.151,-20.6851,84.7911,-0.138666,0.152521,1.00483,255.9,4.0,52.1701,4.42724,-0.6,-1.37191,154.624,4.65746,80.8462,14.8212,217.529,1.20953,-0.126382,232.54,3.31865,3.21959,-25.3029479980469,21.9994239807129,-18.7590885162354,22.0,-624416.0,14613.1,pp-riro,4,0,-1,-1
1570532186.9,2019-10-08,12:56:26.900,14.0,8.0,17.2399997711182,0.9,24.0,10.7,10.9,-32.1,97.3,2.48747,22.5196,10.7579,-12.3651,3.91425,-0.303579,16.5411,-21.4864,90.6195,-0.100909,0.170175,0.921524,262.9,3.9,52.1701,4.42724,-0.6,-1.24391,153.38299999999998,4.65745,83.2996,14.8212,216.43,1.19814,-0.121142,232.379,3.4029800000000003,3.2682900000000004,-24.3147277832031,21.9994239807129,-18.1868858337402,22.0,-623774.0,12736.5,pp-riro,4,0,-1,-1
1570532187.0,2019-10-08,12:56:27.000,14.0,8.0,17.2900009155273,-0.4,23.9,10.7,9.6,-31.4,102.6,0.6412,22.6459,10.5824,-7.421710000000001,2.72883,-5.35377,14.3079,-22.0073,98.6193,0.235287,0.2225619999999999,0.725442,262.9,3.9,52.1701,4.42724,-0.6,-0.864923,150.006,4.65746,85.6654,15.2012,215.43,1.18697,-0.120688,232.335,3.4830400000000004,3.31714,-22.1147003173828,21.9994239807129,-17.7603607177734,22.0,-622335.0,8244.88,pp-riro,4,0,-1,-1
1570532187.1,2019-10-08,12:56:27.100,14.0,8.0,17.2399997711182,-1.4,23.6,10.5,7.7,-31.0,107.6,-0.527312,22.5438,10.5152,-9.38333,-1.98785,-1.75984,12.8824,-21.9849,103.761,-0.0455931,0.159302,0.99671,262.9,3.9,52.1701,4.42724,-0.6,-0.643844,144.251,4.65746,88.0312,15.2013,214.43,1.17605,-0.116066,232.294,3.55441,3.35182,-20.6366271972656,21.9994239807129,-17.5017986297607,22.0,-621721.0,5291.49,pp-riro,4,0,-1,-1
1570532187.2,2019-10-08,12:56:27.200,14.0,8.0,17.2399997711182,-2.5,23.3,10.2,6.0,-30.1,112.8,-1.03662,22.4375,10.41,-5.23679,-0.131934,-1.5817,12.038,-21.9381,106.22,0.088774,0.1228109999999999,0.790935,262.9,3.9,52.1701,4.42724,-0.6,-0.525824,141.39600000000002,4.65747,90.4554,14.8213,213.33,1.16498,-0.107493,232.188,3.62717,3.38806,-19.373611450195305,21.9994239807129,-17.1248168945312,22.0,-621518.0,4060.91,pp-riro,4,0,-1,-1
1570532187.3,2019-10-08,12:56:27.300,14.0,8.0,17.2900009155273,-3.5,23.0,9.9,4.3,-29.3,117.2,-1.99221,22.1508,10.1024,-1.16634,-1.79896,-2.68385,10.3478,-21.7578,110.795,-0.0357962,0.214555,0.722352,262.9,3.9,52.1701,4.42724,-0.6,-0.341315,139.421,4.6574800000000005,92.7627,14.8214,212.33,1.15426,-0.103531,232.182,3.69197,3.42562,-18.4058685302734,21.9994239807129,-16.8576030731201,22.0,-621244.0,2245.81,pp-riro,4,0,-1,-1
1570532187.4,2019-10-08,12:56:27.400,14.0,8.0,17.2800006866455,-4.4,22.6,9.8,2.8,-28.3,121.3,-3.41509,21.7571,9.63058,-10.2979,-0.546796,-1.13422,8.08273,-20.8696,117.022,-0.20692,0.295411,0.436426,262.9,3.9,52.1701,4.42724,-0.8,-0.151264,141.137,4.65749,95.1285,14.4414,211.23,1.14336,-0.0957563,232.112,3.75025,3.45616,-17.607101440429698,21.9994239807129,-16.651048660278303,22.0,-621120.0,984.464,pp-riro,4,0,-1,-1
1570532187.5,2019-10-08,12:56:27.500,14.0,8.0,17.2800006866455,-5.3,22.2,9.6,1.1,-27.2,125.1,-4.22626,21.4533,9.48282,-9.53896,-2.85828,2.40674,6.775189999999999,-20.1565,120.899,-0.0160058,0.157377,0.5751729999999999,262.9,3.9,52.1701,4.42724,-0.8,0.0277041,141.96200000000002,4.6575,97.4067,14.0614,210.23,1.13296,-0.0884781999999999,232.126,3.80547,3.48849,-17.0353317260742,21.9994239807129,-16.416166305542,22.0,-621112.0,-215.351,pp-riro,4,0,-1,-1
1570532187.6,2019-10-08,12:56:27.600,14.0,8.0,17.2800006866455,-6.1,21.8,9.4,-0.6,-26.0,128.7,-4.66193,21.2707,9.36924,-8.67105,-2.88683,-0.589895,5.83188,-19.9206,122.73,-0.223752,0.13305,0.506804,262.9,3.9,52.1701,4.42724,-0.8,0.270392,142.464,4.65751,99.7141,13.3014,209.23,1.12263,-0.0777279,232.157,3.85577,3.51454,-16.8236923217773,21.9994239807129,-16.2238845825195,22.0,-621285.0,-953.699,pp-riro,4,0,-1,-1
1570532187.7,2019-10-08,12:56:27.700,14.0,9.0,17.229999542236303,-6.8,21.5,9.2,-2.3,-24.7,132.0,-5.42088,20.8837,9.03473,-4.4008,-0.840724,-4.25702,4.161919999999999,-19.3964,126.089,-0.1267619999999999,0.127385,0.664408,262.9,3.9,52.1701,4.42724,-0.8,0.275933,142.798,4.65753,101.905,12.9215,208.33,1.11271,-0.0712497,232.277,3.9064,3.5403300000000004,-16.4447860717773,21.9994239807129,-16.158103942871097,22.0,-621219.0,1230.58,pp-riro,4,0,-1,-1
1570532187.8,2019-10-08,12:56:27.800,14.0,9.0,17.1800003051758,-7.7,21.1,9.2,-3.7,-23.6,135.3,-6.1456,20.5724,8.76727,-4.96451,-4.91601,-2.11769,2.40711,-17.9543,129.453,-0.18031,0.210456,0.554841,262.9,3.9,52.1701,4.42724,-0.8,0.230498,150.35399999999998,4.65753,104.066,11.7815,207.43,1.10324,-0.0578799999999999,232.37,3.95042,3.5676300000000003,-16.2467956542969,21.9994239807129,-15.8555946350098,22.0,-621164.0,-61.529,pp-riro,4,0,-1,-1
1570532187.9,2019-10-08,12:56:27.900,14.0,10.0,17.129999160766598,-8.5,20.7,9.4,-5.5,-23.0,138.5,-7.37719,20.0062,8.87149,-10.8739,-7.72265,2.0103,-0.282976,-16.6978,134.32399999999998,-0.1005,0.224213,0.511374,258.3,3.4,52.1701,4.42724,-0.8,0.29865,174.907,4.6574800000000005,106.14,11.0215,206.43,1.09369,-0.0485909,232.38,3.99358,3.59341,-16.1802368164062,21.9994239807129,-15.7309064865112,22.0,-621184.0,399.9380000000001,pp-riro,4,0,-1,-1
1570532188.0,2019-10-08,12:56:28.000,14.0,11.0,17.129999160766598,-9.3,20.2,9.3,-7.3,-22.0,141.3,-8.2235,19.603,8.88514,-9.99308,-3.74273,-3.3604800000000004,-2.41881,-16.1621,137.28,-0.231841,0.102521,0.374359,258.3,3.4,52.1701,4.42724,-0.8,0.301421,178.247,4.657430000000001,108.243,10.2615,205.33,1.08381,-0.0395859,232.341,4.03379,3.62346,-15.9532318115234,21.9994239807129,-15.580041885376,22.0,-621166.0,338.409,pp-riro,4,0,-1,-1
1570532188.1,2019-10-08,12:56:28.100,14.0,11.0,17.1800003051758,-10.2,19.8,9.2,-9.1,-20.9,144.0,-9.0931,19.2748,8.79491,-6.47879,-3.55591,-3.38761,-4.47914,-15.4565,139.997,-0.143836,0.116302,0.538712,258.3,3.4,52.1701,4.42724,-0.8,0.315273,182.033,4.657369999999999,110.258,9.50153,204.33,1.0744200000000002,-0.0309755999999999,232.374,4.07388,3.65665,-15.7040405273438,21.9994239807129,-15.369029045105,22.0,-621142.0,338.409,pp-riro,4,0,-1,-1
1570532188.2,2019-10-08,12:56:28.200,14.0,11.0,17.1800003051758,-11.1,19.4,9.4,-10.7,-20.3,146.7,-9.0931,19.2748,8.79491,-6.47879,-3.55591,-3.38761,-4.47914,-15.4565,139.997,-0.143836,0.116302,0.538712,258.3,3.4,52.1701,4.42724,-0.8,0.320814,191.765,4.65732,112.244,8.36153,203.33,1.06523,-0.019285,232.404,4.10795,3.684,-15.5538482666016,21.9994239807129,-15.2023487091064,22.0,-621103.0,307.645,pp-riro,4,0,-1,-1
1570532188.3,2019-10-08,12:56:28.300,14.0,11.0,17.2800006866455,-11.9,18.8,9.4,-12.4,-19.9,149.4,-10.0341,18.8484,8.8636,-7.049869999999999,-7.14445,0.7603479999999999,-6.667000000000001,-14.8928,142.738,-0.0453082,0.0780697,0.406948,258.3,3.4,52.1701,4.42724,-0.8,0.350734,207.378,4.65726,114.259,7.221539999999999,202.13,1.05545,-0.008022,232.301,4.14079,3.71324,-15.308074951171902,21.9994239807129,-15.0899419784546,22.0,-621100.0,61.529,pp-riro,4,0,-1,-1
1570532188.4,2019-10-08,12:56:28.400,14.0,10.0,17.3299999237061,-12.7,18.2,9.4,-13.8,-19.4,151.9,-10.9384,18.2997,8.98969,-6.53642,-6.34264,-3.16452,-8.85468,-14.6313,145.505,-0.163204,-0.0829391,0.2565389999999999,258.3,3.4,52.1701,4.42724,-1.1,0.376776,219.219,4.65721,116.129,6.08155,201.03,1.04637,0.00283067,232.241,4.1717900000000006,3.74312,-15.2210311889648,21.9994239807129,35.0,22.0,-621072.0,369.174,pp-riro,4,0,-1,-1
1570532188.5,2019-10-08,12:56:28.500,14.0,10.0,17.3299999237061,-13.5,17.6,9.5,-15.6,-18.9,154.4,-11.7735,17.7184,8.97264,-9.48449,-10.847,-1.31764,-11.0331,-14.4547,147.925,-0.194499,-0.0904291,0.257024,258.3,3.4,52.1701,4.42724,-1.1,0.387858,226.656,4.65716,117.91,4.56154,199.93,1.03761,0.0165395,232.155,4.2003900000000005,3.7694,-15.0588836669922,21.9994239807129,35.0,22.0,-621017.0,584.525,pp-riro,4,0,-1,-1
1570532188.6,2019-10-08,12:56:28.600,14.0,9.0,17.6800003051758,-14.3,16.8,9.5,-16.7,-18.6,156.8,-12.9916,16.8,9.12666,-7.999169999999999,-4.70017,0.6332409999999999,-13.8735,-13.9674,151.613,-0.248804,-0.0729489,0.450156,258.3,3.4,52.1701,4.42724,-1.1,0.76685,231.291,4.6571,119.75,3.0415400000000004,198.83,1.02856,0.0298680999999999,232.127,4.22611,3.80139,-14.8506546020508,21.9994239807129,35.0,22.0,-622451.0,-18120.3,pp-riro,4,0,-1,-1
1570532188.7,2019-10-08,12:56:28.700,14.0,10.0,17.8299999237061,-14.6,16.2,9.0,-18.5,-18.6,159.2,-13.6367,16.06,9.10777,-6.66919,-9.11814,-2.1765,-15.2506,-13.844,154.24200000000002,-0.0346577,-0.110244,0.470462,258.3,3.4,52.1701,4.42724,-1.1,1.00954,222.96400000000003,4.65705,121.386,1.90154,197.73,1.02017,0.0396525,232.025,4.25211,3.822880000000001,-14.3010711669922,21.9994239807129,35.0,22.0,-623766.0,-23627.1,pp-riro,4,0,-1,-1
1570532188.8,2019-10-08,12:56:28.800,14.0,9.0,17.9200000762939,-14.7,15.6,8.3,-19.2,-17.8,160.7,-13.9493,15.4578,8.48728,0.0830148999999999,-3.89885,-8.04529,-16.4028,-13.9792,156.394,-0.12018,-0.11824,0.13459,258.3,3.4,52.1701,4.42724,-1.1,0.957454,185.195,4.65699,123.022,0.381536,196.73,1.01196,0.0522699,232.029,4.26964,3.83938,-13.3896560668945,21.9994239807129,35.0,22.0,-622577.0,19535.4,pp-riro,4,0,-1,-1
1570532188.9,2019-10-08,12:56:28.900,14.0,7.0,18.020000457763697,-15.0,15.0,8.1,-19.4,-16.9,161.7,-13.9816,15.1675,8.06427,-3.14371,-6.16731,-9.07279,-16.8245,-14.0177,157.06799999999998,-0.122449,-0.0678803,0.104378,245.7,2.7,52.1701,4.42724,-1.1,0.86326,174.39,4.65692,124.599,-1.13847,195.73,1.00389,0.0645529,232.027,4.2813,3.85656,-12.1266403198242,21.9994239807129,35.0,22.0,-622458.0,-3384.09,pp-riro,4,0,-1,-1
1570532189.0,2019-10-08,12:56:29.000,14.0,7.0,17.9200000762939,-15.2,14.6,8.3,-19.5,-16.5,162.1,-14.2171,14.5106,7.94221,-1.35095,-11.1409,-1.6544299999999998,-17.36,-14.0415,158.59,-0.0576624,-0.0881343999999999,0.201398,245.7,2.7,52.1701,4.42724,-1.1,0.953022,207.232,4.65681,125.329,-2.27849,195.33,1.00026,0.0737,232.092,4.28293,3.8623,-10.5154495239258,21.9994239807129,35.0,22.0,-622500.0,2245.81,pp-riro,4,0,-1,-1
1570532189.1,2019-10-08,12:56:29.100,14.0,8.0,17.8199996948242,-15.4,14.0,8.3,-19.7,-16.7,163.6,-14.4953,14.1651,7.99405,-2.63478,-5.54164,1.87721,-17.6917,-13.7972,159.215,-0.1313079999999999,0.0438598,0.283396,245.7,2.7,52.1701,4.42724,-1.1,0.954684,206.533,4.65671,126.789,-3.41848,194.33,0.99254,0.0825841,232.05900000000003,4.29491,3.87686,-8.54241180419922,21.9994239807129,35.0,22.0,-622448.0,1015.23,pp-riro,4,0,-1,-1
1570532189.2,2019-10-08,12:56:29.200,14.0,8.0,17.6700000762939,-15.3,13.8,8.1,-19.7,-16.5,164.6,-14.7244,13.3134,8.060889999999999,-1.51161,-1.39389,-2.99493,-17.7627,-13.8294,161.451,0.2650929999999999,-0.218102,0.165018,245.7,2.7,52.1701,4.42724,-1.1,0.952468,199.838,4.6566,128.191,-4.93849,193.431,0.985185,0.0942398999999999,232.105,4.30105,3.87251,-6.436248779296879,21.9994239807129,35.0,22.0,-622239.0,2891.86,pp-riro,4,0,-1,-1
1570532189.3,2019-10-08,12:56:29.300,14.0,9.0,17.770000457763697,-15.6,13.6,8.1,-19.8,-15.6,165.0,-14.8837,13.147,7.79996,-4.40424,1.09687,0.792367,-18.2557,-14.2439,162.435,-0.0627817,-0.00528761,0.211596,245.7,2.7,52.1701,4.42724,-1.1,0.940832,206.146,4.6565,129.535,-6.83851,192.631,0.978154,0.1085839999999999,232.234,4.30304,3.87565,-4.32838439941406,21.9994239807129,35.0,22.0,-622063.0,799.877,pp-riro,4,0,-1,-1
1570532189.4,2019-10-08,12:56:29.400,14.0,8.0,17.8700008392334,-15.8,13.4,8.6,-19.8,-14.6,164.9,-15.1966,12.9986,8.05193,-4.00045,1.1737799999999998,3.5017400000000003,-18.5835,-14.4133,163.016,-0.0884908,-0.00635799,0.0208116,245.7,2.7,52.1701,4.42724,-1.5,0.99347,226.299,4.65639,130.908,-8.35852,191.731,0.970781,0.1197109999999999,232.30900000000003,4.30162,3.86985,-2.21710205078125,21.9994239807129,35.0,22.0,-622035.0,1384.4,pp-riro,4,0,-1,-1
1570532189.5,2019-10-08,12:56:29.500,14.0,9.0,17.9699993133545,-15.8,13.3,8.9,-20.1,-14.8,165.1,-15.3912,12.9834,8.24259,-2.90009,-5.630240000000001,1.88403,-18.6565,-14.2627,163.161,0.00119211,0.0595385,-0.00901394,245.7,2.7,52.1701,4.42724,-1.5,0.99347,226.274,4.656280000000001,132.222,-9.87853,190.731,0.963318,0.130626,232.29,4.29356,3.8586,-0.117767333984375,21.9994239807129,35.0,22.0,-621918.0,2245.81,pp-riro,4,0,-1,-1
1570532189.6,2019-10-08,12:56:29.600,14.0,7.0,18.1100006103516,-15.8,13.5,9.1,-20.5,-15.4,165.0,-15.5371,12.9296,8.65227,-4.24036,-0.900379,4.73231,-19.0371,-14.8691,163.57399999999998,0.0609179999999999,-0.174164,-0.0485043,245.7,2.7,52.1701,4.42724,-1.5,0.980172,217.856,4.65618,133.507,-11.3985,189.731,0.955903,0.1413299999999999,232.275,4.27768,3.84137,1.9858627319335904,21.9994239807129,35.0,22.0,-621690.0,2368.87,pp-riro,4,0,-1,-1
1570532189.7,2019-10-08,12:56:29.700,14.0,8.0,18.3999996185303,-15.5,13.8,9.5,-20.9,-15.6,164.0,-15.61,13.1785,8.82274,-3.64224,8.20461,2.55986,-19.4767,-16.0916,163.722,0.0430411999999999,-0.118789,0.0445327,245.7,2.7,52.1701,4.42724,-1.5,0.970198,215.495,4.65607,134.822,-13.2986,188.731,0.948206,0.154586,232.321,4.25087,3.8069,4.08753967285156,21.9994239807129,35.0,22.0,-621476.0,1999.69,pp-riro,4,0,-1,-1
1570532189.8,2019-10-08,12:56:29.800,14.0,8.0,18.590000152587898,-15.2,14.1,10.1,-21.4,-16.3,162.9,-15.61,13.1785,8.82274,-3.64224,8.20461,2.55986,-19.4767,-16.0916,163.722,0.0430411999999999,-0.118789,0.0445327,245.7,2.7,52.1701,4.42724,-1.5,0.975739,218.136,4.655959999999999,136.194,-14.4386,187.731,0.940517,0.161991,232.38,4.22278,3.7746,6.19773101806641,21.9994239807129,35.0,22.0,-621336.0,1292.11,pp-riro,4,0,-1,-1
1570532189.9,2019-10-08,12:56:29.900,14.0,8.0,18.5400009155273,-14.8,14.5,10.7,-22.1,-17.3,161.2,-15.2076,14.2589,10.1758,4.50554,10.1273,10.0602,-21.3857,-18.9771,161.466,-0.0813543,-0.176559,-0.282789,264.5,3.0,52.1701,4.42724,-1.5,0.977401,219.199,4.65589,137.53799999999998,-15.9586,186.631,0.932502,0.172004,232.384,4.1814800000000005,3.73513,8.30963134765625,21.9994239807129,35.0,22.0,-621178.0,1692.05,pp-riro,4,0,-1,-1
1570532190.0,2019-10-08,12:56:30.000,14.0,11.0,18.3500003814697,-14.2,14.9,11.4,-22.9,-18.7,159.3,-15.2076,14.2589,10.1758,4.50554,10.1273,10.0602,-21.3857,-18.9771,161.466,-0.0813543,-0.176559,-0.282789,264.5,3.0,52.1701,4.42724,-1.5,0.976847,216.282,4.655869999999999,138.998,-17.4786,185.531,0.924044,0.181603,232.482,4.13413,3.68862,10.4113082885742,21.9994239807129,35.0,22.0,-620997.0,1907.4,pp-riro,4,0,-1,-1
1570532190.1,2019-10-08,12:56:30.100,14.0,9.0,18.0599994659424,-13.3,15.6,11.9,-23.5,-20.6,156.8,-15.0111,14.5223,10.6055,10.0504,7.034510000000001,11.8612,-21.7657,-19.8321,160.716,-0.0933122,-0.208602,-0.313178,264.5,3.0,52.1701,4.42724,-1.5,0.96909,215.571,4.65584,140.488,-18.9986,184.231,0.914928,0.190964,232.463,4.07436,3.62899,12.518096923828098,21.9994239807129,35.0,22.0,-620779.0,2153.51,pp-riro,4,0,-1,-1
1570532190.2,2019-10-08,12:56:30.200,14.0,8.0,17.909999847412102,-12.6,16.2,12.7,-23.5,-22.5,153.4,-15.0111,14.5223,10.6055,10.0504,7.034510000000001,11.8612,-21.7657,-19.8321,160.716,-0.0933122,-0.208602,-0.313178,264.5,3.0,52.1701,4.42724,-1.5,0.982388,228.3,4.655819999999999,142.007,-20.5186,183.031,0.905938,0.2000549999999999,232.567,4.00286,3.57623,14.6299896240234,21.9994239807129,35.0,22.0,-620694.0,338.409,pp-riro,4,0,-1,-1
1570532190.3,2019-10-08,12:56:30.300,14.0,9.0,17.8600006103516,-11.2,16.5,13.6,-23.3,-24.9,149.3,-14.4814,15.0639,11.2811,7.2169,9.32229,4.42726,-22.6447,-22.0935,159.164,-0.395357,-0.0561505999999999,-0.295276,264.5,3.0,52.1701,4.42724,-1.5,1.01508,241.517,4.6558,143.555,-21.2785,181.731,0.896934,0.203735,232.566,3.92243,3.50864,16.733375549316403,21.9994239807129,35.0,22.0,-620641.0,799.877,pp-riro,4,0,-1,-1
1570532190.4,2019-10-08,12:56:30.400,14.0,10.0,17.8600006103516,-9.9,17.1,14.0,-22.8,-27.2,144.4,-11.6421,17.0671,13.8942,10.7298,2.0635,8.93958,-24.5172,-30.6665,150.031,-0.371152,-0.376347,-0.860917,264.5,3.0,52.1701,4.42724,-2.0,1.01452,234.208,4.65577,145.132,-22.4185,180.431,0.8876360000000001,0.209862,232.64,3.83107,3.4424900000000003,18.8520812988281,21.9994239807129,35.0,22.0,-620409.0,2830.33,pp-riro,4,0,-1,-1
1570532190.5,2019-10-08,12:56:30.500,14.0,8.0,17.909999847412102,-8.2,17.5,14.6,-21.6,-29.8,138.5,-11.6421,17.0671,13.8942,10.7298,2.0635,8.93958,-24.5172,-30.6665,150.031,-0.371152,-0.376347,-0.860917,264.5,3.0,52.1701,4.42724,-2.0,0.985158,220.911,4.65575,146.855,-23.1785,178.93099999999998,0.877498,0.213168,232.637,3.727430000000001,3.3653,20.9605712890625,21.9994239807129,35.0,22.0,-620082.0,3199.51,pp-riro,4,0,-1,-1
1570532190.6,2019-10-08,12:56:30.600,14.0,8.0,17.7600002288818,-6.3,17.9,15.1,-19.4,-32.2,132.3,-8.46355,18.5056,15.2211,16.3901,2.34709,9.48298,-22.5113,-37.4429,139.482,-0.477351,0.0148527,-0.932097,264.5,3.0,52.1701,4.42724,-2.0,0.980172,226.058,4.65573,148.549,-24.3184,177.53099999999998,0.8675290000000001,0.218917,232.757,3.62132,3.2791900000000003,23.0724716186523,21.9994239807129,35.0,22.0,-619915.0,1107.52,pp-riro,4,0,-1,-1
1570532190.7,2019-10-08,12:56:30.700,14.0,9.0,17.8099994659424,-4.5,18.1,15.6,-16.5,-34.8,124.9,-7.4455,18.7348,15.5659,15.5658,5.59822,12.861,-21.5579,-39.0455,136.451,-0.636245,-0.256225,-1.03818,264.5,3.0,52.1701,4.42724,-2.0,1.01563,239.186,4.6557,150.243,-24.6984,176.13099999999997,0.8579629999999999,0.219605,232.82,3.50434,3.20351,25.1775512695312,21.9994239807129,35.0,22.0,-619819.0,1138.29,pp-riro,4,0,-1,-1
1570532190.8,2019-10-08,12:56:30.800,14.0,11.0,17.7099990844727,-2.1,18.4,15.9,-12.1,-37.0,115.7,-5.45223,19.272,16.1748,24.5653,9.23763,2.98168,-18.9847,-42.4344,129.56799999999998,-0.5420560000000001,-0.253828,-1.20519,264.5,3.0,52.1701,4.42724,-2.0,1.00954,234.717,4.65568,152.113,-25.0783,174.63099999999997,0.847561,0.2200929999999999,232.945,3.36855,3.10384,27.2843399047852,21.9994239807129,35.0,22.0,-619549.0,3137.98,pp-riro,4,0,-1,-1
1570532190.9,2019-10-08,12:56:30.900,14.0,11.0,17.7000007629395,0.2,18.4,15.9,-7.3,-38.8,106.4,-1.70566,19.9621,16.8796,31.2044,12.1962,-0.688187,-12.6619,-47.3635,116.197,0.0105223,-0.3768849999999999,-1.02932,263.2,3.3,52.1701,4.42724,-2.0,1.00178,234.884,4.65565,153.865,-25.4583,173.13099999999997,0.8375389999999999,0.2206929999999999,233.017,3.23691,3.00958,29.3792114257812,21.9994239807129,23.0,22.0,-619427.0,2430.39,pp-riro,4,0,-1,-1
1570532191.0,2019-10-08,12:56:31.000,14.0,10.0,17.6499996185303,2.6,18.5,15.8,-1.7,-39.1,95.9,2.33433,20.3134,17.0044,28.9952,5.04173,-2.36174,-2.87406,-50.3872,98.4058,-0.456518,-0.0196467,-1.33307,263.2,3.3,52.1701,4.42724,-2.0,1.02727,252.43400000000003,4.65562,155.64700000000002,-25.0782,171.731,0.828111,0.216504,233.123,3.09746,2.91442,31.1862487792969,21.9994239807129,23.0,22.0,-619281.0,584.525,pp-ro,1,1,-1,-1
1570532191.1,2019-10-08,12:56:31.100,14.0,9.0,17.5,5.2,17.8,15.5,5.5,-38.7,84.1,2.33433,20.3134,17.0044,28.9952,5.04173,-2.36174,-2.87406,-50.3872,98.4058,-0.456518,-0.0196467,-1.33307,263.2,3.3,52.1701,4.42724,-2.0,1.04167,259.867,4.6555800000000005,157.457,-25.0782,170.331,0.818407,0.214731,233.312,2.93853,2.80707,32.654342651367195,21.9994239807129,23.0,22.0,-619237.0,830.6410000000001,pp-ro,1,1,-1,-1
1570532191.2,2019-10-08,12:56:31.200,14.0,9.0,17.2999992370605,7.5,16.6,15.0,11.9,-37.8,73.1,2.33433,20.3134,17.0044,28.9952,5.04173,-2.36174,-2.87406,-50.3872,98.4058,-0.456518,-0.0196467,-1.33307,263.2,3.3,52.1701,4.42724,-2.0,1.05885,262.858,4.65554,159.122,-24.3181,168.93099999999998,0.809527,0.208482,233.343,2.7929,2.70759,33.761383056640604,21.9994239807129,23.0,22.0,-619079.0,1938.16,pp-ro,1,1,-1,-1
1570532191.3,2019-10-08,12:56:31.300,14.0,10.0,17.0400009155273,9.8,15.8,13.6,17.4,-35.9,62.8,2.33433,20.3134,17.0044,28.9952,5.04173,-2.36174,-2.87406,-50.3872,98.4058,-0.456518,-0.0196467,-1.33307,263.2,3.3,52.1701,4.42724,-2.0,1.03558,239.515,4.65551,160.72899999999998,-23.178,167.632,0.801276,0.200074,233.391,2.6527,2.59594,34.5005493164062,21.9994239807129,22.3994483947754,22.0,-618728.0,4430.09,pp-ro,1,1,-1,-1
1570532191.4,2019-10-08,12:56:31.400,14.0,13.0,16.879999160766598,11.9,14.7,12.3,21.8,-32.5,53.7,12.0522,17.2901,13.9194,22.6072,-12.5913,-13.5229,23.0374,-45.4519,53.2772,-0.3160469999999999,0.104006,-1.39425,263.2,3.3,52.1701,4.42724,-2.3,0.980172,225.278,4.655480000000001,162.218,-22.4179,166.532,0.79379,0.194223,233.55900000000003,2.51283,2.48332,34.747512817382805,21.9994239807129,20.4143466949463,22.0,-618284.0,3753.27,pp-ro,1,1,-1,-1
1570532191.5,2019-10-08,12:56:31.500,14.0,16.0,16.9300003051758,13.6,13.5,11.6,26.5,-28.9,45.4,13.2927,16.5965,13.3861,27.6482,-8.24891,-9.52106,24.8613,-43.1605,48.4483,-0.325417,0.178556,-1.08969,263.2,3.3,52.1701,4.42724,-2.3,1.0278200000000002,252.071,4.65545,163.649,-21.2778,165.532,0.786926,0.1862359999999999,233.74,2.37947,2.39414,34.9638061523438,21.9994239807129,18.8536071777344,22.0,-618315.0,-646.054,pp-ro,1,1,-1,-1
1570532191.6,2019-10-08,12:56:31.600,14.0,16.0,16.9300003051758,15.1,12.4,10.2,30.1,-24.8,36.0,13.2927,16.5965,13.3861,27.6482,-8.24891,-9.52106,24.8613,-43.1605,48.4483,-0.325417,0.178556,-1.08969,263.2,3.3,52.1701,4.42724,-2.3,1.04777,256.338,4.65541,165.02200000000002,-19.7578,164.632,0.7806569999999999,0.176119,233.936,2.22624,2.2978,34.887161254882805,21.9994239807129,17.1095218658447,22.0,-618257.0,1107.52,pp-ro,1,1,-1,-1
1570532191.7,2019-10-08,12:56:31.700,14.0,12.0,17.7399997711182,16.5,11.1,9.0,33.2,-20.5,28.8,14.2493,15.9758,12.7202,31.9301,-14.8652,-5.39288,26.7565,-41.2839,43.6693,-0.659374,0.189726,-1.39779,263.2,3.3,52.1701,4.42724,-2.3,1.04722,264.355,4.65538,166.19,-18.6177,163.832,0.775135,0.168553,234.108,2.0944700000000003,2.20103,34.2076110839844,21.9994239807129,15.3558387756348,22.0,-617996.0,2399.63,pp-ro,1,1,-1,-1
1570532191.8,2019-10-08,12:56:31.800,14.0,11.0,17.840000152587898,17.6,9.6,7.6,35.1,-15.9,22.6,15.3717,15.4276,12.4071,28.544,-14.7878,-3.4683,28.9917,-39.3995,39.3302,-0.915717,-0.0922598,-0.865951,263.2,3.3,52.1701,4.42724,-2.3,1.06328,264.978,4.65535,167.271,-17.0976,163.232,0.7705810000000001,0.158887,234.343,1.97121,2.10192,33.247039794921896,21.9994239807129,13.4973220825195,22.0,-617898.0,1107.52,pp-ro,1,1,-1,-1
1570532191.9,2019-10-08,12:56:31.900,14.0,10.0,17.6900005340576,18.0,8.6,6.2,36.6,-12.3,17.2,19.4742,11.5402,8.65579,17.6867,-15.7979,-19.0949,36.384,-28.1714,18.6555,-0.113851,-0.0661785,-1.12613,269.3,3.8,52.1701,4.42724,-2.3,1.04555,249.241,4.65532,168.293,-15.1975,162.632,0.766265,0.1471329999999999,234.526,1.87006,2.03161,31.9305114746094,21.9994239807129,12.192420005798304,22.0,-617531.0,4030.15,pp-ro,1,1,-1,-1
1570532192.0,2019-10-08,12:56:32.000,14.0,10.0,17.4400005340576,18.4,7.9,5.0,37.8,-8.0,12.4,20.0399,10.0555,6.86875,2.82521,-13.083,-14.7292,38.4035,-23.4621,12.7394,0.0584122,0.0492213,-1.34905,269.3,3.8,52.1701,4.42724,-2.3,0.982388,221.63,4.6553,169.227,-13.2974,162.132,0.762451,0.135496,234.737,1.76678,1.97271,29.7947692871094,21.9994239807129,11.1010665893555,22.0,-616992.0,2676.51,pp-ro,1,1,-1,-1
1570532192.1,2019-10-08,12:56:32.100,14.0,10.0,17.2900009155273,18.8,7.4,3.8,39.5,-4.3,7.7,20.669,8.4649,4.89596,5.73252,-20.2846,-14.3245,39.0341,-16.1787,5.65436,-0.142509,0.4543899999999999,-1.08532,269.3,3.8,52.1701,4.42724,-2.3,0.98405,227.395,4.65529,170.13299999999998,-11.3974,161.732,0.758972,0.123984,235.016,1.67165,1.9183,28.7899169921875,21.9994239807129,10.092022895813,22.0,-616871.0,738.3480000000001,pp-ro,1,1,-1,-1
1570532192.2,2019-10-08,12:56:32.200,14.0,11.0,17.2900009155273,19.3,6.4,2.7,40.3,0.2,2.7,21.2247,7.689260000000001,3.52722,1.062,-17.9144,-18.0211,39.6965,-10.6728,0.731035,-0.200301,0.226327,-0.8876120000000001,269.3,3.8,52.1701,4.42724,-2.3,0.999565,234.736,4.65528,170.98,-9.8773,161.532,0.756162,0.11481,235.424,1.561,1.84786,26.6848297119141,21.9994239807129,8.75379276275635,22.0,-616834.0,676.819,pp-ro,1,1,-1,-1
1570532192.3,2019-10-08,12:56:32.300,14.0,10.0,17.3899993896484,19.6,5.1,1.8,41.5,3.7,-1.0,21.2247,7.689260000000001,3.52722,1.062,-17.9144,-18.0211,39.6965,-10.6728,0.731035,-0.200301,0.226327,-0.8876120000000001,269.3,3.8,52.1701,4.42724,-2.3,1.02284,253.358,4.65526,171.65099999999998,-7.59722,161.332,0.75393,0.101349,235.69,1.4815200000000002,1.78007,24.5814514160156,21.9994239807129,7.411752223968509,22.0,-616769.0,338.409,pp-ro,1,1,-1,-1
1570532192.4,2019-10-08,12:56:32.400,14.0,11.0,17.229999542236303,19.7,4.3,0.8,42.7,6.7,-4.9,21.7131,4.91219,1.23531,8.4398,-5.92022,-10.9421,41.2079,-2.60462,-7.804989999999999,-0.329807,0.12687,-1.11046,269.3,3.8,52.1701,4.42724,-2.3,1.05331,255.496,4.65525,172.235,-5.31714,161.132,0.751867,0.0879928,235.917,1.40606,1.72615,21.939880371093803,21.9994239807129,6.34552335739136,22.0,-616686.0,1661.28,pp-ro,1,1,-1,-1
1570532192.5,2019-10-08,12:56:32.500,14.0,11.0,17.229999542236303,19.5,3.6,0.0,43.1,9.4,-7.5,21.649,4.3275,0.639654,-4.90446,-16.2018,-16.6561,41.4385,-0.504305,-9.41266,0.267211,-0.0148777,-0.7401770000000001,269.3,3.8,52.1701,4.42724,-2.3,1.0283799999999998,248.73,4.65525,172.761,-3.79709,161.032,0.750154,0.0791195,236.204,1.34702,1.68078,19.8364944458008,21.9994239807129,5.468713283538821,22.0,-616316.0,3476.39,pp-ro,1,1,-1,-1
1570532192.6,2019-10-08,12:56:32.600,14.0,11.0,16.9200000762939,20.0,2.8,-0.4,44.8,12.1,-10.6,21.472,3.97672,0.179634,-7.650810000000001,-15.5388,-7.70003,41.9589,1.68546,-11.0666,-0.246044,0.168511,-0.887518,269.3,3.8,52.1701,4.42724,-2.3,1.04167,257.556,4.65523,173.22799999999998,-1.51701,160.933,0.7486,0.0659203,236.452,1.28521,1.64524,18.7822494506836,21.9994239807129,4.7542443275451705,22.0,-616134.0,799.877,pp-ro,1,1,-1,-1
1570532192.7,2019-10-08,12:56:32.700,14.0,11.0,16.9200000762939,20.3,2.1,-0.9,45.5,14.5,-13.5,21.472,3.97672,0.179634,-7.650810000000001,-15.5388,-7.70003,41.9589,1.68546,-11.0666,-0.246044,0.168511,-0.887518,269.3,3.8,52.1701,4.42724,-2.3,1.05054,259.521,4.65521,173.608,0.383046,160.733,0.7469060000000001,0.0549702,236.59,1.22827,1.61003,16.142379760742198,21.9994239807129,4.0749077796936,22.0,-616035.0,1784.34,pp-ro,1,1,-1,-1
1570532192.8,2019-10-08,12:56:32.800,14.0,13.0,16.770000457763697,20.4,1.5,-1.4,46.1,16.1,-16.7,21.472,3.97672,0.179634,-7.650810000000001,-15.5388,-7.70003,41.9589,1.68546,-11.0666,-0.246044,0.168511,-0.887518,269.3,3.8,52.1701,4.42724,-2.3,1.04611,259.278,4.6552,173.87099999999998,2.66311,160.733,0.746095,0.0418811999999999,236.798,1.17942,1.58071,14.0355911254883,21.9994239807129,3.4525396823883097,22.0,-615764.0,2738.04,pp-ro,1,1,-1,-1
1570532192.9,2019-10-08,12:56:32.900,14.0,10.0,16.3999996185303,20.4,0.9,-1.8,47.2,17.4,-19.4,21.8117,1.5274299999999998,-1.71531,-1.85784,-9.66204,-0.308452,43.9026,12.0988,-19.2153,-0.0367226,-0.0205388,-0.770307,263.8,3.0,52.1701,4.42724,-2.3,1.05331,269.805,4.65519,174.075,4.56317,160.63299999999998,0.7450869999999999,0.0309769,236.909,1.1388,1.55359,11.9356231689453,21.9994239807129,2.90347957611084,22.0,-615595.0,1445.93,pp-ro,1,1,-1,-1
1570532193.0,2019-10-08,12:56:33.000,14.0,10.0,16.3999996185303,20.6,-0.1,-2.1,47.8,18.8,-21.6,21.76,0.605101,-2.37131,0.913769,-6.82885,-8.09167,44.8393,15.5726,-23.2689,0.259271,0.121823,-0.483324,263.8,3.0,52.1701,4.42724,-2.3,1.09985,298.457,4.65517,174.16299999999998,6.84323,160.63299999999998,0.7446229999999999,0.0179361,237.028,1.10451,1.51917,9.80669403076172,21.9994239807129,2.1651630401611297,22.0,-615562.0,92.2935,pp-ro,1,1,-1,-1
1570532193.1,2019-10-08,12:56:33.100,14.0,11.0,17.129999160766598,20.4,-1.3,-2.4,48.0,19.5,-23.6,21.6618,-1.1368,-2.7545,0.162864,-14.1152,-0.868541,45.4075,18.7804,-25.8386,-0.103333,0.00443967,-0.283063,263.8,3.0,52.1701,4.42724,-2.3,1.1536,313.507,4.65515,174.13299999999998,9.50329,160.733,0.744661,0.00272216,237.166,1.08264,1.47854,7.80039215087891,21.9994239807129,1.25960052013397,22.0,-615410.0,2245.81,pp-ro,1,1,-1,-1
1570532193.2,2019-10-08,12:56:33.200,14.0,11.0,17.5400009155273,20.0,-1.8,-2.7,48.4,19.2,-25.2,21.4487,-1.56202,-2.95172,-3.53969,-4.63558,-3.14364,45.923,19.11,-26.4885,0.200808,-0.161916,-0.293356,263.8,3.0,52.1701,4.42724,-2.3,1.14473,302.715,4.65512,173.987,11.0233,160.733,0.744822,-0.00601771,237.125,1.07308,1.45448,5.60675048828125,21.9994239807129,0.715915024280548,22.0,-615138.0,4953.08,pp-ro,1,1,-1,-1
1570532193.3,2019-10-08,12:56:33.300,14.0,11.0,17.840000152587898,19.7,-2.0,-2.8,48.4,18.9,-25.8,20.9412,-1.99399,-3.30717,-9.61333,-6.027430000000001,-4.776269999999999,46.0545,19.3321,-27.7689,0.174621,0.0400753,-0.13685,263.8,3.0,52.1701,4.42724,-2.3,1.08766,277.751,4.6551,173.87,13.3034,160.833,0.745011,-0.0190863,237.224,1.07846,1.45058,4.04325866699219,21.9994239807129,0.548134028911591,22.0,-614566.0,5476.08,pp-ro,1,1,-1,-1
1570532193.4,2019-10-08,12:56:33.400,14.0,11.0,17.840000152587898,19.4,-2.4,-3.0,48.5,18.7,-26.2,20.9412,-1.99399,-3.30717,-9.61333,-6.027430000000001,-4.776269999999999,46.0545,19.3321,-27.7689,0.174621,0.0400753,-0.13685,263.8,3.0,52.1701,4.42724,-2.4,1.06439,271.244,4.65508,173.783,14.4434,160.933,0.745312,-0.0256197999999999,237.294,1.08055,1.43158,2.70117950439453,21.9994239807129,0.108454056084156,22.0,-614302.0,1784.34,pp-ro,1,1,-1,-1
1570532193.5,2019-10-08,12:56:33.500,14.0,10.0,18.1800003051758,19.0,-3.0,-2.9,48.1,18.4,-27.1,20.9412,-1.99399,-3.30717,-9.61333,-6.027430000000001,-4.776269999999999,46.0545,19.3321,-27.7689,0.174621,0.0400753,-0.13685,263.8,3.0,52.1701,4.42724,-2.4,1.05664,259.55,4.65505,173.549,15.9634,161.233,0.746527,-0.0343874,237.424,1.0793,1.4169999999999998,1.62309265136719,21.9994239807129,-0.3240118324756619,22.0,-613886.0,3753.27,pp-ro,1,1,-1,-1
1570532193.6,2019-10-08,12:56:33.600,14.0,10.0,18.1800003051758,18.8,-2.9,-2.9,48.2,18.2,-27.1,20.0681,-2.87524,-3.4013,-0.0983947,-6.53557,0.985542,46.4358,20.1086,-28.115,0.100919,-0.192046,-0.0673589,263.8,3.0,52.1701,4.42724,-2.4,1.0278200000000002,245.715,4.65503,173.257,18.2435,161.333,0.747028,-0.0475505,237.443,1.09082,1.42708,0.739166259765625,21.9994239807129,-0.240423887968063,22.0,-613583.0,2553.45,pp-ro,1,1,-1,-1
1570532193.7,2019-10-08,12:56:33.700,14.0,10.0,18.229999542236303,18.5,-2.9,-2.8,48.2,17.5,-27.1,19.4905,-3.02237,-3.18037,-3.11239,0.201973,-1.80754,46.1683,19.3419,-28.8784,0.0448446999999999,0.0706338,0.0194456,263.8,3.0,52.1701,4.42724,-2.4,1.02284,241.85,4.65501,172.81900000000002,21.2835,161.534,0.747905,-0.0651548,237.513,1.11139,1.43946,0.051094055175781,21.9994239807129,-0.17080944776535,22.0,-613451.0,2522.69,pp-ro,1,1,-1,-1
1570532193.8,2019-10-08,12:56:33.800,14.0,10.0,18.0799999237061,18.6,-3.1,-2.7,48.8,17.1,-27.2,19.3382,-3.03249,-2.99688,3.4392400000000003,-1.36847,1.65657,46.1868,19.3122,-28.6734,0.0565366999999999,0.1061619999999999,0.1197849999999999,263.8,3.0,52.1701,4.42724,-2.4,1.00898,238.422,4.65497,172.673,22.0436,161.734,0.7486659999999999,-0.0695573,237.612,1.11804,1.44057,-0.14166259765625,21.9994239807129,-0.2389273494482039,22.0,-613199.0,2307.34,pp-ro,1,1,-1,-1
1570532193.9,2019-10-08,12:56:33.900,14.0,10.0,18.0799999237061,18.4,-3.1,-2.3,48.7,16.9,-26.8,19.2967,-3.25908,-2.52217,-5.92143,0.106199,5.89513,46.5652,19.0028,-27.9787,-0.131029,-0.0962784,0.1602,250.3,2.5,52.1701,4.42724,-2.4,1.00732,233.616,4.65491,172.322,24.3236,161.834,0.7491,-0.0827439,237.648,1.1344299999999998,1.46274,-0.2850341796875,21.9994239807129,0.0828104391694069,22.0,-613026.0,1876.63,pp-ro,1,1,-1,-1
1570532194.0,2019-10-08,12:56:34.000,14.0,10.0,18.0300006866455,18.4,-3.1,-2.1,48.5,15.8,-26.8,19.252,-3.3206900000000004,-2.36826,-0.365829,2.72043,2.1753400000000003,46.5292,18.4,-28.1053,0.0455314,-0.217331,0.0175709,250.3,2.5,52.1701,4.42724,-2.4,0.984604,223.008,4.65479,171.972,25.8436,161.934,0.749775,-0.0915671,237.623,1.15392,1.4766,-0.230415344238281,21.9994239807129,0.242725968360901,22.0,-612653.0,2215.04,pp-ro,1,1,-1,-1
1570532194.1,2019-10-08,12:56:34.100,14.0,9.0,17.8899993896484,18.3,-3.1,-1.8,48.7,15.2,-26.2,19.252,-3.3206900000000004,-2.36826,-0.365829,2.72043,2.1753400000000003,46.5292,18.4,-28.1053,0.0455314,-0.217331,0.0175709,250.3,2.5,52.1701,4.42724,-2.4,0.980172,221.258,4.65468,171.65,28.1237,162.034,0.749979,-0.104691,237.718,1.1776,1.49629,0.001701354980469,21.9994239807129,0.529952049255371,22.0,-612560.0,1784.34,pp-ro,1,1,-1,-1
1570532194.2,2019-10-08,12:56:34.200,14.0,8.0,17.7900009155273,18.6,-3.0,-1.7,49.2,14.5,-25.8,19.0731,-3.27144,-1.85749,2.16636,-0.379026,6.97598,47.1026,16.7501,-27.7916,0.371064,-0.00691237,-0.0160295,250.3,2.5,52.1701,4.42724,-2.4,0.981834,222.889,4.65457,171.329,29.6437,162.134,0.750472,-0.1135029999999999,237.739,1.19712,1.51265,0.233329772949219,21.9994239807129,0.750560700893402,22.0,-612406.0,1476.7,pp-ro,1,1,-1,-1
1570532194.3,2019-10-08,12:56:34.300,14.0,9.0,17.7399997711182,19.0,-3.0,-1.3,49.7,14.0,-25.9,19.3367,-3.28514,-1.69304,3.34596,2.27589,2.39892,47.2303,16.3538,-27.6582,0.0451254,-0.0603207,0.148041,250.3,2.5,52.1701,4.42724,-2.4,0.992362,231.796,4.65445,170.97799999999998,31.9237,162.234,0.7506109999999999,-0.126708,237.85,1.21119,1.54046,0.3900146484375,21.9994239807129,1.20178377628326,22.0,-612279.0,1169.05,pp-ro,1,1,-1,-1
1570532194.4,2019-10-08,12:56:34.400,14.0,10.0,17.6399993896484,19.1,-3.0,-1.0,50.0,13.2,-26.5,19.7964,-3.35759,-1.06322,1.5999,-1.34637,2.3987700000000003,47.7101,15.3177,-27.8423,0.0898689,-0.20756,0.130447,250.3,2.5,52.1701,4.42724,-2.5,1.01452,243.82,4.65434,170.59900000000002,33.4438,162.234,0.750862,-0.13559,237.786,1.22002,1.55875,0.6829605102539059,21.9994239807129,1.47981190681458,22.0,-612209.0,646.054,pp-ro,1,1,-1,-1
1570532194.5,2019-10-08,12:56:34.500,14.0,6.0,17.7399997711182,19.2,-3.2,-0.8,50.3,12.3,-26.8,19.892,-3.48763,-0.72115,-3.14875,3.12726,1.5275,47.8209,14.243,-28.5668,0.0723398,-0.102571,0.0865178,250.3,2.5,52.1701,4.42724,-2.5,1.03004,246.985,4.65423,170.248,35.7238,162.234,0.7505470000000001,-0.148727,237.867,1.2366700000000002,1.56916,1.12237548828125,21.9994239807129,1.6304214000701898,22.0,-612058.0,1938.16,pp-ro,1,1,-1,-1
1570532194.6,2019-10-08,12:56:34.600,14.0,6.0,17.7399997711182,18.9,-3.1,-0.6,50.9,11.6,-26.6,19.8538,-3.4948300000000003,-0.653353,2.09212,-1.30024,-0.731919,48.0714,13.8203,-28.7035,0.0566666999999999,-0.0599463,0.0722559,250.3,2.5,52.1701,4.42724,-2.5,1.02173,244.782,4.65411,169.868,37.2438,162.134,0.75039,-0.157617,237.76,1.25397,1.5842,1.4527816772460902,21.9994239807129,1.8880354166030904,22.0,-611800.0,2645.75,pp-ro,1,1,-1,-1
1570532194.7,2019-10-08,12:56:34.700,14.0,7.0,17.8899993896484,18.8,-3.3,-0.3,51.4,10.9,-26.5,19.611,-3.50049,-0.414891,-2.93207,-4.06585,5.55652,48.7298,13.1789,-28.3311,-0.0866036,0.0683659,0.0483355,250.3,2.5,52.1701,4.42724,-2.5,1.0173,239.381,4.654,169.488,39.5239,162.134,0.7500100000000001,-0.170768,237.857,1.27304,1.59703,1.7848892211914098,21.9994239807129,2.10136461257935,22.0,-611606.0,1968.93,pp-ro,1,1,-1,-1
1570532194.8,2019-10-08,12:56:34.800,14.0,8.0,18.090000152587898,18.5,-3.2,0.0,51.4,10.2,-26.4,19.2018,-3.5622800000000003,0.0686196,-3.01002,2.25723,0.938167,49.2726,11.6393,-28.3067,0.00879557,-0.186552,0.0437993,250.3,2.5,52.1701,4.42724,-2.5,1.00012,226.745,4.6538900000000005,169.109,41.8039,162.035,0.749235,-0.183896,237.909,1.29211,1.61924,2.02162933349609,21.9994239807129,-35.0,22.0,-611317.0,3230.27,pp-ro,1,1,-1,-1
1570532194.9,2019-10-08,12:56:34.900,14.0,9.0,18.1299991607666,18.3,-3.1,-0.1,51.4,9.6,-26.3,19.2018,-3.5622800000000003,0.0686196,-3.01002,2.25723,0.938167,49.2726,11.6393,-28.3067,0.00879557,-0.186552,0.0437993,256.4,2.4,52.1701,4.42724,-2.5,0.975739,219.243,4.6538,168.787,43.324,161.935,0.748757,-0.192698,237.884,1.30697,1.62372,2.22260284423828,21.9994239807129,-35.0,22.0,-611039.0,2553.45,pp-ro,1,1,-1,-1
1570532195.0,2019-10-08,12:56:35.000,14.0,10.0,18.1299991607666,18.1,-3.1,0.0,51.8,9.3,-26.0,19.2018,-3.5622800000000003,0.0686196,-3.01002,2.25723,0.938167,49.2726,11.6393,-28.3067,0.00879557,-0.186552,0.0437993,256.4,2.4,52.1701,4.42724,-2.5,0.982388,227.483,4.65373,168.46599999999998,44.844,161.935,0.748546,-0.201533,237.938,1.32045,1.6325,2.28221130371094,21.9994239807129,-35.0,22.0,-610953.0,338.409,pp-ro,1,1,-1,-1
1570532195.1,2019-10-08,12:56:35.100,14.0,10.0,17.9400005340576,18.2,-3.4,0.2,51.7,8.6,-25.8,18.688,-3.43804,0.139013,-4.755669999999999,-1.20294,-3.25236,49.2647,10.4114,-28.5865,0.0017183,-0.00834308,0.253671,256.4,2.4,52.1701,4.42724,-2.5,1.00732,234.044,4.65366,168.05700000000002,47.124,161.835,0.747648,-0.21466,238.022,1.34073,1.6391099999999998,1.97564697265625,21.9994239807129,-35.0,22.0,-610868.0,1261.34,pp-ro,1,1,-1,-1
1570532195.2,2019-10-08,12:56:35.200,14.0,11.0,17.7900009155273,18.3,-3.3,0.2,51.8,7.8,-26.1,18.8402,-3.78143,0.406854,0.742241,-0.39144,8.73827,49.6888,9.60545,-27.5617,0.0965271,-0.0997562999999999,0.0736523999999999,256.4,2.4,52.1701,4.42724,-2.5,0.997348,231.488,4.65359,167.706,49.0241,161.835,0.747117,-0.225633,238.158,1.35479,1.65085,1.30801391601562,21.9994239807129,-35.0,22.0,-610617.0,2707.28,pp-ro,1,1,-1,-1
1570532195.3,2019-10-08,12:56:35.300,14.0,12.0,17.7900009155273,18.6,-3.3,0.2,51.7,7.0,-26.2,18.8582,-3.73275,0.456934,-1.32763,3.42167,3.54085,49.4624,9.26182,-27.6439,-0.0224353,-0.105621,-0.012463,256.4,2.4,52.1701,4.42724,-2.5,1.00788,246.577,4.653519999999999,167.298,50.5441,161.735,0.746692,-0.2345679999999999,238.121,1.36989,1.65878,0.279312133789062,21.9994239807129,-35.0,22.0,-610516.0,461.467,pp-ro,1,1,-1,-1
1570532195.4,2019-10-08,12:56:35.400,14.0,11.0,17.840000152587898,19.2,-3.6,0.7,52.2,6.6,-26.5,19.581,-3.8273,0.746735,8.77631,-6.59852,7.43215,49.4496,8.561639999999999,-27.6888,0.000233377,0.0497194,-0.0356476,256.4,2.4,52.1701,4.42724,-2.5,1.10152,301.433,4.65345,166.947,52.8241,161.635,0.7454189999999999,-0.2475429999999999,238.301,1.38034,1.67943,-1.11452484130859,21.9994239807129,-35.0,22.0,-610604.0,-276.88,pp-ro,1,1,-1,-1
1570532195.5,2019-10-08,12:56:35.500,14.0,10.0,17.9400005340576,19.8,-3.9,1.1,52.5,5.6,-26.7,20.2744,-4.2603,1.2437200000000002,3.02822,-0.7397699999999999,7.42903,49.7251,8.08708,-27.3468,-0.00890716,-0.0952872,0.101021,256.4,2.4,52.1701,4.42724,-2.5,1.15194,320.482,4.65338,166.53799999999998,54.3442,161.535,0.744896,-0.256451,238.289,1.39681,1.69294,-2.86055755615234,21.9994239807129,-35.0,22.0,-610568.0,1045.99,pp-ro,1,1,-1,-1
1570532195.6,2019-10-08,12:56:35.600,14.0,11.0,18.0799999237061,20.2,-3.7,1.6,53.0,4.7,-27.3,20.2744,-4.2603,1.2437200000000002,3.02822,-0.7397699999999999,7.42903,49.7251,8.08708,-27.3468,-0.00890716,-0.0952872,0.101021,256.4,2.4,52.1701,4.42724,-2.5,1.16191,321.107,4.65331,166.1,56.6242,161.335,0.743409,-0.2695079999999999,238.379,1.41015,1.72796,-4.929168701171879,21.9994239807129,-35.0,22.0,-610215.0,4030.15,pp-ro,1,1,-1,-1
1570532195.7,2019-10-08,12:56:35.700,14.0,10.0,18.2800006866455,20.6,-3.6,2.2,53.7,3.5,-27.1,20.4803,-4.20642,1.7511,0.408912,1.27835,1.83325,50.4235,7.377460000000001,-27.2224,0.228142,-0.0952472,0.0300096999999999,256.4,2.4,52.1701,4.42724,-2.5,1.15027,316.874,4.65324,165.72,58.5242,161.135,0.742042,-0.280369,238.438,1.43538,1.76066,-7.04216003417969,21.9994239807129,-35.0,22.0,-609998.0,4245.5,pp-ro,1,1,-1,-1
1570532195.8,2019-10-08,12:56:35.800,14.0,9.0,18.5599994659424,20.9,-3.4,2.9,54.4,1.9,-26.9,20.6299,-4.12805,2.08333,3.3593300000000004,0.7656729999999999,2.98923,50.7894,7.14429,-27.1563,0.192801,-0.0456968,0.18272,256.4,2.4,52.1701,4.42724,-2.5,1.13753,308.465,4.653169999999999,165.34,60.8043,160.835,0.739937,-0.293221,238.543,1.46719,1.80017,-9.15514373779297,21.9994239807129,-35.0,22.0,-609657.0,3261.04,pp-ro,1,1,-1,-1
1570532195.9,2019-10-08,12:56:35.900,14.0,9.0,19.1200008392334,21.1,-3.1,3.8,55.4,0.0,-26.6,20.9786,-3.98673,2.72198,1.0779299999999998,-1.2349,7.762760000000001,51.45,6.44287,-26.552,-0.163664,0.00786716,0.162012,266.1,3.4,52.1701,4.42724,-2.5,1.1065,289.124,4.65313,164.99,62.7043,160.436,0.737746,-0.303938,238.523,1.50269,1.84709,-11.2647247314453,21.9994239807129,-35.0,22.0,-609056.0,4214.73,pp-ro,1,1,-1,-1
1570532196.0,2019-10-08,12:56:36.000,14.0,8.0,19.6200008392334,21.2,-2.4,4.8,56.1,-2.2,-25.9,21.1745,-3.17975,4.52424,-0.0456066999999999,8.8943,13.9752,53.7086,3.27513,-24.338,0.190293,-0.141625,0.211896,266.1,3.4,52.1701,4.42724,-2.5,1.08101,273.578,4.65311,164.69799999999998,64.9844,160.036,0.734954,-0.3165429999999999,238.662,1.54817,1.91054,-13.3674697875977,21.9994239807129,-35.0,22.0,-608715.0,3137.98,pp-ro,1,1,-1,-1
1570532196.1,2019-10-08,12:56:36.100,14.0,8.0,20.1100006103516,21.6,-1.6,5.5,57.0,-4.5,-24.4,21.1184,-2.23003,5.43524,3.02946,6.916860000000001,8.986189999999999,54.8294,1.35535,-22.9397,0.133398,0.0196798,0.410856,266.1,3.4,52.1701,4.42724,-2.5,1.0716,269.85400000000004,4.65309,164.46400000000003,67.2644,159.536,0.7316229999999999,-0.328943,238.798,1.60424,1.9649,-15.4753341674805,21.9994239807129,-35.0,22.0,-608514.0,3722.5,pp-ro,1,1,-1,-1
1570532196.2,2019-10-08,12:56:36.200,14.0,8.0,20.2399997711182,22.1,-1.1,6.8,58.2,-7.3,-22.5,21.4034,-1.55569,6.35309,4.69378,6.42148,15.6217,55.6142,-0.8852620000000001,-20.976,0.00899893,0.111729,0.36727,266.1,3.4,52.1701,4.42724,-2.5,1.06328,275.501,4.65307,164.31799999999998,69.1644,158.936,0.7280939999999999,-0.339098,238.84,1.66989,2.02317,-17.583206176757802,21.9994239807129,-35.0,22.0,-608276.0,1599.75,pp-ro,1,1,-1,-1
1570532196.3,2019-10-08,12:56:36.300,14.0,8.0,20.3700008392334,22.3,-0.2,8.1,59.3,-11.0,-20.6,21.4034,-1.55569,6.35309,4.69378,6.42148,15.6217,55.6142,-0.8852620000000001,-20.976,0.00899893,0.111729,0.36727,266.1,3.4,52.1701,4.42724,-2.5,1.0970799999999998,293.896,4.65305,164.172,71.4445,158.236,0.723783,-0.351133,238.946,1.74849,2.094,-18.6414031982422,21.9994239807129,-35.0,22.0,-608207.0,676.819,pp-ro,1,1,-1,-1
1570532196.4,2019-10-08,12:56:36.400,14.0,9.0,20.75,22.3,0.6,9.5,59.7,-15.1,-17.7,21.6162,-0.370984,8.375060000000001,-0.798765,11.5393,14.5827,56.7772,-5.61383,-16.339000000000002,0.157806,0.0676544999999999,0.7604069999999999,266.1,3.4,52.1701,4.42724,-2.6,1.12922,308.062,4.65303,164.142,73.3445,157.336,0.71891,-0.360869,238.907,1.84187,2.1619200000000003,-20.7612228393555,21.9994239807129,-35.0,22.0,-608049.0,1907.4,pp-ro,1,1,-1,-1
1570532196.5,2019-10-08,12:56:36.500,14.0,9.0,21.2099990844727,22.3,1.8,11.1,60.4,-19.4,-14.1,21.5547,0.160912,9.08123,-3.4833,10.2181,16.9502,56.8077,-7.48291,-14.7733,0.0477345,0.1568099999999999,0.782062,266.1,3.4,52.1701,4.42724,-2.6,1.13864,314.458,4.6530000000000005,164.201,75.6246,156.436,0.713336,-0.372234,239.067,1.9459,2.24448,-22.879333496093803,21.9994239807129,-35.0,22.0,-607823.0,2122.75,pp-ro,1,1,-1,-1
1570532196.6,2019-10-08,12:56:36.600,14.0,6.0,21.7900009155273,21.6,3.3,13.0,60.7,-25.1,-10.9,21.3674,1.24176,10.4071,-0.508574,9.57365,13.0465,56.6881,-11.6073,-10.8284,0.130414,0.2521199999999999,1.09261,266.1,3.4,52.1701,4.42724,-2.6,1.15526,323.547,4.65299,164.43400000000003,78.2846,155.236,0.7058810000000001,-0.384937,239.302,2.06345,2.34967,-24.9889068603516,21.9994239807129,-35.0,22.0,-607564.0,2768.8,pp-ro,1,1,-1,-1
1570532196.7,2019-10-08,12:56:36.700,14.0,11.0,21.9899997711182,20.3,5.0,14.8,60.1,-30.6,-7.1,20.2865,3.3075300000000003,13.0115,-9.95729,14.4262,14.8776,56.0404,-19.1091,-3.8059,0.0645026,0.0343434,1.24595,266.1,3.4,52.1701,4.42724,-2.6,1.16745,331.579,4.65297,164.785,80.1847,153.936,0.698658,-0.393465,239.332,2.18021,2.46331,-27.0967712402344,21.9994239807129,-35.0,22.0,-607340.0,1815.1,pp-ro,1,1,-1,-1
1570532196.8,2019-10-08,12:56:36.800,14.0,9.0,22.030000686645497,19.1,6.7,16.3,59.0,-35.9,-2.0,18.4263,5.78045,15.3339,-18.6544,18.7582,14.7797,53.7621,-26.861,4.57263,0.140836,0.293689,1.25105,266.1,3.4,52.1701,4.42724,-2.6,1.16856,316.133,4.65295,165.398,82.0847,152.536,0.690453,-0.401246,239.503,2.30451,2.56643,-28.6806640625,21.9994239807129,-35.0,22.0,-607009.0,4676.2,pp-ro,1,1,-1,-1
1570532196.9,2019-10-08,12:56:36.900,14.0,10.0,21.8199996948242,17.8,8.4,17.4,56.9,-41.6,4.4,16.9454,7.35733,16.3554,-15.1777,16.3763,16.2909,50.6678,-31.8696,11.2465,0.182491,0.261156,1.25295,271.0,3.8,52.1701,4.42724,-2.6,1.0970799999999998,294.06,4.65294,166.06900000000002,83.9847,151.036,0.681771,-0.408763,239.676,2.44199,2.66277,-30.619552612304695,21.9994239807129,-35.0,22.0,-606245.0,3199.51,pp-ro,1,1,-1,-1
1570532197.0,2019-10-08,12:56:37.000,14.0,10.0,21.6599998474121,16.1,9.9,18.8,53.8,-47.6,11.2,15.2594,8.800419999999999,17.6561,-19.8898,11.1692,13.8722,46.7876,-36.8431,19.1708,0.100962,0.217085,1.3851,271.0,3.8,52.1701,4.42724,-2.6,1.1259,309.271,4.65294,166.916,85.8848,149.436,0.6723439999999999,-0.41576,239.93400000000003,2.57956,2.7654400000000003,-32.2000427246094,21.9994239807129,-35.0,22.0,-606144.0,1107.52,pp-ro,1,1,-1,-1
1570532197.1,2019-10-08,12:56:37.100,14.0,11.0,21.6200008392334,14.2,11.9,20.2,48.6,-53.2,21.1,15.2594,8.800419999999999,17.6561,-19.8898,11.1692,13.8722,46.7876,-36.8431,19.1708,0.100962,0.217085,1.3851,271.0,3.8,52.1701,4.42724,-2.6,1.14086,316.356,4.65294,167.997,87.4049,147.736,0.662507,-0.420286,240.18400000000003,2.72998,2.8791900000000004,-33.6763916015625,21.9994239807129,-35.0,22.0,-606060.0,1630.52,pp-ro,1,1,-1,-1
1570532197.2,2019-10-08,12:56:37.200,14.0,9.0,21.649999618530305,11.3,13.0,21.1,41.6,-58.8,32.4,15.2594,8.800419999999999,17.6561,-19.8898,11.1692,13.8722,46.7876,-36.8431,19.1708,0.100962,0.217085,1.3851,271.0,3.8,52.1701,4.42724,-2.6,1.16634,328.371,4.6529300000000005,169.165,88.9249,146.036,0.652485,-0.424508,240.523,2.87705,2.99591,-34.306198120117195,21.9994239807129,-35.0,22.0,-605693.0,2553.45,pp-ro,1,1,-1,-1
1570532197.3,2019-10-08,12:56:37.300,14.0,8.0,21.690000534057603,8.3,14.6,21.3,30.5,-62.2,47.5,12.3992,11.1852,19.3688,-20.5343,13.8965,11.3855,37.2775,-43.6931,34.8114,0.0250427,0.174137,1.47415,271.0,3.8,52.1701,4.42724,-2.6,1.17078,324.717,4.65294,170.479,89.6849,144.136,0.642382,-0.424839,240.587,3.02081,3.12138,-34.872848510742195,21.9994239807129,-23.0,22.0,-605540.0,2891.86,pp-ro,1,1,-1,-1
1570532197.4,2019-10-08,12:56:37.400,14.0,9.0,21.8099994659424,5.3,15.9,20.9,15.2,-63.6,67.9,9.51901,12.2465,20.0683,-24.8143,10.9777,0.764903,28.9797,-47.6549,46.4656,-0.0671618,0.332383,1.40969,271.0,3.8,52.1701,4.42724,-2.7,1.13753,304.481,4.65294,171.998,90.445,142.336,0.6321760000000001,-0.424662,240.88,3.18595,3.24296,-34.9581909179688,21.9994239807129,-23.0,22.0,-605004.0,6091.37,pp-ro,1,1,-1,-1
1570532197.5,2019-10-08,12:56:37.500,14.0,7.0,21.8899993896484,2.5,16.7,20.5,0.0,-62.7,86.9,5.29105,14.0474,19.7537,-27.2039,9.18853,-7.290960000000001,14.042,-50.0457,66.768,-0.191665,0.203056,1.48881,271.0,3.8,52.1701,4.42724,-2.7,1.10872,297.341,4.65294,173.575,90.825,140.537,0.622297,-0.4226319999999999,241.097,3.3363,3.3514,-34.9598999023438,21.9994239807129,-23.0,22.0,-604626.0,2861.1,pp-ro,1,1,-1,-1
1570532197.6,2019-10-08,12:56:37.600,14.0,5.0,22.1200008392334,-0.1,17.3,19.6,-13.6,-59.1,104.2,2.67221,14.7458,19.2394,-23.7705,1.80442,-4.0279,2.94966,-49.353,81.393,-0.155293,0.252008,1.6006200000000002,271.0,3.8,52.1701,4.42724,-2.7,1.12534,307.04900000000004,4.65294,175.24,90.8251,138.937,0.613345,-0.418722,241.374,3.4955199999999995,3.45494,-34.661209106445305,21.9994239807129,-23.0,22.0,-604451.0,1599.75,pp-ro,1,1,-1,-1
1570532197.7,2019-10-08,12:56:37.700,14.0,9.0,22.2399997711182,-2.7,17.3,18.2,-22.0,-53.8,117.1,0.121857,15.0087,18.4469,-27.0764,2.02365,-11.8548,-8.04675,-47.0379,95.8973,-0.112468,0.2913429999999999,1.43758,271.0,3.8,52.1701,4.42724,-2.7,1.1358700000000002,303.974,4.65294,176.905,90.8251,137.437,0.604748,-0.4148699999999999,241.73,3.65025,3.56242,-33.9699554443359,21.9994239807129,-23.0,22.0,-604047.0,3445.62,pp-ro,1,1,-1,-1
1570532197.8,2019-10-08,12:56:37.800,14.0,9.0,22.3899993896484,-5.1,17.5,16.4,-28.4,-48.1,127.2,-2.3958,15.187,17.3763,-21.6202,-0.966174,-13.4536,-16.3446,-42.8065,107.969,0.2266159999999999,0.233421,1.72963,271.0,3.8,52.1701,4.42724,-2.7,1.1242299999999998,297.333,4.65294,178.59799999999998,90.8251,136.037,0.5964520000000001,-0.411009,242.183,3.79854,3.67709,-32.9151763916016,21.9994239807129,-23.0,22.0,-603809.0,4399.32,pp-ro,1,1,-1,-1
1570532197.9,2019-10-08,12:56:37.900,14.0,9.0,22.2700004577637,-7.5,17.5,14.7,-30.8,-41.5,133.4,-2.3958,15.187,17.3763,-21.6202,-0.966174,-13.4536,-16.3446,-42.8065,107.969,0.2266159999999999,0.233421,1.72963,264.8,3.3,52.1701,4.42724,-2.7,1.10484,303.372,4.65292,180.351,90.0652,134.83700000000002,0.589526,-0.403706,242.527,3.93407,3.79288,-31.5156097412109,21.9994239807129,-23.0,22.0,-603461.0,2614.98,pp-ro,1,1,-1,-1
1570532198.0,2019-10-08,12:56:38.000,14.0,9.0,22.3899993896484,-9.8,17.0,13.5,-32.7,-35.8,138.2,-6.8445800000000006,15.2718,14.6525,-20.21,-3.59277,-12.4162,-26.519,-33.048,124.699,0.131207,0.412375,1.30928,264.8,3.3,52.1701,4.42724,-2.7,1.16191,327.845,4.65286,182.045,89.3052,133.83700000000002,0.5834020000000001,-0.39658,242.957,4.05016,3.89688,-29.752517700195305,21.9994239807129,-23.0,22.0,-603513.0,-1107.52,pp-ro,1,1,-1,-1
1570532198.1,2019-10-08,12:56:38.100,14.0,11.0,22.350000381469695,-11.3,16.7,11.8,-34.4,-30.8,142.8,-9.06519,14.9795,13.5808,-21.3237,-6.33608,-14.4999,-29.3577,-27.9785,130.47799999999998,-0.113417,0.198465,1.0783200000000002,264.8,3.3,52.1701,4.42724,-2.7,1.16413,321.818,4.65284,183.68,88.1652,132.83700000000002,0.577765,-0.387967,243.223,4.15638,3.9871,-27.779479980468803,21.9994239807129,-23.0,22.0,-602944.0,4891.55,pp-ro,1,1,-1,-1
1570532198.2,2019-10-08,12:56:38.200,14.0,11.0,22.3099994659424,-11.8,16.5,10.8,-34.9,-28.1,144.5,-9.93062,14.8639,12.949000000000002,-19.2988,3.79722,-17.4058,-30.6468,-25.7067,133.253,-0.196551,0.397703,0.983916,264.8,3.3,52.1701,4.42724,-2.7,1.14363,313.525,4.6528,185.228,87.4053,132.437,0.573993,-0.381326,243.903,4.2067,4.028519999999999,-26.1222076416016,21.9994239807129,-23.0,22.0,-602535.0,3845.56,pp-ro,1,1,-1,-1
