time,date,time_of_day,airspeed_temperature,airspeed_angle_of_attack,airspeed_apparent_windspeed,kite_0_vx,kite_0_vy,kite_0_vz,kite_0_roll,kite_0_pitch,kite_0_yaw,kite_1_vx,kite_1_vy,kite_1_vz,kite_1_ax,kite_1_ay,kite_1_az,kite_1_roll,kite_1_pitch,kite_1_yaw,kite_1_roll_rate,kite_1_pitch_rate,kite_1_yaw_rate,ground_upwind_direction,ground_wind_velocity,ground_pos_latitude,ground_pos_longitude,ground_pos_altitude,ground_tether_reelout_speed,ground_tether_force,est_upwind_direction,kite_pos_east,kite_pos_north,kite_height,kite_elevation,kite_azimuth,kite_distance,kite_heading,kite_course,kite_actual_steering,kite_actual_depower,kite_set_steering,kite_set_depower,ground_mech_energy,ground_mech_power,flight_phase,flight_phase_index,phase,pattern,pattern_section
1570531980.9,2019-10-08,12:53:00.900,14.0,9.0,14.8299999237061,14.3,0.9,3.0,19.5,-6.9,-34.5,12.8223,0.526863,3.3898900000000003,2.0329200000000003,11.7965,2.85431,24.5967,8.357389999999999,-37.6831,0.163168,0.179017,0.995562,279.6,5.9,52.1701,4.427219999999999,2.3,-3.17711,92.2884,4.67874,44.0744,-12.1602,232.821,1.37689,0.302874,237.268,0.724412,1.40806,-34.978668212890604,22.0009689331055,-35.0,22.0,-458382.0,-9936.93,pp-riro,4,0,-1,-1
1570531981.0,2019-10-08,12:53:01.000,14.0,8.0,14.6499996185303,14.6,2.3,3.3,21.1,-8.1,-29.4,13.2396,1.78309,3.68252,3.24433,12.5506,4.97308,26.2368,6.81263,-31.9302,0.224036,0.194893,1.00693,279.6,5.9,52.1701,4.427219999999999,2.3,-3.21202,91.2451,4.67879,44.1912,-10.6402,232.621,1.37783,0.269903,237.02,0.8514370000000001,1.53506,-34.9957275390625,22.0009689331055,-35.0,22.0,-459800.0,-14059.4,pp-riro,4,0,-1,-1
1570531981.1,2019-10-08,12:53:01.100,14.0,9.0,14.5299997329712,15.0,3.6,3.5,22.4,-9.3,-24.4,13.6613,2.98809,4.03021,3.83038,10.7332,3.40146,27.7202,5.429180000000001,-26.2608,0.26402,0.2048829999999999,0.965954,279.6,5.9,52.1701,4.427219999999999,2.3,-3.2596700000000003,87.5159,4.6788300000000005,44.3664,-9.50015,232.421,1.37801,0.244523,236.808,0.968943,1.6383299999999998,-34.9940185546875,22.0009689331055,-35.0,22.0,-461320.0,-15966.8,pp-riro,4,0,-1,-1
1570531981.2,2019-10-08,12:53:01.200,14.0,7.0,14.2799997329712,15.3,4.8,3.9,23.7,-10.5,-19.6,14.114,4.854080000000001,4.52256,2.00444,10.9779,2.85881,29.9761,3.18421,-18.268,0.365375,0.226188,0.981803,279.6,5.9,52.1701,4.427219999999999,2.3,-3.3150699999999995,85.9786,4.67888,44.7461,-7.60007,232.221,1.37778,0.2017779999999999,236.615,1.10025,1.75,-34.9940185546875,22.0009689331055,-35.0,22.0,-463099.0,-18612.5,pp-riro,4,0,-1,-1
1570531981.3,2019-10-08,12:53:01.300,14.0,8.0,14.0900001525879,15.4,6.0,4.4,24.7,-12.4,-15.1,14.3059,6.04637,4.8857800000000005,-1.57257,11.6846,4.530480000000001,31.1167,1.62068,-12.857,0.0768043,0.224083,0.928632,279.6,5.9,52.1701,4.427219999999999,2.3,-3.33835,86.9066,4.67892,45.155,-6.460030000000001,231.921,1.37659,0.175589,236.365,1.21184,1.84557,-34.9957275390625,22.0009689331055,-35.0,22.0,-464094.0,-19135.5,pp-riro,4,0,-1,-1
1570531981.4,2019-10-08,12:53:01.400,14.0,8.0,13.960000038147,15.4,7.1,4.7,25.6,-14.4,-10.4,14.228,7.114339999999999,5.27489,-0.886352,8.89604,4.50685,31.7671,-0.2556199999999999,-7.57039,0.0603348,0.237731,0.925991,279.6,5.9,52.1701,4.427219999999999,2.2,-3.42146,88.8197,4.67897,45.7391,-4.55995,231.621,1.37489,0.1328119999999999,236.138,1.34381,1.94779,-35.0076751708984,22.0009689331055,-35.0,22.0,-466539.0,-14582.4,pp-riro,4,0,-1,-1
1570531981.5,2019-10-08,12:53:01.500,14.0,8.0,13.8999996185303,15.4,8.2,5.0,26.2,-15.6,-5.4,14.228,7.114339999999999,5.27489,-0.886352,8.89604,4.50685,31.7671,-0.2556199999999999,-7.57039,0.0603348,0.237731,0.925991,279.6,5.9,52.1701,4.427219999999999,2.2,-3.45249,86.1332,4.67901,46.4109,-3.03989,231.221,1.37229,0.0988071,235.853,1.46906,2.03793,-35.0093841552734,22.0009689331055,-35.0,22.0,-467479.0,-17658.8,pp-riro,4,0,-1,-1
1570531981.6,2019-10-08,12:53:01.600,14.0,9.0,13.960000038147,15.3,9.3,5.2,26.6,-17.1,-0.1,14.0066,8.75027,5.61581,-4.27046,6.7666,3.18655,32.4526,-2.87914,0.433376,0.0971742,0.21078,0.96175,279.6,5.9,52.1701,4.427219999999999,2.2,-3.5605300000000004,80.812,4.67905,47.1995,-1.13982,230.921,1.36912,0.0575004,235.699,1.60705,2.13349,-35.0076751708984,22.0009689331055,-35.0,22.0,-470568.0,-23442.5,pp-riro,4,0,-1,-1
1570531981.7,2019-10-08,12:53:01.700,14.0,9.0,14.2799997329712,15.1,10.3,5.5,26.7,-18.7,5.3,13.8317,9.75645,5.78795,-2.41628,9.97954,4.74681,32.7653,-4.68239,5.93395,0.0399700999999999,0.239954,0.945376,279.6,5.9,52.1701,4.427219999999999,2.2,-3.63533,90.1803,4.6791,48.0757,0.000232837,230.421,1.3651,0.0333069999999999,235.383,1.7296900000000002,2.20925,-35.0093841552734,22.0009689331055,-35.0,22.0,-472842.0,-21381.3,pp-riro,4,0,-1,-1
1570531981.8,2019-10-08,12:53:01.800,14.0,8.0,14.460000038147,14.9,11.5,5.9,26.5,-20.5,10.8,13.7979,10.2795,5.91129,-1.42936,11.0775,4.11157,32.806,-5.4903900000000005,8.84104,0.0449616999999999,0.369819,0.985981,278.8,5.2,52.1701,4.427219999999999,2.2,-3.66636,95.3118,4.67914,49.0979,1.90031,229.921,1.36026,-0.00541818,235.113,1.86799,2.30493,-35.0076751708984,22.0009689331055,-35.0,22.0,-473740.0,-16951.2,pp-riro,4,0,-1,-1
1570531981.9,2019-10-08,12:53:01.900,14.0,10.0,14.5200004577637,14.5,12.6,6.3,26.1,-21.9,16.6,13.3833,11.8318,6.51895,-2.73317,10.4952,4.17251,32.0485,-7.99008,17.971,0.00110247,0.31035,0.985049,278.8,5.2,52.1701,4.427219999999999,2.2,-3.67744,99.9792,4.679209999999999,50.2078,3.42038,229.422,1.35486,-0.0348114,234.876,1.99954,2.39098,-35.0059814453125,22.0009689331055,-35.0,22.0,-474819.0,-11198.3,pp-riro,4,0,-1,-1
1570531982.0,2019-10-08,12:53:02.000,14.0,10.0,14.460000038147,14.0,13.9,6.6,25.5,-23.6,22.8,12.9044,12.8779,6.83638,-5.2706800000000005,12.07,3.8142,31.2966,-9.54885,24.0384,0.1041769999999999,0.248006,0.969846,278.8,5.2,52.1701,4.427219999999999,2.2,-3.678,98.0202,4.67928,51.5221,4.56043,228.822,1.34849,-0.0551414,234.595,2.12903,2.47488,-35.0076751708984,22.0009689331055,-35.0,22.0,-475905.0,-11167.5,pp-riro,4,0,-1,-1
1570531982.1,2019-10-08,12:53:02.100,14.0,10.0,14.5200004577637,13.4,15.0,6.9,24.5,-24.6,28.8,12.3389,13.9547,7.11684,-6.10299,11.0073,1.1122,30.2178,-10.9658,30.1815,0.0405192,0.356959,0.996474,278.8,5.2,52.1701,4.427219999999999,2.2,-3.68132,102.017,4.67935,52.8948,6.46051,228.222,1.34141,-0.0884624,234.36,2.26338,2.56482,-35.0076751708984,22.0009689331055,-35.0,22.0,-476768.0,-5691.43,pp-riro,4,0,-1,-1
1570531982.2,2019-10-08,12:53:02.200,14.0,10.0,14.7600002288818,12.8,16.3,7.3,24.0,-25.7,35.1,12.0708,14.5171,7.25732,-7.712330000000001,9.273,4.07397,29.6747,-11.4903,33.2412,-0.0309044,0.373289,0.931662,278.8,5.2,52.1701,4.427219999999999,2.2,-3.65085,114.096,4.67942,54.4136,7.600569999999999,227.522,1.33385,-0.10578,234.061,2.38658,2.64269,-35.0059814453125,22.0009689331055,-23.0044822692871,22.0,-477091.0,-3230.27,pp-riro,4,0,-1,-1
1570531982.3,2019-10-08,12:53:02.300,14.0,9.0,15.1800003051758,12.0,17.6,7.9,22.9,-26.5,41.2,11.5116,15.6172,7.66529,-6.42989,13.8974,5.91999,28.6548,-12.4968,39.4352,0.211467,0.42544,1.0155299999999998,278.8,5.2,52.1701,4.427219999999999,2.2,-3.5821400000000003,128.66,4.67948,56.02,9.12064,226.722,1.3255,-0.128456,233.718,2.50922,2.72976,-35.0042724609375,22.0009689331055,-23.0044822692871,22.0,-476385.0,12644.2,pp-riro,4,0,-1,-1
1570531982.4,2019-10-08,12:53:02.400,14.0,10.0,15.5200004577637,11.1,18.8,8.4,22.0,-27.4,47.4,10.8223,16.8347,8.21795,-6.738410000000001,12.0654,5.11344,27.1715,-13.2398,46.014,-0.0624575,0.402221,0.94724,278.8,5.2,52.1701,4.42721,2.1,-3.43476,138.952,4.67955,57.8017,10.2607,226.022,1.31668,-0.142849,233.521,2.6248,2.80588,-34.970123291015604,22.0009689331055,-23.0044822692871,22.0,-474816.0,19166.3,pp-riro,4,0,-1,-1
1570531982.5,2019-10-08,12:53:02.500,14.0,11.0,15.75,9.9,19.9,8.7,21.2,-28.3,53.8,9.8696,17.9972,8.68562,-10.3315,10.5317,5.92746,25.6201,-14.0068,52.284,0.0497769999999999,0.281489,0.951751,278.8,5.2,52.1701,4.42721,2.1,-3.24471,145.41899999999998,4.67962,59.7585,11.4008,225.122,1.30686,-0.15575,233.197,2.7409,2.88587,-34.604888916015604,22.0009689331055,-22.2621116638184,22.0,-472520.0,23873.2,pp-riro,4,0,-1,-1
1570531982.6,2019-10-08,12:53:02.600,14.0,11.0,16.0799999237061,8.8,21.0,9.1,20.2,-28.7,60.5,8.21676,19.5264,9.14645,-12.9691,10.2352,1.3106,23.5193,-15.4614,61.397,0.0606937,0.290134,0.948465,278.8,5.2,52.1701,4.42721,2.1,-2.88954,160.22299999999998,4.67969,61.7738,12.1608,224.222,1.29705,-0.161675,232.893,2.85315,2.9526,-33.8777923583984,22.0009689331055,-21.4399814605713,22.0,-468457.0,29810.8,pp-riro,4,0,-1,-1
1570531982.7,2019-10-08,12:53:02.700,14.0,11.0,16.4099998474121,7.5,22.0,9.5,19.2,-29.3,67.2,8.21676,19.5264,9.14645,-12.9691,10.2352,1.3106,23.5193,-15.4614,61.397,0.0606937,0.290134,0.948465,278.8,5.2,52.1701,4.42721,2.1,-2.7488,166.196,4.679790000000001,63.8475,13.3009,223.222,1.28654,-0.172719,232.554,2.96927,3.02698,-32.795700073242195,22.0009689331055,-20.6445560455322,22.0,-466845.0,30795.3,pp-riro,4,0,-1,-1
1570531982.8,2019-10-08,12:53:02.800,14.0,11.0,16.729999542236303,6.0,22.6,9.9,17.5,-29.8,73.7,5.75725,21.136,9.94099,-14.9268,3.6031,3.74103,20.1648,-16.9108,74.6613,0.13994,0.139897,1.06182,274.4,4.7,52.1701,4.42721,2.1,-2.41857,170.59599999999998,4.67981,66.0381,14.0609,222.322,1.27595,-0.177206,232.348,3.0750900000000003,3.09556,-30.942138671875,22.0009689331055,-19.8034954071045,22.0,-463603.0,33133.4,pp-riro,4,0,-1,-1
1570531982.9,2019-10-08,12:53:02.900,14.0,10.0,16.9899997711182,4.5,23.0,9.9,15.5,-30.3,80.8,5.0433,21.3503,10.0488,-16.8666,3.09347,2.29315,19.3762,-17.487000000000002,77.9599,0.0854927,0.223963,0.943089,274.4,4.7,52.1701,4.42721,2.1,-1.92987,155.36700000000002,4.679819999999999,68.3454,14.821,221.322,1.26474,-0.180983,232.108,3.1884900000000003,3.16041,-29.0646820068359,22.0009689331055,-19.0570831298828,22.0,-459541.0,22796.5,pp-riro,4,0,-1,-1
1570531983.0,2019-10-08,12:53:03.000,14.0,11.0,17.25,2.9,23.3,9.7,13.8,-30.1,87.0,4.30788,21.504,10.0642,-13.3956,1.87217,-0.879893,18.4297,-18.0564,81.1389,0.0941244,0.241221,1.14029,274.4,4.7,52.1701,4.42721,2.1,-1.6744400000000002,147.333,4.67981,70.6528,15.201,220.322,1.25384,-0.179337,231.872,3.28266,3.22323,-26.9534072875977,22.0009689331055,-18.2051048278809,22.0,-457807.0,15382.2,pp-riro,4,0,-1,-1
1570531983.1,2019-10-08,12:53:03.100,14.0,9.0,17.4500007629395,1.7,23.5,9.6,11.9,-29.5,93.1,2.9441900000000003,21.8639,9.94611,-10.7389,-0.84105,-0.0432776999999999,16.8736,-18.9329,87.2522,-0.0204045,0.2249969999999999,0.920572,274.4,4.7,52.1701,4.42721,2.1,-1.4384,151.233,4.679819999999999,72.931,15.5811,219.422,1.24317,-0.177912,231.749,3.37583,3.26982,-24.8540725708008,22.0009689331055,-17.6881828308105,22.0,-456524.0,12275.0,pp-riro,4,0,-1,-1
1570531983.2,2019-10-08,12:53:03.200,14.0,9.0,17.6000003814697,0.3,23.5,9.7,10.6,-28.9,98.7,1.06487,22.2078,9.84626,-9.53363,3.33821,1.31364,14.9243,-19.5035,95.5796,0.112773,0.3004699999999999,0.8253219999999999,274.4,4.7,52.1701,4.42721,2.1,-1.32259,155.409,4.6798,75.3844,15.5811,218.422,1.23196,-0.171234,231.58900000000003,3.45687,3.31834,-22.828125,22.0009689331055,-17.0251731872559,22.0,-455871.0,12490.4,pp-riro,4,0,-1,-1
1570531983.3,2019-10-08,12:53:03.300,14.0,9.0,17.6000003814697,-1.0,23.1,9.8,9.3,-28.9,103.7,0.4237109999999999,22.2549,9.95193,-5.767469999999999,-0.543925,0.931569,14.2894,-19.4851,98.4168,0.0877906,0.225655,0.925468,274.4,4.7,52.1701,4.42721,2.1,-1.07049,158.916,4.6798,77.7502,15.5811,217.522,1.22122,-0.165214,231.525,3.52788,3.3636,-21.0581970214844,22.0009689331055,-16.438959121704098,22.0,-454692.0,11813.6,pp-riro,4,0,-1,-1
1570531983.4,2019-10-08,12:53:03.400,14.0,8.0,17.5,-2.0,22.9,9.3,7.9,-28.6,108.3,-1.36449,21.9434,9.85863,-9.24769,-4.30135,-2.05327,12.3974,-20.0347,105.635,0.00217844,0.110403,0.726969,274.4,4.7,52.1701,4.42721,1.9,-0.79123,149.45,4.679819999999999,80.0576,15.5812,216.622,1.2107,-0.159636,231.467,3.5936800000000004,3.40023,-19.5169830322266,22.0009689331055,-16.0421848297119,22.0,-453767.0,8152.59,pp-riro,4,0,-1,-1
1570531983.5,2019-10-08,12:53:03.500,14.0,8.0,17.5,-2.6,22.9,9.1,7.3,-27.9,110.6,-2.3462,21.7693,9.36817,-7.7696,-1.32576,-3.2399400000000003,11.045,-20.1404,109.728,0.00320362,0.163151,0.5745100000000001,274.4,4.7,52.1701,4.42721,1.9,-0.5701510000000001,137.30100000000002,4.6798,82.3942,15.5812,216.122,1.20068,-0.154331,231.819,3.62577,3.42006,-18.1993560791016,22.0009689331055,-15.979679107666,22.0,-453255.0,4060.91,pp-riro,4,0,-1,-1
1570531983.6,2019-10-08,12:53:03.600,14.0,7.0,17.5499992370605,-4.1,22.3,8.8,5.3,-26.4,116.4,-3.2733,21.6155,8.98361,-4.76241,-1.24185,-3.33726,10.2087,-19.8384,113.857,0.209979,0.203788,0.665829,274.4,4.7,52.1701,4.42721,1.9,-0.31084,137.48,4.6798,84.7307,15.2012,214.822,1.18967,-0.144931,231.428,3.71131,3.47563,-17.374977111816403,22.0009689331055,-15.1507177352905,22.0,-452917.0,1722.81,pp-riro,4,0,-1,-1
1570531983.7,2019-10-08,12:53:03.700,14.0,8.0,17.6900005340576,-4.9,21.8,8.7,4.0,-25.8,119.9,-4.179869999999999,21.2165,8.90531,-4.06521,-5.61955,-2.86231,8.75425,-19.1084,117.373,-0.105347,0.083708,0.637594,274.4,4.7,52.1701,4.42721,1.9,-0.131872,141.789,4.679819999999999,86.9505,14.8213,213.922,1.17971,-0.136265,231.393,3.75921,3.50368,-16.4994049072266,22.0009689331055,-14.8547792434692,22.0,-452807.0,861.4060000000001,pp-riro,4,0,-1,-1
1570531983.8,2019-10-08,12:53:03.800,14.0,8.0,17.5400009155273,-5.5,21.3,8.4,2.8,-24.9,123.2,-4.179869999999999,21.2165,8.90531,-4.06521,-5.61955,-2.86231,8.75425,-19.1084,117.373,-0.105347,0.083708,0.637594,275.3,4.9,52.1701,4.42721,1.9,-0.0410020999999999,140.983,4.67981,89.1118,14.4413,213.122,1.17013,-0.128083,231.453,3.80605,3.5262800000000003,-15.7859725952148,22.0009689331055,-14.6769437789917,22.0,-452794.0,246.116,pp-riro,4,0,-1,-1
1570531983.9,2019-10-08,12:53:03.900,14.0,8.0,17.4400005340576,-6.1,21.0,8.0,1.0,-23.6,126.5,-4.5132,21.0002,8.84731,-4.04097,-5.3957,-3.09579,8.11019,-19.0876,119.011,0.0726343,0.1233269999999999,0.613294,275.3,4.9,52.1701,4.42721,1.9,0.209443,133.257,4.67984,91.2732,14.0613,212.322,1.1605299999999998,-0.120299,231.536,3.85556,3.5491300000000003,-15.0827789306641,22.0009689331055,-14.5210638046265,22.0,-452915.0,-1230.58,pp-riro,4,0,-1,-1
1570531984.0,2019-10-08,12:53:04.000,14.0,8.0,17.3400001525879,-6.4,20.9,8.0,0.4,-23.1,128.0,-5.69177,20.291,7.98591,-4.65309,-2.80174,-0.4831359999999999,5.19585,-18.0303,125.314,-0.100742,0.368219,0.406097,275.3,4.9,52.1701,4.42721,1.9,0.25377,132.614,4.679869999999999,93.3469,13.3013,211.922,1.15217,-0.109008,231.951,3.87066,3.55211,-14.8523635864258,22.0009689331055,-14.6064577102661,22.0,-452882.0,1169.05,pp-riro,4,0,-1,-1
1570531984.1,2019-10-08,12:53:04.100,14.0,8.0,17.4400005340576,-7.1,20.5,8.0,-2.0,-22.4,132.5,-6.2683,19.9799,7.828689999999999,-4.14585,-4.397390000000001,0.4636369999999999,3.67194,-16.6325,128.458,-0.186953,0.171356,0.510724,275.3,4.9,52.1701,4.42721,1.9,0.20501,144.256,4.67989,95.3914,12.1613,210.622,1.14249,-0.094308,231.536,3.93004,3.5716900000000003,-14.739715576171902,22.0009689331055,-14.3495502471924,22.0,-452840.0,-246.116,pp-riro,4,0,-1,-1
1570531984.2,2019-10-08,12:53:04.200,14.0,9.0,17.3400001525879,-8.1,19.9,8.1,-3.4,-21.8,134.9,-7.419010000000001,19.4282,7.87206,-7.62674,-5.53416,-1.84495,0.978699,-16.1931,132.685,-0.136691,0.0431386999999999,0.434488,275.3,4.9,52.1701,4.42721,1.9,0.2509989999999999,154.778,4.67991,97.4652,11.7813,209.722,1.13298,-0.0878012,231.563,3.96394,3.613280000000001,-14.4444427490234,22.0009689331055,-13.8996238708496,22.0,-452906.0,-1230.58,pp-riro,4,0,-1,-1
1570531984.3,2019-10-08,12:53:04.300,14.0,10.0,17.2800006866455,-8.5,19.7,8.1,-4.3,-21.3,136.0,-8.03701,19.1296,7.88876,-4.99691,-3.31231,-0.3244599999999999,-0.7674,-15.4491,134.994,-0.0868504,0.0961961,0.419159,275.3,4.9,52.1701,4.42721,1.9,0.301975,168.56900000000002,4.67994,99.5097,11.0214,209.222,1.12448,-0.0778473,231.943,3.97445,3.623180000000001,-14.2293930053711,22.0009689331055,-13.9379425048828,22.0,-452878.0,861.4060000000001,pp-riro,4,0,-1,-1
1570531984.4,2019-10-08,12:53:04.400,14.0,10.0,17.229999542236303,-9.1,19.5,8.2,-5.9,-20.4,138.3,-8.03701,19.1296,7.88876,-4.99691,-3.31231,-0.3244599999999999,-0.7674,-15.4491,134.994,-0.0868504,0.0961961,0.419159,275.3,4.9,52.1701,4.42721,1.6,0.279258,169.12,4.67996,100.474,10.6414,208.322,1.11922,-0.0730833,231.53,4.0107,3.64494,-13.9443588256836,22.0009689331055,-13.6973209381104,22.0,-452837.0,0.0,pp-riro,4,0,-1,-1
1570531984.5,2019-10-08,12:53:04.500,14.0,10.0,17.229999542236303,-10.3,19.0,8.6,-8.5,-19.9,141.6,-8.03701,19.1296,7.88876,-4.99691,-3.31231,-0.3244599999999999,-0.7674,-15.4491,134.994,-0.0868504,0.0961961,0.419159,275.3,4.9,52.1701,4.42721,1.6,0.307516,176.322,4.67999,103.423,9.12137,206.722,1.10536,-0.0555686,231.33,4.04819,3.6802,-13.9204635620117,22.0009689331055,-13.392878532409698,22.0,-452823.0,369.174,pp-riro,4,0,-1,-1
1570531984.6,2019-10-08,12:53:04.600,14.0,10.0,17.0799999237061,-10.6,18.8,8.7,-9.4,-20.1,142.6,-9.89875,18.4264,8.18425,-7.474010000000001,-0.27838,0.429589,-5.53221,-14.7598,140.357,-0.24064,-0.0927881,0.419006,275.3,4.9,52.1701,4.42721,1.6,0.321368,187.28,4.68002,104.358,8.361369999999999,206.222,1.10103,-0.0475648,231.275,4.05484,3.68686,-13.799285888671902,22.0009689331055,-13.3194303512573,22.0,-452781.0,92.2935,pp-riro,4,0,-1,-1
1570531984.7,2019-10-08,12:53:04.700,14.0,10.0,16.9699993133545,-11.3,18.5,8.8,-10.9,-20.1,144.5,-10.2862,18.2139,8.2816,-7.307239999999999,1.04788,-1.2511,-6.50662,-14.911,141.495,-0.290307,-0.0543674999999999,0.459935,275.3,4.9,52.1701,4.42721,1.6,0.331341,191.43400000000003,4.68004,106.227,7.221369999999999,205.222,1.09221,-0.0355143,231.198,4.0726,3.70676,-13.4528045654297,22.0009689331055,-13.1862812042236,22.0,-452735.0,553.761,pp-riro,4,0,-1,-1
1570531984.8,2019-10-08,12:53:04.800,14.0,10.0,16.870000839233402,-11.9,18.0,8.9,-12.4,-20.1,146.4,-11.2079,17.5888,8.36353,-4.79068,-5.53708,1.49852,-9.26501,-14.7844,144.33700000000002,-0.367079,-0.0776508,0.267436,270.9,4.1,52.1701,4.42721,1.6,0.331895,193.861,4.68007,108.067,6.46138,204.122,1.08315,-0.027402,231.054,4.09361,3.72992,-13.2667694091797,22.0009689331055,-13.1459121704102,22.0,-452684.0,461.467,pp-riro,4,0,-1,-1
1570531984.9,2019-10-08,12:53:04.900,14.0,9.0,16.870000839233402,-12.6,17.5,9.0,-14.1,-20.4,148.2,-11.8854,17.1161,8.61214,-4.49766,-6.29169,0.977158,-10.6488,-15.237,146.19799999999998,-0.0663266999999999,-0.228794,0.15005,270.9,4.1,52.1701,4.42721,1.6,0.3357739999999999,195.979,4.68004,109.878,4.94137,203.022,1.0743,-0.0126067,230.902,4.1051,3.75095,-13.1609497070312,22.0009689331055,-12.9614419937134,22.0,-452665.0,369.174,pp-riro,4,0,-1,-1
1570531985.0,2019-10-08,12:53:05.000,14.0,9.0,16.7600002288818,-13.1,16.9,9.2,-15.2,-20.9,150.0,-12.4711,16.5521,8.64562,-4.73135,-5.37555,-0.3375869999999999,-12.1801,-15.7159,147.86700000000002,-0.152427,-0.0737598999999999,0.27592,270.9,4.1,52.1701,4.42721,1.6,0.3451929999999999,200.469,4.68002,111.631,3.80137,202.022,1.06574,-0.00167559,230.844,4.11819,3.76913,-13.1626586914062,22.0009689331055,-12.953837394714402,22.0,-452621.0,461.467,pp-riro,4,0,-1,-1
1570531985.1,2019-10-08,12:53:05.100,14.0,10.0,16.6499996185303,-13.5,16.6,9.1,-16.2,-20.4,151.5,-12.7909,16.1361,8.7299,-0.8924549999999999,0.2633,-0.966734,-13.2507,-16.1297,149.26,0.15717,-0.0895705,0.160822,270.9,4.1,52.1701,4.42721,1.6,0.348518,200.616,4.68,113.296,2.28136,200.922,1.0572700000000002,0.0122407,230.675,4.13171,3.7787,-12.997100830078098,22.0009689331055,35.0,22.0,-452568.0,492.232,pp-riro,4,0,-1,-1
1570531985.2,2019-10-08,12:53:05.200,14.0,9.0,16.6499996185303,-14.0,16.0,9.2,-16.9,-20.3,152.9,-13.0927,15.8109,8.65962,-5.21703,-6.556889999999999,-0.81547,-13.788,-16.2374,149.878,-0.0605618,-0.126853,0.225399,270.9,4.1,52.1701,4.42721,1.6,0.424427,186.61,4.67997,114.873,0.761353,199.922,1.04926,0.0257843,230.576,4.1411,3.79628,-12.920295715332,22.0009689331055,35.0,22.0,-452888.0,-8367.94,pp-riro,4,0,-1,-1
1570531985.3,2019-10-08,12:53:05.300,14.0,9.0,16.7600002288818,-14.3,15.4,9.1,-17.6,-20.4,154.5,-13.0927,15.8109,8.65962,-5.21703,-6.556889999999999,-0.81547,-13.788,-16.2374,149.878,-0.0605618,-0.126853,0.225399,270.9,4.1,52.1701,4.42721,1.6,0.611707,181.703,4.67995,116.421,-0.378646,198.822,1.0410700000000002,0.0356844,230.4,4.15481,3.81319,-12.8366622924805,22.0009689331055,35.0,22.0,-453521.0,-11629.0,pp-riro,4,0,-1,-1
1570531985.4,2019-10-08,12:53:05.400,14.0,9.0,16.8600006103516,-14.3,14.9,8.7,-18.1,-20.4,156.1,-13.6405,14.6582,8.56597,-0.71724,-4.92557,-7.80634,-14.8598,-16.1288,153.003,0.0636838,-0.130187,0.151501,270.9,4.1,52.1701,4.427219999999999,1.4,0.950805,159.05200000000002,4.67995,117.91,-2.27867,197.822,1.03321,0.051757,230.308,4.16407,3.81699,-12.3724212646484,22.0009689331055,35.0,22.0,-454596.0,-8675.59,pp-riro,4,0,-1,-1
1570531985.5,2019-10-08,12:53:05.500,14.0,8.0,16.8600006103516,-14.2,14.6,8.2,-18.6,-20.0,157.4,-13.603,14.2957,8.15094,0.61077,-5.03063,-1.93214,-14.7811,-16.3031,154.446,0.0583853,-0.069371,0.286993,270.9,4.1,52.1701,4.427219999999999,1.4,0.81838,125.042,4.679930000000001,119.429,-3.41867,196.922,1.02544,0.0610712,230.333,4.17788,3.82039,-11.5480499267578,22.0009689331055,35.0,22.0,-453563.0,9875.4,pp-riro,4,0,-1,-1
1570531985.6,2019-10-08,12:53:05.600,14.0,7.0,16.75,-14.2,14.3,8.1,-18.1,-18.6,157.7,-13.5494,14.1673,7.96065,0.762001,-3.53475,-4.08789,-15.0059,-16.3562,154.941,-0.0806286,-0.122043,0.125848,270.9,4.1,52.1701,4.427219999999999,1.4,0.774053,127.448,4.67989,120.86,-4.558669999999999,196.022,1.01797,0.0701741,230.332,4.18586,3.82191,-10.3584213256836,22.0009689331055,35.0,22.0,-453601.0,-1876.63,pp-riro,4,0,-1,-1
1570531985.7,2019-10-08,12:53:05.700,14.0,6.0,16.7000007629395,-14.1,13.8,8.3,-17.7,-17.6,158.4,-13.529000000000002,13.3945,8.02928,0.698177,-1.53485,4.61975,-14.6248,-15.3951,156.328,0.0479843999999999,-0.0564374,0.153197,270.9,4.1,52.1701,4.427219999999999,1.4,0.8715719999999999,148.48,4.67989,122.233,-6.45869,195.222,1.01076,0.0853012,230.422,4.19153,3.81561,-8.81890869140625,22.0009689331055,35.0,22.0,-453797.0,1415.17,pp-riro,4,0,-1,-1
1570531985.8,2019-10-08,12:53:05.800,14.0,7.0,16.5400009155273,-14.0,13.5,8.4,-17.9,-18.0,159.1,-13.5159,13.2616,8.13818,-0.6465310000000001,-0.384242,1.22243,-14.5531,-15.1888,156.797,0.128079,-0.0176720999999999,0.233807,268.7,4.1,52.1701,4.427219999999999,1.4,0.858274,143.606,4.679869999999999,123.606,-7.598689999999999,194.422,1.00364,0.093921,230.513,4.190840000000001,3.8113,-6.94316101074219,22.0009689331055,35.0,22.0,-453642.0,2861.1,pp-riro,4,0,-1,-1
1570531985.9,2019-10-08,12:53:05.900,14.0,8.0,16.5900001525879,-13.7,13.4,8.4,-17.9,-18.2,160.2,-13.389,13.1632,8.13658,1.89987,1.63166,-1.07839,-14.5724,-15.3993,157.58700000000002,0.0520164999999999,-0.172315,0.164482,268.7,4.1,52.1701,4.427219999999999,1.4,0.83057,137.381,4.679880000000001,124.891,-8.73869,193.522,0.996578,0.102375,230.489,4.197690000000001,3.79617,-4.82334899902344,22.0009689331055,35.0,22.0,-453501.0,738.3480000000001,pp-riro,4,0,-1,-1
1570531986.0,2019-10-08,12:53:06.000,14.0,7.0,16.4300003051758,-13.7,13.5,8.5,-17.6,-17.3,160.4,-13.187,13.1614,8.16563,5.55324,3.75945,0.402843,-14.7978,-16.1426,158.586,0.124665,-0.0539174999999999,0.10639,268.7,4.1,52.1701,4.427219999999999,1.4,0.8449760000000001,147.832,4.67989,126.205,-10.6387,192.722,0.989391,0.116605,230.614,4.19638,3.7799,-2.7171859741210898,22.0009689331055,35.0,22.0,-453479.0,215.351,pp-riro,4,0,-1,-1
1570531986.1,2019-10-08,12:53:06.100,14.0,6.0,16.4300003051758,-13.7,13.5,8.9,-17.9,-16.7,160.3,-13.2083,13.2496,8.271189999999999,-0.567759,-0.381651,2.812,-14.9169,-16.3105,159.011,-0.135128,0.00741332,0.147192,268.7,4.1,52.1701,4.427219999999999,1.4,0.8771120000000001,157.664,4.6799,127.578,-11.7787,191.822,0.981931,0.1245609999999999,230.675,4.19346,3.76711,-0.61444091796875,22.0009689331055,35.0,22.0,-453445.0,830.6410000000001,pp-riro,4,0,-1,-1
1570531986.2,2019-10-08,12:53:06.200,14.0,7.0,16.479999542236303,-13.6,13.5,9.3,-18.0,-16.7,160.3,-13.2083,13.2496,8.271189999999999,-0.567759,-0.381651,2.812,-14.9169,-16.3105,159.011,-0.135128,0.00741332,0.147192,268.7,4.1,52.1701,4.427219999999999,1.4,0.8737879999999999,156.359,4.67991,128.893,-13.2987,190.922,0.974517,0.135299,230.741,4.18451,3.74849,1.49706268310547,22.0009689331055,35.0,22.0,-453355.0,1784.34,pp-riro,4,0,-1,-1
1570531986.3,2019-10-08,12:53:06.300,14.0,8.0,16.6399993896484,-13.3,13.7,9.5,-18.5,-17.3,160.2,-13.2242,13.586,9.08779,0.807297,0.702056,0.422245,-15.6602,-17.4781,159.595,-0.0499143,-0.1796559999999999,-0.060297,268.7,4.1,52.1701,4.427219999999999,1.4,0.862152,154.06,4.67992,130.207,-14.4387,190.022,0.967207,0.1429109999999999,230.805,4.17143,3.72319,3.59703826904297,22.0009689331055,35.0,22.0,-453230.0,953.699,pp-riro,4,0,-1,-1
1570531986.4,2019-10-08,12:53:06.400,14.0,8.0,16.8500003814697,-13.0,14.0,9.8,-19.0,-17.8,159.3,-13.1182,13.7225,9.25395,1.88655,1.02479,4.90581,-15.9831,-18.1367,159.415,-0.323283,-0.20747,-0.200281,268.7,4.1,52.1701,4.427219999999999,1.3,0.8682469999999999,158.07399999999998,4.679930000000001,131.58,-15.9587,189.022,0.95926,0.153161,230.862,4.14567,3.6919,5.71404266357422,22.0009689331055,35.0,22.0,-453166.0,522.996,pp-riro,4,0,-1,-1
1570531986.5,2019-10-08,12:53:06.500,14.0,8.0,16.8999996185303,-12.8,14.3,10.4,-19.6,-18.6,158.0,-13.0119,14.1345,9.7199,-0.5266649999999999,6.91943,8.3366,-16.5296,-19.4099,158.815,-0.231796,-0.0826855,-0.150272,268.7,4.1,52.1701,4.427219999999999,1.3,0.878775,160.998,4.67994,132.982,-17.4787,187.922,0.950916,0.163143,230.878,4.11188,3.66092,7.81912994384766,22.0009689331055,35.0,22.0,-453110.0,676.819,pp-riro,4,0,-1,-1
1570531986.6,2019-10-08,12:53:06.600,14.0,8.0,16.7999992370605,-12.2,14.6,10.9,-20.3,-19.9,156.7,-13.0119,14.1345,9.7199,-0.5266649999999999,6.91943,8.3366,-16.5296,-19.4099,158.815,-0.231796,-0.0826855,-0.150272,268.7,4.1,52.1701,4.427219999999999,1.3,0.8715719999999999,158.18,4.67995,134.384,-18.6187,186.923,0.942967,0.1701109999999999,230.967,4.07632,3.61953,9.92250061035156,22.0009689331055,35.0,22.0,-452930.0,1015.23,pp-riro,4,0,-1,-1
1570531986.7,2019-10-08,12:53:06.700,14.0,8.0,16.6399993896484,-11.4,14.9,11.4,-21.1,-21.6,154.9,-13.0119,14.1345,9.7199,-0.5266649999999999,6.91943,8.3366,-16.5296,-19.4099,158.815,-0.231796,-0.0826855,-0.150272,268.7,4.1,52.1701,4.427219999999999,1.3,0.8710180000000001,156.687,4.67996,135.786,-19.3787,185.823,0.934934,0.174192,230.962,4.03279,3.5731900000000003,12.0309982299805,22.0009689331055,35.0,22.0,-452876.0,953.699,pp-riro,4,0,-1,-1
1570531986.8,2019-10-08,12:53:06.800,14.0,8.0,16.479999542236303,-10.6,15.4,11.8,-21.3,-22.9,152.6,-12.2711,14.9392,10.9267,5.5484,5.83779,3.32994,-17.9219,-23.0415,156.64600000000002,-0.191501,-0.4400489999999999,-0.36398,265.9,3.8,52.1701,4.427219999999999,1.3,0.867693,154.47799999999998,4.67997,137.275,-20.8987,184.723,0.926205,0.183502,231.092,3.98183,3.51989,14.1360855102539,22.0009689331055,35.0,22.0,-452754.0,1384.4,pp-riro,4,0,-1,-1
1570531986.9,2019-10-08,12:53:06.900,14.0,9.0,16.3199996948242,-9.8,15.8,12.4,-21.7,-24.8,149.5,-10.854,16.028,12.0632,5.42836,0.5358189999999999,8.08875,-18.9676,-27.034,152.358,-0.272698,-0.234465,-0.510698,265.9,3.8,52.1701,4.427219999999999,1.3,0.862152,152.55100000000002,4.67999,138.765,-21.6587,183.523,0.917592,0.187244,231.096,3.9196,3.47191,16.2462768554688,22.0009689331055,35.0,22.0,-452631.0,1199.82,pp-riro,4,0,-1,-1
1570531987.0,2019-10-08,12:53:07.000,14.0,8.0,16.3199996948242,-8.7,16.1,12.9,-21.8,-26.7,145.9,-9.99877,16.491,12.7512,8.98348,2.0945,11.0338,-19.3027,-30.3828,149.994,-0.458661,-0.3845699999999999,-0.524676,265.9,3.8,52.1701,4.427219999999999,1.3,0.8704629999999999,159.941,4.68,140.342,-22.4187,182.323,0.908678,0.19079,231.171,3.85135,3.4153300000000004,18.3581695556641,22.0009689331055,35.0,22.0,-452550.0,123.058,pp-riro,4,0,-1,-1
1570531987.1,2019-10-08,12:53:07.100,14.0,8.0,16.2600002288818,-7.5,16.5,13.4,-21.2,-28.9,141.5,-8.9457,17.0769,13.4471,8.0679,0.66884,6.2537400000000005,-19.3904,-33.5372,146.66899999999998,-0.17282,-0.198553,-0.8970530000000001,265.9,3.8,52.1701,4.427219999999999,1.3,0.882653,160.99,4.68001,141.91899999999998,-23.9386,181.023,0.8990739999999999,0.199491,231.265,3.766680000000001,3.34947,20.4700622558594,22.0009689331055,35.0,22.0,-452481.0,1015.23,pp-riro,4,0,-1,-1
1570531987.2,2019-10-08,12:53:07.200,14.0,9.0,16.2600002288818,-6.1,16.7,13.7,-20.0,-31.2,136.3,-8.39335,17.3901,13.6757,10.7946,7.719810000000001,4.84705,-19.2461,-34.7524,144.439,-0.366589,-0.0909708,-0.790764,265.9,3.8,52.1701,4.427219999999999,1.3,0.8771120000000001,158.782,4.68002,143.555,-24.3186,179.82299999999998,0.890176,0.200183,231.378,3.6782,3.28579,22.5870742797852,22.0009689331055,35.0,22.0,-452393.0,1661.28,pp-riro,4,0,-1,-1
1570531987.3,2019-10-08,12:53:07.300,14.0,9.0,16.1000003814697,-4.8,17.3,14.2,-18.1,-33.2,130.3,-6.2718300000000005,18.2928,14.5335,21.541,8.14137,6.016859999999999,-17.6408,-38.664,136.42,-0.339706,-0.00317013,-0.716106,265.9,3.8,52.1701,4.427219999999999,1.3,0.866585,158.789,4.68004,145.22,-25.0786,178.523,0.880703,0.203367,231.491,3.58056,3.21971,24.690452575683604,22.0009689331055,35.0,22.0,-452282.0,861.4060000000001,pp-riro,4,0,-1,-1
1570531987.4,2019-10-08,12:53:07.400,14.0,8.0,16.0400009155273,-3.0,17.4,14.7,-15.5,-35.4,123.5,-5.36448,18.4272,14.8352,20.6742,7.140969999999999,7.05007,-16.6467,-40.4581,133.584,-0.200188,-0.40734,-0.8013600000000001,265.9,3.8,52.1701,4.427219999999999,1.1,0.884315,168.58900000000003,4.68005,146.914,-25.0785,177.123,0.87129,0.20142,231.484,3.47719,3.1428700000000003,26.7972412109375,22.0009689331055,35.0,22.0,-452258.0,307.645,pp-riro,4,0,-1,-1
1570531987.5,2019-10-08,12:53:07.500,14.0,8.0,15.9799995422363,-1.1,17.6,14.8,-12.4,-37.0,115.7,-3.63622,18.8589,15.4534,19.5228,4.583419999999999,5.3841,-14.8564,-44.1953,127.769,-0.338131,-0.193343,-0.732534,265.9,3.8,52.1701,4.427219999999999,1.1,0.903708,174.541,4.68006,148.695,-25.4585,175.72299999999998,0.8613850000000001,0.201902,231.596,3.36354,3.05958,28.9108428955078,22.0009689331055,35.0,22.0,-452144.0,1138.29,pp-riro,4,0,-1,-1
1570531987.6,2019-10-08,12:53:07.600,14.0,9.0,15.9799995422363,0.6,17.4,14.8,-8.1,-38.1,107.4,-3.63622,18.8589,15.4534,19.5228,4.583419999999999,5.3841,-14.8564,-44.1953,127.769,-0.338131,-0.193343,-0.732534,265.9,3.8,52.1701,4.427219999999999,1.1,0.8992760000000001,171.602,4.68007,150.41899999999998,-25.4584,174.32299999999998,0.851884,0.199976,231.651,3.24864,2.98803,30.8081359863281,22.0009689331055,23.0044822692871,22.0,-452058.0,1630.52,pp-riro,4,0,-1,-1
1570531987.7,2019-10-08,12:53:07.700,14.0,10.0,15.9799995422363,2.3,17.4,14.7,-2.8,-39.1,97.8,1.2517,19.3692,15.9735,12.5574,-0.1986609999999999,-1.6401599999999998,-4.04004,-50.3369,105.732,-0.0938363,-0.32435,-1.08451,265.9,3.8,52.1701,4.427219999999999,1.1,0.889856,174.14700000000002,4.68009,152.2,-25.4583,172.923,0.842201,0.198043,231.766,3.1186,2.91518,32.3511962890625,22.0009689331055,23.0044822692871,22.0,-451847.0,1076.76,pp-ro,1,1,-1,-1
1570531987.8,2019-10-08,12:53:07.800,14.0,10.0,15.9200000762939,4.1,17.1,14.7,2.2,-39.1,88.4,1.2517,19.3692,15.9735,12.5574,-0.1986609999999999,-1.6401599999999998,-4.04004,-50.3369,105.732,-0.0938363,-0.32435,-1.08451,272.3,4.4,52.1701,4.427219999999999,1.1,0.900938,183.968,4.6801,153.894,-25.0783,171.523,0.8329989999999999,0.193827,231.802,2.99476,2.84051,33.5399780273438,22.0009689331055,23.0044822692871,22.0,-451849.0,-30.7645,pp-ro,1,1,-1,-1
1570531987.9,2019-10-08,12:53:07.900,14.0,10.0,15.869999885559098,5.9,16.3,14.4,7.8,-38.5,78.4,5.58997,18.78,15.8034,25.8556,-7.74815,-1.1532,8.310369999999999,-52.6255,83.0438,-0.1330859999999999,-0.29262,-1.0121,272.3,4.4,52.1701,4.427219999999999,1.1,0.93917,197.321,4.68018,155.67600000000002,-24.6982,170.023,0.823226,0.189591,231.846,2.86219,2.76051,34.3728179931641,22.0009689331055,23.0044822692871,22.0,-451892.0,-246.116,pp-ro,1,1,-1,-1
1570531988.0,2019-10-08,12:53:08.000,14.0,10.0,15.9200000762939,7.5,15.6,13.7,13.0,-36.7,68.8,7.535139999999999,18.0727,15.3397,18.7791,-8.49196,-3.19518,15.5684,-51.5052,71.023,-0.437755,-0.100268,-1.11658,272.3,4.4,52.1701,4.427219999999999,1.1,0.936399,181.92,4.68025,157.253,-24.3181,168.72299999999998,0.814674,0.185602,231.921,2.72885,2.68178,34.8479919433594,22.0009689331055,23.0044822692871,22.0,-451666.0,3261.04,pp-ro,1,1,-1,-1
1570531988.1,2019-10-08,12:53:08.100,14.0,10.0,15.869999885559098,9.1,14.8,12.9,17.6,-35.0,60.5,9.43472,17.3156,14.2703,30.8672,-10.3487,-11.5845,21.6009,-49.5191,59.4902,-0.5852569999999999,0.0724552,-1.1444299999999998,272.3,4.4,52.1701,4.427219999999999,1.1,0.880437,161.997,4.6803300000000005,158.83,-23.1781,167.423,0.8064680000000001,0.177004,231.937,2.61524,2.60071,34.9672241210938,22.0009689331055,23.0044822692871,22.0,-451278.0,3230.27,pp-ro,1,1,-1,-1
1570531988.2,2019-10-08,12:53:08.200,14.0,10.0,15.9200000762939,10.5,14.1,12.3,21.0,-32.1,52.6,9.43472,17.3156,14.2703,30.8672,-10.3487,-11.5845,21.6009,-49.5191,59.4902,-0.5852569999999999,0.0724552,-1.1444299999999998,272.3,4.4,52.1701,4.427219999999999,1.1,0.890965,169.533,4.68041,160.29,-22.418000000000003,166.22299999999998,0.798725,0.170977,232.003,2.49417,2.52814,34.868438720703104,22.0009689331055,23.0044822692871,22.0,-451278.0,-307.645,pp-ro,1,1,-1,-1
1570531988.3,2019-10-08,12:53:08.300,14.0,10.0,15.859999656677198,11.9,13.2,11.6,24.3,-28.7,45.0,11.272,16.4309,13.4283,11.8293,-6.38507,-6.33067,26.5089,-46.1943,49.9169,-0.590322,0.0162067999999999,-1.18925,272.3,4.4,52.1701,4.427219999999999,1.1,0.900384,171.26,4.68048,161.751,-21.2779,165.023,0.7911229999999999,0.162739,232.053,2.37146,2.45091,34.362594604492195,22.0009689331055,23.0044822692871,22.0,-451228.0,953.699,pp-ro,1,1,-1,-1
1570531988.4,2019-10-08,12:53:08.400,14.0,11.0,15.859999656677198,13.0,12.3,10.7,27.0,-25.7,38.7,12.8974,15.5096,12.6,14.5961,-6.30019,-5.07307,29.8297,-42.6989,41.8388,-0.535421,0.263005,-1.29856,272.3,4.4,52.1701,4.427230000000001,1.1,0.885978,168.503,4.68056,163.094,-20.5178,164.023,0.784312,0.1570119999999999,232.216,2.26536,2.37704,33.4974060058594,22.0009689331055,22.8960876464844,22.0,-451011.0,953.699,pp-ro,1,1,-1,-1
1570531988.5,2019-10-08,12:53:08.500,14.0,11.0,15.9200000762939,14.1,11.6,9.9,29.1,-22.9,32.6,14.9493,13.8141,11.1323,10.7531,-7.731910000000001,-9.56647,33.6114,-36.7964,30.8422,-0.133791,-0.0782631999999999,-1.17732,272.3,4.4,52.1701,4.427230000000001,1.1,0.894843,173.826,4.68064,164.37900000000002,-18.9978,163.023,0.777939,0.146812,232.288,2.16607,2.31073,32.271148681640604,22.0009689331055,21.8526954650879,22.0,-450960.0,369.174,pp-ro,1,1,-1,-1
1570531988.6,2019-10-08,12:53:08.600,14.0,11.0,15.9099998474121,14.9,10.7,9.0,31.7,-19.7,26.6,16.107,12.8106,10.1689,11.3172,-9.78466,-9.62508,35.5291,-33.3505,24.6072,-0.534628,-0.171498,-0.871862,272.3,4.4,52.1701,4.427230000000001,1.1,0.902046,176.17700000000002,4.68072,165.606,-17.4777,162.123,0.772003,0.1368609999999999,232.41,2.06274,2.24661,30.2341918945312,22.0009689331055,20.8432235717773,22.0,-450930.0,584.525,pp-ro,1,1,-1,-1
1570531988.7,2019-10-08,12:53:08.700,14.0,11.0,16.0799999237061,15.4,9.9,8.0,33.2,-16.5,21.4,16.107,12.8106,10.1689,11.3172,-9.78466,-9.62508,35.5291,-33.3505,24.6072,-0.534628,-0.171498,-0.871862,272.3,4.4,52.1701,4.427230000000001,1.1,0.8976129999999999,171.143,4.68079,166.71599999999998,-15.9576,161.22299999999998,0.766372,0.127023,232.468,1.96835,2.18928,28.2278747558594,22.0009689331055,19.9653301239014,22.0,-450734.0,1630.52,pp-ro,1,1,-1,-1
1570531988.8,2019-10-08,12:53:08.800,14.0,11.0,16.2399997711182,15.8,9.6,7.5,33.9,-15.0,18.7,17.1825,11.8215,9.19052,6.7626,-8.131960000000001,-10.2216,37.0132,-29.2705,18.9698,-0.115328,0.22503,-1.03576,276.9,4.5,52.1701,4.427230000000001,1.1,0.89041,168.02900000000002,4.68087,167.271,-15.1976,160.82299999999998,0.763696,0.122165,232.539,1.92094,2.1576,27.1685256958008,22.0009689331055,19.4629821777344,22.0,-450659.0,1445.93,pp-ro,1,1,-1,-1
1570531988.9,2019-10-08,12:53:08.900,14.0,12.0,16.3500003814697,16.3,8.8,6.6,35.3,-11.8,14.0,17.7888,10.8431,8.13997,9.712,-23.432,-16.9445,38.0432,-25.3593,13.1658,-0.562109,0.124919,-0.7455149999999999,276.9,4.5,52.1701,4.427230000000001,1.1,0.885424,167.18900000000002,4.681,168.322,-13.6775,160.023,0.7584850000000001,0.112535,232.651,1.8317,2.09988,25.1860656738281,22.0009689331055,18.5715675354004,22.0,-450551.0,984.464,pp-ro,1,1,-1,-1
1570531989.0,2019-10-08,12:53:09.000,14.0,13.0,16.4500007629395,16.8,7.9,5.7,36.2,-8.5,10.0,18.693,9.42518,6.41825,3.10626,-12.4565,-10.5282,39.5253,-18.7599,6.62172,-0.201852,0.463343,-0.922958,276.9,4.5,52.1701,4.427230000000001,1.1,0.889302,167.386,4.6811300000000005,169.25599999999997,-11.7774,159.32299999999998,0.7539710000000001,0.100734,232.745,1.7505700000000002,2.03895,23.3858489990234,22.0009689331055,17.596237182617198,22.0,-450469.0,984.464,pp-ro,1,1,-1,-1
1570531989.1,2019-10-08,12:53:09.100,14.0,12.0,16.3999996185303,17.2,7.0,4.7,37.3,-5.9,6.4,18.9543,8.191239999999999,5.4474800000000005,-1.32883,-6.66805,-3.75144,40.4848,-14.9451,2.56311,-0.1774329999999999,0.0755466,-0.80125,276.9,4.5,52.1701,4.427230000000001,1.1,0.884315,167.722,4.68125,170.10299999999998,-10.2573,158.72299999999998,0.749898,0.0913618,232.881,1.68118,1.97364,21.7559432983398,22.0009689331055,16.5170211791992,22.0,-450303.0,892.17,pp-ro,1,1,-1,-1
1570531989.2,2019-10-08,12:53:09.200,14.0,11.0,16.2900009155273,17.6,6.3,3.8,38.4,-3.6,3.1,19.366,7.20945,4.28214,2.75704,-5.45702,-9.34005,40.9708,-11.6975,-0.668976,0.0720317,0.2873679999999999,-0.989037,276.9,4.5,52.1701,4.427230000000001,1.1,0.893181,169.71400000000003,4.68138,170.863,-8.35726,158.22299999999998,0.746413,0.0798786,233.02,1.6205,1.91829,19.9369812011719,22.0009689331055,15.6244840621948,22.0,-450228.0,861.4060000000001,pp-ro,1,1,-1,-1
1570531989.3,2019-10-08,12:53:09.300,14.0,11.0,16.2399997711182,17.7,5.7,3.2,39.5,-0.8,0.2,19.618,6.351369999999999,3.4374,8.24498,-14.124,-10.7854,41.3522,-8.2823,-3.30416,0.158123,0.0186995999999999,-0.635545,276.9,4.5,52.1701,4.427230000000001,1.1,0.894843,170.625,4.68151,171.56400000000002,-6.45719,157.72299999999998,0.743039,0.068561,233.136,1.55799,1.88207,18.5949096679688,22.0009689331055,15.1202850341797,22.0,-450161.0,1322.87,pp-ro,1,1,-1,-1
1570531989.4,2019-10-08,12:53:09.400,14.0,11.0,16.020000457763697,17.7,5.1,2.6,40.3,1.7,-2.8,19.7064,5.66108,2.76438,-1.80028,-4.35225,-3.48596,42.2436,-5.20575,-6.29381,0.347541,0.0821263,-0.8587549999999999,276.9,4.5,52.1701,4.42724,1.3,0.903708,179.10299999999998,4.68164,172.235,-4.557119999999999,157.32299999999998,0.740006,0.0572656999999999,233.316,1.49806,1.8464,17.344802856445302,22.0009689331055,14.6216535568237,22.0,-450052.0,246.116,pp-ro,1,1,-1,-1
1570531989.5,2019-10-08,12:53:09.500,14.0,11.0,15.9099998474121,17.8,4.5,2.1,41.1,4.0,-5.6,19.6345,4.975169999999999,2.21985,-2.01761,-4.1340900000000005,-0.23475,42.8071,-2.06218,-9.30759,0.1243619999999999,0.0806084,-0.819506,276.9,4.5,52.1701,4.42724,1.3,0.914236,179.59599999999998,4.681769999999999,172.79,-3.03707,157.023,0.7375520000000001,0.0481954,233.499,1.44153,1.81053,16.0027236938477,22.0009689331055,14.0866737365723,22.0,-449944.0,1507.46,pp-ro,1,1,-1,-1
1570531989.6,2019-10-08,12:53:09.600,14.0,10.0,15.7399997711182,17.8,3.9,1.6,42.0,6.3,-8.2,19.6045,4.17267,1.63028,-2.4755700000000003,-9.73752,-7.08931,43.2542,0.651373,-12.2428,0.223142,0.084017,-0.717429,276.9,4.5,52.1701,4.42724,1.3,0.910357,178.36,4.6819,173.287,-0.756993,156.623,0.734927,0.0349251,233.58,1.39036,1.77824,15.1409301757812,22.0009689331055,13.6710357666016,22.0,-449848.0,1845.87,pp-ro,1,1,-1,-1
1570531989.7,2019-10-08,12:53:09.700,14.0,9.0,15.630000114440902,17.7,3.2,1.0,42.6,8.1,-10.4,19.5527,3.833930000000001,1.32729,2.42203,-6.2182900000000005,-8.46129,43.4855,1.87037,-13.6061,0.103362,-0.0132282999999999,-0.632389,276.9,4.5,52.1701,4.42724,1.3,0.901492,177.312,4.68203,173.695,0.763058,156.423,0.73312,0.0260344,233.75,1.3473700000000002,1.7353299999999998,14.7526168823242,22.0009689331055,12.9794015884399,22.0,-449713.0,953.699,pp-ro,1,1,-1,-1
1570531989.8,2019-10-08,12:53:09.800,14.0,9.0,15.5100002288818,17.7,2.5,0.5,43.5,9.8,-12.1,19.44,3.0237,0.820204,-0.871857,-6.2857,-3.5819,44.1264,4.42647,-15.6203,-0.1158299999999999,0.00382227,-0.57013,277.3,3.9,52.1701,4.42724,1.3,0.908141,178.792,4.68215,174.017,2.66312,156.123,0.731194,0.0149966,233.802,1.3130700000000002,1.6959799999999998,14.0952072143555,22.0009689331055,12.3926067352295,22.0,-449618.0,1138.29,pp-ro,1,1,-1,-1
1570531989.9,2019-10-08,12:53:09.900,14.0,8.0,15.3400001525879,17.6,1.7,0.1,43.9,11.1,-14.1,19.3836,2.25115,0.2263119999999999,2.34812,-3.51983,-1.58515,44.81,6.6488,-17.3717,-0.028929,0.018174,-0.509512,277.3,3.9,52.1701,4.42724,1.3,0.910911,182.711,4.6822,174.27900000000002,4.56317,156.023,0.730013,0.00403769,233.96,1.28038,1.65691,13.3236846923828,22.0009689331055,11.7812843322754,22.0,-449508.0,892.17,pp-ro,1,1,-1,-1
1570531990.0,2019-10-08,12:53:10.000,14.0,9.0,15.289999961853,17.5,1.1,-0.2,44.3,12.2,-15.8,19.2209,1.45231,-0.202395,-1.38781,-12.2822,-10.9333,44.9894,8.129430000000001,-19.2839,0.0656744,-0.128598,-0.47353,277.3,3.9,52.1701,4.42724,1.3,0.918669,186.255,4.68224,174.484,6.46322,155.923,0.728942,-0.00685174,234.091,1.25378,1.62888,12.702033996582,22.0009689331055,11.3952045440674,22.0,-449419.0,892.17,pp-ro,1,1,-1,-1
1570531990.1,2019-10-08,12:53:10.100,14.0,9.0,15.2299995422363,17.3,0.4,-0.5,44.6,13.0,-17.6,19.2209,1.45231,-0.202395,-1.38781,-12.2822,-10.9333,44.9894,8.129430000000001,-19.2839,0.0656744,-0.128598,-0.47353,277.3,3.9,52.1701,4.42724,1.3,0.918669,182.77,4.68228,174.63,8.36327,155.82399999999998,0.7279800000000001,-0.0177435999999999,234.193,1.22983,1.59647,12.0173721313477,22.0009689331055,10.927337646484402,22.0,-449208.0,1692.05,pp-ro,1,1,-1,-1
1570531990.2,2019-10-08,12:53:10.200,14.0,8.0,15.109999656677198,17.0,0.0,-0.7,45.0,13.6,-19.2,19.0814,0.736278,-0.538046,-5.75281,-6.8083,-10.1827,45.4781,9.39252,-20.944000000000003,-0.0317664,-0.00276903,-0.2043039999999999,277.3,3.9,52.1701,4.42724,1.3,0.913128,180.478,4.68232,174.688,10.2633,155.82399999999998,0.727527,-0.0285945,234.312,1.21075,1.57906,11.397430419921902,22.0009689331055,10.741003036499,22.0,-449114.0,1815.1,pp-ro,1,1,-1,-1
1570531990.3,2019-10-08,12:53:10.300,14.0,10.0,15.1700000762939,16.6,-0.5,-0.9,45.1,14.2,-20.4,18.5008,-0.163132,-0.942588,-2.21901,-6.07816,-1.26927,45.7924,10.925999999999998,-23.5308,0.125684,-0.117867,-0.27531,277.3,3.9,52.1701,4.42724,1.3,0.9026,174.22,4.68236,174.688,11.7834,155.82399999999998,0.727256,-0.0373024,234.384,1.1949299999999998,1.55506,10.9682388305664,22.0009689331055,10.393789291381802,22.0,-448971.0,1384.4,pp-ro,1,1,-1,-1
1570531990.4,2019-10-08,12:53:10.400,14.0,8.0,15.109999656677198,16.3,-0.8,-1.1,45.1,14.6,-21.8,18.0731,-0.699706,-1.18916,-9.44562,-7.828939999999999,-8.642330000000001,45.9598,11.792,-24.9241,0.169167,0.0211150999999999,0.0142084,277.3,3.9,52.1701,4.42724,1.5,0.887086,160.775,4.6824,174.63,13.6834,155.82399999999998,0.7270300000000001,-0.0481891,234.443,1.1807299999999998,1.53981,10.6718902587891,22.0009689331055,10.2592763900757,22.0,-448792.0,1999.69,pp-ro,1,1,-1,-1
1570531990.5,2019-10-08,12:53:10.500,14.0,8.0,15.0,15.9,-1.0,-1.0,45.3,14.9,-23.3,17.7448,-1.19753,-1.40687,-4.70646,-6.32943,-0.6782739999999999,46.4461,12.6315,-26.0963,0.0295263,-0.128392,-0.29938,277.3,3.9,52.1701,4.42724,1.5,0.859382,147.946,4.68244,174.513,15.2034,155.82399999999998,0.727005,-0.0569331,234.45,1.1651200000000002,1.53991,10.3755416870117,22.0009689331055,10.3976793289185,22.0,-448571.0,2122.75,pp-ro,1,1,-1,-1
1570531990.6,2019-10-08,12:53:10.600,14.0,9.0,14.7600002288818,15.6,-1.1,-1.0,45.3,15.5,-24.7,17.351,-1.42393,-1.40857,-2.65849,0.4637979999999999,-1.6288,46.7435,13.0416,-27.827,0.0981538,0.0335865,-0.198448,277.3,3.9,52.1701,4.42724,1.5,0.8449760000000001,141.113,4.68248,174.425,17.1035,155.924,0.727075,-0.067839,234.582,1.14842,1.5412,10.2358856201172,22.0009689331055,10.5992012023926,22.0,-448463.0,276.88,pp-ro,1,1,-1,-1
1570531990.7,2019-10-08,12:53:10.700,14.0,9.0,14.3400001525879,15.2,-1.4,-1.1,45.1,16.0,-26.0,17.0301,-1.57831,-1.35397,-1.07675,-0.819442,0.779083,46.5416,13.9558,-29.448,0.0819627,-0.193928,-0.390966,277.3,3.9,52.1701,4.42724,1.5,0.837773,138.92600000000002,4.68253,174.25,18.6235,155.924,0.72713,-0.0765902,234.568,1.13271,1.52671,10.3295593261719,22.0009689331055,10.4607009887695,22.0,-448339.0,1353.64,pp-ro,1,1,-1,-1
1570531990.8,2019-10-08,12:53:10.800,14.0,9.0,13.9700002670288,14.8,-1.7,-1.1,44.6,16.2,-26.9,16.2226,-1.99716,-1.43049,-4.56099,-5.19536,-1.79446,46.0429,14.9172,-31.498,-0.0281975,-0.120805,-0.165707,263.4,3.5,52.1701,4.42724,1.5,0.83611,138.571,4.68257,174.104,20.1435,156.024,0.727383,-0.0853645,234.651,1.12544,1.51625,10.4930572509766,22.0009689331055,10.3995351791382,22.0,-448298.0,769.112,pp-ro,1,1,-1,-1
1570531990.9,2019-10-08,12:53:10.900,14.0,10.0,13.7799997329712,14.7,-1.9,-1.3,44.4,16.6,-27.9,15.9871,-2.2081,-1.61835,-2.36845,0.5927140000000001,-0.0809992,46.0721,15.6177,-32.4208,0.0501298,0.024239,-0.2093829999999999,263.4,3.5,52.1701,4.42724,1.5,0.83611,135.909,4.68253,173.899,21.6636,156.124,0.727763,-0.094096,234.702,1.11455,1.50235,10.6190948486328,22.0009689331055,10.2700347900391,22.0,-448239.0,738.3480000000001,pp-ro,1,1,-1,-1
1570531991.0,2019-10-08,12:53:11.000,14.0,8.0,13.6499996185303,14.5,-2.0,-1.2,43.7,17.0,-29.4,15.8049,-2.43336,-1.6882700000000002,-2.62598,-2.1474900000000003,-1.25301,45.7279,16.3325,-33.205,0.01901,-0.0939657,-0.152596,263.4,3.5,52.1701,4.42724,1.5,0.824475,128.164,4.6824900000000005,173.665,23.1836,156.224,0.728187,-0.1028299999999999,234.74,1.09768,1.50679,10.4402618408203,22.0009689331055,10.5142126083374,22.0,-448138.0,1076.76,pp-ro,1,1,-1,-1
1570531991.1,2019-10-08,12:53:11.100,14.0,9.0,13.6499996185303,14.1,-2.3,-1.2,42.9,17.4,-31.2,15.6253,-2.5460700000000003,-1.68098,-4.41127,-2.18908,0.8392379999999999,45.6739,16.3038,-34.0318,0.0197337,-0.318939,-0.236812,263.4,3.5,52.1701,4.42724,1.5,0.8095140000000001,120.746,4.68246,173.403,24.7036,156.32399999999998,0.728655,-0.111597,234.768,1.07715,1.49482,10.288688659668,22.0009689331055,10.4384145736694,22.0,-448003.0,1322.87,pp-ro,1,1,-1,-1
1570531991.2,2019-10-08,12:53:11.200,14.0,9.0,13.4499998092651,13.7,-2.4,-1.3,42.3,17.4,-32.5,15.6253,-2.5460700000000003,-1.68098,-4.41127,-2.18908,0.8392379999999999,45.6739,16.3038,-34.0318,0.0197337,-0.318939,-0.236812,263.4,3.5,52.1701,4.42724,1.5,0.805082,120.226,4.68242,173.14,25.8436,156.424,0.729244,-0.11822,234.763,1.06594,1.48446,10.4368591308594,22.0009689331055,10.3452129364014,22.0,-447933.0,338.409,pp-ro,1,1,-1,-1
1570531991.3,2019-10-08,12:53:11.300,14.0,10.0,13.2600002288818,13.4,-2.5,-1.5,41.6,17.6,-33.6,14.8402,-2.91597,-1.83949,-1.42255,1.09016,-4.36466,44.218,15.7119,-37.5938,-0.111278,-0.0407006999999999,-0.0937396,263.4,3.5,52.1701,4.42724,1.5,0.8067439999999999,121.648,4.68238,172.84799999999998,27.7437,156.624,0.729873,-0.129146,234.898,1.05775,1.47221,10.409606933593802,22.0009689331055,10.3277587890625,22.0,-447907.0,522.996,pp-ro,1,1,-1,-1
1570531991.4,2019-10-08,12:53:11.400,14.0,10.0,13.1899995803833,13.3,-2.9,-1.6,40.8,17.8,-34.7,14.5073,-3.01791,-1.96477,-2.42772,-3.0794,-3.81709,43.5521,16.1693,-38.6293,-0.20024,-0.0485723,-0.24343,263.4,3.5,52.1701,4.42724,1.6,0.812839,127.057,4.68235,172.52599999999998,28.8837,156.724,0.730567,-0.1358349999999999,234.866,1.04655,1.45113,10.3346633911133,22.0009689331055,10.0318059921265,22.0,-447883.0,0.0,pp-ro,1,1,-1,-1
1570531991.5,2019-10-08,12:53:11.500,14.0,10.0,13.2600002288818,13.1,-3.2,-1.6,40.3,17.9,-35.8,14.3175,-3.49455,-1.93309,-0.2702219999999999,-2.95017,1.56452,43.1996,16.5376,-39.5133,-0.00593824,-0.0839773,-0.162906,263.4,3.5,52.1701,4.42724,1.6,0.8194879999999999,125.186,4.68231,172.176,30.0237,156.924,0.731637,-0.142563,234.885,1.03649,1.43831,10.286979675293,22.0009689331055,9.88018417358398,22.0,-447794.0,1169.05,pp-ro,1,1,-1,-1
1570531991.6,2019-10-08,12:53:11.600,14.0,10.0,13.1899995803833,12.6,-3.3,-1.6,39.4,17.4,-37.3,14.3175,-3.49455,-1.93309,-0.2702219999999999,-2.95017,1.56452,43.1996,16.5376,-39.5133,-0.00593824,-0.0839773,-0.162906,263.4,3.5,52.1701,4.42724,1.6,0.8039729999999999,118.185,4.68227,171.796,31.5437,157.024,0.732256,-0.151473,234.873,1.03006,1.43018,10.0161819458008,22.0009689331055,9.93040084838867,22.0,-447694.0,830.6410000000001,pp-ro,1,1,-1,-1
1570531991.7,2019-10-08,12:53:11.700,14.0,10.0,13.1899995803833,12.3,-3.3,-1.6,38.6,17.3,-38.5,14.1,-3.77704,-1.96479,-2.80155,-1.34854,0.946131,42.2047,16.6281,-40.9761,-0.132102,-0.179991,-0.192521,263.4,3.5,52.1701,4.42724,1.6,0.798987,114.434,4.68224,171.416,32.6838,157.224,0.733355,-0.158254,234.886,1.0209700000000002,1.4287299999999998,9.89185333251953,22.0009689331055,10.023213386535598,22.0,-447657.0,707.5830000000001,pp-ro,1,1,-1,-1
1570531991.8,2019-10-08,12:53:11.800,14.0,9.0,13.0600004196167,12.1,-3.2,-1.8,38.0,17.7,-39.3,13.3597,-3.82922,-1.94485,-3.11218,1.3549,-0.400546,41.3013,16.3847,-43.2554,0.0832154,-0.124372,-0.1508519999999999,268.2,4.9,52.1701,4.42724,1.6,0.7856890000000001,104.165,4.6822,171.095,33.8238,157.32399999999998,0.733951,-0.164984,234.88,1.01106,1.42239,9.97530364990234,22.0009689331055,10.065601348877,22.0,-447554.0,1199.82,pp-ro,1,1,-1,-1
1570531991.9,2019-10-08,12:53:11.900,14.0,10.0,12.9899997711182,11.9,-3.3,-2.0,37.5,18.2,-40.1,13.1376,-3.78541,-2.06965,-2.9433,-1.13867,-1.11195,40.8187,16.8895,-44.3212,-0.0760241,0.0315106,-0.132674,268.2,4.9,52.1701,4.42724,1.6,0.759093,95.4766,4.68216,170.715,35.3438,157.524,0.734784,-0.173923,234.961,1.00157,1.40728,10.0468368530273,22.0009689331055,10.0000524520874,22.0,-447400.0,1907.4,pp-ro,1,1,-1,-1
1570531992.0,2019-10-08,12:53:12.000,14.0,9.0,12.7200002670288,11.6,-3.5,-1.9,37.0,18.5,-41.5,13.1376,-3.78541,-2.06965,-2.9433,-1.13867,-1.11195,40.8187,16.8895,-44.3212,-0.0760241,0.0315106,-0.132674,268.2,4.9,52.1701,4.42724,1.6,0.680967,105.771,4.68213,170.30599999999998,36.4838,157.82399999999998,0.7362029999999999,-0.180791,235.04,0.98526,1.40068,10.1813888549805,22.0009689331055,9.9957914352417,22.0,-447084.0,1538.22,pp-ro,1,1,-1,-1
1570531992.1,2019-10-08,12:53:12.100,14.0,9.0,12.5799999237061,11.3,-3.6,-1.8,36.4,18.7,-43.0,12.4078,-4.20087,-2.08869,0.497044,0.193423,2.77248,39.5849,17.5069,-46.8288,0.0268411,-0.2584579999999999,-0.195438,268.2,4.9,52.1701,4.42724,1.6,0.6743180000000001,113.498,4.6820900000000005,169.89700000000002,37.6238,158.025,0.737282,-0.187653,235.058,0.9688,1.3987,10.1916046142578,22.0009689331055,-35.0,22.0,-447061.0,-92.2935,pp-ro,1,1,-1,-1
1570531992.2,2019-10-08,12:53:12.200,14.0,9.0,12.369999885559098,11.1,-3.5,-1.8,35.8,18.7,-44.4,12.4078,-4.20087,-2.08869,0.497044,0.193423,2.77248,39.5849,17.5069,-46.8288,0.0268411,-0.2584579999999999,-0.195438,268.2,4.9,52.1701,4.42724,1.6,0.6986979999999999,107.71,4.68205,169.488,39.1439,158.225,0.738093,-0.196657,235.146,0.957396,1.40467,9.89525604248047,22.0009689331055,-35.0,22.0,-447108.0,-307.645,pp-ro,1,1,-1,-1
1570531992.3,2019-10-08,12:53:12.300,14.0,9.0,12.369999885559098,11.0,-3.4,-2.1,35.5,19.0,-45.4,12.1141,-4.16571,-2.1543400000000004,-2.30547,0.799962,-1.55549,38.823,17.3514,-48.9879,0.0164359,0.0499086,-0.134999,268.2,4.9,52.1701,4.42724,1.6,0.702022,103.402,4.68202,169.138,39.9039,158.425,0.739205,-0.201335,235.156,0.944479,1.39169,9.24465942382812,22.0009689331055,-35.0,22.0,-447091.0,338.409,pp-ro,1,1,-1,-1
1570531992.4,2019-10-08,12:53:12.400,14.0,11.0,12.2200002670288,10.9,-3.5,-2.2,35.2,19.7,-46.5,11.9659,-4.09247,-2.2111,-1.5069,-1.6596099999999998,-2.63533,38.4386,17.9169,-49.5885,-0.0162382999999999,0.0399206999999999,-0.287614,268.2,4.9,52.1701,4.42724,1.7,0.683738,101.731,4.68198,168.787,41.0439,158.625,0.740049,-0.20815,235.235,0.927436,1.38205,8.23979949951172,22.0009689331055,-35.0,22.0,-446972.0,1353.64,pp-ro,1,1,-1,-1
1570531992.5,2019-10-08,12:53:12.500,14.0,9.0,12.0799999237061,10.8,-3.7,-2.1,34.8,19.6,-48.0,11.9659,-4.09247,-2.2111,-1.5069,-1.6596099999999998,-2.63533,38.4386,17.9169,-49.5885,-0.0162382999999999,0.0399206999999999,-0.287614,268.2,4.9,52.1701,4.42724,1.7,0.661574,107.886,4.68195,168.32,42.1839,158.925,0.741508,-0.215134,235.304,0.914078,1.37981,6.88580322265625,22.0009689331055,-35.0,22.0,-446865.0,830.6410000000001,pp-ro,1,1,-1,-1
1570531992.6,2019-10-08,12:53:12.600,14.0,9.0,11.9300003051758,10.7,-3.5,-2.1,34.8,19.5,-49.3,11.5894,-4.40784,-2.2873900000000003,-4.0586400000000005,0.408919,-0.27987,37.9504,19.6289,-51.8709,0.174971,-0.1309529999999999,-0.0942952,268.2,4.9,52.1701,4.42724,1.7,0.6704399999999999,110.564,4.68191,167.94,43.3239,159.125,0.742384,-0.2220059999999999,235.375,0.903185,1.3919,5.170738220214839,22.0009689331055,-35.0,22.0,-446845.0,0.0,pp-ro,1,1,-1,-1
1570531992.7,2019-10-08,12:53:12.700,14.0,9.0,12.0100002288818,10.7,-3.4,-2.4,34.9,19.6,-50.3,11.5894,-4.40784,-2.2873900000000003,-4.0586400000000005,0.408919,-0.27987,37.9504,19.6289,-51.8709,0.174971,-0.1309529999999999,-0.0942952,268.2,4.9,52.1701,4.42724,1.7,0.677643,111.642,4.68187,167.53099999999998,44.4639,159.425,0.74363,-0.228928,235.5,0.893984,1.38284,3.12866973876953,22.0009689331055,-35.0,22.0,-446855.0,-184.587,pp-ro,1,1,-1,-1
1570531992.8,2019-10-08,12:53:12.800,14.0,10.0,12.0799999237061,10.8,-3.6,-2.4,35.1,19.6,-51.1,11.5582,-4.29089,-2.30734,-1.05805,2.84098,-1.68376,37.575,20.0667,-53.0053,-0.0565334,0.0704786,-0.219644,269.6,5.8,52.1701,4.42724,1.7,0.702022,118.524,4.68184,167.18099999999998,45.6039,159.625,0.7443770000000001,-0.235769,235.604,0.888494,1.3802299999999998,1.02870178222656,22.0009689331055,-35.0,22.0,-446900.0,-707.5830000000001,pp-ro,1,1,-1,-1
1570531992.9,2019-10-08,12:53:12.900,14.0,10.0,12.2299995422363,10.9,-4.0,-2.6,35.4,19.6,-51.8,11.5582,-4.29089,-2.30734,-1.05805,2.84098,-1.68376,37.575,20.0667,-53.0053,-0.0565334,0.0704786,-0.219644,269.6,5.8,52.1701,4.42724,1.7,0.7596470000000001,131.668,4.68182,166.713,46.744,159.925,0.745734,-0.242807,235.7,0.8843700000000001,1.35589,-1.07527160644531,22.0009689331055,-35.0,22.0,-447105.0,-2614.98,pp-ro,1,1,-1,-1
1570531993.0,2019-10-08,12:53:13.000,14.0,9.0,12.4399995803833,10.8,-4.1,-2.5,35.8,18.8,-51.8,11.5519,-4.41043,-2.5066,2.60703,-2.3932,0.616883,37.5731,21.5096,-54.7185,0.129343,-0.0213551,-0.109789,269.6,5.8,52.1701,4.42724,1.7,0.853841,137.27200000000002,4.68181,166.275,47.504,160.225,0.747287,-0.2477099999999999,235.746,0.89649,1.35719,-3.18313598632812,22.0009689331055,-35.0,22.0,-447358.0,-1107.52,pp-ro,1,1,-1,-1
1570531993.1,2019-10-08,12:53:13.100,14.0,8.0,12.6499996185303,10.9,-3.9,-2.6,36.4,17.7,-51.5,11.3976,-4.62638,-2.47769,2.76514,0.6505770000000001,1.50045,38.2884,22.0605,-54.5063,-0.0109302,0.0310399999999999,0.0593634,269.6,5.8,52.1701,4.42724,1.7,0.824475,130.191,4.6818,165.83700000000002,49.024,160.525,0.748209,-0.256846,235.953,0.919293,1.3704,-5.301246643066411,22.0009689331055,-35.0,22.0,-447047.0,3445.62,pp-ro,1,1,-1,-1
1570531993.2,2019-10-08,12:53:13.200,14.0,9.0,12.9899997711182,11.1,-3.9,-2.5,37.7,17.0,-50.4,11.2933,-4.54074,-2.46987,-4.4956,0.920569,-0.923132,38.4729,21.9699,-54.3259,0.126158,-0.0304221999999999,0.0995247,269.6,5.8,52.1701,4.42724,1.7,0.813393,126.398,4.68179,165.37,49.784,160.725,0.749496,-0.261821,235.92,0.945286,1.38622,-7.41423797607422,22.0009689331055,-35.0,22.0,-447047.0,-984.464,pp-ro,1,1,-1,-1
1570531993.3,2019-10-08,12:53:13.300,14.0,9.0,13.2600002288818,11.3,-3.9,-2.4,38.4,16.8,-49.8,11.5036,-4.30695,-2.31036,5.60024,-0.522104,7.135280000000001,40.6894,21.748,-51.8756,0.2134059999999999,0.3057269999999999,0.203016,269.6,5.8,52.1701,4.42724,1.7,0.8217040000000001,131.02200000000002,4.681780000000001,165.195,50.544,160.925,0.749963,-0.266314,236.095,0.958834,1.40129,-9.5272216796875,22.0009689331055,-35.0,22.0,-446942.0,892.17,pp-ro,1,1,-1,-1
1570531993.4,2019-10-08,12:53:13.400,14.0,8.0,13.390000343322802,11.7,-3.8,-2.0,39.6,15.8,-48.6,11.6258,-4.30377,-2.07728,2.40331,-0.516944,4.98685,41.5571,21.7398,-50.8525,0.258488,0.184192,0.248106,269.6,5.8,52.1701,4.42724,1.7,0.82115,126.54,4.68176,164.523,51.304,161.125,0.75179,-0.271659,235.926,0.989668,1.44467,-10.5854263305664,22.0009689331055,-35.0,22.0,-446895.0,584.525,pp-ro,1,1,-1,-1
1570531993.5,2019-10-08,12:53:13.500,14.0,8.0,13.6499996185303,12.0,-3.5,-1.5,40.8,14.3,-47.8,11.9786,-4.15541,-1.5611,4.375030000000001,2.31192,5.440840000000001,43.0049,21.2635,-49.2658,0.176988,0.0334256,0.254364,269.6,5.8,52.1701,4.42724,1.7,0.816717,124.403,4.68175,164.34799999999998,52.824,161.325,0.7515649999999999,-0.280356,236.276,1.02384,1.50177,-12.6881713867188,22.0009689331055,-35.0,22.0,-446841.0,1015.23,pp-ro,1,1,-1,-1
1570531993.6,2019-10-08,12:53:13.600,14.0,9.0,13.7200002670288,12.5,-3.2,-1.0,42.2,12.6,-46.9,12.3094,-3.77239,-1.065,1.07084,2.27571,3.95582,44.5237,20.2011,-47.6796,0.0746119,0.0348032,0.3443719999999999,269.6,5.8,52.1701,4.42724,1.7,0.812285,127.88,4.6817400000000005,163.968,53.9641,161.425,0.751899,-0.287304,236.338,1.06048,1.5601200000000002,-14.7977447509766,22.0009689331055,-35.0,22.0,-446775.0,276.88,pp-ro,1,1,-1,-1
1570531993.7,2019-10-08,12:53:13.700,14.0,8.0,13.9099998474121,13.0,-2.9,-0.6,43.9,11.2,-45.2,12.5127,-3.57952,-0.7841670000000001,5.434830000000001,2.83363,6.04326,45.3031,19.6633,-46.9311,0.104151,0.0614743,0.320463,269.6,5.8,52.1701,4.42724,1.7,0.830015,136.015,4.68173,163.61700000000002,55.1041,161.625,0.752437,-0.294198,236.495,1.10421,1.60999,-16.9107360839844,22.0009689331055,-35.0,22.0,-446785.0,-30.7645,pp-ro,1,1,-1,-1
1570531993.8,2019-10-08,12:53:13.800,14.0,10.0,14.1000003814697,13.6,-2.7,0.0,45.8,9.5,-43.2,13.4317,-3.00526,0.375961,6.47588,2.98668,7.511310000000001,49.2261,17.1971,-41.8781,0.1718849999999999,0.29043,0.5329619999999999,269.0,5.8,52.1701,4.42724,1.7,0.838327,139.702,4.68171,163.296,56.6241,161.625,0.751896,-0.303114,236.632,1.15708,1.66524,-19.0271377563477,22.0009689331055,-35.0,22.0,-446735.0,738.3480000000001,pp-ro,1,1,-1,-1
1570531993.9,2019-10-08,12:53:13.900,14.0,9.0,14.2200002670288,14.1,-2.5,0.8,47.7,6.7,-41.3,13.8828,-2.63809,1.1634799999999998,3.5605900000000004,2.87281,7.746160000000001,51.5067,15.1138,-38.7301,0.110661,0.156238,0.648733,269.0,5.8,52.1701,4.42724,1.7,0.8499620000000001,147.247,4.6817,163.004,57.7641,161.625,0.751603,-0.3098849999999999,236.706,1.22051,1.7247,-21.1401290893555,22.0009689331055,-35.0,22.0,-446663.0,338.409,pp-ro,1,1,-1,-1
1570531994.0,2019-10-08,12:53:14.000,14.0,10.0,14.4099998474121,14.7,-2.0,1.8,49.5,3.1,-39.4,13.8828,-2.63809,1.1634799999999998,3.5605900000000004,2.87281,7.746160000000001,51.5067,15.1138,-38.7301,0.110661,0.156238,0.648733,269.0,5.8,52.1701,4.42724,1.7,0.85772,150.894,4.681690000000001,162.741,59.2842,161.525,0.750526,-0.318654,236.833,1.29598,1.8055,-23.2599411010742,22.0009689331055,-35.0,22.0,-446623.0,369.174,pp-ro,1,1,-1,-1
1570531994.1,2019-10-08,12:53:14.100,14.0,10.0,14.5900001525879,15.5,-1.3,2.6,51.5,0.0,-36.8,14.1591,-2.22692,2.14635,2.65889,4.476719999999999,8.6943,53.3869,12.0845,-35.6911,0.2377369999999999,0.0589344,0.7283310000000001,269.0,5.8,52.1701,4.42724,1.7,0.859382,149.511,4.68168,162.507,60.8042,161.326,0.749024,-0.327329,236.921,1.37442,1.87943,-25.371223449707,22.0009689331055,-35.0,22.0,-446587.0,646.054,pp-ro,1,1,-1,-1
1570531994.2,2019-10-08,12:53:14.200,14.0,10.0,15.0,16.3,-0.5,3.8,53.8,-3.7,-34.0,14.7416,-1.4367,3.04018,4.2651900000000005,7.893660000000001,8.70125,55.1549,8.89917,-32.1261,0.259238,0.220003,0.903549,269.0,5.8,52.1701,4.42724,1.7,0.851625,152.231,4.68167,162.42,62.3242,161.126,0.747096,-0.335682,237.12,1.46294,1.96687,-27.4807968139648,22.0009689331055,-35.0,22.0,-446416.0,892.17,pp-ro,1,1,-1,-1
1570531994.3,2019-10-08,12:53:14.300,14.0,9.0,15.4099998474121,16.8,0.2,5.2,56.0,-8.3,-31.6,15.7966,-0.128305,4.8029,4.9789900000000005,9.70348,13.7388,57.7204,3.45487,-25.8436,0.0836393999999999,0.224921,0.9721,269.0,5.8,52.1701,4.42724,1.7,0.86049,163.161,4.68166,162.361,64.2243,160.726,0.7440399999999999,-0.345956,237.315,1.56015,2.05293,-29.561355590820305,22.0009689331055,-35.0,22.0,-446421.0,-92.2935,pp-ro,1,1,-1,-1
