time,date,time_of_day,airspeed_temperature,airspeed_angle_of_attack,airspeed_apparent_windspeed,kite_0_vx,kite_0_vy,kite_0_vz,kite_0_roll,kite_0_pitch,kite_0_yaw,kite_1_vx,kite_1_vy,kite_1_vz,kite_1_ax,kite_1_ay,kite_1_az,kite_1_roll,kite_1_pitch,kite_1_yaw,kite_1_roll_rate,kite_1_pitch_rate,kite_1_yaw_rate,ground_upwind_direction,ground_wind_velocity,ground_pos_latitude,ground_pos_longitude,ground_pos_altitude,ground_tether_reelout_speed,ground_tether_force,est_upwind_direction,kite_pos_east,kite_pos_north,kite_height,kite_elevation,kite_azimuth,kite_distance,kite_heading,kite_course,kite_actual_steering,kite_actual_depower,kite_set_steering,kite_set_depower,ground_mech_energy,ground_mech_power,flight_phase,flight_phase_index,phase,pattern,pattern_section
1570534583.2,2019-10-08,13:36:23.200,14.0,6.0,14.5900001525879,11.5,-2.2,3.4,21.8,-8.3,-51.8,9.66126,-1.6800700000000002,3.50722,9.05014,8.91628,5.33291,25.019,7.233519999999999,-53.9138,0.293976,0.15845,0.892658,249.9,2.0,52.1701,4.4272,4.2,-2.7881400000000003,102.022,4.50035,46.44,14.0607,236.531,1.36846,-0.0820241,241.457,0.995116,1.7313,-34.970123291015604,22.0009689331055,-35.0,22.0,-1019390.0,-8706.35,pp-riro,4,0,-1,-1
1570534583.3,2019-10-08,13:36:23.300,14.0,7.0,14.4700002670288,12.5,-1.1,3.7,23.1,-9.8,-46.7,10.4988,-0.831981,3.86424,10.0734,9.09204,5.87907,26.2185,5.848409999999999,-48.1282,0.269387,0.191183,0.950741,249.9,2.0,52.1701,4.4272,4.2,-2.78205,106.172,4.50022,46.2647,15.2008,236.231,1.3675,-0.105344,241.198,1.11329,1.85317,-34.971832275390604,22.0009689331055,-35.0,22.0,-1019770.0,-769.112,pp-riro,4,0,-1,-1
1570534583.4,2019-10-08,13:36:23.400,14.0,11.0,14.2799997329712,13.2,0.0,4.2,24.2,-11.6,-41.9,11.7054,0.673446,4.63224,5.29747,11.8878,4.82111,28.0939,3.6010800000000005,-39.2325,0.093223,0.201802,0.980169,249.9,2.0,52.1701,4.4272,4.2,-2.76099,98.2233,4.50009,46.1771,16.7208,235.931,1.3655700000000002,-0.135179,240.988,1.23383,1.97137,-34.9871978759766,22.0009689331055,-35.0,22.0,-1019910.0,-3384.09,pp-riro,4,0,-1,-1
1570534583.5,2019-10-08,13:36:23.500,14.0,11.0,13.9700002670288,13.8,1.2,4.4,25.2,-13.5,-36.8,12.2779,1.82862,4.999569999999999,5.097119999999999,10.7825,2.92157,29.1699,1.6714099999999998,-33.8372,0.17062,0.176351,0.917641,249.9,2.0,52.1701,4.4272,4.2,-2.80754,85.8041,4.49996,46.2063,17.8609,235.531,1.36349,-0.156423,240.68400000000003,1.35127,2.07539,-34.9923248291016,22.0009689331055,-35.0,22.0,-1021700.0,-15997.5,pp-riro,4,0,-1,-1
1570534583.6,2019-10-08,13:36:23.600,14.0,12.0,13.8400001525879,14.4,2.1,4.5,26.0,-14.7,-31.5,12.8379,2.8881,5.17743,5.40149,9.53954,3.78572,29.9168,-0.1333119999999999,-28.8402,0.0740237,0.20686,0.87775,249.9,2.0,52.1701,4.42721,4.0,-2.86904,97.5469,4.49983,46.3815,19.0009,235.231,1.36086,-0.176248,240.512,1.46774,2.14905,-34.9940185546875,22.0009689331055,-35.0,22.0,-1023260.0,-14490.1,pp-riro,4,0,-1,-1
1570534583.7,2019-10-08,13:36:23.700,14.0,11.0,13.9700002670288,15.1,3.1,5.0,26.8,-16.3,-26.3,12.8379,2.8881,5.17743,5.40149,9.53954,3.78572,29.9168,-0.1333119999999999,-28.8402,0.0740237,0.20686,0.87775,249.9,2.0,52.1701,4.42721,4.0,-2.87735,111.114,4.49969,46.6151,20.901,234.831,1.35659,-0.208871,240.324,1.59631,2.23845,-34.9957275390625,22.0009689331055,-35.0,22.0,-1023900.0,-3845.56,pp-riro,4,0,-1,-1
1570534583.8,2019-10-08,13:36:23.800,14.0,12.0,14.0299997329712,15.5,4.2,5.6,26.8,-18.6,-20.8,13.9489,4.65172,5.96586,6.578239999999999,9.90729,4.35375,31.0653,-3.9584,-17.7718,0.183472,0.2344389999999999,1.0447799999999998,249.9,2.0,52.1701,4.42721,4.0,-2.82693,108.501,4.49956,46.9364,22.041,234.431,1.35311,-0.226268,240.098,1.7169900000000002,2.31848,-34.9974365234375,22.0009689331055,-35.0,22.0,-1023910.0,184.587,pp-riro,4,0,-1,-1
1570534583.9,2019-10-08,13:36:23.900,14.0,13.0,14.0900001525879,15.9,5.4,5.7,26.9,-20.8,-15.1,14.130999999999998,5.76277,6.35647,1.39932,10.809,1.09275,30.687,-6.18548,-11.921,-0.0723256999999999,0.111373,1.02088,249.9,2.0,52.1701,4.42721,4.0,-2.80366,103.897,4.49943,47.4037,23.9411,233.931,1.34756,-0.254786,239.884,1.85098,2.40449,-34.9991455078125,22.0009689331055,-35.0,22.0,-1024020.0,-2091.99,pp-riro,4,0,-1,-1
1570534584.0,2019-10-08,13:36:24.000,14.0,11.0,14.3400001525879,16.1,6.8,5.9,26.6,-22.7,-8.9,14.3661,7.00562,6.45789,1.75212,12.7972,3.41146,30.4801,-8.58148,-5.90514,0.239196,0.155605,1.07045,246.2,2.1,52.1701,4.42721,4.0,-2.7887,98.2413,4.4993,47.9878,25.4612,233.431,1.34215,-0.274786,239.669,1.98246,2.4923,-34.9974365234375,22.0009689331055,-35.0,22.0,-1024630.0,-7783.42,pp-riro,4,0,-1,-1
1570534584.1,2019-10-08,13:36:24.100,14.0,9.0,14.710000038147,16.1,8.3,6.4,26.1,-24.3,-2.8,14.5162,7.64394,6.55093,4.6705,12.0062,3.28251,30.0725,-9.66231,-2.90843,0.256499,0.23484,1.02367,246.2,2.1,52.1701,4.42721,4.0,-2.79258,105.164,4.49913,48.718,27.3612,232.931,1.33536,-0.298468,239.539,2.11338,2.58966,-34.9974365234375,22.0009689331055,-35.0,22.0,-1025420.0,-7352.71,pp-riro,4,0,-1,-1
1570534584.2,2019-10-08,13:36:24.200,14.0,9.0,15.1800003051758,16.0,9.7,6.9,25.4,-26.1,2.7,14.6165,8.95505,7.04701,-0.738686,14.0447,4.76996,29.4459,-11.3412,3.18123,0.0613169999999999,0.2474869999999999,1.00653,246.2,2.1,52.1701,4.42721,4.0,-2.74326,108.663,4.49897,49.5942,28.8813,232.331,1.32862,-0.314005,239.315,2.22594,2.67159,-34.9974365234375,22.0009689331055,-35.0,22.0,-1025470.0,738.3480000000001,pp-riro,4,0,-1,-1
1570534584.3,2019-10-08,13:36:24.300,14.0,9.0,15.3500003814697,15.6,11.0,7.2,24.6,-27.8,8.5,14.4465,10.1739,7.559939999999999,-5.25575,13.8269,6.21521,28.522,-12.8476,9.42904,0.144466,0.313567,0.995344,246.2,2.1,52.1701,4.42721,4.0,-2.7244200000000003,104.963,4.49881,50.558,30.0213,231.631,1.3222,-0.322265,238.978,2.33473,2.7457700000000003,-34.9991455078125,22.0009689331055,-35.0,22.0,-1025570.0,-1938.16,pp-riro,4,0,-1,-1
1570534584.4,2019-10-08,13:36:24.400,14.0,8.0,15.3500003814697,15.1,12.5,7.4,23.8,-28.7,15.0,14.2633,10.8232,7.727869999999999,-3.92694,11.5785,1.89658,27.8988,-13.6203,12.5945,0.0464961,0.298608,1.0098,246.2,2.1,52.1701,4.42721,4.0,-2.70281,103.508,4.4986,51.6971,31.9214,231.031,1.31363,-0.3395019999999999,238.887,2.4586,2.83501,-35.0025634765625,22.0009689331055,-23.0044822692871,22.0,-1025990.0,-4399.32,pp-riro,4,0,-1,-1
1570534584.5,2019-10-08,13:36:24.500,14.0,8.0,15.5299997329712,14.5,13.8,7.7,22.9,-29.3,21.6,13.6538,12.0567,7.892110000000001,-7.39141,15.5755,1.6485299999999998,27.0037,-15.0937,18.4466,0.253668,0.239673,0.915533,246.2,2.1,52.1701,4.42721,4.0,-2.6812,112.922,4.498480000000001,53.0114,33.4415,230.331,1.30511,-0.34891,238.707,2.57455,2.90965,-35.0008544921875,22.0009689331055,-23.0044822692871,22.0,-1026300.0,-2984.16,pp-riro,4,0,-1,-1
1570534584.6,2019-10-08,13:36:24.600,14.0,8.0,15.8100004196167,13.9,15.2,8.2,21.9,-29.8,28.1,13.1696,13.3185,8.16797,-3.53145,10.8459,2.71171,25.9168,-16.0944,24.3588,0.106601,0.3356989999999999,0.969138,246.2,2.1,52.1701,4.4272,3.9,-2.56263,128.16899999999998,4.49832,54.4425,34.9615,229.631,1.29615,-0.356781,238.572,2.68605,2.98292,-34.847244262695305,22.0009689331055,-23.0044822692871,22.0,-1025480.0,8275.65,pp-riro,4,0,-1,-1
1570534584.7,2019-10-08,13:36:24.700,14.0,9.0,16.0300006866455,13.1,16.5,8.7,21.0,-30.8,34.4,12.6315,14.475,8.60961,-6.849819999999999,9.97276,5.52285,24.8866,-16.7836,30.8879,0.135409,0.357323,1.08217,246.2,2.1,52.1701,4.4272,3.9,-2.49947,130.891,4.49811,55.9613,36.1016,228.831,1.28759,-0.3587329999999999,238.325,2.78898,3.05039,-34.2976684570312,22.0019989013672,-23.0092449188232,22.0,-1024830.0,12828.8,pp-riro,4,0,-1,-1
1570534584.8,2019-10-08,13:36:24.800,14.0,9.0,16.1399993896484,12.0,17.7,8.9,20.0,-31.2,41.2,12.6315,14.475,8.60961,-6.849819999999999,9.97276,5.52285,24.8866,-16.7836,30.8879,0.135409,0.357323,1.08217,246.2,2.1,52.1701,4.4272,3.9,-2.27617,133.039,4.49799,57.7137,37.6217,227.931,1.27727,-0.363288,238.115,2.89968,3.1248,-33.391357421875,22.0019989013672,-23.0092449188232,22.0,-1022820.0,13105.7,pp-riro,4,0,-1,-1
1570534584.9,2019-10-08,13:36:24.900,14.0,8.0,16.25,11.0,18.9,9.1,18.9,-31.9,47.4,10.4496,17.2834,9.49983,-9.24296,12.1211,1.59224,21.5854,-18.7637,47.1231,0.104528,0.279223,0.961272,246.2,2.1,52.1701,4.4272,3.9,-2.1952700000000003,131.346,4.49783,59.4953,38.7617,227.031,1.26767,-0.362873,237.877,2.99596,3.18827,-32.131759643554695,22.0025119781494,-23.0116176605225,22.0,-1022230.0,11444.4,pp-riro,4,0,-1,-1
1570534585.0,2019-10-08,13:36:25.000,14.0,8.0,16.4099998474121,10.1,20.0,9.4,17.6,-31.9,53.7,9.51232,18.285,9.61903,-10.961,12.5502,3.92157,20.6182,-19.5869,53.0876,0.221028,0.204334,0.920693,260.2,2.8,52.1701,4.4272,3.9,-1.96699,138.172,4.49766,61.423,39.9018,226.131,1.25755,-0.361383,237.698,3.09134,3.24196,-30.5154418945312,22.0025119781494,-22.3192081451416,22.0,-1020700.0,10213.8,pp-riro,4,0,-1,-1
1570534585.1,2019-10-08,13:36:25.100,14.0,8.0,16.5699996948242,9.6,20.6,9.5,16.7,-31.6,59.9,8.75029,19.273,9.82954,-6.089,8.12685,1.51548,19.2684,-20.2212,58.9292,0.0854534,0.177155,0.947959,260.2,2.8,52.1701,4.4272,3.9,-1.88942,143.81799999999998,4.49758,63.5551,41.0418,225.231,1.24674,-0.358625,237.598,3.1836,3.26857,-28.0781707763672,22.0025119781494,-22.1659450531006,22.0,-1020100.0,11998.2,pp-riro,4,0,-1,-1
1570534585.2,2019-10-08,13:36:25.200,14.0,9.0,16.5699996948242,7.9,21.8,10.0,15.0,-32.4,66.0,7.82292,20.0502,10.0298,-11.2869,8.576089999999999,3.02955,17.8407,-20.6818,64.8501,-0.0102723,0.130528,0.8371569999999999,260.2,2.8,52.1701,4.4272,3.9,-1.66779,153.934,4.49749,65.658,42.1819,224.231,1.23587,-0.356194,237.423,3.27354,3.3471,-26.2519226074219,22.003026962280305,-20.9924201965332,22.0,-1018650.0,14982.3,pp-riro,4,0,-1,-1
1570534585.3,2019-10-08,13:36:25.300,14.0,10.0,16.5699996948242,7.4,22.5,10.0,13.4,-32.5,71.8,6.789910000000001,20.7466,10.1833,-11.3637,8.44002,-2.52907,16.1143,-21.73,70.6927,-0.0398895,0.00650658,0.972213,260.2,2.8,52.1701,4.4272,3.9,-1.42953,155.623,4.49741,67.907,42.942,223.231,1.22531,-0.348896,237.25,3.35436,3.36845,-24.6236572265625,22.003026962280305,-20.844652175903303,22.0,-1017110.0,14767.0,pp-riro,4,0,-1,-1
1570534585.4,2019-10-08,13:36:25.400,14.0,10.0,16.620000839233402,5.7,23.1,9.8,11.3,-31.9,77.5,6.789910000000001,20.7466,10.1833,-11.3637,8.44002,-2.52907,16.1143,-21.73,70.6927,-0.0398895,0.00650658,0.972213,260.2,2.8,52.1701,4.4272,3.9,-1.045,147.813,4.497319999999999,70.1851,43.322,222.231,1.21541,-0.337942,237.043,3.43139,3.42892,-23.256530761718803,22.003026962280305,-19.8095207214355,22.0,-1015410.0,9844.64,pp-riro,4,0,-1,-1
1570534585.5,2019-10-08,13:36:25.500,14.0,10.0,16.8299999237061,4.6,23.6,9.7,9.4,-31.2,83.2,6.789910000000001,20.7466,10.1833,-11.3637,8.44002,-2.52907,16.1143,-21.73,70.6927,-0.0398895,0.00650658,0.972213,260.2,2.8,52.1701,4.4272,3.9,-0.934737,146.112,4.497240000000001,72.5217,44.082,221.231,1.20449,-0.331018,236.951,3.5123300000000004,3.46882,-22.162483215332,22.003026962280305,-19.334491729736303,22.0,-1014990.0,7875.71,pp-riro,4,0,-1,-1
1570534585.6,2019-10-08,13:36:25.600,14.0,9.0,16.9899997711182,4.0,23.7,9.7,8.4,-30.9,85.9,4.27965,22.1547,9.63988,-10.5311,1.42615,-5.4219,11.6588,-22.1909,84.125,-0.18342,0.125085,0.864419,260.2,2.8,52.1701,4.4272,3.7,-0.706455,150.04399999999998,4.49715,73.7484,44.0821,220.731,1.19959,-0.323559,236.863,3.5471,3.4852,-21.0838012695312,22.0025119781494,-19.053890228271506,22.0,-1014380.0,5906.78,pp-riro,4,0,-1,-1
1570534585.7,2019-10-08,13:36:25.700,14.0,8.0,17.3899993896484,2.8,23.8,9.5,6.2,-30.3,91.4,3.27646,22.3957,9.49051,-7.67743,-3.55401,0.188683,9.52025,-21.896,89.4433,0.1145299999999999,0.214188,0.777019,260.2,2.8,52.1701,4.4272,3.7,-0.478727,156.453,4.49702,76.1434,44.4621,219.831,1.18934,-0.313145,236.855,3.62219,3.52261,-20.1075286865234,22.003026962280305,-18.532850265502898,22.0,-1013870.0,4768.5,pp-riro,4,0,-1,-1
1570534585.8,2019-10-08,13:36:25.800,14.0,8.0,17.5499992370605,1.7,23.5,9.3,4.1,-29.4,96.6,2.21116,22.3184,9.28511,-10.0234,-1.18954,-2.42143,7.608639999999999,-21.3776,94.3621,0.0634348,0.200329,0.612467,260.2,2.8,52.1701,4.4272,3.7,-0.0958562,141.989,4.496980000000001,78.5967,44.8421,218.831,1.1787,-0.303066,236.802,3.69424,3.5547699999999995,-19.4179916381836,22.003026962280305,-18.1540489196777,22.0,-1013550.0,799.877,pp-riro,4,0,-1,-1
1570534585.9,2019-10-08,13:36:25.900,14.0,6.0,17.7900009155273,0.6,23.4,8.8,2.1,-27.9,101.0,2.21116,22.3184,9.28511,-10.0234,-1.18954,-2.42143,7.608639999999999,-21.3776,94.3621,0.0634348,0.200329,0.612467,260.2,2.8,52.1701,4.4272,3.7,0.00221633,132.02,4.4969,80.9625,44.8422,217.931,1.1692,-0.290313,236.769,3.75521,3.5887300000000004,-18.738693237304695,22.0025119781494,-17.6345520019531,22.0,-1013560.0,-61.529,pp-riro,4,0,-1,-1
1570534586.0,2019-10-08,13:36:26.000,14.0,6.0,17.840000152587898,-0.3,23.2,8.3,0.9,-26.2,104.4,1.10739,22.1575,8.97583,-6.25444,-3.00827,-3.76345,5.74374,-20.5038,98.8043,-0.227959,0.192615,0.635675,263.0,2.6,52.1701,4.4272,3.7,0.1374119999999999,119.219,4.49682,83.3283,44.8422,217.031,1.15964,-0.278121,236.763,3.80331,3.61617,-18.2061767578125,22.0025119781494,-17.2717304229736,22.0,-1013600.0,-399.9380000000001,pp-riro,4,0,-1,-1
1570534586.1,2019-10-08,13:36:26.100,14.0,6.0,17.7900009155273,-1.2,23.1,8.2,-0.3,-24.9,107.9,-1.21948,21.8592,8.10099,-7.969010000000001,-3.26478,0.532479,2.40108,-17.2882,107.634,0.0247645999999999,0.225829,0.427838,263.0,2.6,52.1701,4.4272,3.7,0.207227,128.859,4.49676,85.7525,44.8422,216.131,1.14983,-0.2661929999999999,236.806,3.85193,3.64187,-17.700973510742198,22.0025119781494,-16.9741115570068,22.0,-1013640.0,-492.232,pp-riro,4,0,-1,-1
1570534586.2,2019-10-08,13:36:26.200,14.0,6.0,17.6900005340576,-2.2,23.0,8.3,-1.3,-23.8,110.7,-1.21948,21.8592,8.10099,-7.969010000000001,-3.26478,0.532479,2.40108,-17.2882,107.634,0.0247645999999999,0.225829,0.427838,263.0,2.6,52.1701,4.4272,3.7,0.26873,163.83,4.49671,88.0891,44.8423,215.331,1.14045,-0.255184,236.93400000000003,3.89019,3.67099,-17.390335083007802,22.003026962280305,-16.619665145874,22.0,-1013650.0,0.0,pp-riro,4,0,-1,-1
1570534586.3,2019-10-08,13:36:26.300,14.0,7.0,17.5900001525879,-3.1,22.8,8.4,-2.4,-22.6,113.5,-1.21948,21.8592,8.10099,-7.969010000000001,-3.26478,0.532479,2.40108,-17.2882,107.634,0.0247645999999999,0.225829,0.427838,263.0,2.6,52.1701,4.4272,3.7,0.302529,173.28,4.49665,90.4256,44.4623,214.431,1.1315,-0.241247,236.927,3.9269,3.6936,-17.0523986816406,22.003026962280305,-16.318405151367198,22.0,-1013650.0,61.529,pp-riro,4,0,-1,-1
1570534586.4,2019-10-08,13:36:26.400,14.0,8.0,17.4400005340576,-4.3,22.4,8.5,-4.5,-21.0,117.8,-3.43145,21.4351,8.18159,-3.88275,-4.56377,-1.6141299999999998,-0.942828,-14.7449,114.746,-0.0689851,0.0980718999999999,0.51564,263.0,2.6,52.1701,4.4272,3.7,0.304191,174.389,4.49659,93.9305,44.0823,213.031,1.11755,-0.223027,236.956,3.98538,3.72512,-16.731521606445302,22.003026962280305,-16.028057098388697,22.0,-1013630.0,522.996,pp-riro,4,0,-1,-1
1570534586.5,2019-10-08,13:36:26.500,14.0,8.0,17.3899993896484,-4.6,22.4,8.5,-5.3,-20.8,119.3,-3.76913,21.2583,8.154530000000001,-4.4973,-5.1073900000000005,-2.04366,-1.6222299999999998,-14.4492,116.145,-0.292143,0.00656021,0.424452,263.0,2.6,52.1701,4.4272,3.7,0.294218,167.878,4.4964900000000005,95.0988,44.0824,212.531,1.11261,-0.2182349999999999,236.973,4.00512,3.73277,-16.3662719726562,22.0025119781494,-16.0404033660889,22.0,-1013550.0,461.467,pp-riro,4,0,-1,-1
1570534586.6,2019-10-08,13:36:26.600,14.0,9.0,17.229999542236303,-5.3,21.9,8.6,-7.1,-20.0,122.1,-4.82901,20.9167,8.28566,-9.19422,-8.15695,0.6736479999999999,-3.78243,-13.7665,120.356,-0.191991,0.00547576,0.4829729999999999,263.0,2.6,52.1701,4.4272,3.7,0.288677,165.47400000000002,4.49648,97.3477,43.3224,211.531,1.10418,-0.202802,236.852,4.03908,3.74814,-16.1102600097656,22.003026962280305,-15.862961769104,22.0,-1013530.0,553.761,pp-riro,4,0,-1,-1
1570534586.7,2019-10-08,13:36:26.700,14.0,9.0,17.1800003051758,-6.0,21.5,8.5,-8.6,-19.4,124.9,-5.13702,20.7104,8.193010000000001,-4.44036,-4.8669400000000005,-1.39381,-4.6713,-13.6378,121.64,-0.224434,-0.0115114,0.481889,263.0,2.6,52.1701,4.4272,3.7,0.28092,162.835,4.49642,99.5383,42.9424,210.531,1.09529,-0.191356,236.802,4.07527,3.76931,-15.936164855957,22.003026962280305,-15.698917388916,22.0,-1013480.0,399.9380000000001,pp-riro,4,0,-1,-1
1570534586.8,2019-10-08,13:36:26.800,14.0,11.0,17.0799999237061,-6.8,21.5,8.3,-9.9,-18.3,127.2,-6.31224,20.4133,7.929760000000001,-8.734119999999999,2.92233,-4.15921,-7.41523,-12.6831,125.371,-0.33543,0.223516,0.377861,263.0,2.6,52.1701,4.4272,3.7,0.283136,166.388,4.49637,101.729,42.5624,209.531,1.08634,-0.180239,236.777,4.10778,3.79344,-15.8644866943359,22.0025119781494,-15.5018062591553,22.0,-1013450.0,276.88,pp-riro,4,0,-1,-1
1570534586.9,2019-10-08,13:36:26.900,14.0,10.0,17.1800003051758,-7.8,21.3,8.6,-11.1,-18.2,129.8,-6.740360000000001,20.3651,7.96231,-7.670669999999999,-3.44621,0.24688,-8.01225,-12.2614,126.517,-0.170632,0.0256204,0.370366,263.0,2.6,52.1701,4.4272,3.7,0.315273,188.527,4.49631,103.978,41.8024,208.531,1.07767,-0.16618,236.736,4.13529,3.81792,-15.6528396606445,22.003026962280305,-15.23375415802,22.0,-1013430.0,0.0,pp-riro,4,0,-1,-1
1570534587.0,2019-10-08,13:36:27.000,14.0,10.0,17.229999542236303,-8.4,21.0,8.8,-12.9,-18.1,132.8,-7.88472,19.8926,8.263060000000001,-8.99455,-9.27518,1.59515,-10.8177,-12.1826,130.691,-0.170292,0.0578096,0.386583,271.3,2.1,52.1701,4.4272,3.7,0.3346659999999999,197.452,4.49625,106.081,40.6624,207.531,1.0699299999999998,-0.1499,236.592,4.16676,3.82692,-15.4173049926758,22.0035419464111,-15.1876029968262,22.0,-1013430.0,30.7645,pp-riro,4,0,-1,-1
1570534587.1,2019-10-08,13:36:27.100,14.0,13.0,17.3299999237061,-9.3,20.6,8.6,-14.2,-17.5,135.4,-7.88472,19.8926,8.263060000000001,-8.99455,-9.27518,1.59515,-10.8177,-12.1826,130.691,-0.170292,0.0578096,0.386583,271.3,2.1,52.1701,4.4272,3.7,0.357383,207.224,4.49622,108.184,39.9025,206.531,1.0616,-0.137195,236.539,4.19891,3.85665,-15.1885986328125,22.0035419464111,-14.8592176437378,22.0,-1013410.0,307.645,pp-riro,4,0,-1,-1
1570534587.2,2019-10-08,13:36:27.200,14.0,13.0,17.479999542236303,-10.3,20.2,8.6,-15.4,-17.2,138.2,-8.66942,19.6241,8.1813,-7.854360000000001,-0.297119,-1.7433599999999998,-12.5668,-12.1551,133.613,0.0069546,-0.0465446,0.454601,271.3,2.1,52.1701,4.4272,3.7,0.3623699999999999,207.791,4.4962,110.287,38.7625,205.431,1.05345,-0.121797,236.363,4.22935,3.8852,-15.1612930297852,22.0035419464111,-14.5054512023926,22.0,-1013340.0,738.3480000000001,pp-riro,4,0,-1,-1
1570534587.3,2019-10-08,13:36:27.300,14.0,11.0,17.5799999237061,-11.1,19.4,8.6,-16.4,-17.5,140.5,-10.1934,18.9304,8.11835,-12.17,-9.32568,-3.05736,-14.8586,-11.584,137.398,-0.208252,-0.114244,0.158524,271.3,2.1,52.1701,4.4272,3.7,0.369573,215.467,4.496180000000001,112.273,37.6225,204.431,1.0458,-0.1071299999999999,236.247,4.24797,3.91261,-15.0776596069336,22.003026962280305,-14.1763944625854,22.0,-1013260.0,307.645,pp-riro,4,0,-1,-1
1570534587.4,2019-10-08,13:36:27.400,14.0,9.0,17.6800003051758,-11.7,18.8,8.3,-17.3,-17.1,142.7,-10.8909,18.1851,8.08005,-11.1057,-1.6726900000000002,-3.33282,-15.9845,-12.0281,139.893,-0.0344335,-0.190237,0.183308,271.3,2.1,52.1701,4.4272,3.7,0.37733,213.917,4.49616,114.171,36.4825,203.431,1.03837,-0.0930551,236.115,4.27124,3.93575,-14.6236572265625,22.003026962280305,-13.9513378143311,22.0,-1013200.0,861.4060000000001,pp-riro,4,0,-1,-1
1570534587.5,2019-10-08,13:36:27.500,14.0,8.0,17.729999542236303,-12.2,18.1,8.2,-18.0,-16.5,144.2,-11.7305,17.1351,7.7898,-1.16142,-6.09162,-1.0698,-17.212,-11.974,142.583,-0.0423878,-0.0254352999999999,0.2441449999999999,271.3,2.1,52.1701,4.4272,3.7,0.369019,209.865,4.49613,116.011,35.3425,202.431,1.03104,-0.079471,235.979,4.28634,3.95514,-14.2942504882812,22.0035419464111,-13.8250198364258,22.0,-1013140.0,1045.99,pp-riro,4,0,-1,-1
1570534587.6,2019-10-08,13:36:27.600,14.0,8.0,17.979999542236303,-12.5,17.5,8.1,-18.4,-16.3,145.9,-12.087,16.3996,7.629410000000001,-3.97862,-5.35928,-4.8978,-17.5898,-11.8654,144.30200000000002,0.0701929,-0.0633049,0.354057,271.3,2.1,52.1701,4.42719,3.5,0.349626,198.581,4.49611,117.734,34.5825,201.631,1.02409,-0.0694312,236.034,4.30399,3.96948,-13.9426498413086,22.0035419464111,-13.8620014190674,22.0,-1013050.0,922.935,pp-riro,4,0,-1,-1
1570534587.7,2019-10-08,13:36:27.700,14.0,7.0,18.1200008392334,-12.7,16.8,7.7,-18.8,-15.9,147.7,-12.087,16.3996,7.629410000000001,-3.97862,-5.35928,-4.8978,-17.5898,-11.8654,144.30200000000002,0.0701929,-0.0633049,0.354057,271.3,2.1,52.1701,4.42719,3.5,0.321922,183.069,4.496090000000001,119.487,33.0625,200.631,1.01729,-0.053649,235.845,4.32003,3.98315,-13.797576904296902,22.003026962280305,-13.8133068084717,22.0,-1012920.0,799.877,pp-riro,4,0,-1,-1
1570534587.8,2019-10-08,13:36:27.800,14.0,7.0,18.3099994659424,-12.9,16.2,7.6,-19.1,-15.6,149.4,-12.087,16.3996,7.629410000000001,-3.97862,-5.35928,-4.8978,-17.5898,-11.8654,144.30200000000002,0.0701929,-0.0633049,0.354057,271.3,2.1,52.1701,4.42719,3.5,0.311948,179.05700000000002,4.49601,121.122,31.9225,199.831,1.01089,-0.0413834,235.843,4.33667,3.99368,-13.8351287841797,22.0035419464111,-13.8860816955566,22.0,-1012890.0,676.819,pp-riro,4,0,-1,-1
1570534587.9,2019-10-08,13:36:27.900,14.0,6.0,18.3199996948242,-13.1,15.7,7.3,-18.9,-14.5,150.7,-12.5114,15.0096,7.06493,-2.24254,-7.80722,-4.53759,-17.9478,-10.724,148.534,-0.0650747,0.140654,0.0889865,271.3,2.1,52.1701,4.42719,3.5,0.303083,173.222,4.49604,122.7,30.4025,199.031,1.00495,-0.0265413,235.781,4.35269,4.00437,-13.8146438598633,22.0035419464111,-13.8949394226074,22.0,-1012830.0,553.761,pp-riro,4,0,-1,-1
1570534588.0,2019-10-08,13:36:28.000,14.0,7.0,18.3600006103516,-13.2,15.2,7.2,-19.0,-14.2,152.5,-12.5114,15.0096,7.06493,-2.24254,-7.80722,-4.53759,-17.9478,-10.724,148.534,-0.0650747,0.140654,0.0889865,261.3,2.9,52.1701,4.42719,3.5,0.296434,173.956,4.49602,124.189,28.8824,198.331,0.99944,-0.0121368,235.78,4.36916,4.008719999999999,-13.9153442382812,22.0035419464111,-14.0266151428223,22.0,-1012780.0,430.703,pp-riro,4,0,-1,-1
1570534588.1,2019-10-08,13:36:28.100,14.0,7.0,18.3199996948242,-13.7,14.6,7.1,-18.8,-13.9,154.1,-12.9999,13.9304,6.762630000000001,-7.416819999999999,-9.1959,-2.9617400000000003,-17.8405,-9.15075,151.631,-0.147597,-0.0760491,0.10618,261.3,2.9,52.1701,4.42719,3.5,0.32303,189.04,4.49594,125.62,27.7424,197.531,0.993523,-0.000903394,235.73,4.38536,4.03307,-13.9187545776367,22.003026962280305,-13.8715648651123,22.0,-1012760.0,153.822,pp-riro,4,0,-1,-1
1570534588.2,2019-10-08,13:36:28.200,14.0,8.0,18.2199993133545,-14.1,14.1,7.0,-18.9,-12.9,155.4,-12.9999,13.9304,6.762630000000001,-7.416819999999999,-9.1959,-2.9617400000000003,-17.8405,-9.15075,151.631,-0.147597,-0.0760491,0.10618,261.3,2.9,52.1701,4.42719,3.5,0.3352199999999999,192.064,4.49586,127.11,26.2224,196.831,0.987854,0.0130487,235.769,4.40156,4.04957,-13.96484375,22.003026962280305,35.0,22.0,-1012710.0,615.29,pp-riro,4,0,-1,-1
1570534588.3,2019-10-08,13:36:28.300,14.0,9.0,18.1700000762939,-14.3,13.6,6.8,-19.1,-12.4,156.9,-13.1678,13.701,6.73122,-5.118609999999999,-8.53847,-6.32413,-17.8321,-8.944560000000001,152.40200000000002,0.0693367,-0.122947,0.1089369999999999,261.3,2.9,52.1701,4.42719,3.5,0.331895,191.248,4.495769999999999,128.424,25.0824,196.031,0.982215,0.0236929,235.69,4.41878,4.06445,-13.937530517578098,22.0035419464111,35.0,22.0,-1012670.0,646.054,pp-riro,4,0,-1,-1
1570534588.4,2019-10-08,13:36:28.400,14.0,10.0,18.3099994659424,-14.6,13.3,6.6,-19.0,-11.4,158.7,-13.8327,12.6296,6.217569999999999,-1.06586,0.667396,-1.42491,-18.4242,-7.632510000000001,156.291,-0.0995148999999999,-0.0597869,0.424946,261.3,2.9,52.1701,4.42719,3.5,0.629992,189.142,4.49569,129.739,23.1824,195.331,0.977238,0.0398361,235.635,4.44065,4.07342,-13.485237121582,22.003026962280305,35.0,22.0,-1013680.0,-11875.1,pp-riro,4,0,-1,-1
1570534588.5,2019-10-08,13:36:28.500,14.0,12.0,18.3099994659424,-14.9,13.1,6.2,-19.4,-10.5,160.7,-13.8327,12.6296,6.217569999999999,-1.06586,0.667396,-1.42491,-18.4242,-7.632510000000001,156.291,-0.0995148999999999,-0.0597869,0.424946,261.3,2.9,52.1701,4.42719,3.5,0.983496,177.709,4.49561,131.053,22.0424,194.631,0.971707,0.0501430999999999,235.673,4.46931,4.08914,-12.6745147705078,22.0025119781494,35.0,22.0,-1014970.0,-11229.0,pp-riro,4,0,-1,-1
1570534588.6,2019-10-08,13:36:28.600,14.0,11.0,18.3099994659424,-14.9,12.7,5.9,-19.7,-9.8,162.2,-14.2259,12.4186,5.61041,-1.15468,-7.331639999999999,-5.36086,-18.5087,-6.63812,159.032,0.153744,0.0439750999999999,0.2077909999999999,261.3,2.9,52.1701,4.42719,3.2,0.835556,161.694,4.4955300000000005,132.309,20.5224,194.031,0.966778,0.0629356,235.743,4.48686,4.0964,-11.5087890625,22.003026962280305,35.0,22.0,-1013820.0,-1045.99,pp-riro,4,0,-1,-1
1570534588.7,2019-10-08,13:36:28.700,14.0,10.0,18.020000457763697,-14.8,12.1,6.1,-20.1,-9.4,163.9,-14.2259,12.4186,5.61041,-1.15468,-7.331639999999999,-5.36086,-18.5087,-6.63812,159.032,0.153744,0.0439750999999999,0.2077909999999999,261.3,2.9,52.1701,4.42719,3.2,0.923655,183.71400000000003,4.49546,133.477,19.0024,193.431,0.962079,0.0754862,235.781,4.504580000000001,4.09537,-9.98293304443359,22.0035419464111,35.0,22.0,-1014050.0,-153.822,pp-riro,4,0,-1,-1
1570534588.8,2019-10-08,13:36:28.800,14.0,9.0,17.8700008392334,-14.8,11.7,6.0,-20.6,-8.9,165.5,-14.2456,11.9547,5.5079400000000005,-0.921447,0.364953,-0.148749,-19.0659,-6.682810000000001,160.934,-0.0538159999999999,-0.155591,0.3205139999999999,261.3,2.9,52.1701,4.42719,3.2,0.920885,181.269,4.495369999999999,134.675,17.4823,192.731,0.956966,0.0878927,235.771,4.52196,4.09938,-8.09864807128906,22.003026962280305,35.0,22.0,-1013840.0,1968.93,pp-riro,4,0,-1,-1
1570534588.9,2019-10-08,13:36:28.900,14.0,10.0,17.5699996948242,-14.7,11.4,5.9,-21.1,-7.8,166.4,-14.2322,11.2292,5.56416,2.05936,-1.10399,-1.76203,-19.8684,-6.5157,164.491,0.2411239999999999,-0.00679532,0.333414,261.3,2.9,52.1701,4.42719,3.2,0.910911,167.37599999999998,4.49528,135.785,15.9623,192.131,0.952329,0.100044,235.81,4.53572,4.0976300000000005,-5.99249267578125,22.003026962280305,35.0,22.0,-1013720.0,2307.34,pp-riro,4,0,-1,-1
1570534589.0,2019-10-08,13:36:29.000,14.0,8.0,17.4699993133545,-14.6,11.1,5.8,-21.5,-7.6,167.1,-14.2322,11.2292,5.56416,2.05936,-1.10399,-1.76203,-19.8684,-6.5157,164.491,0.2411239999999999,-0.00679532,0.333414,264.5,3.0,52.1701,4.42719,3.2,0.851625,146.891,4.49521,136.865,14.4423,191.531,0.947725,0.112013,235.849,4.5378300000000005,4.0963,-3.8880386352539102,22.0025119781494,35.0,22.0,-1013350.0,3722.5,pp-riro,4,0,-1,-1
1570534589.1,2019-10-08,13:36:29.100,14.0,8.0,17.2600002288818,-14.5,11.0,5.9,-22.2,-7.9,167.4,-14.1913,11.0954,5.48897,0.921978,0.19253,-1.98793,-20.1967,-6.4074800000000005,164.979,0.118288,-0.0886834,0.162026,264.5,3.0,52.1701,4.42719,3.2,0.8499620000000001,147.315,4.49515,137.975,13.3023,190.931,0.942835,0.121096,235.942,4.531540000000001,4.0863,-1.7733383178710902,22.0025119781494,35.0,22.0,-1013300.0,184.587,pp-riro,4,0,-1,-1
1570534589.2,2019-10-08,13:36:29.200,14.0,7.0,17.2099990844727,-14.1,11.0,6.2,-23.0,-7.5,167.1,-14.3121,10.7375,5.51973,1.95829,5.3339,2.66401,-21.3992,-7.50652,166.655,-0.263263,-0.227969,0.0559788,264.5,3.0,52.1701,4.42719,3.2,0.864368,152.201,4.4951,139.02700000000002,11.4023,190.231,0.938077,0.13546,235.894,4.51978,4.05349,0.332107543945312,22.0019989013672,35.0,22.0,-1013220.0,953.699,pp-riro,4,0,-1,-1
1570534589.3,2019-10-08,13:36:29.300,14.0,9.0,17.0100002288818,-13.8,11.2,6.4,-23.7,-7.6,167.3,-13.9227,10.8274,5.78115,3.86881,1.55676,-1.40206,-22.0284,-8.44096,167.146,-0.0585184,-0.050454,0.0897828,264.5,3.0,52.1701,4.42719,3.2,0.857165,146.292,4.49504,140.078,10.2623,189.631,0.933293,0.144217,235.981,4.514480000000001,4.02482,2.43038177490234,22.0019989013672,35.0,22.0,-1013040.0,1384.4,pp-riro,4,0,-1,-1
1570534589.4,2019-10-08,13:36:29.400,14.0,9.0,16.9500007629395,-13.7,11.5,6.8,-24.3,-7.8,166.7,-13.8364,11.0555,6.0387,-2.99677,2.03101,-0.535709,-22.8209,-8.727689999999999,167.12900000000002,-0.37563,-0.168726,-0.0624126,264.5,3.0,52.1701,4.42719,3.2,0.8483,144.338,4.4949900000000005,141.188,9.12228,188.931,0.928025,0.152854,236.034,4.49707,3.99578,4.532066345214839,22.0019989013672,35.0,22.0,-1012950.0,1630.52,pp-riro,4,0,-1,-1
1570534589.5,2019-10-08,13:36:29.500,14.0,9.0,16.8999996185303,-13.6,11.7,7.3,-25.1,-8.8,165.7,-13.8364,11.0555,6.0387,-2.99677,2.03101,-0.535709,-22.8209,-8.727689999999999,167.12900000000002,-0.37563,-0.168726,-0.0624126,264.5,3.0,52.1701,4.42719,3.2,0.8510709999999999,147.529,4.49493,142.269,7.22225,188.231,0.92296,0.166708,236.058,4.46178,3.96364,6.64055633544922,22.0025119781494,35.0,22.0,-1012870.0,646.054,pp-riro,4,0,-1,-1
1570534589.6,2019-10-08,13:36:29.600,14.0,10.0,16.7900009155273,-13.2,11.9,7.8,-25.9,-10.4,164.5,-13.8564,11.6887,7.002000000000001,1.30523,5.98231,6.80399,-24.6211,-10.6491,166.294,-0.086141,-0.379032,-0.2136539999999999,264.5,3.0,52.1701,4.42719,2.8,0.8748959999999999,162.003,4.49488,143.408,6.08225,187.531,0.917508,0.175098,236.158,4.42195,3.92533,8.75244903564453,22.0025119781494,35.0,22.0,-1012820.0,276.88,pp-riro,4,0,-1,-1
1570534589.7,2019-10-08,13:36:29.700,14.0,11.0,16.6399993896484,-12.7,12.3,8.2,-26.7,-11.7,162.5,-13.7894,11.8438,7.261610000000001,6.71034,6.13044,8.293239999999999,-24.9171,-11.9331,166.00799999999998,-0.134831,-0.396615,-0.346898,264.5,3.0,52.1701,4.42719,2.8,0.885424,163.762,4.49482,144.518,4.56224,186.731,0.911909,0.185981,236.166,4.37231,3.87823,10.8609390258789,22.0025119781494,35.0,22.0,-1012740.0,1107.52,pp-riro,4,0,-1,-1
1570534589.8,2019-10-08,13:36:29.800,14.0,12.0,16.4200000762939,-12.3,12.7,8.5,-27.3,-13.3,160.1,-13.7172,11.9876,7.532430000000001,4.420380000000001,-0.6383979999999999,4.12739,-25.3041,-13.0816,165.46400000000003,-0.332671,-0.264503,-0.286782,264.5,3.0,52.1701,4.42719,2.8,0.883761,163.003,4.49477,145.716,3.42224,185.831,0.905673,0.194113,236.173,4.31647,3.83976,12.9694290161133,22.0019989013672,35.0,22.0,-1012670.0,1415.17,pp-riro,4,0,-1,-1
1570534589.9,2019-10-08,13:36:29.900,14.0,11.0,16.2600002288818,-12.0,13.0,9.3,-28.1,-15.5,157.4,-13.5143,12.2688,7.765280000000001,4.35387,2.87408,3.37448,-25.9343,-14.1917,164.771,-0.0180076,-0.152974,-0.471789,264.5,3.0,52.1701,4.42719,2.8,0.880437,163.899,4.49471,146.942,2.2822400000000003,184.931,0.89931,0.202119,236.213,4.2508,3.79863,15.0779190063477,22.0025119781494,35.0,22.0,-1012530.0,1230.58,pp-riro,4,0,-1,-1
1570534590.0,2019-10-08,13:36:30.000,14.0,12.0,16.1499996185303,-10.8,13.7,10.6,-28.8,-17.9,154.1,-12.8326,13.4308,9.28415,2.62401,9.25796,8.57376,-27.3265,-18.8589,160.345,-0.111647,-0.296315,-0.6645300000000001,237.9,4.1,52.1701,4.42719,2.8,0.887086,167.398,4.49466,148.19799999999998,1.14225,184.031,0.8928229999999999,0.209997,236.286,4.17553,3.70525,17.1795959472656,22.0019989013672,35.0,22.0,-1012470.0,615.29,pp-riro,4,0,-1,-1
1570534590.1,2019-10-08,13:36:30.100,14.0,11.0,16.0400009155273,-9.8,14.3,11.3,-29.0,-20.7,150.8,-12.41,13.6805,9.811,8.93914,6.37574,10.1098,-27.6884,-20.552,159.327,-0.118091,-0.355469,-0.490206,237.9,4.1,52.1701,4.42719,2.8,0.881545,159.387,4.4945,149.542,0.00225283,182.931,0.885489,0.217794,236.276,4.09721,3.63501,19.3017120361328,22.0025119781494,35.0,22.0,-1012240.0,1999.69,pp-riro,4,0,-1,-1
1570534590.2,2019-10-08,13:36:30.200,14.0,10.0,15.9300003051758,-8.7,14.8,12.1,-28.6,-23.3,146.8,-12.41,13.6805,9.811,8.93914,6.37574,10.1098,-27.6884,-20.552,159.327,-0.118091,-0.355469,-0.490206,237.9,4.1,52.1701,4.42719,2.8,0.864368,153.561,4.49435,150.944,-0.757726,181.831,0.877943,0.223061,236.32,4.014390000000001,3.5648,21.4085006713867,22.0025119781494,35.0,22.0,-1012070.0,1384.4,pp-riro,4,0,-1,-1
1570534590.3,2019-10-08,13:36:30.300,14.0,10.0,15.8199996948242,-7.4,15.2,12.8,-28.1,-25.9,142.2,-9.97245,15.5308,11.9854,11.5564,5.32791,6.43646,-28.5847,-28.5376,152.313,-0.104717,-0.297378,-0.6852729999999999,237.9,4.1,52.1701,4.42719,2.8,0.864368,156.721,4.494190000000001,152.404,-1.5177,180.731,0.8702,0.228154,236.417,3.92473,3.49045,23.520393371582,22.0019989013672,35.0,22.0,-1011980.0,676.819,pp-riro,4,0,-1,-1
1570534590.4,2019-10-08,13:36:30.400,14.0,9.0,15.6499996185303,-6.7,15.4,13.1,-27.6,-27.5,139.4,-9.4733,15.8304,12.3926,10.137,3.44411,5.42552,-28.559,-30.1872,150.233,-0.38569,-0.166993,-0.795543,237.9,4.1,52.1701,4.42719,2.8,0.8726799999999999,160.221,4.49404,153.16299999999998,-2.2777,180.03099999999998,0.8658040000000001,0.233144,236.379,3.86922,3.45025,25.6339950561523,22.0025119781494,35.0,22.0,-1011960.0,369.174,pp-riro,4,0,-1,-1
1570534590.5,2019-10-08,13:36:30.500,14.0,10.0,15.5299997329712,-4.6,15.9,14.1,-24.5,-32.2,130.0,-8.12687,16.3726,13.2475,14.2793,8.32391,7.5833,-28.2231,-34.0163,145.83100000000002,-0.350058,-0.364321,-0.902001,237.9,4.1,52.1701,4.42719,2.8,0.884315,165.426,4.49388,155.412,-3.03765,178.23,0.8535879999999999,0.23805,236.492,3.70186,3.34012,27.735671997070305,22.0019989013672,35.0,22.0,-1011900.0,769.112,pp-riro,4,0,-1,-1
1570534590.6,2019-10-08,13:36:30.600,14.0,10.0,15.4200000762939,-2.9,16.0,14.6,-21.9,-34.8,122.7,-5.84137,17.1561,14.4905,16.1815,6.799060000000001,7.776660000000001,-26.4494,-40.3572,137.873,-0.486621,-0.38264,-0.897342,237.9,4.1,52.1701,4.42718,2.5,0.879883,161.31,4.49373,156.99,-3.41761,176.93,0.8449270000000001,0.240427,236.562,3.58474,3.2586,29.799880981445305,22.0025119781494,35.0,22.0,-1011720.0,1476.7,pp-riro,4,0,-1,-1
1570534590.7,2019-10-08,13:36:30.700,14.0,10.0,15.4799995422363,-1.9,16.1,14.7,-19.9,-36.5,118.8,-5.84137,17.1561,14.4905,16.1815,6.799060000000001,7.776660000000001,-26.4494,-40.3572,137.873,-0.486621,-0.38264,-0.897342,237.9,4.1,52.1701,4.42718,2.5,0.876558,160.215,4.49357,158.50799999999998,-3.79757,176.23,0.838149,0.242769,237.058,3.52115,3.21082,31.531982421875,22.0025119781494,35.0,22.0,-1011650.0,1169.05,pp-riro,4,0,-1,-1
1570534590.8,2019-10-08,13:36:30.800,14.0,10.0,15.5299997329712,-0.1,16.1,15.1,-15.9,-38.9,110.6,-2.03805,17.771,15.7008,22.1939,1.52513,9.10304,-20.554,-48.0653,123.215,-0.467785,-0.284566,-1.25765,237.9,4.1,52.1701,4.42718,2.5,0.877666,162.09,4.49342,159.326,-3.79755,174.83,0.831622,0.242801,236.569,3.401,3.12874,32.9200439453125,22.0025119781494,35.0,22.0,-1011550.0,1015.23,pp-riro,4,0,-1,-1
1570534590.9,2019-10-08,13:36:30.900,14.0,10.0,15.6999998092651,1.6,16.0,15.3,-10.9,-40.9,101.5,-2.03805,17.771,15.7008,22.1939,1.52513,9.10304,-20.554,-48.0653,123.215,-0.467785,-0.284566,-1.25765,237.9,4.1,52.1701,4.42718,2.5,0.883761,165.613,4.49326,160.903,-3.79749,173.43,0.8227110000000001,0.242646,236.606,3.27521,3.05239,33.94873046875,22.0025119781494,23.0116176605225,22.0,-1011410.0,922.935,pp-riro,4,0,-1,-1
1570534591.0,2019-10-08,13:36:31.000,14.0,10.0,15.8100004196167,3.6,15.7,15.3,-5.2,-41.7,91.4,2.29744,17.8007,16.2443,22.8535,-2.93582,0.281675,-9.91596,-54.0701,102.984,-0.309965,-0.203653,-1.03819,259.4,3.6,52.1701,4.42718,2.5,0.885978,166.574,4.49311,162.539,-3.4174300000000004,172.03,0.81365,0.240226,236.696,3.14414,2.96376,34.333648681640604,22.0019989013672,23.0092449188232,22.0,-1011360.0,984.464,pp-ro,1,1,-1,-1
1570534591.1,2019-10-08,13:36:31.100,14.0,11.0,15.9200000762939,5.6,15.2,15.1,0.6,-42.0,81.5,4.42142,17.6945,16.2032,17.7416,1.33899,0.714831,-2.48639,-55.1222,90.2281,-0.858876,0.123529,-1.35222,259.4,3.6,52.1701,4.42718,2.5,0.892073,171.3,4.4931,164.058,-3.03737,170.63,0.804949,0.237796,236.725,3.01781,2.87278,34.8241577148438,22.0019989013672,23.0092449188232,22.0,-1011260.0,984.464,pp-ro,1,1,-1,-1
1570534591.2,2019-10-08,13:36:31.200,14.0,12.0,15.9799995422363,7.2,14.4,15.0,6.6,-41.5,71.4,6.68744,16.8512,16.1263,14.164,-4.37847,2.66235,6.017119999999999,-55.953,77.3952,-0.0212071,-0.101334,-1.29489,259.4,3.6,52.1701,4.42718,2.5,0.903708,173.822,4.4931,165.518,-2.65731,169.33,0.796719,0.235341,236.804,2.8886,2.79695,34.972320556640604,22.0019989013672,23.0092449188232,22.0,-1011140.0,984.464,pp-ro,1,1,-1,-1
1570534591.3,2019-10-08,13:36:31.300,14.0,12.0,16.0300006866455,9.0,13.7,14.4,12.6,-40.5,61.3,8.64823,16.1615,15.7073,30.784,-13.1523,-8.66109,13.849,-54.9287,64.2548,-0.505317,-0.167615,-1.01165,259.4,3.6,52.1701,4.42718,2.5,0.89041,163.799,4.4931,167.037,-1.51723,167.93,0.788046,0.228373,236.863,2.76127,2.70998,34.795196533203104,22.0025119781494,23.0116176605225,22.0,-1010940.0,2091.99,pp-ro,1,1,-1,-1
1570534591.4,2019-10-08,13:36:31.400,14.0,12.0,15.9799995422363,10.6,12.9,13.9,17.4,-38.3,52.3,10.6552,15.2806,15.1087,16.6396,-13.0927,-9.92587,20.708,-52.6133,52.7031,-0.761043,0.090933,-1.24654,259.4,3.6,52.1701,4.42718,2.5,0.8782209999999999,161.05,4.4930900000000005,168.38,-0.757163,166.73,0.78047,0.223798,236.963,2.63785,2.62859,34.2161254882812,22.003026962280305,23.0139999389648,22.0,-1010840.0,1999.69,pp-ro,1,1,-1,-1
1570534591.5,2019-10-08,13:36:31.500,14.0,12.0,15.9200000762939,11.9,12.0,13.3,21.5,-35.9,44.3,11.5579,14.8172,14.6648,16.6332,-7.664239999999999,-4.782430000000001,23.5589,-51.3637,47.3848,-0.619201,0.00206035,-1.30203,259.4,3.6,52.1701,4.42718,2.5,0.8760040000000001,163.181,4.4930900000000005,169.665,0.38291,165.43,0.77276,0.21704,236.968,2.52475,2.55641,33.2794036865234,22.003026962280305,23.012767791748,22.0,-1010770.0,307.645,pp-ro,1,1,-1,-1
1570534591.6,2019-10-08,13:36:31.600,14.0,11.0,15.8100004196167,13.1,11.1,12.6,25.1,-33.3,37.0,12.3542,14.3505,14.3938,23.1929,-7.601710000000001,-6.163530000000001,26.1094,-49.9177,42.3271,-1.03746,0.0745317,-1.02945,259.4,3.6,52.1701,4.42718,2.5,0.886532,165.44,4.4930900000000005,170.892,1.14297,164.23,0.765512,0.212614,237.017,2.4151700000000003,2.48314,31.9850158691406,22.0025119781494,21.814245223999,22.0,-1010700.0,830.6410000000001,pp-ro,1,1,-1,-1
1570534591.7,2019-10-08,13:36:31.700,14.0,12.0,15.9099998474121,14.1,10.4,11.8,27.8,-30.5,30.6,14.5772,12.8289,13.1769,13.0354,-10.1952,-6.18433,31.9855,-44.3534,29.6303,-0.615764,0.124769,-1.32031,259.4,3.6,52.1701,4.42718,2.5,0.884315,163.809,4.49308,172.06,2.66305,163.13,0.758704,0.2038299999999999,237.114,2.316,2.42087,30.3329620361328,22.0025119781494,20.7865581512451,22.0,-1010560.0,1476.7,pp-ro,1,1,-1,-1
1570534591.8,2019-10-08,13:36:31.800,14.0,12.0,15.9099998474121,15.0,9.6,11.1,30.3,-27.4,24.7,15.7246,11.6773,12.2482,9.81022,-9.40792,-12.7702,34.3357,-40.1639,23.1967,-0.246038,0.0633309,-1.04228,259.4,3.6,52.1701,4.42718,2.5,0.8782209999999999,161.368,4.49308,173.141,4.18313,162.13,0.752425,0.195154,237.237,2.21806,2.36112,28.341979980468803,22.003026962280305,19.795051574707,22.0,-1010430.0,1384.4,pp-ro,1,1,-1,-1
1570534591.9,2019-10-08,13:36:31.900,14.0,11.0,16.020000457763697,15.7,8.9,10.3,32.1,-24.4,19.6,16.6918,10.6852,11.4019,9.80327,-7.73727,-7.91524,36.6943,-36.1462,17.048,-0.43878,0.216112,-0.915066,259.4,3.6,52.1701,4.42718,2.5,0.8732340000000001,157.407,4.49308,174.134,5.7032,161.13,0.746365,0.186573,237.314,2.1294,2.30684,26.2590484619141,22.0025119781494,18.9118709564209,22.0,-1010250.0,1230.58,pp-ro,1,1,-1,-1
1570534592.0,2019-10-08,13:36:32.000,14.0,11.0,16.0699996948242,16.2,8.3,9.5,34.2,-21.5,15.0,17.3488,9.73489,10.3379,2.25394,-2.82884,-9.04253,38.0336,-32.1046,12.1831,-0.00686787,0.239456,-0.98317,257.9,3.9,52.1701,4.42718,2.5,0.8693549999999999,156.602,4.49306,175.097,7.223269999999999,160.13,0.7403569999999999,0.178098,237.388,2.04683,2.26008,23.9019012451172,22.0025119781494,18.1850128173828,22.0,-1010130.0,1138.29,pp-ro,1,1,-1,-1
1570534592.1,2019-10-08,13:36:32.100,14.0,11.0,16.1800003051758,16.7,7.6,8.6,35.8,-18.6,11.2,17.6679,9.32151,9.88222,10.5871,-3.32952,-9.65624,38.7545,-30.0905,9.99324,-0.0544251,0.184443,-0.77355,257.9,3.9,52.1701,4.42718,2.5,0.869909,158.041,4.49303,176.003,9.12335,159.33,0.735053,0.167574,237.584,1.97416,2.20782,22.236228942871104,22.0025119781494,17.312810897827102,22.0,-1010040.0,953.699,pp-ro,1,1,-1,-1
1570534592.2,2019-10-08,13:36:32.200,14.0,11.0,16.2399997711182,17.1,6.9,7.8,37.2,-15.3,7.4,18.122,8.459060000000001,8.90611,5.93759,-8.83043,-8.18149,39.6316,-26.0198,6.0817,-0.193842,0.0395752,-0.8908510000000001,257.9,3.9,52.1701,4.42718,2.5,0.8721260000000001,159.935,4.49299,176.85,10.6434,158.43,0.729618,0.159288,237.675,1.89434,2.15827,20.7033996582031,22.0025119781494,16.5214672088623,22.0,-1010000.0,769.112,pp-ro,1,1,-1,-1
1570534592.3,2019-10-08,13:36:32.300,14.0,11.0,16.2900009155273,17.6,6.5,7.1,38.5,-12.3,4.0,18.5542,7.609089999999999,8.090539999999999,2.36275,-5.06758,-6.407769999999999,40.7042,-22.249,2.30456,0.15419,0.0930409,-0.953981,257.9,3.9,52.1701,4.42718,2.5,0.880991,163.028,4.49295,177.638,12.1635,157.73,0.724946,0.151049,237.87,1.82234,2.11734,18.9934463500977,22.0025119781494,15.8752880096436,22.0,-1009930.0,830.6410000000001,pp-ro,1,1,-1,-1
1570534592.4,2019-10-08,13:36:32.400,14.0,11.0,16.2900009155273,18.0,5.8,6.3,40.0,-9.4,0.9,19.1879,6.582510000000001,6.781510000000001,3.6062,-10.1604,-9.11215,42.1546,-16.5239,-2.37648,0.0296628,0.112868,-0.66122,257.9,3.9,52.1701,4.42718,2.5,0.888194,170.467,4.49292,178.31,14.0635,157.03,0.720489,0.140761,238.014,1.7560900000000002,2.06766,18.3769073486328,22.0025119781494,15.0425453186035,22.0,-1009790.0,769.112,pp-ro,1,1,-1,-1
1570534592.5,2019-10-08,13:36:32.500,14.0,10.0,16.2800006866455,18.2,5.2,5.6,41.3,-6.9,-1.9,19.4332,5.78687,6.02344,2.68833,-5.72751,-5.8653,43.1709,-13.1841,-5.35546,0.0208871,0.0871281999999999,-0.747373,257.9,3.9,52.1701,4.42718,2.5,0.903708,179.24599999999998,4.49288,178.981,15.5836,156.43,0.716395,0.132656,238.218,1.69681,2.0263400000000003,17.266456604003903,22.003026962280305,14.3765897750854,22.0,-1009740.0,430.703,pp-ro,1,1,-1,-1
1570534592.6,2019-10-08,13:36:32.600,14.0,10.0,16.2800006866455,18.4,4.5,5.0,42.7,-4.3,-4.4,19.5662,4.99562,5.3442,4.77762,-7.40844,-4.77957,44.2392,-10.1396,-8.0052,0.0051358,0.0413029,-0.622517,257.9,3.9,52.1701,4.42718,2.7,0.917006,182.076,4.49285,179.53599999999997,17.8637,155.73,0.712074,0.120368,238.337,1.64223,1.98723,16.241165161132802,22.003026962280305,13.7593727111816,22.0,-1009640.0,1322.87,pp-ro,1,1,-1,-1
1570534592.7,2019-10-08,13:36:32.700,14.0,10.0,16.229999542236303,18.6,3.9,4.3,44.2,-2.1,-6.8,19.6129,4.599480000000001,4.93537,2.92401,-6.43384,-8.30658,44.9818,-8.721039999999999,-9.21099,0.291826,0.0360708,-0.7051109999999999,257.9,3.9,52.1701,4.42718,2.7,0.91479,180.327,4.49281,180.033,19.3837,155.23,0.708705,0.112321,238.504,1.5912,1.94432,15.1068725585938,22.003026962280305,13.0419883728027,22.0,-1009550.0,1722.81,pp-ro,1,1,-1,-1
1570534592.8,2019-10-08,13:36:32.800,14.0,10.0,16.120000839233402,18.7,3.3,3.9,45.7,-0.1,-8.9,19.6129,4.599480000000001,4.93537,2.92401,-6.43384,-8.30658,44.9818,-8.721039999999999,-9.21099,0.291826,0.0360708,-0.7051109999999999,257.9,3.9,52.1701,4.42718,2.7,0.905925,181.919,4.492780000000001,180.471,21.6638,154.73,0.705225,0.100142,238.706,1.54887,1.91615,14.3370513916016,22.0025119781494,12.623032569885302,22.0,-1009390.0,1292.11,pp-ro,1,1,-1,-1
1570534592.9,2019-10-08,13:36:32.900,14.0,10.0,16.120000839233402,18.9,2.4,3.4,47.0,1.4,-10.8,19.8497,3.27247,3.73751,-0.476555,-10.0189,-7.471610000000001,47.1017,-3.17946,-13.4342,0.0920225,0.0254108,-0.551661,257.9,3.9,52.1701,4.42718,2.7,0.930858,190.756,4.49274,180.821,23.1838,154.23,0.702178,0.0921279,238.79,1.51274,1.86986,13.5876693725586,22.003026962280305,11.8365411758423,22.0,-1009300.0,1138.29,pp-ro,1,1,-1,-1
1570534593.0,2019-10-08,13:36:33.000,14.0,8.0,16.0100002288818,19.0,1.7,2.9,48.1,3.1,-12.7,19.9271,2.42367,3.14189,0.480447,-8.00762,-12.1836,48.2928,-0.909241,-15.2567,0.64572,-0.0543659,-0.44359,265.1,3.5,52.1701,4.42718,2.7,0.930304,191.287,4.49271,181.084,25.4639,153.83,0.699375,0.0799612,238.96400000000003,1.47662,1.834,12.8655395507812,22.003026962280305,11.249182701110804,22.0,-1009210.0,1661.28,pp-ro,1,1,-1,-1
1570534593.1,2019-10-08,13:36:33.100,14.0,9.0,15.8500003814697,18.9,1.0,2.5,49.1,4.1,-14.3,19.883,1.65606,2.68531,-2.35886,-8.14493,-6.13556,49.3612,0.728953,-16.9766,0.227635,0.015771,-0.4290199999999999,265.1,3.5,52.1701,4.42718,2.7,0.929196,192.694,4.49271,181.317,27.364,153.43,0.696735,0.0698928,239.093,1.45186,1.80187,12.133186340332,22.003026962280305,10.738920211792,22.0,-1009090.0,984.464,pp-ro,1,1,-1,-1
1570534593.2,2019-10-08,13:36:33.200,14.0,9.0,15.619999885559098,18.9,0.3,2.0,50.1,4.6,-16.1,19.883,1.65606,2.68531,-2.35886,-8.14493,-6.13556,49.3612,0.728953,-16.9766,0.227635,0.015771,-0.4290199999999999,265.1,3.5,52.1701,4.42718,2.7,0.940832,199.48,4.49271,181.405,29.264,153.13,0.694755,0.0597358,239.193,1.43156,1.76462,11.4553298950195,22.0035419464111,10.0997362136841,22.0,-1009010.0,799.877,pp-ro,1,1,-1,-1
1570534593.3,2019-10-08,13:36:33.300,14.0,10.0,15.619999885559098,19.0,-0.1,1.6,50.8,5.5,-17.3,19.6608,0.211679,1.66766,-1.15865,-7.65477,-3.70098,50.9543,3.18635,-19.8339,0.047964,-0.0488336,-0.280359,265.1,3.5,52.1701,4.42718,2.7,0.956346,207.432,4.492719999999999,181.493,31.1641,152.83,0.6927260000000001,0.0496217,239.307,1.41266,1.74103,11.1692047119141,22.003026962280305,9.744215965271,22.0,-1008840.0,1292.11,pp-ro,1,1,-1,-1
1570534593.4,2019-10-08,13:36:33.400,14.0,11.0,15.619999885559098,19.0,-0.7,1.3,51.6,6.0,-18.8,19.8309,-0.561879,1.0948,-0.536241,-8.24324,-9.07948,51.8335,4.966,-21.7152,0.208111,-0.131289,-0.158207,265.1,3.5,52.1701,4.42718,2.7,0.959671,210.551,4.492719999999999,181.43400000000003,33.0641,152.63,0.691353,0.0394104,239.39,1.3957700000000002,1.7150900000000002,10.4368591308594,22.0035419464111,9.3137731552124,22.0,-1008760.0,1384.4,pp-ro,1,1,-1,-1
1570534593.5,2019-10-08,13:36:33.500,14.0,10.0,15.8999996185303,19.3,-1.2,1.0,51.9,6.8,-20.8,20.025,-1.22849,0.787092,-2.58434,-10.4573,-9.00667,52.1044,5.70526,-23.4319,-0.12484,-0.122942,-0.252374,265.1,3.5,52.1701,4.42718,2.7,0.976293,225.203,4.492719999999999,181.376,35.3441,152.33,0.6894170000000001,0.0272107,239.48,1.37059,1.6938099999999998,9.83564758300781,22.0035419464111,9.02024936676025,22.0,-1008680.0,584.525,pp-ro,1,1,-1,-1
1570534593.6,2019-10-08,13:36:33.600,14.0,11.0,16.120000839233402,19.1,-1.9,0.8,52.7,7.8,-22.8,20.1706,-1.52371,0.638915,1.84257,-3.0796,-2.2223900000000003,52.3278,6.24253,-24.3661,0.0793333,-0.172715,-0.407118,265.1,3.5,52.1701,4.42719,3.0,1.02561,248.622,4.49273,181.259,37.2442,152.23,0.688409,0.0170075,239.616,1.34141,1.66883,9.42178344726562,22.0035419464111,8.604905128479,22.0,-1008610.0,1107.52,pp-ro,1,1,-1,-1
1570534593.7,2019-10-08,13:36:33.700,14.0,12.0,16.3400001525879,18.9,-2.4,0.5,52.6,8.7,-24.9,20.1167,-1.82523,0.532888,2.77267,-2.51251,0.346416,52.3944,6.79165,-25.2982,0.227517,-0.147539,-0.308067,265.1,3.5,52.1701,4.42719,3.0,1.0317,250.552,4.49273,181.083,39.1442,152.03,0.68718,0.00676811,239.66,1.31246,1.64608,8.94149780273438,22.003026962280305,8.25480175018311,22.0,-1008520.0,1722.81,pp-ro,1,1,-1,-1
1570534593.8,2019-10-08,13:36:33.800,14.0,11.0,16.6499996185303,18.8,-2.9,0.1,52.5,9.6,-26.6,19.904,-2.40681,0.264111,-5.94462,-4.11828,-6.4421800000000005,52.2932,7.859380000000001,-27.1501,0.045886,-0.255772,-0.3977219999999999,265.1,3.5,52.1701,4.42719,3.0,1.03447,250.357,4.49273,180.85,41.0443,151.93,0.6863739999999999,-0.00351649,239.738,1.28803,1.61935,8.74392700195312,22.0035419464111,7.808166980743411,22.0,-1008290.0,2614.98,pp-ro,1,1,-1,-1
1570534593.9,2019-10-08,13:36:33.900,14.0,11.0,16.8600006103516,18.5,-3.5,-0.3,52.4,10.7,-28.2,19.6384,-3.24396,-0.355261,-1.37978,-5.3503,-4.08246,51.9429,9.72298,-29.7515,-0.138003,-0.1553,-0.376719,265.1,3.5,52.1701,4.42719,3.0,1.03004,250.415,4.492719999999999,180.557,42.9443,151.93,0.68599,-0.0138311,239.85,1.26213,1.58794,8.46121215820312,22.0035419464111,7.249963283538821,22.0,-1008070.0,2030.46,pp-ro,1,1,-1,-1
1570534594.0,2019-10-08,13:36:34.000,14.0,10.0,17.120000839233402,18.2,-3.9,-0.6,51.6,11.3,-29.4,19.6384,-3.24396,-0.355261,-1.37978,-5.3503,-4.08246,51.9429,9.72298,-29.7515,-0.138003,-0.1553,-0.376719,258.2,2.7,52.1701,4.42719,3.0,1.03447,250.274,4.49274,180.207,44.8443,151.93,0.685703,-0.0242496,239.93400000000003,1.2474,1.56661,7.93323516845703,22.0035419464111,6.894860744476321,22.0,-1007910.0,1845.87,pp-ro,1,1,-1,-1
1570534594.1,2019-10-08,13:36:34.100,14.0,11.0,17.5300006866455,17.8,-4.2,-1.0,51.5,12.3,-30.5,19.1513,-4.0108,-0.938309,-0.0222835999999999,-1.01224,-0.735875,51.1616,11.0976,-32.0473,-0.186388,-0.117057,-0.3574969999999999,258.2,2.7,52.1701,4.42719,3.0,1.02561,245.913,4.49271,179.827,46.7444,151.93,0.685438,-0.0346363,240.012,1.22861,1.54277,7.51425933837891,22.0035419464111,6.4957013130188,22.0,-1007540.0,2338.1,pp-ro,1,1,-1,-1
1570534594.2,2019-10-08,13:36:34.200,14.0,12.0,17.8199996948242,17.6,-4.4,-1.4,51.0,13.1,-31.5,18.633,-4.47916,-1.51968,-6.49396,-1.3084,-3.9954,50.3495,12.7712,-33.2371,-0.1683,0.035884,-0.271785,258.2,2.7,52.1701,4.42719,3.0,1.02228,244.704,4.49268,179.389,48.2644,152.031,0.6858529999999999,-0.0431337,240.048,1.21232,1.52241,7.05782318115234,22.0035419464111,6.11545372009277,22.0,-1007420.0,2245.81,pp-ro,1,1,-1,-1
1570534594.3,2019-10-08,13:36:34.300,14.0,11.0,18.1200008392334,17.4,-4.9,-1.6,50.5,13.9,-32.6,18.633,-4.47916,-1.51968,-6.49396,-1.3084,-3.9954,50.3495,12.7712,-33.2371,-0.1683,0.035884,-0.271785,258.2,2.7,52.1701,4.42719,3.0,1.0278200000000002,250.956,4.49265,178.922,50.5444,152.131,0.685765,-0.0556006999999999,240.232,1.19756,1.50292,6.47534942626953,22.0035419464111,5.82117128372192,22.0,-1007240.0,1722.81,pp-ro,1,1,-1,-1
1570534594.4,2019-10-08,13:36:34.400,14.0,10.0,18.2600002288818,17.1,-5.3,-1.7,50.1,14.6,-33.8,18.4313,-4.8890400000000005,-1.70273,-1.07067,-5.5136400000000005,-4.2532,49.5622,13.498,-34.5364,-0.199097,-0.0733616,-0.368115,258.2,2.7,52.1701,4.42719,3.0,1.05054,259.406,4.49262,178.425,52.0644,152.231,0.686239,-0.0641641999999999,240.251,1.1804,1.48698,6.26415252685547,22.003026962280305,5.536972522735599,22.0,-1007020.0,1938.16,pp-ro,1,1,-1,-1
1570534594.5,2019-10-08,13:36:34.500,14.0,10.0,18.3600006103516,16.8,-5.5,-1.9,49.3,15.5,-34.8,18.4313,-4.8890400000000005,-1.70273,-1.07067,-5.5136400000000005,-4.2532,49.5622,13.498,-34.5364,-0.199097,-0.0733616,-0.368115,258.2,2.7,52.1701,4.42719,3.0,1.0427799999999998,250.32,4.49259,177.899,53.9645,152.33100000000002,0.686461,-0.0747222,240.343,1.1643,1.4740799999999998,5.8724365234375,22.003026962280305,5.35493612289429,22.0,-1006720.0,3261.04,pp-ro,1,1,-1,-1
1570534594.6,2019-10-08,13:36:34.600,14.0,10.0,18.4599990844727,16.5,-5.5,-2.0,49.4,16.5,-35.7,18.4313,-4.8890400000000005,-1.70273,-1.07067,-5.5136400000000005,-4.2532,49.5622,13.498,-34.5364,-0.199097,-0.0733616,-0.368115,258.2,2.7,52.1701,4.42719,3.3,1.02727,243.846,4.49256,177.34400000000002,55.4845,152.531,0.6873229999999999,-0.083386,240.406,1.1468200000000002,1.47048,5.58631134033203,22.003026962280305,5.30028009414673,22.0,-1006540.0,3660.97,pp-ro,1,1,-1,-1
1570534594.7,2019-10-08,13:36:34.700,14.0,10.0,18.4599990844727,16.4,-5.7,-2.2,49.2,17.6,-36.9,17.9086,-5.72241,-2.03549,-4.71817,3.09729,-0.578655,48.6195,15.4646,-36.2974,-0.167023,0.0706439,-0.279939,258.2,2.7,52.1701,4.42719,3.3,0.999565,232.95,4.49253,176.78900000000002,57.3845,152.731,0.687839,-0.0940033,240.57,1.126,1.46023,5.37851715087891,22.003026962280305,5.1647057533264205,22.0,-1006140.0,2338.1,pp-ro,1,1,-1,-1
1570534594.8,2019-10-08,13:36:34.800,14.0,9.0,18.3600006103516,16.1,-5.9,-2.2,48.9,18.4,-38.3,17.3212,-6.27009,-2.27101,-1.88374,-0.859441,-3.27847,47.7088,18.0986,-39.4207,-0.0565513,-0.0852382,-0.1345579999999999,258.2,2.7,52.1701,4.42719,3.3,1.00843,238.399,4.4925,176.205,58.9045,152.83100000000002,0.688369,-0.102725,240.573,1.10556,1.454,5.28314971923828,22.003026962280305,5.0957145690918,22.0,-1006000.0,1322.87,pp-ro,1,1,-1,-1
1570534594.9,2019-10-08,13:36:34.900,14.0,9.0,18.2199993133545,15.7,-6.2,-2.3,48.8,19.0,-39.5,16.7947,-6.6879800000000005,-2.38643,-4.11666,-0.945522,0.75473,47.6908,19.2428,-41.2523,0.233419,0.106456,-0.179311,258.2,2.7,52.1701,4.42719,3.3,1.01397,237.7,4.49247,175.562,60.8045,153.031,0.689001,-0.113505,240.703,1.09131,1.43913,5.06684875488281,22.003026962280305,4.87797689437866,22.0,-1005910.0,1630.52,pp-ro,1,1,-1,-1
1570534595.0,2019-10-08,13:36:35.000,14.0,9.0,18.020000457763697,15.2,-6.2,-2.5,48.6,19.5,-40.6,16.2389,-6.77004,-2.49095,-3.489,-2.58569,-0.4342,47.4308,20.0451,-42.2876,0.113024,-0.0915423,-0.313921,268.4,3.8,52.1701,4.42719,3.3,0.98128,216.701,4.49244,174.92,62.3246,153.231,0.689913,-0.1223279999999999,240.751,1.07821,1.42557,5.03278350830078,22.0035419464111,4.64613151550293,22.0,-1005480.0,3107.21,pp-ro,1,1,-1,-1
1570534595.1,2019-10-08,13:36:35.100,14.0,10.0,17.8299999237061,14.9,-6.4,-2.6,48.5,20.2,-41.9,16.027,-6.788530000000001,-2.58034,-5.6988900000000005,-0.133784,-1.6696099999999998,47.2893,20.1899,-42.9332,0.0273020999999999,-0.206151,-0.201587,268.4,3.8,52.1701,4.42719,3.3,0.970198,212.803,4.49247,174.27700000000002,63.8446,153.431,0.690786,-0.131236,240.81,1.06034,1.41356,4.98509979248047,22.0035419464111,4.45588874816895,22.0,-1005340.0,2738.04,pp-ro,1,1,-1,-1
1570534595.2,2019-10-08,13:36:35.200,14.0,10.0,17.6800003051758,14.8,-6.4,-2.6,48.2,20.5,-42.8,15.9026,-6.86534,-2.65945,-2.98292,-2.05908,-0.714669,47.0985,20.257,-43.8,0.0301065999999999,-0.0992233,-0.248948,268.4,3.8,52.1701,4.42719,3.3,0.964103,213.455,4.4925,173.605,65.3646,153.731,0.6920109999999999,-0.140207,240.924,1.05209,1.41704,4.707489013671879,22.0035419464111,4.55100965499878,22.0,-1005160.0,1476.7,pp-ro,1,1,-1,-1
1570534595.3,2019-10-08,13:36:35.300,14.0,10.0,17.379999160766598,14.2,-6.6,-2.7,48.1,20.6,-43.7,15.9026,-6.86534,-2.65945,-2.98292,-2.05908,-0.714669,47.0985,20.257,-43.8,0.0301065999999999,-0.0992233,-0.248948,268.4,3.8,52.1701,4.42719,3.3,0.972969,213.125,4.49253,172.93400000000003,66.5046,153.931,0.69324,-0.147258,240.881,1.04509,1.39617,4.458824157714839,22.0035419464111,4.1324028968811,22.0,-1004960.0,1815.1,pp-ro,1,1,-1,-1
1570534595.4,2019-10-08,13:36:35.400,14.0,9.0,17.229999542236303,13.9,-6.7,-2.6,47.9,20.5,-44.6,15.7592,-6.96098,-2.65002,-3.00449,-1.35343,1.2798200000000002,47.0331,20.4528,-44.5137,0.221967,-0.0979239,-0.1937849999999999,268.4,3.8,52.1701,4.42719,3.3,0.959671,205.391,4.49256,172.233,68.4046,154.231,0.694094,-0.1582319999999999,241.102,1.04313,1.39717,4.38048553466797,22.003026962280305,4.26021909713745,22.0,-1004720.0,2430.39,pp-ro,1,1,-1,-1
1570534595.5,2019-10-08,13:36:35.500,14.0,9.0,17.120000839233402,13.5,-6.7,-2.6,47.6,20.5,-45.4,14.9469,-7.129339999999999,-2.67867,-3.4640800000000005,-0.250436,-0.0987087,46.7872,21.4031,-45.9611,0.0742442,-0.0280161,-0.0571654999999999,268.4,3.8,52.1701,4.42719,3.3,0.950251,200.124,4.49259,171.56099999999998,69.5446,154.431,0.69526,-0.165326,241.078,1.0385,1.3914,4.189727783203121,22.0035419464111,4.16051578521729,22.0,-1004610.0,2276.57,pp-ro,1,1,-1,-1
1570534595.6,2019-10-08,13:36:35.600,14.0,9.0,17.0699996948242,13.1,-6.7,-2.6,47.3,20.5,-46.1,14.3635,-7.154139999999999,-2.69214,1.14591,0.430335,3.28884,46.857,21.6869,-47.0992,0.0581245,-0.0565442,-0.101132,268.4,3.8,52.1701,4.42719,3.6,0.931412,190.176,4.49262,170.831,71.0646,154.731,0.696475,-0.174438,241.195,1.03636,1.38645,4.153968811035161,22.003026962280305,4.11677646636963,22.0,-1004400.0,2030.46,pp-ro,1,1,-1,-1
1570534595.7,2019-10-08,13:36:35.700,14.0,9.0,16.9200000762939,12.9,-6.6,-2.5,47.4,20.4,-46.6,14.3635,-7.154139999999999,-2.69214,1.14591,0.430335,3.28884,46.857,21.6869,-47.0992,0.0581245,-0.0565442,-0.101132,268.4,3.8,52.1701,4.42719,3.6,0.919777,182.563,4.49265,170.15900000000002,72.2047,154.931,0.697584,-0.181574,241.187,1.03644,1.39402,4.157371520996089,22.0025119781494,4.3006443977356,22.0,-1004200.0,2030.46,pp-ro,1,1,-1,-1
1570534595.8,2019-10-08,13:36:35.800,14.0,9.0,16.6599998474121,12.7,-6.4,-2.4,47.3,20.8,-47.3,14.3635,-7.154139999999999,-2.69214,1.14591,0.430335,3.28884,46.857,21.6869,-47.0992,0.0581245,-0.0565442,-0.101132,268.4,3.8,52.1701,4.42719,3.6,0.8981680000000001,172.97299999999998,4.4926900000000005,169.487,73.3447,155.031,0.698351,-0.188709,241.122,1.02807,1.40527,4.23912048339844,22.0025119781494,-35.0,22.0,-1003940.0,1353.64,pp-ro,1,1,-1,-1
1570534595.9,2019-10-08,13:36:35.900,14.0,9.0,16.3400001525879,12.4,-6.4,-2.2,47.1,20.9,-48.3,13.4342,-6.9127,-2.45044,-1.58402,0.857044,-2.03018,46.4846,21.7637,-49.3738,0.0823738999999999,-0.0273299,-0.254472,268.4,3.8,52.1701,4.42719,3.6,0.8965049999999999,171.415,4.492719999999999,168.815,74.8647,155.431,0.699635,-0.197738,241.375,1.02112,1.41321,4.28680419921875,22.0025119781494,-35.0,22.0,-1003880.0,1138.29,pp-ro,1,1,-1,-1
1570534596.0,2019-10-08,13:36:36.000,14.0,9.0,15.8999996185303,12.2,-6.3,-2.1,46.8,20.8,-49.3,13.2798,-6.88358,-2.32953,-4.676159999999999,-0.324167,-0.0216629,46.4735,21.8159,-49.7374,0.0815955,-0.1020679999999999,-0.065613,272.9,3.9,52.1701,4.42719,3.6,0.8942889999999999,171.025,4.49273,168.173,76.0047,155.731,0.700907,-0.204794,241.476,1.01528,1.42118,4.193138122558589,22.0025119781494,-35.0,22.0,-1003740.0,1353.64,pp-ro,1,1,-1,-1
1570534596.1,2019-10-08,13:36:36.100,14.0,9.0,15.6800003051758,12.0,-6.3,-2.1,46.8,21.0,-49.6,13.2798,-6.88358,-2.32953,-4.676159999999999,-0.324167,-0.0216629,46.4735,21.8159,-49.7374,0.0815955,-0.1020679999999999,-0.065613,272.9,3.9,52.1701,4.42719,3.6,0.893181,170.15,4.4928,167.822,76.7647,155.83100000000002,0.701235,-0.209413,241.538,1.01236,1.41827,3.70944213867188,22.0025119781494,-35.0,22.0,-1003620.0,1138.29,pp-ro,1,1,-1,-1
1570534596.2,2019-10-08,13:36:36.200,14.0,10.0,15.460000038147,12.0,-6.3,-2.2,46.7,21.3,-50.3,13.2798,-6.88358,-2.32953,-4.676159999999999,-0.324167,-0.0216629,46.4735,21.8159,-49.7374,0.0815955,-0.1020679999999999,-0.065613,272.9,3.9,52.1701,4.42719,3.6,0.887086,167.52200000000002,4.49285,167.15,78.2847,156.031,0.7017909999999999,-0.218442,241.689,1.00652,1.41854,2.87149810791016,22.0025119781494,-35.0,22.0,-1003430.0,1292.11,pp-ro,1,1,-1,-1
1570534596.3,2019-10-08,13:36:36.300,14.0,11.0,15.3999996185303,11.9,-6.5,-2.3,46.6,21.1,-51.0,12.9981,-6.896910000000001,-2.21356,1.77063,-0.624031,3.23951,46.497,21.6566,-50.807,0.0836113999999999,-0.143783,-0.134184,272.9,3.9,52.1701,4.42719,3.6,0.888748,170.34,4.4929,166.479,79.4247,156.33100000000002,0.703059,-0.225662,241.791,1.00544,1.40722,1.67418670654297,22.003026962280305,-35.0,22.0,-1003380.0,892.17,pp-ro,1,1,-1,-1
1570534596.4,2019-10-08,13:36:36.400,14.0,11.0,15.3400001525879,11.9,-6.8,-2.2,46.4,20.5,-52.1,12.6046,-7.189039999999999,-2.3147900000000003,2.28989,-2.21351,3.82442,46.1669,22.4202,-53.1999,0.0264104,-0.1099339999999999,-0.122823,272.9,3.9,52.1701,4.42719,3.6,0.91479,186.198,4.49295,165.748,80.5647,156.531,0.7041270000000001,-0.233023,241.796,1.0045,1.4064299999999998,0.129440307617188,22.003026962280305,-35.0,22.0,-1003320.0,307.645,pp-ro,1,1,-1,-1
1570534596.5,2019-10-08,13:36:36.500,14.0,11.0,15.3999996185303,11.9,-6.9,-2.1,46.4,19.7,-53.1,12.5967,-7.26648,-2.27932,0.677355,0.6247050000000001,-2.38093,46.0923,22.1884,-53.5325,0.19666,-0.0561588,-0.00759963,272.9,3.9,52.1701,4.42719,3.6,0.923655,188.112,4.49301,165.077,81.7047,156.83100000000002,0.705343,-0.240217,241.913,1.00694,1.41288,-1.78016662597656,22.0025119781494,-35.0,22.0,-1003290.0,646.054,pp-ro,1,1,-1,-1
1570534596.6,2019-10-08,13:36:36.600,14.0,10.0,15.5699996948242,12.0,-6.8,-2.0,46.3,19.0,-53.8,12.6182,-7.25992,-2.08855,1.89015,-1.58438,4.20871,46.0867,22.0254,-53.9648,-0.114994,-0.0408329,-0.0723478999999999,272.9,3.9,52.1701,4.4272,3.7,0.922547,182.889,4.49306,164.37599999999998,82.8447,157.031,0.706288,-0.2474829999999999,241.953,1.01179,1.42966,-3.8846206665039102,22.0025119781494,-35.0,22.0,-1003120.0,2091.99,pp-ro,1,1,-1,-1
1570534596.7,2019-10-08,13:36:36.700,14.0,10.0,15.6800003051758,12.2,-6.9,-1.8,46.7,18.4,-53.9,12.6509,-7.2403,-2.0334,1.97324,0.9366,-0.8986770000000001,46.2484,21.8954,-54.0905,-0.0226773,0.0788187,-0.0433121,272.9,3.9,52.1701,4.4272,3.7,0.902046,174.81400000000002,4.49311,163.675,83.9847,157.131,0.706892,-0.254784,241.936,1.02276,1.44729,-6.00102233886719,22.0025119781494,-35.0,22.0,-1002920.0,1815.1,pp-ro,1,1,-1,-1
