time,date,time_of_day,airspeed_temperature,airspeed_angle_of_attack,airspeed_apparent_windspeed,kite_0_vx,kite_0_vy,kite_0_vz,kite_0_roll,kite_0_pitch,kite_0_yaw,kite_1_vx,kite_1_vy,kite_1_vz,kite_1_ax,kite_1_ay,kite_1_az,kite_1_roll,kite_1_pitch,kite_1_yaw,kite_1_roll_rate,kite_1_pitch_rate,kite_1_yaw_rate,ground_upwind_direction,ground_wind_velocity,ground_pos_latitude,ground_pos_longitude,ground_pos_altitude,ground_tether_reelout_speed,ground_tether_force,est_upwind_direction,kite_pos_east,kite_pos_north,kite_height,kite_elevation,kite_azimuth,kite_distance,kite_heading,kite_course,kite_actual_steering,kite_actual_depower,kite_set_steering,kite_set_depower,ground_mech_energy,ground_mech_power,flight_phase,flight_phase_index,phase,pattern,pattern_section
1570538046.4,2019-10-08,14:34:06.400,15.0,9.0,15.6000003814697,10.3,-3.6,1.8,16.5,-1.1,-70.7,8.02842,-3.56293,2.00521,9.8776,6.59628,1.99628,17.4687,13.3002,-77.5517,0.136777,0.1072,0.765992,254.4,4.4,52.17,4.427219999999999,0.8,-1.96533,108.046,4.3361,60.8978,8.36068,238.858,1.31892,0.239852,246.641,0.48872,1.41783,-33.9785003662109,22.030834197998,-35.0,22.0,-619080.0,-922.935,pp-riro,4,0,-1,-1
1570538046.5,2019-10-08,14:34:06.500,15.0,8.0,15.4300003051758,11.4,-2.8,2.0,18.3,-2.5,-65.7,10.1027,-2.12208,2.49014,9.9953,8.31024,4.14458,21.4801,11.8244,-66.6843,0.232034,0.152926,0.876856,254.4,4.4,52.17,4.427219999999999,0.8,-1.9548,108.421,4.336130000000001,60.5765,9.88074,238.658,1.31908,0.214587,246.424,0.6069859999999999,1.53655,-34.6407165527344,22.0092067718506,-35.0,22.0,-619154.0,-1322.87,pp-riro,4,0,-1,-1
1570538046.6,2019-10-08,14:34:06.600,15.0,8.0,15.1999998092651,12.5,-1.8,2.3,20.5,-3.9,-60.6,11.088,-1.23436,2.81011,9.80684,10.3039,3.80664,23.4722,10.800999999999998,-61.0737,0.201032,0.201667,1.0061,254.4,4.4,52.17,4.427219999999999,0.8,-1.92045,106.06,4.33616,60.3136,10.6408,238.558,1.31949,0.201605,246.294,0.714776,1.6465900000000002,-34.903564453125,22.0009689331055,-35.0,22.0,-619230.0,-738.3480000000001,pp-riro,4,0,-1,-1
1570538046.7,2019-10-08,14:34:06.700,15.0,8.0,14.9700002670288,13.4,-0.8,2.7,22.0,-5.4,-55.5,12.0089,-0.280779,3.16194,6.46592,8.54244,4.94159,25.4564,9.4532,-55.292,0.148301,0.195719,0.942667,254.4,4.4,52.17,4.427219999999999,0.8,-1.89884,101.967,4.33619,60.1675,11.7808,238.458,1.31914,0.182849,246.21400000000003,0.829111,1.7496900000000002,-34.970123291015604,22.0009689331055,-35.0,22.0,-619488.0,-3107.21,pp-riro,4,0,-1,-1
1570538046.8,2019-10-08,14:34:06.800,15.0,8.0,14.789999961853,14.2,0.1,3.0,23.8,-7.0,-50.5,13.1749,1.21412,3.79222,5.90674,8.976569999999999,3.77816,28.0247,6.98787,-46.7041,0.106047,0.177955,0.968322,254.4,4.4,52.17,4.427219999999999,0.6,-1.8982900000000005,100.243,4.33621,60.1383,13.3009,238.258,1.3178299999999998,0.1585099999999999,246.09,0.947969,1.83966,-34.970123291015604,22.0009689331055,-35.0,22.0,-619897.0,-4214.73,pp-riro,4,0,-1,-1
1570538046.9,2019-10-08,14:34:06.900,15.0,9.0,14.6700000762939,15.0,1.3,3.4,25.3,-8.7,-45.2,13.8786,2.28441,4.17007,4.80461,11.6856,3.943,29.7028,5.10508,-41.0696,0.0776176,0.199796,0.949726,254.4,4.4,52.17,4.427219999999999,0.6,-1.90494,99.9696,4.33624,60.1675,14.8209,238.058,1.31615,0.134644,245.991,1.07204,1.94211,-34.982086181640604,22.0009689331055,-35.0,22.0,-620397.0,-4830.02,pp-riro,4,0,-1,-1
1570538047.0,2019-10-08,14:34:07.000,15.0,8.0,14.4799995422363,15.7,2.3,3.8,26.7,-10.3,-40.2,13.8786,2.28441,4.17007,4.80461,11.6856,3.943,29.7028,5.10508,-41.0696,0.0776176,0.199796,0.949726,254.4,4.4,52.17,4.427219999999999,0.6,-1.90826,99.2723,4.33627,60.3135,15.961,237.858,1.31428,0.117414,245.904,1.18359,2.01815,-34.9923248291016,22.0009689331055,-35.0,22.0,-620861.0,-5014.61,pp-riro,4,0,-1,-1
1570538047.1,2019-10-08,14:34:07.100,15.0,8.0,14.4200000762939,16.3,3.5,4.3,27.8,-12.4,-34.9,14.2193,2.7949,4.3884300000000005,7.144939999999999,9.04753,2.64705,30.4237,4.11594,-38.2771,0.120563,0.207913,1.03657,254.4,4.4,52.17,4.427219999999999,0.6,-1.921,98.9039,4.3363,60.6056,17.861,237.558,1.31085,0.0894917,245.817,1.31326,2.11198,-34.9923248291016,22.0009689331055,-35.0,22.0,-621422.0,-5568.37,pp-riro,4,0,-1,-1
1570538047.2,2019-10-08,14:34:07.200,15.0,8.0,14.3000001907349,16.7,4.7,4.7,28.7,-14.2,-29.7,15.027,4.35697,5.07421,3.00016,11.2999,3.79774,32.1572,1.03785,-29.8322,0.116329,0.1479859999999999,1.00945,252.7,4.4,52.17,4.427219999999999,0.6,-1.93707,98.1354,4.33633,60.9853,19.3811,237.258,1.30736,0.0683534,245.736,1.43261,2.19472,-34.9940185546875,22.0009689331055,-35.0,22.0,-621975.0,-5599.14,pp-riro,4,0,-1,-1
1570538047.3,2019-10-08,14:34:07.300,15.0,9.0,14.3000001907349,17.1,6.0,5.2,29.5,-16.3,-24.3,15.3717,5.52082,5.48618,2.13964,10.3978,4.82402,32.9814,-1.17467,-24.1283,0.157666,0.155105,0.992125,252.7,4.4,52.17,4.427219999999999,0.6,-1.94871,95.7902,4.33636,61.4818,21.2812,236.858,1.30273,0.042799,245.631,1.56069,2.28225,-34.9957275390625,22.0009689331055,-35.0,22.0,-622585.0,-6275.96,pp-riro,4,0,-1,-1
1570538047.4,2019-10-08,14:34:07.400,15.0,8.0,14.3000001907349,17.3,7.3,5.7,30.0,-18.5,-18.9,15.807,7.30226,6.11035,1.89135,10.1292,5.00122,33.8861,-4.7262900000000005,-15.6966,0.0212447,0.23893,0.990389,252.7,4.4,52.17,4.427219999999999,0.6,-2.0007900000000003,92.4333,4.33639,62.1535,22.8012,236.458,1.29781,0.0244048,245.551,1.6815099999999998,2.36151,-34.9991455078125,22.0009689331055,-35.0,22.0,-623638.0,-7844.94,pp-riro,4,0,-1,-1
1570538047.5,2019-10-08,14:34:07.500,15.0,9.0,14.3000001907349,17.4,8.6,6.0,30.3,-20.5,-13.4,15.807,7.30226,6.11035,1.89135,10.1292,5.00122,33.8861,-4.7262900000000005,-15.6966,0.0212447,0.23893,0.990389,252.7,4.4,52.17,4.427219999999999,0.6,-2.02351,94.8691,4.33642,62.8837,24.7013,235.958,1.29193,0.0016918,245.44,1.80618,2.44058,-34.9974365234375,22.0009689331055,-35.0,22.0,-624054.0,-8029.53,pp-riro,4,0,-1,-1
1570538047.6,2019-10-08,14:34:07.600,15.0,9.0,14.359999656677198,17.5,9.9,6.6,30.4,-22.3,-7.6,15.9301,8.46256,6.53659,0.416966,10.8918,5.0722,33.9099,-6.90256,-9.94213,0.0372863,0.19177,0.982798,252.7,4.4,52.17,4.427219999999999,0.6,-2.05398,100.359,4.33645,63.7891,26.2214,235.358,1.28574,-0.0140533,245.255,1.92679,2.51134,-34.9974365234375,22.0009689331055,-35.0,22.0,-624753.0,-6275.96,pp-riro,4,0,-1,-1
1570538047.7,2019-10-08,14:34:07.700,15.0,9.0,14.4799995422363,17.4,11.2,7.1,30.2,-24.3,-1.5,15.9209,9.05801,6.73232,1.18548,10.9949,4.17563,33.7763,-7.989889999999999,-7.088589999999999,0.2128929999999999,0.269609,1.047,252.7,4.4,52.17,4.427219999999999,0.6,-2.0550900000000003,103.014,4.33648,64.8697,28.1214,234.758,1.27826,-0.0331449,245.174,2.05503,2.58538,-35.0042724609375,22.0009689331055,-35.0,22.0,-625084.0,-2922.63,pp-riro,4,0,-1,-1
1570538047.8,2019-10-08,14:34:07.800,15.0,10.0,14.7200002670288,17.2,12.7,7.6,29.6,-26.1,4.3,15.7317,12.0787,7.85102,-2.08492,10.1581,5.4946,32.4052,-12.8228,8.18651,0.189468,0.294401,1.06866,252.7,4.4,52.17,4.427219999999999,0.3,-2.04013,108.673,4.33651,66.0088,29.6415,234.058,1.2709700000000002,-0.0461878,244.988,2.17001,2.65954,-35.0059814453125,22.0009689331055,-35.0,22.0,-625526.0,-676.819,pp-riro,4,0,-1,-1
1570538047.9,2019-10-08,14:34:07.900,15.0,10.0,14.960000038147,17.0,14.0,8.1,29.1,-27.9,10.5,15.7317,12.0787,7.85102,-2.08492,10.1581,5.4946,32.4052,-12.8228,8.18651,0.189468,0.294401,1.06866,252.7,4.4,52.17,4.427219999999999,0.3,-2.02794,112.155,4.33654,67.2647,31.5416,233.358,1.26258,-0.0626254,244.899,2.29265,2.72606,-35.0042724609375,22.0009689331055,-35.0,22.0,-625506.0,399.9380000000001,pp-riro,4,0,-1,-1
1570538048.0,2019-10-08,14:34:08.000,15.0,10.0,15.2600002288818,16.6,15.4,8.6,27.9,-29.5,16.9,15.3181,13.9545,8.52928,-1.87779,12.1599,5.35604,30.8544,-15.4323,17.6887,0.0758215,0.317938,1.11402,252.7,4.4,52.17,4.427219999999999,0.3,-1.97087,120.01,4.33657,68.6958,33.0617,232.558,1.25401,-0.0727381999999999,244.736,2.40973,2.7919400000000003,-35.0059814453125,22.0009689331055,-23.0044822692871,22.0,-625319.0,2338.1,pp-riro,4,0,-1,-1
1570538048.1,2019-10-08,14:34:08.100,15.0,10.0,15.539999961853,16.1,16.8,9.2,27.0,-30.9,23.4,14.9699,15.2412,9.00784,-4.27688,11.9733,5.45709,29.3888,-16.9264,24.392,0.156608,0.356807,1.0425799999999998,252.7,4.4,52.17,4.427219999999999,0.3,-1.87668,130.787,4.3366,70.273,34.9618,231.758,1.24425,-0.0858702,244.689,2.52823,2.86033,-35.0042724609375,22.0009689331055,-23.0044822692871,22.0,-624770.0,7075.83,pp-riro,4,0,-1,-1
1570538048.2,2019-10-08,14:34:08.200,15.0,11.0,15.880000114440902,15.4,18.3,9.8,25.5,-32.2,30.2,14.3915,16.5346,9.54399,-7.33834,15.3149,4.85422,27.9179,-18.3132,31.0786,0.0627345,0.335725,0.998728,248.6,4.9,52.17,4.427219999999999,0.3,-1.7281799999999998,141.187,4.33663,71.967,36.4818,230.858,1.23456,-0.0934129,244.552,2.64388,2.92829,-34.9462280273438,22.0009689331055,-22.4581356048584,22.0,-623841.0,10090.8,pp-riro,4,0,-1,-1
1570538048.3,2019-10-08,14:34:08.300,15.0,11.0,16.1000003814697,14.5,19.8,10.3,23.8,-33.5,37.2,14.0738,17.1915,9.7738,-8.664489999999999,11.1843,4.59367,26.94,-18.9198,34.4988,0.147971,0.265835,1.06006,248.6,4.9,52.17,4.427219999999999,0.3,-1.54589,147.966,4.33669,73.8654,38.3819,229.858,1.22334,-0.103523,244.467,2.76271,3.00051,-34.5161285400391,22.0009689331055,-21.8186168670654,22.0,-622676.0,12213.5,pp-riro,4,0,-1,-1
1570538048.4,2019-10-08,14:34:08.400,15.0,10.0,16.4300003051758,14.0,20.4,10.5,23.0,-33.9,40.6,13.328,18.5153,10.2999,-8.59212,14.3448,4.91523,25.2072,-20.2585,41.2141,0.0641484,0.247286,1.0570700000000002,248.6,4.9,52.17,4.427219999999999,0.3,-1.30874,154.239,4.33671,74.8,38.7619,229.358,1.21878,-0.102432,244.342,2.81382,3.02794,-33.7224731445312,22.0009689331055,-21.447229385376,22.0,-621443.0,12213.5,pp-riro,4,0,-1,-1
1570538048.5,2019-10-08,14:34:08.500,15.0,10.0,16.7999992370605,12.3,22.3,11.1,20.0,-35.0,51.7,11.4202,20.9345,11.0325,-11.8544,13.2675,3.09603,21.1386,-22.5619,54.6363,0.105548,0.102946,0.948928,248.6,4.9,52.17,4.427219999999999,0.3,-1.06384,162.382,4.33676,78.042,40.6621,227.658,1.20194,-0.104694,244.074,2.98291,3.11983,-32.5772399902344,22.0009689331055,-20.4805297851562,22.0,-620284.0,11444.4,pp-riro,4,0,-1,-1
1570538048.6,2019-10-08,14:34:08.600,15.0,10.0,17.0599994659424,11.8,22.9,11.2,19.0,-35.4,55.3,11.4202,20.9345,11.0325,-11.8544,13.2675,3.09603,21.1386,-22.5619,54.6363,0.105548,0.102946,0.948928,248.6,4.9,52.17,4.427219999999999,0.3,-0.7574310000000001,169.407,4.3368,79.181,41.8021,227.158,1.19533,-0.11015,244.168,3.04094,3.15072,-31.0820922851562,22.0009689331055,-20.3537883758545,22.0,-619264.0,9598.52,pp-riro,4,0,-1,-1
1570538048.7,2019-10-08,14:34:08.700,15.0,10.0,17.370000839233402,10.4,23.8,11.5,16.7,-36.0,62.3,11.4202,20.9345,11.0325,-11.8544,13.2675,3.09603,21.1386,-22.5619,54.6363,0.105548,0.102946,0.948928,248.6,4.9,52.17,4.427219999999999,0.3,-0.252107,172.68599999999998,4.3368400000000005,81.4592,42.9422,226.058,1.18397,-0.10959,244.094,3.143,3.20852,-29.2285461425781,22.0009689331055,-19.7609691619873,22.0,-618416.0,3445.62,pp-riro,4,0,-1,-1
1570538048.8,2019-10-08,14:34:08.800,15.0,10.0,17.6200008392334,9.0,24.6,11.5,14.1,-35.7,69.3,8.404110000000001,23.2695,11.5496,-10.5476,4.70909,-0.389938,15.2005,-24.8195,71.2735,-0.0452239,0.231359,0.901504,248.6,4.9,52.17,4.42721,0.3,-0.087545,171.575,4.336880000000001,83.8542,43.7022,224.958,1.17288,-0.104931,244.024,3.24084,3.26033,-27.1257934570312,22.0009689331055,-19.1733837127686,22.0,-618361.0,1045.99,pp-riro,4,0,-1,-1
1570538048.9,2019-10-08,14:34:08.900,15.0,9.0,17.770000457763697,7.5,25.2,11.5,11.8,-35.3,75.9,7.755339999999999,23.5943,11.557,-14.5094,5.40497,3.39312,14.1862,-25.0901,74.2981,-0.138263,0.246359,1.02046,248.6,4.9,52.17,4.42721,0.3,0.222741,168.352,4.33692,86.3952,44.4623,223.758,1.16113,-0.0998226,243.944,3.33255,3.31187,-25.0401077270508,22.0009689331055,-18.6361827850342,22.0,-618608.0,-3537.92,pp-riro,4,0,-1,-1
1570538049.0,2019-10-08,14:34:09.000,15.0,8.0,17.8700008392334,6.2,25.5,11.4,9.7,-34.9,82.2,5.90568,24.2753,11.4452,-11.2644,4.06192,-0.8749379999999999,10.9044,-25.5491,83.3415,-0.0236037,0.217252,0.853201,248.6,4.9,52.17,4.42721,0.3,0.339098,166.52599999999998,4.33696,88.9362,45.6024,222.658,1.14888,-0.0983733999999999,244.061,3.42289,3.3570800000000003,-23.1575317382812,22.0009689331055,-18.3868179321289,22.0,-618578.0,3845.56,pp-riro,4,0,-1,-1
1570538049.1,2019-10-08,14:34:09.100,15.0,8.0,17.9200000762939,4.9,25.8,11.5,7.3,-34.0,88.0,4.67721,24.4599,11.5081,-12.776,2.97323,4.47046,8.92045,-25.3586,88.9168,0.00386029,0.154606,0.834147,248.6,4.9,52.17,4.42721,0.3,0.3163809999999999,187.465,4.33701,91.4772,45.9824,221.558,1.13792,-0.090394,244.071,3.50215,3.3957900000000003,-22.310974121093803,22.0009689331055,-18.0257873535156,22.0,-618611.0,-2276.57,pp-riro,4,0,-1,-1
1570538049.2,2019-10-08,14:34:09.200,15.0,9.0,18.020000457763697,3.5,26.0,11.8,5.5,-33.1,93.7,3.4211400000000003,24.7041,11.6916,-11.3973,2.27426,3.81473,6.60191,-24.6887,94.2304,-0.0601924,0.332545,0.917561,256.6,4.5,52.17,4.42721,0.3,0.357383,197.148,4.33705,94.1642,46.3625,220.358,1.12628,-0.0821733,244.078,3.58029,3.43591,-20.5137405395508,22.0009689331055,-17.6965255737305,22.0,-618599.0,215.351,pp-riro,4,0,-1,-1
1570538049.3,2019-10-08,14:34:09.300,15.0,10.0,18.0599994659424,2.2,26.2,11.8,3.4,-31.9,98.7,3.4211400000000003,24.7041,11.6916,-11.3973,2.27426,3.81473,6.60191,-24.6887,94.2304,-0.0601924,0.332545,0.917561,256.6,4.5,52.17,4.42721,0.3,0.339652,204.449,4.33715,96.7052,46.7425,219.258,1.1152799999999998,-0.0750041,244.154,3.65099,3.4746300000000003,-19.3838500976562,22.0009689331055,-17.4134941101074,22.0,-618488.0,922.935,pp-riro,4,0,-1,-1
1570538049.4,2019-10-08,14:34:09.400,15.0,10.0,18.2600002288818,0.9,26.2,11.7,1.3,-30.9,103.8,3.4211400000000003,24.7041,11.6916,-11.3973,2.27426,3.81473,6.60191,-24.6887,94.2304,-0.0601924,0.332545,0.917561,256.6,4.5,52.17,4.42721,0.3,0.364032,209.24400000000003,4.33726,99.4507,47.1226,218.058,1.10341,-0.0673634999999999,244.255,3.72243,3.5125300000000004,-18.5031585693359,22.0009689331055,-17.2191848754883,22.0,-618484.0,123.058,pp-riro,4,0,-1,-1
1570538049.5,2019-10-08,14:34:09.500,15.0,10.0,18.3500003814697,-0.4,26.5,11.8,-0.8,-29.6,108.0,1.5578299999999998,24.9153,11.6105,-9.2169,-4.58173,-0.38656,3.04679,-23.41,102.118,-0.209921,0.177197,0.700709,256.6,4.5,52.17,4.42721,0.3,0.390074,233.538,4.3374,102.109,47.1226,216.858,1.0924,-0.0573800999999999,244.283,3.78104,3.54803,-17.835807800293,22.0009689331055,-16.980768203735398,22.0,-618413.0,0.0,pp-riro,4,0,-1,-1
1570538049.6,2019-10-08,14:34:09.600,15.0,10.0,18.5400009155273,-1.7,26.6,11.9,-2.3,-28.3,111.7,-1.14128,25.5132,11.6918,-13.1708,-0.13797,-0.983644,-1.27495,-21.884,110.416,-0.148981,0.113251,0.686723,256.6,4.5,52.17,4.42721,0.3,0.4133449999999999,242.827,4.33747,104.796,46.7427,215.658,1.08182,-0.044638,244.286,3.83083,3.5799800000000004,-17.3647384643555,22.0009689331055,-16.7381324768066,22.0,-618411.0,30.7645,pp-riro,4,0,-1,-1
1570538049.7,2019-10-08,14:34:09.700,15.0,11.0,18.729999542236303,-3.0,26.6,11.9,-4.9,-27.3,115.8,-1.75863,25.5012,11.7106,-14.349,-0.436281,1.68502,-2.66841,-21.3073,112.397,-0.0951475,0.033747,0.398782,256.6,4.5,52.17,4.42721,0.3,0.441604,260.175,4.33758,107.453,46.7427,214.458,1.07072,-0.0355056999999999,244.384,3.88811,3.61535,-17.0472793579102,22.0009689331055,-16.600885391235398,22.0,-618358.0,646.054,pp-riro,4,0,-1,-1
1570538049.8,2019-10-08,14:34:09.800,15.0,12.0,19.1100006103516,-4.4,26.7,12.0,-6.8,-26.1,119.2,-3.01515,25.461,11.7117,-7.704,4.256469999999999,-0.90989,-5.186030000000001,-20.5261,116.251,-0.279947,0.0393164,0.7724479999999999,256.6,4.5,52.17,4.427219999999999,0.4,0.469862,274.56,4.33769,110.14,46.3628,213.258,1.06004,-0.0237266,244.458,3.93472,3.65034,-16.7861404418945,22.0009689331055,-16.406230926513697,22.0,-618308.0,584.525,pp-riro,4,0,-1,-1
1570538049.9,2019-10-08,14:34:09.900,15.0,12.0,19.520000457763697,-5.9,26.7,12.1,-9.0,-24.4,122.8,-4.41448,25.635,11.6864,-15.0187,1.31646,0.221502,-7.82839,-19.6518,119.752,-0.233571,0.181441,0.524666,256.6,4.5,52.17,4.427219999999999,0.4,0.495904,294.652,4.33779,112.944,45.9828,211.858,1.04851,-0.0120408999999999,244.448,3.98829,3.687980000000001,-16.5642623901367,22.0009689331055,-16.2724494934082,22.0,-618235.0,615.29,pp-riro,4,0,-1,-1
1570538050.0,2019-10-08,14:34:10.000,15.0,12.0,20.0100002288818,-7.3,26.6,12.3,-11.0,-23.3,126.2,-6.567880000000001,25.4967,11.8292,-13.1884,-4.06395,0.954458,-11.9289,-17.819000000000003,124.775,-0.386198,0.177488,0.59326,256.6,4.5,52.17,4.427219999999999,0.4,0.559623,330.60900000000004,4.3379,115.661,45.6028,210.558,1.03742,-0.00107814,244.524,4.035830000000001,3.72161,-16.325309753418,22.0009689331055,-16.2513313293457,22.0,-618142.0,830.6410000000001,pp-riro,4,0,-1,-1
1570538050.1,2019-10-08,14:34:10.100,15.0,12.0,20.5300006866455,-8.7,26.1,12.2,-13.1,-21.8,129.7,-6.567880000000001,25.4967,11.8292,-13.1884,-4.06395,0.954458,-11.9289,-17.819000000000003,124.775,-0.386198,0.177488,0.59326,256.6,4.5,52.17,4.427219999999999,0.4,0.580124,342.305,4.33801,118.289,44.4629,209.158,1.02731,0.0148379,244.37,4.084219999999999,3.755230000000001,-16.1973037719727,22.0009689331055,35.0,22.0,-618112.0,615.29,pp-riro,4,0,-1,-1
1570538050.2,2019-10-08,14:34:10.200,15.0,11.0,21.0400009155273,-10.2,25.7,12.1,-15.1,-20.7,133.2,-6.567880000000001,25.4967,11.8292,-13.1884,-4.06395,0.954458,-11.9289,-17.819000000000003,124.775,-0.386198,0.177488,0.59326,251.3,3.9,52.17,4.427219999999999,0.4,0.62168,361.829,4.33811,121.006,43.3229,207.658,1.01657,0.0304700999999999,244.215,4.1300300000000005,3.79177,-16.2058410644531,22.0009689331055,35.0,22.0,-617993.0,1630.52,pp-riro,4,0,-1,-1
1570538050.3,2019-10-08,14:34:10.300,15.0,11.0,21.5799999237061,-11.7,25.2,11.8,-16.8,-19.3,136.3,-6.567880000000001,25.4967,11.8292,-13.1884,-4.06395,0.954458,-11.9289,-17.819000000000003,124.775,-0.386198,0.177488,0.59326,251.3,3.9,52.17,4.427219999999999,0.4,1.34199,377.21,4.33818,123.576,42.5629,206.258,1.00598,0.0425065,244.182,4.17585,3.83419,-16.113670349121097,22.0019989013672,35.0,22.0,-621759.0,-31441.3,pp-riro,4,0,-1,-1
1570538050.4,2019-10-08,14:34:10.400,15.0,11.0,21.9799995422363,-12.7,24.4,11.1,-17.9,-18.1,139.2,-9.38056,24.7575,11.7582,-13.0135,-7.46571,-2.05367,-17.0711,-15.5447,131.38299999999998,-0.0146877,0.0937965,0.7293649999999999,251.3,3.9,52.17,4.427219999999999,0.4,1.22175,358.851,4.33825,126.088,41.0429,204.958,0.996562,0.0594809999999999,244.112,4.213419999999999,3.86539,-15.7825546264648,22.0019989013672,35.0,22.0,-619349.0,26826.6,pp-riro,4,0,-1,-1
1570538050.5,2019-10-08,14:34:10.500,15.0,9.0,22.260000228881804,-13.7,23.5,10.6,-18.9,-16.7,141.7,-12.0226,23.5472,10.9533,-17.6565,-8.9937,-7.67012,-20.8077,-13.14,137.549,0.0290828,0.043869,0.0861446,251.3,3.9,52.17,4.427219999999999,0.4,1.12091,356.271,4.33831,128.57,39.9029,203.558,0.986495,0.0731411999999999,244.046,4.24996,3.89958,-14.7806777954102,22.0019989013672,35.0,22.0,-619165.0,3660.97,pp-riro,4,0,-1,-1
1570538050.6,2019-10-08,14:34:10.600,15.0,9.0,22.4200000762939,-14.7,22.5,10.5,-19.5,-16.2,144.5,-13.5634,22.0145,10.3379,-17.1149,-14.0507,-4.74288,-22.4769,-12.2435,141.727,-0.199165,-0.320263,0.356621,251.3,3.9,52.17,4.427219999999999,0.4,1.30542,383.945,4.33838,130.84799999999998,38.7629,202.358,0.977463,0.0860006,244.075,4.283519999999999,3.93166,-13.5808181762695,22.0025119781494,35.0,22.0,-619896.0,-492.232,pp-riro,4,0,-1,-1
1570538050.7,2019-10-08,14:34:10.700,15.0,10.0,22.5400009155273,-15.5,21.8,10.0,-20.1,-14.5,146.7,-14.0489,21.5372,10.3089,-13.0933,-18.5568,-5.50315,-22.8176,-12.0421,143.35,-0.110121,-0.1292029999999999,0.135687,251.3,3.9,52.17,4.427219999999999,0.4,1.25832,400.022,4.33845,133.06799999999998,36.8629,201.158,0.96924,0.103728,243.989,4.31588,3.95646,-12.4475173950195,22.0025119781494,35.0,22.0,-619053.0,5076.14,pp-riro,4,0,-1,-1
1570538050.8,2019-10-08,14:34:10.800,15.0,9.0,22.649999618530305,-16.2,21.0,10.0,-20.2,-14.0,149.0,-14.0489,21.5372,10.3089,-13.0933,-18.5568,-5.50315,-22.8176,-12.0421,143.35,-0.110121,-0.1292029999999999,0.135687,251.3,3.9,52.17,4.427219999999999,0.7,1.30486,402.187,4.33852,135.22899999999998,35.3429,200.058,0.960973,0.118237,244.048,4.3411,3.97592,-10.6263885498047,22.0025119781494,35.0,22.0,-618537.0,8306.41,pp-riro,4,0,-1,-1
1570538050.9,2019-10-08,14:34:10.900,15.0,10.0,22.690000534057603,-16.8,20.6,9.9,-20.8,-12.8,150.7,-15.1282,20.2836,9.8018,-6.13446,-4.87978,2.21877,-23.551,-10.6524,147.335,0.0577241999999999,-0.180108,0.438849,251.3,3.9,52.17,4.427219999999999,0.7,1.29711,407.899,4.33858,137.274,33.4429,198.958,0.953295,0.13484,244.022,4.36299,3.98666,-8.52876281738281,22.0025119781494,35.0,22.0,-618138.0,2030.46,pp-riro,4,0,-1,-1
1570538051.0,2019-10-08,14:34:11.000,15.0,10.0,22.7299995422363,-17.0,20.1,10.1,-21.2,-12.2,152.6,-15.1282,20.2836,9.8018,-6.13446,-4.87978,2.21877,-23.551,-10.6524,147.335,0.0577241999999999,-0.180108,0.438849,251.3,3.9,52.17,4.427219999999999,0.7,1.31539,409.909,4.33865,139.319,31.9229,197.758,0.944967,0.148492,244.002,4.38436,3.9858,-6.42601013183594,22.0025119781494,35.0,22.0,-617681.0,6060.6,pp-riro,4,0,-1,-1
1570538051.1,2019-10-08,14:34:11.100,15.0,10.0,22.7299995422363,-17.1,19.8,10.1,-22.0,-11.7,153.8,-16.5734,19.1576,9.69378,-1.7576599999999998,-2.22776,4.08056,-24.7161,-10.0365,153.059,-0.0461513,-0.0985737,0.238832,251.3,3.9,52.17,4.427219999999999,0.7,1.30819,410.298,4.33872,141.363,30.0229,196.558,0.936813,0.164401,243.967,4.39314,3.9804,-4.318145751953121,22.0025119781494,35.0,22.0,-617383.0,5845.25,pp-riro,4,0,-1,-1
1570538051.2,2019-10-08,14:34:11.200,15.0,10.0,22.760000228881804,-17.2,19.4,10.5,-23.2,-11.9,154.8,-16.5734,19.1576,9.69378,-1.7576599999999998,-2.22776,4.08056,-24.7161,-10.0365,153.059,-0.0461513,-0.0985737,0.238832,250.7,3.6,52.17,4.427219999999999,0.7,1.31428,410.232,4.33878,143.291,28.5029,195.458,0.92892,0.177252,244.026,4.39458,3.97293,-2.2034454345703103,22.0019989013672,35.0,22.0,-616672.0,5506.84,pp-riro,4,0,-1,-1
1570538051.3,2019-10-08,14:34:11.300,15.0,11.0,22.8400001525879,-16.8,19.4,10.8,-23.8,-12.3,155.0,-16.8051,18.9134,9.78529,-6.2510900000000005,-1.97144,-1.98642,-25.3583,-10.972,155.099,-0.110431,-0.333161,0.267241,250.7,3.6,52.17,4.427219999999999,0.7,1.30376,400.554,4.33882,145.189,26.6029,194.258,0.921023,0.192368,243.975,4.38109,3.94489,-0.1109390258789059,22.0019989013672,35.0,22.0,-616104.0,5937.55,pp-riro,4,0,-1,-1
1570538051.4,2019-10-08,14:34:11.400,15.0,11.0,22.8400001525879,-16.3,19.4,10.9,-25.1,-13.0,154.4,-17.0604,18.7925,10.1288,0.0638308,0.355129,2.3559900000000003,-26.3597,-11.8539,156.332,-0.0135668999999999,-0.269376,0.137735,250.7,3.6,52.17,4.427219999999999,0.7,1.29267,393.494,4.33886,147.059,25.0829,193.058,0.912904,0.204592,243.981,4.35581,3.91932,1.99778747558594,22.0019989013672,35.0,22.0,-615758.0,6399.01,pp-riro,4,0,-1,-1
1570538051.5,2019-10-08,14:34:11.500,15.0,12.0,22.8400001525879,-16.2,19.5,11.7,-26.1,-13.8,153.5,-17.0604,18.7925,10.1288,0.0638308,0.355129,2.3559900000000003,-26.3597,-11.8539,156.332,-0.0135668999999999,-0.269376,0.137735,250.7,3.6,52.17,4.427219999999999,0.7,1.26663,386.924,4.3389,148.957,23.1829,191.858,0.904812,0.219097,243.998,4.32372,3.89113,4.101165771484379,22.0019989013672,35.0,22.0,-615176.0,5076.14,pp-riro,4,0,-1,-1
1570538051.6,2019-10-08,14:34:11.600,15.0,12.0,22.600000381469695,-15.6,20.0,12.6,-27.1,-15.7,151.9,-16.6206,19.3781,11.5982,1.80287,-2.1551,6.722919999999999,-29.6561,-15.389,155.968,-0.185604,-0.246519,-0.327226,250.7,3.6,52.17,4.427219999999999,0.7,1.29766,410.1230000000001,4.33893,150.914,22.0429,190.558,0.895835,0.2284179999999999,244.076,4.275,3.84602,6.20454406738281,22.0019989013672,35.0,22.0,-614665.0,2830.33,pp-riro,4,0,-1,-1
1570538051.7,2019-10-08,14:34:11.700,15.0,12.0,22.5200004577637,-14.9,20.4,13.6,-28.1,-18.1,149.5,-16.6206,19.3781,11.5982,1.80287,-2.1551,6.722919999999999,-29.6561,-15.389,155.968,-0.185604,-0.246519,-0.327226,250.7,3.6,52.17,4.427219999999999,0.7,1.31595,418.875,4.33897,152.871,20.523000000000003,189.158,0.886727,0.239965,244.073,4.20894,3.79726,8.31984710693359,22.0019989013672,35.0,22.0,-614521.0,2922.63,pp-riro,4,0,-1,-1
1570538051.8,2019-10-08,14:34:11.800,15.0,14.0,22.280000686645497,-14.3,20.8,14.9,-28.8,-21.0,147.2,-15.7752,20.5948,13.7801,6.85927,7.77677,16.6635,-32.1253,-21.449,153.231,-0.268821,-0.319845,-0.427347,250.7,3.6,52.17,4.427219999999999,1.0,1.35473,437.55,4.33901,154.857,18.623,187.658,0.877346,0.253696,244.014,4.13813,3.74718,10.428337097168,22.003026962280305,35.0,22.0,-614118.0,4983.85,pp-riro,4,0,-1,-1
1570538051.9,2019-10-08,14:34:11.900,15.0,13.0,22.1599998474121,-12.8,21.5,16.2,-28.9,-24.5,144.4,-15.7752,20.5948,13.7801,6.85927,7.77677,16.6635,-32.1253,-21.449,153.231,-0.268821,-0.319845,-0.427347,250.7,3.6,52.17,4.427219999999999,1.0,1.37025,450.534,4.33905,156.989,17.483,185.958,0.8666290000000001,0.262435,243.991,4.05943,3.67294,12.5197982788086,22.003026962280305,35.0,22.0,-613715.0,3137.98,pp-riro,4,0,-1,-1
1570538052.0,2019-10-08,14:34:12.000,15.0,14.0,22.1599998474121,-11.4,22.1,17.3,-28.3,-28.0,140.6,-14.3861,21.6724,15.9875,17.5309,10.3378,20.1259,-32.7716,-26.7266,149.488,-0.157383,-0.276815,-0.634212,250.7,3.6,52.17,4.427219999999999,1.0,1.37246,444.226,4.33908,159.063,15.963,184.258,0.856174,0.273283,243.94,3.96764,3.60543,14.635101318359402,22.0025119781494,35.0,22.0,-612719.0,8583.29,pp-riro,4,0,-1,-1
1570538052.1,2019-10-08,14:34:12.100,15.0,13.0,22.1200008392334,-9.6,22.4,18.4,-27.4,-31.6,136.1,-13.0772,22.5098,17.3771,17.1388,5.91231,17.0778,-32.9096,-31.4752,146.6,-0.264492,-0.145092,-0.759717,250.7,3.6,52.17,4.427219999999999,1.0,1.35861,444.275,4.339119999999999,161.195,14.823,182.558,0.845376,0.281568,243.99,3.87006,3.53168,16.7435913085938,22.0035419464111,35.0,22.0,-612402.0,6060.6,pp-riro,4,0,-1,-1
1570538052.2,2019-10-08,14:34:12.200,15.0,13.0,22.1599998474121,-7.4,23.0,19.4,-24.5,-35.6,129.5,-10.2427,23.5306,19.4389,19.5589,11.1199,11.0499,-31.111,-37.6315,139.263,-0.0923985,-0.263263,-0.768081,254.4,3.8,52.17,4.427219999999999,1.0,1.38576,452.883,4.33916,163.444,14.0631,180.658,0.833548,0.2873989999999999,244.027,3.74754,3.448,18.860595703125,22.003026962280305,35.0,22.0,-612015.0,4491.62,pp-riro,4,0,-1,-1
1570538052.3,2019-10-08,14:34:12.300,15.0,12.0,22.280000686645497,-5.0,23.3,20.4,-21.2,-39.1,122.3,-9.06323,23.8886,20.0856,23.1102,8.99939,10.4327,-29.8376,-39.941,135.914,-0.296055,-0.251798,-1.25917,254.4,3.8,52.17,4.427219999999999,1.0,1.3913,457.016,4.33926,165.66400000000002,13.6831,178.75799999999998,0.8217030000000001,0.290721,244.103,3.62822,3.36344,20.9707946777344,22.003026962280305,35.0,22.0,-611105.0,5968.31,pp-riro,4,0,-1,-1
1570538052.4,2019-10-08,14:34:12.400,15.0,11.0,22.280000686645497,-2.3,23.1,21.2,-15.6,-42.6,113.2,-7.862489999999999,24.2915,20.7249,25.8424,8.19697,15.6796,-28.6042,-42.1247,132.605,-0.106516,-0.425338,-1.26819,254.4,3.8,52.17,4.427219999999999,1.0,1.40294,472.038,4.33936,167.88299999999998,13.3032,176.75799999999998,0.80958,0.294005,244.142,3.49149,3.27296,23.089500427246104,22.003026962280305,35.0,22.0,-610582.0,4614.67,pp-riro,4,0,-1,-1
1570538052.5,2019-10-08,14:34:12.500,15.0,10.0,22.3899993896484,0.6,22.7,22.0,-9.4,-45.1,102.3,-3.73305,24.8386,22.4757,36.1248,3.71477,7.60809,-21.9829,-49.4668,120.024,-0.269349,0.0108973,-1.20394,254.4,3.8,52.17,4.427219999999999,1.0,1.42011,477.078,4.33946,170.074,12.9233,174.75799999999998,0.797542,0.297092,244.198,3.34531,3.17708,25.2082138061523,22.003026962280305,35.0,22.0,-610435.0,2799.57,pp-riro,4,0,-1,-1
1570538052.6,2019-10-08,14:34:12.600,15.0,10.0,22.350000381469695,4.0,22.1,22.3,-2.3,-46.5,91.2,1.57974,24.3402,23.6716,37.5291,-10.13,8.23727,-10.6614,-54.6343,102.155,0.02087,-0.136277,-1.22468,254.4,3.8,52.17,4.427219999999999,1.0,1.4323,468.245,4.33957,172.264,13.3033,172.558,0.784763,0.295743,244.189,3.20903,3.06929,27.297966003418,22.003026962280305,23.0139999389648,22.0,-609761.0,9044.76,pp-riro,4,0,-1,-1
1570538052.7,2019-10-08,14:34:12.700,15.0,13.0,22.3400001525879,5.8,21.7,22.3,2.0,-46.7,84.4,3.47946,24.2273,24.0109,36.5155,-9.80409,3.14569,-6.55291,-55.5381,95.2243,-0.357528,0.101346,-1.44576,254.4,3.8,52.17,4.427219999999999,1.0,1.37856,445.713,4.33965,174.36700000000002,13.6834,171.458,0.775451,0.2944199999999999,244.926,3.12827,3.01218,29.3877258300781,22.0025119781494,23.0116176605225,22.0,-608861.0,7814.18,pp-ro,1,1,-1,-1
1570538052.8,2019-10-08,14:34:12.800,15.0,13.0,22.4599990844727,10.5,19.8,22.2,14.3,-45.5,65.2,5.53635,24.024,24.0009,39.5808,6.2221,1.53277,-1.8698,-56.2872,87.7971,-0.225048,-0.017591,-1.62756,254.4,3.8,52.17,4.427219999999999,1.2,1.3636,447.6230000000001,4.33975,176.47,14.4435,168.25799999999998,0.7599130000000001,0.290971,244.256,2.89805,2.85722,31.1998596191406,22.003026962280305,23.0139999389648,22.0,-607997.0,4768.5,pp-ro,1,1,-1,-1
1570538052.9,2019-10-08,14:34:12.900,15.0,12.0,22.5400009155273,13.3,17.8,21.4,22.4,-43.3,52.3,7.39578,23.5736,24.0183,35.7753,-7.9145,-1.18043,3.67966,-56.365,80.0459,0.183291,-0.139478,-1.26525,254.4,3.8,52.17,4.427219999999999,1.2,1.37523,450.365,4.33985,178.31,15.2036,166.158,0.748329,0.287527,244.201,2.73597,2.75109,32.67138671875,22.003026962280305,23.0139999389648,22.0,-607819.0,3353.33,pp-ro,1,1,-1,-1
1570538053.0,2019-10-08,14:34:13.000,15.0,12.0,22.690000534057603,14.7,16.8,20.5,26.3,-41.8,45.8,12.9005,21.5285,23.7469,37.1553,-28.7381,-6.00234,19.1932,-54.5578,56.9419,-0.62857,0.0634263,-1.7798,254.4,3.8,52.17,4.427219999999999,1.2,1.38077,437.168,4.33995,179.975,16.7237,165.058,0.740051,0.279781,244.775,2.6544,2.69521,33.7784118652344,22.0025119781494,23.0116176605225,22.0,-607168.0,8614.06,pp-ro,1,1,-1,-1
1570538053.1,2019-10-08,14:34:13.100,15.0,11.0,22.6100006103516,18.2,13.4,17.7,34.1,-35.0,31.1,14.5408,20.3033,23.2152,19.6015,-33.9513,-13.4132,24.319000000000003,-53.277,49.2627,-0.717332,-0.0569241999999999,-1.68668,254.4,3.8,52.17,4.427219999999999,1.2,1.29655,391.8730000000001,4.34005,181.46400000000003,18.2438,162.458,0.727693,0.272138,244.243,2.42656,2.51771,34.52099609375,22.0025119781494,23.0116176605225,22.0,-605981.0,6429.78,pp-ro,1,1,-1,-1
1570538053.2,2019-10-08,14:34:13.200,15.0,11.0,22.1700000762939,19.2,12.0,16.5,35.7,-32.8,27.5,19.0385,16.4792,19.91,29.5676,-26.8526,-19.1637,35.6748,-46.747,29.3297,-0.305419,-0.146465,-1.62838,276.4,3.4,52.17,4.427219999999999,1.2,1.24502,367.7480000000001,4.34015,182.661,20.1439,161.658,0.721474,0.262453,244.753,2.3682,2.4544900000000003,34.9110107421875,22.0009689331055,23.0044822692871,22.0,-605176.0,8275.65,pp-ro,1,1,-1,-1
1570538053.3,2019-10-08,14:34:13.300,15.0,11.0,21.649999618530305,20.8,9.1,13.6,40.7,-25.0,16.2,22.548,12.8736,16.3393,14.0551,-21.967,-22.1708,40.9635,-38.4827,16.4351,0.0662013,0.238071,-1.36261,276.4,3.4,52.17,4.427219999999999,1.2,1.22231,367.989,4.34036,183.742,22.0439,159.958,0.712771,0.252628,244.609,2.15522,2.30941,34.9944763183594,22.0009689331055,20.6820240020752,22.0,-604909.0,5414.55,pp-ro,1,1,-1,-1
1570538053.4,2019-10-08,14:34:13.400,15.0,10.0,21.4400005340576,21.3,8.0,12.6,43.5,-19.1,8.9,23.7795,10.5637,14.4912,7.742310000000001,-20.5808,-21.4592,43.9419,-32.8347,8.174380000000001,-0.385214,0.0308310999999999,-1.6829900000000002,276.4,3.4,52.17,4.427219999999999,1.2,1.25721,381.677,4.34057,184.618,24.324,158.958,0.706598,0.240821,244.833,2.00663,2.25998,34.6930084228516,22.0025119781494,19.8722648620605,22.0,-604756.0,1630.52,pp-ro,1,1,-1,-1
1570538053.5,2019-10-08,14:34:13.500,15.0,12.0,21.270000457763697,21.8,5.4,9.0,45.2,-13.1,1.7,23.7795,10.5637,14.4912,7.742310000000001,-20.5808,-21.4592,43.9419,-32.8347,8.174380000000001,-0.385214,0.0308310999999999,-1.6829900000000002,276.4,3.4,52.17,4.427219999999999,1.2,1.24225,360.194,4.3407800000000005,185.377,26.2241,158.158,0.701441,0.23108,245.084,1.85424,2.10408,33.9913024902344,22.0025119781494,16.9115581512451,22.0,-603939.0,7229.65,pp-ro,1,1,-1,-1
1570538053.6,2019-10-08,14:34:13.600,15.0,10.0,21.229999542236303,22.2,3.5,6.8,45.8,-6.9,-4.0,24.5337,9.47915,13.5522,25.711,-9.27274,-17.098,45.1014,-30.0387,4.3415,-0.510605,-0.0541519,-1.58316,276.4,3.4,52.17,4.427219999999999,1.2,1.21843,350.875,4.340990000000001,185.932,28.5042,157.858,0.698192,0.219281,245.565,1.7158099999999998,1.99207,32.9336547851562,22.0025119781494,14.7556591033936,22.0,-603563.0,7106.6,pp-ro,1,1,-1,-1
1570538053.7,2019-10-08,14:34:13.700,15.0,12.0,20.979999542236303,22.2,2.5,5.8,47.5,-1.5,-9.7,25.8289,6.05691,9.49276,4.25195,-30.1305,-22.5777,46.0153,-20.2677,-6.11945,-0.50635,0.0756405,-1.42023,276.4,3.4,52.17,4.427219999999999,1.2,1.19294,350.69300000000004,4.3412,186.312,30.4042,157.158,0.6942510000000001,0.209427,245.632,1.5861,1.94006,31.5251617431641,22.0009689331055,13.8391828536987,22.0,-603154.0,2830.33,pp-ro,1,1,-1,-1
1570538053.8,2019-10-08,14:34:13.800,15.0,12.0,20.770000457763697,21.6,1.2,3.9,47.4,1.5,-12.4,25.7264,3.54486,6.8895800000000005,-2.2582,-16.0567,-10.9619,46.8265,-13.7974,-12.2914,0.205975,0.3140219999999999,-1.6185,276.4,3.4,52.17,4.427219999999999,1.3,1.22175,352.23400000000004,4.34141,186.487,31.9243,157.058,0.692836,0.2014369999999999,245.894,1.5207,1.85169,29.7777404785156,22.0009689331055,12.1061429977417,22.0,-602927.0,3168.74,pp-ro,1,1,-1,-1
1570538053.9,2019-10-08,14:34:13.900,15.0,10.0,20.8099994659424,20.6,0.2,1.9,47.8,6.9,-16.7,24.6542,0.961734,3.40529,-7.6637,-15.3807,-22.1826,46.3603,-3.99567,-20.0744,-0.428488,0.223702,-1.22011,276.4,3.4,52.17,4.427219999999999,1.3,1.19128,332.747,4.34162,186.721,33.8243,156.858,0.690759,0.191566,246.197,1.4066,1.7626,27.716941833496104,22.0009689331055,10.3838186264038,22.0,-602298.0,6860.48,pp-ro,1,1,-1,-1
1570538054.0,2019-10-08,14:34:14.000,15.0,11.0,20.4699993133545,20.2,-0.5,0.1,48.2,12.6,-21.1,23.6056,-0.354207,1.33894,3.47947,-6.43196,-19.8258,45.7405,2.80188,-25.0237,0.020552,0.25287,-1.3447,276.4,3.4,52.17,4.427219999999999,1.3,1.1513799999999998,321.899,4.34183,186.808,35.7244,156.858,0.689638,0.181608,246.532,1.288,1.67966,25.083885192871104,22.0009689331055,8.74979591369629,22.0,-601835.0,3137.98,pp-ro,1,1,-1,-1
1570538054.1,2019-10-08,14:34:14.100,15.0,13.0,20.340000152587898,19.7,-1.7,-1.5,47.4,17.4,-26.9,22.9939,-1.53405,-0.847317,-2.70872,-12.9667,-10.275,44.6302,8.94028,-29.105,-0.354679,-0.0235024,-1.20748,276.4,3.4,52.17,4.427219999999999,1.3,1.17632,348.075,4.34204,186.837,37.6244,156.958,0.688934,0.17174,246.9,1.16679,1.58377,22.9719848632812,22.0019989013672,6.8429460525512695,22.0,-601619.0,2061.22,pp-ro,1,1,-1,-1
1570538054.2,2019-10-08,14:34:14.200,15.0,15.0,20.159999847412102,19.4,-2.8,-3.9,47.0,22.5,-31.8,22.4281,-2.36924,-1.84757,-8.618960000000001,-12.3972,-31.0125,44.1038,11.2481,-31.7177,0.0360001999999999,-0.290141,-1.28464,267.9,3.2,52.17,4.427219999999999,1.3,1.26996,414.572,4.34225,186.72,39.9045,157.158,0.688661,0.1597029999999999,247.296,1.05441,1.46005,21.3948745727539,22.0035419464111,4.36082077026367,22.0,-601801.0,-3168.74,pp-ro,1,1,-1,-1
1570538054.3,2019-10-08,14:34:14.300,15.0,12.0,20.4699993133545,18.9,-4.9,-5.9,46.1,26.6,-37.3,21.526,-4.71938,-5.38689,-12.3255,-17.2182,-12.1483,41.5934,19.3088,-40.8319,-0.2671929999999999,-0.276251,-1.42411,267.9,3.2,52.17,4.427219999999999,1.3,1.4699799999999998,513.158,4.34245,186.457,42.1845,157.558,0.6893100000000001,0.147444,247.73,0.94982,1.32287,18.7652206420898,22.004056930542003,1.57221364974976,22.0,-601947.0,2153.51,pp-ro,1,1,-1,-1
1570538054.4,2019-10-08,14:34:14.400,15.0,16.0,20.8899993896484,17.6,-6.2,-7.3,45.2,29.1,-41.9,20.2344,-6.70047,-7.50983,-19.5032,-9.29425,-20.1405,40.4854,22.6693,-46.264,0.00870437,0.00967198,-0.889207,267.9,3.2,52.17,4.427219999999999,1.3,1.5026700000000002,535.172,4.34256,185.932,44.0846,158.058,0.69108,0.137028,247.985,0.874921,1.21563,17.7024612426758,22.004571914672898,-0.6640063524246221,22.0,-601764.0,3445.62,pp-ro,1,1,-1,-1
1570538054.5,2019-10-08,14:34:14.500,15.0,16.0,21.6399993896484,16.1,-6.9,-8.3,45.1,31.6,-46.1,20.2344,-6.70047,-7.50983,-19.5032,-9.29425,-20.1405,40.4854,22.6693,-46.264,0.00870437,0.00967198,-0.889207,267.9,3.2,52.17,4.427219999999999,1.3,1.56362,542.9169999999999,4.34269,185.318,45.9846,158.658,0.6933229999999999,0.126475,248.253,0.805357,1.12858,15.5990753173828,22.004056930542003,-2.5196487903595,22.0,-601327.0,6891.25,pp-ro,1,1,-1,-1
1570538054.6,2019-10-08,14:34:14.600,15.0,10.0,22.1599998474121,15.2,-7.5,-8.9,44.3,34.7,-50.0,17.5619,-7.85146,-9.40144,-18.2342,-2.97812,-13.7502,39.4118,27.7615,-52.4492,-0.0080188999999999,0.092323,-0.894698,267.9,3.2,52.17,4.427219999999999,1.3,1.51597,521.75,4.34284,184.588,47.5046,159.25799999999998,0.696044,0.117665,248.38,0.732534,1.07103,13.5042114257812,22.004056930542003,-3.8081445693969695,22.0,-600094.0,11690.5,pp-ro,1,1,-1,-1
1570538054.7,2019-10-08,14:34:14.700,15.0,10.0,22.75,14.2,-7.8,-9.7,42.7,36.5,-54.2,16.5119,-8.68641,-10.1914,-27.1906,-4.73528,-12.7154,38.6513,31.206,-56.1732,-0.017512,0.104563,-0.0678636,267.9,3.2,52.17,4.427219999999999,1.3,1.47718,498.124,4.342980000000001,183.799,49.4046,159.858,0.698617,0.106817,248.551,0.673029,1.00922,10.8524169921875,22.004056930542003,-5.18122053146362,22.0,-599098.0,10367.6,pp-ro,1,1,-1,-1
1570538054.8,2019-10-08,14:34:14.800,15.0,11.0,23.25,13.3,-8.6,-10.3,41.7,39.0,-57.8,14.4288,-8.804889999999999,-11.634,-2.9281200000000003,-6.48458,-5.67431,36.8644,36.1967,-61.2617,0.236564,0.0449698,-0.650077,267.9,3.2,52.17,4.427230000000001,1.4,1.46001,509.772,4.34313,182.982,50.5446,160.558,0.7020390000000001,0.0997509999999999,248.628,0.611725,0.944523,8.73542022705078,22.004571914672898,-6.652352809906009,22.0,-598373.0,4430.09,pp-ro,1,1,-1,-1
1570538054.9,2019-10-08,14:34:14.900,15.0,16.0,23.469999313354503,12.5,-9.7,-11.4,39.2,40.3,-62.3,13.5051,-9.88731,-12.4427,-9.73323,-11.3638,-12.8812,35.1674,38.1339,-65.0756,0.0712597,-0.198065,-0.7480180000000001,267.9,3.2,52.17,4.427230000000001,1.4,1.5265,544.923,4.34328,182.018,52.0646,161.358,0.705836,0.0905088999999999,248.752,0.5545439999999999,0.8657889999999999,6.62522125244141,22.004571914672898,-8.4320764541626,22.0,-598196.0,1568.99,pp-ro,1,1,-1,-1
1570538055.0,2019-10-08,14:34:15.000,15.0,15.0,23.6599998474121,11.4,-10.6,-12.4,37.3,40.5,-65.1,12.2461,-10.4317,-13.5025,-13.4115,-5.98073,-11.3099,32.5325,39.3486,-68.6541,-0.118519,-0.0602385,-0.210102,267.9,3.2,52.17,4.427230000000001,1.4,1.58855,576.447,4.343430000000001,180.966,53.5846,162.25799999999998,0.710112,0.0810861,248.893,0.526868,0.786177,3.9853515625,22.0056018829346,-10.262001991272,22.0,-597592.0,7598.83,pp-ro,1,1,-1,-1
1570538055.1,2019-10-08,14:34:15.100,15.0,15.0,23.780000686645497,10.4,-11.5,-12.9,36.6,40.2,-67.0,11.7226,-10.744000000000002,-14.0099,-11.839,-5.65428,-7.4623,31.3288,39.5502,-70.1487,-0.083369,-0.153924,-0.364508,267.9,3.2,52.17,4.427230000000001,1.4,1.63953,621.188,4.34357,179.856,54.7246,163.358,0.715386,0.0735216,249.056,0.51239,0.726353,2.9242935180664102,22.0056018829346,-11.754340171814,22.0,-597282.0,338.409,pp-ro,1,1,-1,-1
1570538055.2,2019-10-08,14:34:15.200,15.0,14.0,24.0,10.0,-12.1,-13.0,34.5,39.1,-69.9,11.1457,-11.2778,-14.2369,-7.60962,-5.08935,-4.54751,30.9131,40.0365,-70.8933,0.0916965,-0.0981957,-0.1651619999999999,260.2,2.6,52.17,4.427230000000001,1.4,1.86393,644.5409999999999,4.343719999999999,178.571,55.4846,164.458,0.721367,0.0674853999999999,249.024,0.490927,0.705309,0.827728271484375,22.0056018829346,-12.5161542892456,22.0,-598517.0,-16674.4,pp-ro,1,1,-1,-1
1570538055.3,2019-10-08,14:34:15.300,15.0,12.0,24.260000228881804,9.8,-11.5,-12.8,34.6,38.8,-70.4,10.5474,-11.9606,-14.2778,-7.90101,3.72165,0.0312776,29.4032,39.5032,-72.887,0.149026,-0.103013,-0.162328,260.2,2.6,52.17,4.427230000000001,1.4,2.16148,615.893,4.34386,177.403,57.0046,165.458,0.726119,0.0576256,249.194,0.493849,0.713245,-1.26642608642578,22.004571914672898,-12.6550445556641,22.0,-600534.0,-18797.1,pp-ro,1,1,-1,-1
1570538055.4,2019-10-08,14:34:15.400,15.0,11.0,24.5499992370605,10.0,-11.1,-12.7,35.0,38.4,-70.6,10.316,-11.5414,-13.8987,1.01737,4.68839,14.4462,29.3539,39.8967,-73.6084,-0.0866503,0.183063,-0.132076,260.2,2.6,52.17,4.427230000000001,1.4,2.33158,558.293,4.34399,176.293,57.7646,166.558,0.7316050000000001,0.051827,249.314,0.498463,0.732201,-3.3759994506835898,22.004056930542003,-12.6118431091309,22.0,-600607.0,6706.66,pp-ro,1,1,-1,-1
1570538055.5,2019-10-08,14:34:15.500,15.0,9.0,24.8299999237061,10.4,-10.7,-12.0,35.3,36.8,-70.9,10.6516,-10.9517,-13.3144,2.85793,6.05946,3.621480000000001,30.2852,40.1078,-73.0474,0.153839,0.12608,0.24579,260.2,2.6,52.17,4.427230000000001,1.4,2.24126,505.0630000000001,4.344130000000001,175.15400000000002,58.9046,167.658,0.736819,0.0439098,249.516,0.512813,0.777686,-6.02150726318359,22.0035419464111,-12.04332447052,22.0,-597679.0,35194.6,pp-ro,1,1,-1,-1
1570538055.6,2019-10-08,14:34:15.600,15.0,9.0,24.8700008392334,10.8,-10.2,-11.2,36.9,35.7,-70.0,11.0094,-10.4361,-12.4412,7.634989999999999,11.1451,16.0075,32.207,39.9165,-71.4843,0.0401315999999999,0.2465719999999999,-0.2187599999999999,260.2,2.6,52.17,4.427230000000001,1.4,1.90383,481.208,4.34426,174.015,60.0446,168.658,0.741698,0.0358638,249.664,0.538397,0.8295100000000001,-8.00136566162109,22.004056930542003,-11.341907501220698,22.0,-593369.0,43716.3,pp-ro,1,1,-1,-1
1570538055.7,2019-10-08,14:34:15.700,15.0,11.0,24.7299995422363,11.5,-10.7,-10.4,39.2,34.8,-68.1,11.3305,-10.1488,-11.2684,-0.532467,-2.09327,17.5013,34.9868,39.8203,-69.1201,-0.048045,0.280528,0.150901,260.2,2.6,52.17,4.427230000000001,1.4,1.39795,527.482,4.3444,172.905,61.1846,169.658,0.7464649999999999,0.0278788999999999,249.847,0.57524,0.881396,-9.626220703125,22.004571914672898,-10.6451025009155,22.0,-588657.0,20550.7,pp-ro,1,1,-1,-1
1570538055.8,2019-10-08,14:34:15.800,15.0,11.0,24.4799995422363,12.6,-11.4,-9.7,41.5,33.4,-66.3,12.1287,-10.8182,-10.3977,1.59655,-6.40929,5.790369999999999,37.5374,38.7225,-66.654,0.225082,-0.167551,0.443245,260.2,2.6,52.17,4.427230000000001,1.4,1.45724,544.793,4.344530000000001,171.766,62.3246,170.558,0.750977,0.0197818,249.956,0.615592,0.940808,-10.8789901733398,22.004056930542003,-9.79563426971436,22.0,-589573.0,-16582.1,pp-ro,1,1,-1,-1
1570538055.9,2019-10-08,14:34:15.900,15.0,13.0,24.2700004577637,13.6,-11.3,-9.0,44.1,30.5,-63.7,13.6662,-11.0554,-8.96647,7.624210000000001,0.933448,8.79322,41.7307,34.703,-62.3975,0.276057,-0.2031589999999999,0.6922510000000001,260.2,2.6,52.17,4.427230000000001,1.4,1.6556,557.0269999999999,4.34467,170.53900000000002,63.8446,171.358,0.755022,0.00950134,250.047,0.682133,1.0078,-11.607780456543,22.0050868988037,-8.794369697570799,22.0,-589310.0,16766.6,pp-ro,1,1,-1,-1
1570538056.0,2019-10-08,14:34:16.000,15.0,13.0,24.1200008392334,14.6,-11.2,-8.0,45.9,28.0,-61.9,13.6662,-11.0554,-8.96647,7.624210000000001,0.933448,8.79322,41.7307,34.703,-62.3975,0.276057,-0.2031589999999999,0.6922510000000001,260.2,2.6,52.17,4.427230000000001,1.4,1.5447799999999998,541.653,4.34481,169.429,64.9846,171.958,0.758508,0.001338,249.998,0.7347090000000001,1.0811,-12.2512359619141,22.004571914672898,-7.62688207626343,22.0,-587748.0,16182.1,pp-ro,1,1,-1,-1
1570538056.1,2019-10-08,14:34:16.100,15.0,12.0,24.0200004577637,15.6,-11.1,-6.7,47.7,25.8,-58.9,14.2534,-10.9821,-8.52206,7.45913,2.2964,4.1363900000000005,42.6384,33.241,-61.4778,0.1761309999999999,-0.104764,0.68971,260.2,2.6,52.17,4.427230000000001,1.4,1.51652,520.418,4.34494,168.203,66.1246,172.65900000000002,0.762552,-0.00711793,249.951,0.801082,1.16249,-12.5311508178711,22.004571914672898,-6.35053157806396,22.0,-586606.0,7783.42,pp-ro,1,1,-1,-1
1570538056.2,2019-10-08,14:34:16.200,15.0,13.0,23.8299999237061,16.4,-10.4,-5.5,48.9,22.0,-56.9,15.5824,-10.9084,-6.62323,5.79671,0.4417689999999999,7.184139999999999,45.5675,28.5625,-58.2634,0.12179,-0.0284092,0.8579120000000001,248.7,3.5,52.17,4.427230000000001,1.4,1.50212,505.809,4.34508,167.093,68.0246,173.15900000000002,0.764895,-0.0193065999999999,250.062,0.875015,1.2497200000000002,-12.4458084106445,22.004571914672898,-4.88764715194702,22.0,-586098.0,10121.5,pp-ro,1,1,-1,-1
1570538056.3,2019-10-08,14:34:16.300,15.0,14.0,23.5699996948242,17.3,-9.7,-4.5,50.3,19.3,-53.7,16.729,-9.62924,-4.8228800000000005,8.9992,9.56598,8.913689999999999,48.3496,22.9051,-54.1571,0.256451,-0.0236960999999999,0.5600310000000001,248.7,3.5,52.17,4.427230000000001,1.4,1.43452,475.109,4.34513,166.041,69.1646,173.55900000000003,0.767541,-0.0274367,249.952,0.951465,1.33004,-11.9286575317383,22.004571914672898,-3.55652689933777,22.0,-584932.0,11567.4,pp-ro,1,1,-1,-1
1570538056.4,2019-10-08,14:34:16.400,15.0,12.0,23.350000381469695,18.1,-9.0,-3.0,51.5,17.1,-50.8,17.4726,-8.98563,-3.62315,10.6002,4.06049,15.0257,49.5362,19.8668,-51.46,0.452481,0.0449973,0.342927,248.7,3.5,52.17,4.427230000000001,1.4,1.3985,460.105,4.3451900000000006,165.107,71.0647,173.759,0.7684489999999999,-0.0392227,250.005,1.02205,1.42668,-11.0547866821289,22.004056930542003,-1.81857252120972,22.0,-584244.0,5168.43,pp-ro,1,1,-1,-1
1570538056.5,2019-10-08,14:34:16.500,15.0,12.0,23.1200008392334,18.6,-8.1,-1.7,52.8,15.2,-47.6,17.8066,-8.659460000000001,-2.77374,0.475277,13.3769,23.3153,50.5738,18.3211,-50.048,0.0901674,-0.00219426,0.713853,248.7,3.5,52.17,4.427230000000001,1.4,1.39241,453.505,4.34525,164.201,72.5847,173.959,0.769642,-0.0490781,249.984,1.09175,1.51451,-10.5000839233398,22.004056930542003,-0.265053242444992,22.0,-583568.0,7475.77,pp-ro,1,1,-1,-1
1570538056.6,2019-10-08,14:34:16.600,15.0,13.0,23.010000228881804,19.3,-7.4,-0.7,54.0,12.7,-45.4,18.0649,-8.14118,-2.11063,11.0009,4.99916,15.5251,51.5904,16.9919,-48.6199,0.322812,0.136855,0.461269,248.7,3.5,52.17,4.427230000000001,1.4,1.36581,434.865,4.3453,163.38299999999998,74.8647,174.05900000000003,0.769401,-0.0625776999999999,250.19,1.15866,1.59068,-9.07833862304688,22.004056930542003,1.12066912651062,22.0,-582526.0,7537.3,pp-ro,1,1,-1,-1
1570538056.7,2019-10-08,14:34:16.700,15.0,12.0,22.7399997711182,19.7,-7.0,0.1,54.9,10.5,-42.7,18.7377,-7.49626,-1.03025,10.3105,8.07678,9.48518,52.3689,14.2978,-46.4562,0.152799,-0.274185,0.627821,248.7,3.5,52.17,4.427230000000001,1.4,1.34864,434.99300000000005,4.34536,162.595,76.3847,174.05900000000003,0.7696109999999999,-0.0721275,250.136,1.2257,1.64238,-7.31353759765625,22.004056930542003,2.0230293273925803,22.0,-582096.0,7629.59,pp-ro,1,1,-1,-1
1570538056.8,2019-10-08,14:34:16.800,15.0,13.0,22.5799999237061,20.0,-6.8,0.8,55.2,8.2,-40.3,19.3338,-7.038860000000001,-0.201388,3.55291,5.03609,7.8603,53.1314,11.5611,-44.4375,0.0743499,0.0215630999999999,0.542816,248.7,3.5,52.17,4.427230000000001,1.4,1.36526,445.215,4.34542,161.894,78.6648,174.05900000000003,0.768637,-0.0853335,250.388,1.29294,1.68478,-4.72605895996094,22.004056930542003,2.79397940635681,22.0,-581811.0,1692.05,pp-ro,1,1,-1,-1
1570538056.9,2019-10-08,14:34:16.900,15.0,14.0,22.4300003051758,20.6,-6.7,1.5,56.1,7.2,-37.9,19.8871,-6.679530000000001,0.8830620000000001,3.54762,0.187905,5.59492,54.0245,8.5763,-40.6353,-0.0995883,0.391713,0.2366849999999999,248.7,3.5,52.17,4.427230000000001,1.4,1.38576,452.187,4.34547,161.134,80.1848,173.859,0.768092,-0.0948301,250.241,1.34155,1.72304,-2.74961853027344,22.004056930542003,3.4905765056610094,22.0,-581226.0,6522.07,pp-ro,1,1,-1,-1
1570538057.0,2019-10-08,14:34:17.000,15.0,14.0,22.3099994659424,21.1,-6.6,2.2,56.3,5.9,-37.3,19.8871,-6.679530000000001,0.8830620000000001,3.54762,0.187905,5.59492,54.0245,8.5763,-40.6353,-0.0995883,0.391713,0.2366849999999999,248.7,3.5,52.17,4.427230000000001,1.4,1.38244,448.291,4.34553,160.433,82.4648,173.65900000000002,0.7663979999999999,-0.1079339999999999,250.393,1.37426,1.7614299999999998,-0.925071716308594,22.004571914672898,4.25360202789307,22.0,-580643.0,5814.49,pp-ro,1,1,-1,-1
1570538057.1,2019-10-08,14:34:17.100,15.0,13.0,22.149999618530305,21.1,-6.8,2.6,55.5,4.3,-37.7,20.9184,-6.79988,1.80306,11.0304,2.19201,0.575936,54.1323,5.67384,-40.1966,-0.0492901,-0.1658339999999999,0.304301,248.7,3.5,52.17,4.427230000000001,1.4,1.37911,461.362,4.34558,159.732,84.3648,173.359,0.764825,-0.119091,250.37,1.39717,1.7756299999999998,0.6965866088867191,22.004056930542003,4.5531730651855495,22.0,-579997.0,5414.55,pp-ro,1,1,-1,-1
1570538057.2,2019-10-08,14:34:17.200,15.0,13.0,22.1100006103516,20.8,-6.7,2.9,54.6,2.9,-37.7,21.1362,-6.760210000000001,2.06536,8.11722,-5.36347,-5.2935,53.862,4.706,-40.1312,-0.0226234,-0.0847085,0.508361,257.9,3.5,52.17,4.427230000000001,1.4,1.43064,476.893,4.34564,158.97299999999998,86.6449,173.05900000000003,0.762831,-0.132271,250.458,1.42399,1.7956,2.10507965087891,22.004056930542003,4.99611806869507,22.0,-579724.0,3722.5,pp-ro,1,1,-1,-1
1570538057.3,2019-10-08,14:34:17.300,15.0,13.0,22.0699996948242,20.5,-6.7,3.0,54.2,3.2,-37.5,21.1291,-6.98659,2.47789,-0.586012,4.314690000000001,-0.958906,53.5086,2.93076,-40.2156,0.165993,-0.283622,0.302779,257.9,3.5,52.17,4.427230000000001,1.4,1.42953,479.876,4.34572,158.30100000000002,88.9249,172.759,0.7605430000000001,-0.145145,250.624,1.43175,1.80592,2.989013671875,22.004056930542003,5.29668474197388,22.0,-579012.0,7383.48,pp-ro,1,1,-1,-1
1570538057.4,2019-10-08,14:34:17.400,15.0,13.0,22.149999618530305,20.4,-7.1,3.1,53.3,4.2,-37.9,20.8349,-7.00484,2.72304,-3.71595,-2.91593,-1.48469,52.1115,2.59705,-40.34,0.00871735,0.1020399999999999,0.0211535999999999,257.9,3.5,52.17,4.427230000000001,1.4,1.42621,465.276,4.3458,157.571,90.4449,172.359,0.759067,-0.1544859999999999,250.432,1.42086,1.80215,3.95980834960938,22.004056930542003,5.28118228912354,22.0,-578409.0,6399.01,pp-ro,1,1,-1,-1
1570538057.5,2019-10-08,14:34:17.500,15.0,13.0,22.149999618530305,19.9,-7.4,2.7,52.8,4.6,-39.1,20.8349,-7.00484,2.72304,-3.71595,-2.91593,-1.48469,52.1115,2.59705,-40.34,0.00871735,0.1020399999999999,0.0211535999999999,257.9,3.5,52.17,4.427230000000001,1.4,1.37468,437.097,4.34587,156.782,92.7249,171.959,0.756627,-0.167575,250.496,1.41045,1.7849700000000002,4.85906982421875,22.003026962280305,5.084449768066411,22.0,-577356.0,11352.1,pp-ro,1,1,-1,-1
1570538057.6,2019-10-08,14:34:17.600,15.0,13.0,22.190000534057603,19.2,-7.7,2.4,52.0,5.7,-40.9,20.2466,-7.690980000000001,2.40089,0.605288,0.5858800000000001,-6.33747,50.6791,3.5661400000000003,-42.6249,0.174216,-0.185047,-0.492134,257.9,3.5,52.17,4.427230000000001,1.4,1.35141,428.8,4.34595,155.993,94.625,171.759,0.7552260000000001,-0.178817,250.577,1.38266,1.76718,5.220130920410161,22.0035419464111,4.7900071144104,22.0,-576557.0,3968.62,pp-ro,1,1,-1,-1
1570538057.7,2019-10-08,14:34:17.700,15.0,13.0,22.1100006103516,18.8,-8.0,1.8,51.2,6.7,-42.6,20.2466,-7.690980000000001,2.40089,0.605288,0.5858800000000001,-6.33747,50.6791,3.5661400000000003,-42.6249,0.174216,-0.185047,-0.492134,257.9,3.5,52.17,4.427230000000001,1.4,1.34974,427.291,4.346030000000001,155.234,96.525,171.459,0.753405,-0.189936,250.625,1.3573,1.74036,5.278038024902339,22.0035419464111,-35.0,22.0,-576216.0,6860.48,pp-ro,1,1,-1,-1
1570538057.8,2019-10-08,14:34:17.800,15.0,13.0,21.9500007629395,18.5,-8.7,1.6,50.2,7.2,-44.0,18.9744,-8.85191,1.33705,-3.06637,-3.03581,-6.28247,48.2112,5.82303,-47.0337,-0.00914241,-0.0800923,-0.323324,257.9,3.5,52.17,4.427219999999999,1.5,1.3431,434.954,4.34611,154.387,98.425,171.359,0.752307,-0.20127,250.772,1.34196,1.7153200000000002,5.051513671875,22.003026962280305,-35.0,22.0,-575676.0,3937.85,pp-ro,1,1,-1,-1
1570538057.9,2019-10-08,14:34:17.900,15.0,14.0,21.7900009155273,18.0,-9.1,1.2,50.5,8.2,-45.2,18.6622,-9.12039,1.16765,-4.10125,-6.672810000000001,-1.3580299999999998,48.0724,6.4071,-47.2045,0.1046839999999999,0.0902631,-0.206038,257.9,3.5,52.17,4.427219999999999,1.5,1.37191,449.549,4.34618,153.481,100.325,171.259,0.751282,-0.2127389999999999,250.901,1.3228799999999998,1.68996,4.40773010253906,22.0035419464111,-35.0,22.0,-575311.0,3568.68,pp-ro,1,1,-1,-1
1570538058.0,2019-10-08,14:34:18.000,15.0,13.0,21.7000007629395,18.0,-9.5,0.8,50.1,9.1,-47.0,18.6622,-9.12039,1.16765,-4.10125,-6.672810000000001,-1.3580299999999998,48.0724,6.4071,-47.2045,0.1046839999999999,0.0902631,-0.206038,257.9,3.5,52.17,4.427219999999999,1.5,1.38908,440.675,4.34626,152.517,101.845,171.259,0.7511899999999999,-0.22263,250.926,1.2966799999999998,1.66999,3.4471588134765603,22.0035419464111,-35.0,22.0,-574783.0,6737.42,pp-ro,1,1,-1,-1
1570538058.1,2019-10-08,14:34:18.100,15.0,12.0,21.6599998474121,17.7,-9.7,0.6,50.4,9.7,-48.5,18.3736,-9.5093,0.938066,-7.9403,-10.4273,-3.41672,47.8145,7.043139999999999,-47.5557,0.35589,0.254445,-0.166024,257.9,3.5,52.17,4.427219999999999,1.5,1.32869,417.564,4.3463400000000005,151.612,102.605,171.259,0.7520819999999999,-0.228907,250.686,1.27528,1.65654,2.11700439453125,22.0035419464111,-35.0,22.0,-573772.0,10336.9,pp-ro,1,1,-1,-1
1570538058.2,2019-10-08,14:34:18.200,15.0,12.0,21.8199996948242,17.2,-9.8,0.5,50.4,9.4,-50.4,17.6913,-10.2942,0.372496,-2.28495,0.325181,-0.204318,47.6006,9.34178,-51.3411,0.310326,0.0744488,-0.152445,251.6,3.4,52.17,4.427219999999999,1.5,1.31982,420.334,4.346419999999999,150.619,105.645,171.259,0.749616,-0.2456949999999999,251.35,1.26769,1.65326,0.432601928710938,22.0035419464111,-35.0,22.0,-573393.0,1599.75,pp-ro,1,1,-1,-1
1570538058.3,2019-10-08,14:34:18.300,15.0,11.0,21.899999618530305,17.0,-9.8,0.6,50.7,9.2,-51.0,17.3237,-10.3298,0.501143,-8.09978,-0.443918,-0.31825,47.8729,9.52089,-51.6207,0.248466,-0.371157,0.208262,251.6,3.4,52.17,4.427219999999999,1.5,1.33534,412.763,4.34644,149.655,107.545,171.359,0.749057,-0.25715,251.648,1.27089,1.6615,-1.59925079345703,22.0035419464111,-35.0,22.0,-572868.0,7045.07,pp-ro,1,1,-1,-1
1570538058.4,2019-10-08,14:34:18.400,15.0,11.0,21.940000534057603,16.7,-9.3,0.7,51.2,8.1,-51.8,17.107,-10.3599,0.500621,3.97163,3.34568,9.42805,48.1323,9.4042,-52.2402,0.11022,-0.337675,-0.336577,251.6,3.4,52.17,4.427219999999999,1.5,1.28436,392.481,4.34646,148.691,108.305,171.459,0.750256,-0.2635929999999999,251.47,1.27915,1.68053,-3.69346618652344,22.0035419464111,-35.0,22.0,-571874.0,5353.02,pp-ro,1,1,-1,-1
1570538058.5,2019-10-08,14:34:18.500,15.0,11.0,21.8600006103516,16.7,-9.2,0.9,51.5,7.4,-51.7,16.3641,-9.52977,0.769375,-4.54106,4.36426,2.73531,49.7355,8.78612,-52.5108,0.6192380000000001,0.143214,0.1575089999999999,251.6,3.4,52.17,4.427219999999999,1.5,1.2755,390.22,4.346480000000001,148.253,109.825,171.459,0.748776,-0.2716719999999999,251.87,1.29489,1.69682,-5.80644989013672,22.003026962280305,-35.0,22.0,-571595.0,5291.49,pp-ro,1,1,-1,-1
1570538058.6,2019-10-08,14:34:18.600,15.0,11.0,21.6599998474121,16.6,-8.9,1.3,52.5,6.2,-50.9,16.3141,-9.40508,1.1468,-6.01592,1.14568,4.132280000000001,50.6408,8.77356,-51.841,-0.0373634,-0.150248,0.285543,251.6,3.4,52.17,4.427219999999999,1.5,1.27494,386.83,4.3465,147.31799999999998,111.725,171.55900000000003,0.7480100000000001,-0.282959,252.226,1.32762,1.7281799999999998,-7.9228515625,22.003026962280305,-35.0,22.0,-571164.0,4583.91,pp-ro,1,1,-1,-1
1570538058.7,2019-10-08,14:34:18.700,15.0,12.0,21.4599990844727,16.9,-8.4,2.0,53.6,4.8,-49.4,16.2432,-8.61483,1.99981,4.7365900000000005,7.12811,9.21599,52.6295,7.39965,-49.3864,0.216817,0.088095,0.479439,251.6,3.4,52.17,4.427219999999999,1.5,1.25888,372.102,4.34652,146.471,113.245,171.459,0.747041,-0.292286,252.342,1.37003,1.7824,-10.0324249267578,22.0035419464111,-35.0,22.0,-570583.0,6275.96,pp-ro,1,1,-1,-1
1570538058.8,2019-10-08,14:34:18.800,15.0,12.0,21.3299999237061,17.1,-8.0,3.2,55.2,2.3,-47.9,16.3265,-8.32929,2.50462,4.19021,1.1731200000000002,11.039,53.4774,6.62985,-48.1138,0.347167,-0.00291441,0.540265,251.6,3.4,52.17,4.427230000000001,1.6,1.22341,358.112,4.34654,145.624,115.145,171.359,0.745398,-0.303194,252.644,1.42754,1.85104,-12.148834228515598,22.003026962280305,-35.0,22.0,-569991.0,4922.32,pp-ro,1,1,-1,-1
1570538058.9,2019-10-08,14:34:18.900,15.0,14.0,21.1700000762939,17.5,-7.5,4.2,56.5,-0.1,-45.9,16.4034,-8.12599,3.14561,0.7513310000000001,4.25666,13.2994,54.1415,5.77571,-47.4639,0.0537056,0.105598,0.203536,251.6,3.4,52.17,4.427230000000001,1.6,1.19682,342.10900000000004,4.34656,144.836,116.665,171.05900000000003,0.743635,-0.312257,252.68400000000003,1.4885700000000002,1.91485,-14.2447509765625,22.0025119781494,-35.0,22.0,-569294.0,5322.26,pp-ro,1,1,-1,-1
1570538059.0,2019-10-08,14:34:19.000,15.0,13.0,21.0799999237061,18.1,-6.6,5.4,58.0,-3.8,-43.6,16.8633,-6.857480000000001,4.7693,3.72298,17.2186,8.35657,56.8494,1.94408,-43.7864,0.447812,0.182195,0.8430549999999999,251.6,3.4,52.17,4.427230000000001,1.6,1.18795,337.898,4.34658,144.135,118.565,170.65900000000002,0.740715,-0.322562,252.897,1.57087,1.99949,-16.3731002807617,22.0025119781494,-35.0,22.0,-569074.0,4337.79,pp-ro,1,1,-1,-1
1570538059.1,2019-10-08,14:34:19.100,15.0,13.0,20.9500007629395,18.7,-6.0,6.9,59.4,-7.7,-41.8,16.8633,-6.857480000000001,4.7693,3.72298,17.2186,8.35657,56.8494,1.94408,-43.7864,0.447812,0.182195,0.8430549999999999,251.6,3.4,52.17,4.427230000000001,1.6,1.17853,329.30300000000005,4.34661,143.49200000000002,120.085,170.15900000000002,0.7379859999999999,-0.331045,252.912,1.6487,2.07694,-18.4809722900391,22.0025119781494,-35.0,22.0,-568637.0,4614.67,pp-ro,1,1,-1,-1
1570538059.2,2019-10-08,14:34:19.200,15.0,12.0,20.7900009155273,19.1,-4.8,8.5,60.4,-12.2,-38.3,16.8633,-6.857480000000001,4.7693,3.72298,17.2186,8.35657,56.8494,1.94408,-43.7864,0.447812,0.182195,0.8430549999999999,248.1,4.3,52.17,4.427230000000001,1.6,1.1630200000000002,323.474,4.34662,142.937,122.365,169.459,0.733152,-0.342244,253.221,1.75592,2.17566,-20.5973739624023,22.0019989013672,-35.0,22.0,-568112.0,2584.22,pp-ro,1,1,-1,-1
1570538059.3,2019-10-08,14:34:19.300,15.0,14.0,20.8299999237061,19.4,-3.2,10.1,61.6,-17.1,-35.1,17.5676,-5.13274,7.7167,1.63235,11.3983,14.4746,59.3596,-5.711530000000001,-37.6426,0.4083699999999999,-0.0051443999999999,0.88434,248.1,4.3,52.17,4.427230000000001,1.6,1.15914,323.806,4.34664,142.499,123.885,168.65900000000002,0.729057,-0.349889,253.179,1.86183,2.2812900000000003,-22.717185974121104,22.0019989013672,-35.0,22.0,-567693.0,4460.85,pp-ro,1,1,-1,-1
1570538059.4,2019-10-08,14:34:19.400,15.0,12.0,20.75,19.0,-1.7,12.3,61.9,-23.9,-32.3,17.8322,-2.91718,9.97944,0.629,15.6739,17.593,59.7141,-13.4515,-31.8037,0.204235,0.164597,1.36132,248.1,4.3,52.17,4.427230000000001,1.6,1.15582,325.846,4.34666,142.236,126.165,167.65900000000002,0.72268,-0.3598659999999999,253.492,1.98929,2.3992400000000003,-24.8387145996094,22.0019989013672,-35.0,22.0,-567544.0,3014.92,pp-ro,1,1,-1,-1
1570538059.5,2019-10-08,14:34:19.500,15.0,12.0,20.8299999237061,18.4,0.1,13.9,62.4,-30.5,-29.1,17.5939,-1.36747,11.9498,-2.30931,9.27107,17.8674,59.9321,-19.6645,-26.7075,0.326846,0.1355039999999999,1.2751,248.1,4.3,52.17,4.427230000000001,1.6,1.17133,322.141,4.34668,142.119,127.685,166.459,0.7167140000000001,-0.366234,253.397,2.11504,2.50971,-26.9534072875977,22.0019989013672,-35.0,22.0,-567297.0,2861.1,pp-ro,1,1,-1,-1
1570538059.6,2019-10-08,14:34:19.600,15.0,12.0,20.8299999237061,17.8,2.4,15.0,61.1,-36.4,-22.9,16.3713,1.50188,13.9804,-7.082610000000001,20.0608,8.29548,58.4383,-28.2523,-19.4469,0.384655,0.286598,1.26112,248.1,4.3,52.17,4.427230000000001,1.6,1.09099,277.078,4.3467,142.207,129.585,165.15900000000002,0.709377,-0.373307,253.56,2.25949,2.62564,-29.0459136962891,22.0019989013672,-35.0,22.0,-566337.0,6675.89,pp-ro,1,1,-1,-1
1570538059.7,2019-10-08,14:34:19.700,15.0,11.0,20.8700008392334,17.1,4.6,16.4,58.8,-41.6,-15.3,15.9538,2.66292,14.5605,-5.05478,24.5432,14.6086,57.5668,-30.8536,-16.2701,0.235752,0.563949,1.33689,248.1,4.3,52.17,4.427230000000001,1.6,1.06273,269.607,4.34672,142.499,131.105,163.759,0.7019989999999999,-0.378113,253.597,2.40219,2.73815,-30.9267730712891,22.0009689331055,-35.0,22.0,-566114.0,4276.26,pp-ro,1,1,-1,-1
1570538059.8,2019-10-08,14:34:19.800,15.0,10.0,20.7800006866455,15.8,6.7,17.9,55.9,-47.6,-7.8,15.119000000000002,4.64489,15.745,-12.2672,17.5063,14.0374,53.5375,-35.8304,-7.31986,0.262478,0.540904,1.47816,248.1,4.3,52.1701,4.427219999999999,2.0,1.06439,266.518,4.3467400000000005,143.053,133.005,162.259,0.693171,-0.383368,253.93400000000003,2.54712,2.85495,-32.44921875,22.0009689331055,-35.0,22.0,-565919.0,1968.93,pp-ro,1,1,-1,-1
