time,date,time_of_day,airspeed_temperature,airspeed_angle_of_attack,airspeed_apparent_windspeed,kite_0_vx,kite_0_vy,kite_0_vz,kite_0_roll,kite_0_pitch,kite_0_yaw,kite_1_vx,kite_1_vy,kite_1_vz,kite_1_ax,kite_1_ay,kite_1_az,kite_1_roll,kite_1_pitch,kite_1_yaw,kite_1_roll_rate,kite_1_pitch_rate,kite_1_yaw_rate,ground_upwind_direction,ground_wind_velocity,ground_pos_latitude,ground_pos_longitude,ground_pos_altitude,ground_tether_reelout_speed,ground_tether_force,est_upwind_direction,kite_pos_east,kite_pos_north,kite_height,kite_elevation,kite_azimuth,kite_distance,kite_heading,kite_course,kite_actual_steering,kite_actual_depower,kite_set_steering,kite_set_depower,ground_mech_energy,ground_mech_power,flight_phase,flight_phase_index,phase,pattern,pattern_section
1570541946.9,2019-10-08,15:39:06.900,14.0,8.0,16.370000839233402,12.1,-5.2,2.3,21.5,-6.5,-67.8,10.2026,-5.12702,2.42564,8.83966,9.32742,1.96073,21.1523,8.41468,-74.042,0.112567,0.218137,0.977581,257.5,6.9,52.17,4.42721,2.2,-1.89939,115.362,4.32704,41.0658,18.6209,245.857,1.38941,-0.0403374,249.957,0.836808,1.62176,-34.8216400146484,22.075120925903303,-35.0,22.0,1988270.0,3291.8,pp-riro,4,0,-1,-1
1570541947.0,2019-10-08,15:39:07.000,14.0,8.0,16.3099994659424,13.1,-4.0,2.7,23.3,-7.9,-62.4,12.3229,-3.24613,3.16414,8.49213,9.896,2.63749,24.8024,5.977519999999999,-61.7577,0.146496,0.0801091999999999,1.0940299999999998,257.5,6.9,52.17,4.42721,2.2,-1.80354,109.807,4.3271,40.5693,20.1409,245.757,1.38854,-0.0755194,249.896,0.971328,1.76764,-34.971832275390604,22.038043975830103,-35.0,22.0,1988600.0,984.464,pp-riro,4,0,-1,-1
1570541947.1,2019-10-08,15:39:07.100,14.0,7.0,15.9799995422363,14.1,-3.0,2.9,24.6,-10.0,-56.6,13.1607,-2.1469,3.3920800000000004,9.74359,10.4794,2.28444,26.4231,4.43851,-55.6819,0.18665,0.198762,1.0193,257.5,6.9,52.17,4.42721,2.2,-1.78581,104.662,4.32715,40.1895,21.281,245.557,1.3876700000000002,-0.101745,249.732,1.1058,1.87869,-34.971832275390604,22.0143566131592,-35.0,22.0,1988550.0,-984.464,pp-riro,4,0,-1,-1
1570541947.2,2019-10-08,15:39:07.200,14.0,7.0,15.640000343322802,15.1,-1.8,3.0,26.1,-11.6,-50.6,13.9622,-1.15094,3.52255,9.00019,9.4669,2.20805,28.0036,2.55908,-49.3621,0.483638,0.222154,1.05965,257.5,6.9,52.17,4.42721,2.2,-1.77306,94.7144,4.32721,39.8975,22.421,245.357,1.38639,-0.126804,249.588,1.24109,1.99123,-34.9854888916016,22.0019989013672,-35.0,22.0,1988250.0,-4060.91,pp-riro,4,0,-1,-1
1570541947.3,2019-10-08,15:39:07.300,14.0,7.0,15.130000114440902,16.0,-0.5,3.6,27.5,-13.4,-44.9,13.9622,-1.15094,3.52255,9.00019,9.4669,2.20805,28.0036,2.55908,-49.3621,0.483638,0.222154,1.05965,257.5,6.9,52.17,4.42721,2.2,-1.80354,96.362,4.32726,39.693000000000005,24.3211,245.157,1.38315,-0.164602,249.537,1.38456,2.11769,-34.9923248291016,21.997879028320305,-35.0,22.0,1987580.0,-6798.95,pp-riro,4,0,-1,-1
1570541947.4,2019-10-08,15:39:07.400,14.0,7.0,14.7700004577637,16.6,0.7,4.1,28.0,-15.4,-39.9,14.9176,-0.000276506,3.91861,10.2047,9.30388,4.95722,29.3113,0.74987,-43.3911,0.0414457,0.191247,1.05584,257.5,6.9,52.17,4.42721,2.2,-1.83955,93.1641,4.327319999999999,39.693000000000005,25.8411,244.957,1.3798,-0.192026,249.49400000000003,1.50587,2.21897,-34.9923248291016,21.9983940124512,-35.0,22.0,1986810.0,-5445.31,pp-riro,4,0,-1,-1
1570541947.5,2019-10-08,15:39:07.500,14.0,8.0,14.4099998474121,17.0,2.1,4.4,28.4,-17.6,-34.7,15.8564,1.81705,4.6855400000000005,5.98789,12.720999999999998,3.38308,30.4867,-2.01804,-34.5032,0.12755,0.1851799999999999,0.999016,254.2,7.8,52.17,4.42721,2.2,-1.85451,87.245,4.327380000000001,39.7806,27.7412,244.657,1.3751,-0.2239429999999999,249.417,1.63564,2.32964,-34.9923248291016,21.997879028320305,-35.0,22.0,1986430.0,-7260.42,pp-riro,4,0,-1,-1
1570541947.6,2019-10-08,15:39:07.600,14.0,7.0,14.1599998474121,17.6,3.4,4.4,28.9,-19.0,-29.2,16.1791,3.18683,4.91103,2.1105,13.1687,1.29266,30.8039,-4.19908,-29.0972,0.12497,0.17229,0.96778,254.2,7.8,52.17,4.42721,2.2,-1.92931,81.1869,4.32744,40.0142,29.2613,244.357,1.37065,-0.246435,249.334,1.7575,2.41572,-34.9923248291016,21.9983940124512,-35.0,22.0,1985330.0,-12305.8,pp-riro,4,0,-1,-1
1570541947.7,2019-10-08,15:39:07.700,14.0,7.0,14.0900001525879,18.2,4.8,4.8,29.3,-19.8,-23.2,16.6877,4.43471,5.03911,6.37517,11.1355,3.06682,31.2178,-5.91509,-23.524,0.23881,0.323493,1.01894,254.2,7.8,52.17,4.42721,2.2,-2.02351,86.6198,4.32749,40.3939,31.1613,244.057,1.36473,-0.272179,249.332,1.88798,2.50674,-35.0093841552734,21.997879028320305,-35.0,22.0,1984070.0,-11936.6,pp-riro,4,0,-1,-1
1570541947.8,2019-10-08,15:39:07.800,14.0,8.0,14.0900001525879,18.5,6.0,5.5,29.1,-21.4,-17.9,17.1522,5.57339,5.57544,4.55468,9.9649,5.48351,31.6083,-7.2197,-17.7346,0.173246,0.358303,0.958353,254.2,7.8,52.17,4.42721,2.2,-2.09665,89.6296,4.32754,40.9196,32.6814,243.657,1.35909,-0.289083,249.221,2.00006,2.58007,-35.0076751708984,21.9983940124512,-35.0,22.0,1983040.0,-9906.17,pp-riro,4,0,-1,-1
1570541947.9,2019-10-08,15:39:07.900,14.0,8.0,14.0900001525879,18.5,6.6,5.8,28.6,-23.4,-12.8,17.3871,6.13248,5.77677,3.74358,11.6427,3.82145,31.5134,-7.958439999999999,-14.7094,0.18837,0.315444,1.05051,254.2,7.8,52.17,4.42721,2.2,-2.18419,88.4702,4.32759,41.5038,34.9615,243.157,1.35122,-0.315252,249.139,2.11856,2.63468,-35.0076751708984,21.9983940124512,-35.0,22.0,1981460.0,-11013.7,pp-riro,4,0,-1,-1
1570541948.0,2019-10-08,15:39:08.000,14.0,9.0,14.0299997329712,18.5,8.6,6.3,28.0,-25.0,-6.9,17.4422,7.311739999999999,6.23763,-0.401676,10.9694,1.1963,30.7188,-9.57742,-8.66792,-0.0663301,0.2414849999999999,0.980785,254.2,7.8,52.17,4.42721,2.2,-2.21522,90.2463,4.32765,42.2923,36.4816,242.557,1.34447,-0.327023,248.904,2.23348,2.73588,-35.0076751708984,21.9983940124512,-35.0,22.0,1980840.0,-11629.0,pp-riro,4,0,-1,-1
1570541948.1,2019-10-08,15:39:08.100,14.0,10.0,14.2799997329712,18.6,9.7,6.4,26.9,-26.2,-0.7,17.4422,7.311739999999999,6.23763,-0.401676,10.9694,1.1963,30.7188,-9.57742,-8.66792,-0.0663301,0.2414849999999999,0.980785,254.2,7.8,52.17,4.42721,2.4,-2.26897,93.3184,4.32771,43.1393,38.7616,241.957,1.33554,-0.347315,248.81,2.35872,2.79873,-35.0076751708984,21.997879028320305,-23.0,22.0,1979840.0,-9660.05,pp-riro,4,0,-1,-1
1570541948.2,2019-10-08,15:39:08.200,14.0,9.0,14.710000038147,18.6,11.0,6.8,26.1,-27.3,5.7,17.2643,9.64821,6.6841800000000005,0.584497,11.0338,0.4545109999999999,28.9681,-12.6803,2.80516,0.0979645,0.317375,1.02826,254.2,7.8,52.17,4.42721,2.4,-2.3094200000000003,95.9782,4.32775,44.1324,40.2817,241.357,1.32811,-0.355175,248.643,2.4734700000000003,2.858,-35.0076751708984,21.997879028320305,-23.0,22.0,1978950.0,-8737.12,pp-riro,4,0,-1,-1
1570541948.3,2019-10-08,15:39:08.300,14.0,9.0,15.0600004196167,18.5,12.3,7.5,24.6,-28.7,12.4,17.2337,10.1804,6.78499,-0.164216,13.2557,2.34021,28.3217,-13.2108,6.06601,0.08461,0.326735,1.04435,254.2,7.8,52.17,4.42721,2.4,-2.32271,110.752,4.3278,45.2714,42.1818,240.657,1.31913,-0.365498,248.484,2.59475,2.91941,-34.792633056640604,21.997879028320305,-23.0,22.0,1978270.0,-2553.45,pp-riro,4,0,-1,-1
1570541948.4,2019-10-08,15:39:08.400,14.0,9.0,15.2399997711182,18.3,13.6,7.9,22.9,-29.7,19.0,17.1923,11.3244,7.18665,0.504268,10.3685,6.90268,26.9457,-14.226,12.8813,-0.0228141,0.364193,1.0218,254.2,7.8,52.17,4.42721,2.4,-2.30387,117.204,4.32786,46.5273,44.0819,239.857,1.30968,-0.3738829999999999,248.272,2.70988,2.97749,-34.1918334960938,21.997879028320305,-23.0,22.0,1978240.0,-522.996,pp-riro,4,0,-1,-1
1570541948.5,2019-10-08,15:39:08.500,14.0,10.0,15.3500003814697,18.0,14.9,8.2,21.2,-30.3,26.0,16.7721,13.6757,8.04889,-4.314769999999999,9.3892,1.84399,22.8963,-16.3816,26.3586,-0.0218026,0.234645,1.11285,252.3,7.4,52.17,4.42721,2.4,-2.22686,125.55,4.3279,47.9293,45.9819,239.057,1.29979,-0.3801719999999999,248.112,2.82705,3.03316,-33.234344482421896,21.997879028320305,-23.0,22.0,1978780.0,6399.01,pp-riro,4,0,-1,-1
1570541948.6,2019-10-08,15:39:08.600,14.0,10.0,15.640000343322802,17.5,16.2,8.6,19.1,-30.7,33.3,16.7721,13.6757,8.04889,-4.314769999999999,9.3892,1.84399,22.8963,-16.3816,26.3586,-0.0218026,0.234645,1.11285,252.3,7.4,52.17,4.42721,2.4,-2.1033,130.562,4.32791,49.448,47.502,238.157,1.29047,-0.380851,247.831,2.94231,3.08633,-32.625030517578104,21.9983940124512,-23.0,22.0,1979610.0,8767.88,pp-riro,4,0,-1,-1
1570541948.7,2019-10-08,15:39:08.700,14.0,9.0,16.0799999237061,16.9,17.8,9.0,17.4,-31.0,40.0,16.7721,13.6757,8.04889,-4.314769999999999,9.3892,1.84399,22.8963,-16.3816,26.3586,-0.0218026,0.234645,1.11285,252.3,7.4,52.17,4.42721,2.4,-1.96588,140.422,4.32793,51.1128,49.4021,237.257,1.2797,-0.383918,247.677,3.04934,3.14998,-31.1401214599609,21.9983940124512,-23.0,22.0,1980670.0,11690.5,pp-riro,4,0,-1,-1
1570541948.8,2019-10-08,15:39:08.800,14.0,10.0,16.3600006103516,16.6,18.6,9.2,16.8,-30.6,43.4,16.1111,15.5034,8.50845,-2.99241,14.0684,3.9566,20.1046,-17.9083,36.3507,0.0516774999999999,0.287369,1.07485,252.3,7.4,52.17,4.42721,2.4,-1.75866,156.967,4.32794,53.0113,51.3022,236.757,1.26874,-0.384569,247.983,3.10241,3.17952,-29.293395996093803,21.9983940124512,-23.0,22.0,1982120.0,14890.0,pp-riro,4,0,-1,-1
1570541948.9,2019-10-08,15:39:08.900,14.0,12.0,16.6800003051758,15.8,20.1,9.7,14.8,-30.3,52.3,15.0451,18.628,9.37475,-10.7536,19.7342,2.94003,16.2668,-18.7919,48.6143,0.200197,0.179467,0.860825,252.3,7.4,52.17,4.42721,2.4,-1.31982,187.098,4.32796,54.9681,52.8222,235.157,1.2573,-0.381062,247.205,3.2366,3.23454,-27.3630294799805,21.9983940124512,-22.9399433135986,22.0,1984930.0,20335.3,pp-riro,4,0,-1,-1
1570541949.0,2019-10-08,15:39:09.000,14.0,10.0,17.0400009155273,14.5,21.5,10.0,14.0,-30.5,54.9,14.5715,19.3631,9.61771,-9.47447,14.3595,4.54818,15.3378,-19.0923,51.4786,0.0891902,0.0669297,0.981823,252.3,7.4,52.17,4.42721,2.4,-1.09764,192.467,4.32797,57.1002,54.3423,234.657,1.24672,-0.376241,247.542,3.27195,3.2977800000000004,-25.787673950195305,21.9994239807129,-21.9944915771484,22.0,1985970.0,19227.8,pp-riro,4,0,-1,-1
1570541949.1,2019-10-08,15:39:09.100,14.0,9.0,17.2999992370605,13.1,22.4,9.9,12.2,-29.9,60.6,13.3491,20.5998,9.85809,-12.703,12.7392,-0.461146,13.5869,-19.5151,57.0358,-0.0388088,0.166818,0.978071,252.3,7.4,52.17,4.4272,2.8,-0.678751,193.252,4.32799,58.1225,54.7223,233.657,1.24158,-0.370877,246.917,3.35536,3.3528,-24.5553894042969,21.9994239807129,-20.9822120666504,22.0,1987410.0,12890.3,pp-riro,4,0,-1,-1
1570541949.2,2019-10-08,15:39:09.200,14.0,5.0,17.6000003814697,11.7,23.2,9.8,10.9,-29.3,66.5,11.341,21.8483,9.645,-16.275,6.39866,2.15109,11.5129,-19.737,65.0252,0.0988246,0.2074639999999999,0.812802,252.3,7.4,52.17,4.4272,2.8,-0.227174,180.805,4.32801,60.4882,55.8624,232.556,1.23052,-0.36127,246.702,3.4381800000000005,3.40195,-23.3742980957031,21.9994239807129,-20.2405223846436,22.0,1988010.0,3814.8,pp-riro,4,0,-1,-1
1570541949.3,2019-10-08,15:39:09.300,14.0,7.0,17.7999992370605,10.0,23.4,9.6,8.8,-28.2,74.3,10.6573,22.0937,9.59925,-17.6521,2.49751,-1.07174,10.7704,-19.6225,67.6058,0.0892203999999999,0.261828,0.789273,252.3,7.4,52.17,4.4272,2.8,0.259311,149.509,4.32802,63.9639,57.7625,231.056,1.21378,-0.350129,246.607,3.55006,3.4502900000000003,-22.2819595336914,21.9994239807129,-19.7366771697998,22.0,1987780.0,-3353.33,pp-riro,4,0,-1,-1
1570541949.4,2019-10-08,15:39:09.400,14.0,6.0,17.9500007629395,7.9,24.0,8.6,7.6,-26.9,78.9,9.15618,22.2667,9.26248,-16.0715,0.690825,-3.6751,9.65301,-19.2252,72.8791,0.0713158,0.362725,0.768027,252.3,7.4,52.17,4.4272,2.8,0.261527,131.116,4.3280400000000006,66.3004,58.9025,230.156,1.203,-0.342028,246.652,3.61708,3.52704,-21.1042861938477,21.9994239807129,-18.490837097168,22.0,1987930.0,2922.63,pp-riro,4,0,-1,-1
1570541949.5,2019-10-08,15:39:09.500,14.0,8.0,17.9500007629395,7.4,24.2,8.5,7.5,-26.4,80.9,8.41419,22.4386,8.98902,-13.394,5.30525,-8.09791,9.18917,-18.8039,75.1901,0.214991,0.189629,0.7810600000000001,255.8,7.0,52.17,4.4272,2.8,0.198916,132.062,4.32806,67.4395,58.9026,229.756,1.19918,-0.333599,246.588,3.64195,3.5396300000000003,-20.3225784301758,21.9994239807129,-18.2161808013916,22.0,1987990.0,1076.76,pp-riro,4,0,-1,-1
1570541949.6,2019-10-08,15:39:09.600,14.0,7.0,17.7999992370605,5.9,24.5,9.1,7.0,-25.9,84.9,6.51335,23.0156,8.48053,-13.3833,6.557110000000001,3.10691,7.859560000000001,-17.5583,81.7287,-0.0136946,0.214421,0.660932,255.8,7.0,52.17,4.4272,2.8,0.33799,203.586,4.3281,69.8345,60.0426,228.956,1.18835,-0.325858,246.785,3.69801,3.58517,-19.4657745361328,21.9994239807129,-17.620059967040998,22.0,1987830.0,-707.5830000000001,pp-riro,4,0,-1,-1
1570541949.7,2019-10-08,15:39:09.700,14.0,10.0,17.7000007629395,4.9,25.1,9.5,5.7,-25.4,88.6,6.51335,23.0156,8.48053,-13.3833,6.557110000000001,3.10691,7.859560000000001,-17.5583,81.7287,-0.0136946,0.214421,0.660932,255.8,7.0,52.17,4.4272,2.8,0.387858,223.777,4.32814,72.317,60.8027,228.156,1.17819,-0.314871,246.945,3.746680000000001,3.61354,-18.6260452270508,21.9994239807129,-17.2732219696045,22.0,1987830.0,0.0,pp-riro,4,0,-1,-1
1570541949.8,2019-10-08,15:39:09.800,14.0,11.0,17.7999992370605,4.0,25.1,9.3,3.1,-24.7,95.4,4.71055,23.9147,9.2999,-9.46207,-0.999501,1.51709,5.94245,-17.3717,87.9802,-0.0905538,0.274002,0.643829,255.8,7.0,52.17,4.4272,2.8,0.395061,216.03,4.32819,76.11399999999999,61.1827,226.756,1.16414,-0.292869,246.891,3.83402,3.62619,-17.9433364868164,21.9994239807129,-17.1888084411621,22.0,1987880.0,799.877,pp-riro,4,0,-1,-1
1570541949.9,2019-10-08,15:39:09.900,14.0,14.0,17.9899997711182,3.0,25.3,9.3,2.1,-24.5,97.6,3.48346,23.8174,8.773660000000001,-8.368960000000001,1.5274,-0.0642891999999999,3.73985,-17.0623,94.2017,-0.149142,0.0441606,0.485677,255.8,7.0,52.17,4.4272,2.8,0.34741,198.865,4.3282300000000005,77.2822,61.5628,226.356,1.15922,-0.288503,246.981,3.86448,3.6591,-17.3800964355469,21.9994239807129,-16.6710090637207,22.0,1988040.0,1630.52,pp-riro,4,0,-1,-1
1570541950.0,2019-10-08,15:39:10.000,14.0,9.0,18.1900005340576,2.0,25.6,9.4,0.4,-23.8,101.5,2.01231,24.3542,8.96313,-11.3513,1.23789,2.242,0.564075,-16.2998,100.296,-0.281686,0.0187744,0.46681,255.8,7.0,52.17,4.4272,2.8,0.349072,201.376,4.32827,81.1376,61.5628,225.356,1.14632,-0.2649579999999999,247.303,3.9061,3.67406,-17.0250854492188,21.9994239807129,-16.4798755645752,22.0,1988090.0,215.351,pp-riro,4,0,-1,-1
1570541950.1,2019-10-08,15:39:10.100,14.0,10.0,18.0400009155273,0.8,25.2,9.4,-1.6,-23.5,105.2,1.47135,24.202,8.91905,-8.36028,-0.7397100000000001,-0.8830129999999999,-0.309682,-16.1512,102.146,-0.308797,-0.0582952,0.5493359999999999,255.8,7.0,52.17,4.42719,3.1,0.349626,199.873,4.32831,82.3643,61.9428,224.456,1.14037,-0.260743,246.985,3.95998,3.71101,-16.6342391967773,21.9994239807129,-15.9496612548828,22.0,1988160.0,799.877,pp-riro,4,0,-1,-1
1570541950.2,2019-10-08,15:39:10.200,14.0,11.0,17.9899997711182,-0.3,25.0,9.2,-3.8,-23.1,108.8,1.47135,24.202,8.91905,-8.36028,-0.7397100000000001,-0.8830129999999999,-0.309682,-16.1512,102.146,-0.308797,-0.0582952,0.5493359999999999,255.8,7.0,52.17,4.42719,3.1,0.342423,197.526,4.32836,84.9929,61.9429,223.356,1.13073,-0.245763,246.878,4.00307,3.73818,-16.5198822021484,21.9994239807129,-15.5697946548462,22.0,1988200.0,707.5830000000001,pp-riro,4,0,-1,-1
1570541950.3,2019-10-08,15:39:10.300,14.0,12.0,17.9400005340576,-1.3,24.6,9.3,-5.7,-21.7,111.5,-0.131186,23.9036,8.71199,-9.71959,-4.287380000000001,-5.04114,-3.09963,-16.3646,106.999,-0.23704,0.106376,0.405325,255.8,7.0,52.17,4.42719,3.1,0.339098,194.751,4.3284,87.4755,61.5629,222.456,1.12259,-0.229266,246.837,4.03771,3.75795,-16.137565612793,21.9994239807129,-15.2373275756836,22.0,1988250.0,522.996,pp-riro,4,0,-1,-1
1570541950.4,2019-10-08,15:39:10.400,14.0,11.0,18.0400009155273,-2.0,24.2,9.2,-7.9,-20.6,114.6,-0.6904779999999999,23.7455,8.670819999999999,-11.9083,-5.11842,0.218584,-4.1393,-15.7159,108.246,-0.3146989999999999,0.201568,0.378749,255.8,7.0,52.17,4.42719,3.1,0.3086239999999999,170.585,4.328469999999999,89.8705,61.5629,221.456,1.11365,-0.216634,246.799,4.08022,3.77293,-15.6477203369141,21.9994239807129,-15.143427848815902,22.0,1988380.0,1045.99,pp-riro,4,0,-1,-1
1570541950.5,2019-10-08,15:39:10.500,14.0,10.0,17.9899997711182,-2.6,23.9,8.9,-9.5,-19.1,117.2,-1.66367,23.1106,8.648539999999999,-7.15523,-2.20851,-3.7131,-7.03304,-14.1801,112.485,-0.264297,0.00588307,0.486234,254.7,7.2,52.17,4.42719,3.1,0.275933,163.172,4.3285,92.2947,61.563,220.556,1.10474,-0.204363,246.887,4.11849,3.7873,-15.2978363037109,21.9994239807129,-15.0822763442993,22.0,1988460.0,584.525,pp-riro,4,0,-1,-1
1570541950.6,2019-10-08,15:39:10.600,14.0,8.0,17.7900009155273,-3.4,23.5,9.0,-11.0,-18.2,119.9,-2.23808,22.813,8.45064,-4.56671,-0.373398,0.2539389999999999,-9.00555,-13.219,115.197,-0.316154,0.0449534,0.4091,254.7,7.2,52.17,4.42719,3.1,0.280366,167.799,4.32856,94.6312,61.183,219.556,1.0966,-0.190083,246.786,4.152819999999999,3.80388,-15.118621826171902,21.9994239807129,-14.9023666381836,22.0,1988460.0,92.2935,pp-riro,4,0,-1,-1
1570541950.7,2019-10-08,15:39:10.700,14.0,8.0,17.5900001525879,-4.4,23.0,9.0,-12.2,-17.5,121.8,-3.5969900000000004,22.3045,8.61405,-8.26323,-9.34377,3.60315,-11.0434,-11.7465,118.617,-0.218105,0.1165109999999999,0.454446,254.7,7.2,52.17,4.42719,3.1,0.3080699999999999,180.104,4.32862,97.0554,60.803,218.556,1.08812,-0.175896,246.746,4.17375,3.83007,-15.0384063720703,21.9994239807129,-14.5675992965698,22.0,1988470.0,123.058,pp-riro,4,0,-1,-1
1570541950.8,2019-10-08,15:39:10.800,14.0,6.0,17.5400009155273,-5.3,22.5,8.7,-12.7,-16.5,123.6,-4.10825,22.0083,8.53308,-14.3483,-6.99683,-0.818185,-11.457,-11.28,119.663,-0.279136,0.117724,0.285643,254.7,7.2,52.17,4.42719,3.1,0.3163809999999999,179.359,4.32869,99.3336,60.423,217.656,1.08018,-0.162786,246.764,4.19654,3.85811,-14.9325790405273,21.9994239807129,-14.2019033432007,22.0,1988520.0,615.29,pp-riro,4,0,-1,-1
1570541950.9,2019-10-08,15:39:10.900,14.0,8.0,17.6900005340576,-6.2,22.0,8.4,-13.5,-16.2,125.2,-5.03575,21.4765,8.23243,-9.2264,-7.92917,0.391517,-12.3169,-10.5454,121.021,-0.347381,0.0726581,0.204692,254.7,7.2,52.17,4.42719,3.1,0.305299,178.602,4.32875,101.524,59.283,216.656,1.07362,-0.144879,246.498,4.2071,3.88316,-14.6799774169922,21.9994239807129,-13.7193832397461,22.0,1988580.0,553.761,pp-riro,4,0,-1,-1
1570541951.0,2019-10-08,15:39:11.000,14.0,14.0,17.6900005340576,-7.2,22.1,8.5,-13.8,-15.9,125.8,-5.48596,21.3073,8.19057,-7.63198,0.13512,-1.53299,-12.5091,-10.5451,121.775,-0.0793338,-0.0834673,0.169985,254.7,7.2,52.17,4.42719,3.1,0.3357739999999999,197.035,4.32881,103.744,58.903,215.756,1.0657,-0.1328069999999999,246.542,4.20761,3.90848,-14.2635269165039,21.9994239807129,-13.460844039917,22.0,1988600.0,184.587,pp-riro,4,0,-1,-1
1570541951.1,2019-10-08,15:39:11.100,14.0,16.0,17.5900001525879,-7.7,22.1,8.6,-14.4,-15.7,127.7,-6.02304,21.2504,8.10876,-11.5054,-1.224,-0.577631,-12.8325,-10.8357,122.25,-0.00318452,-0.1810369999999999,0.110397,254.7,7.2,52.17,4.42719,3.2,0.356275,210.49,4.328869999999999,106.051,58.1431,214.756,1.0579,-0.1179849999999999,246.47,4.22461,3.91271,-13.9290008544922,21.9994239807129,-13.5748205184937,22.0,1988640.0,369.174,pp-riro,4,0,-1,-1
1570541951.2,2019-10-08,15:39:11.200,14.0,17.0,17.4899997711182,-8.4,22.2,8.9,-15.0,-16.0,130.5,-7.149210000000001,21.1891,8.24438,-5.69299,1.45155,-0.6702899999999999,-14.4096,-10.9733,125.749,-0.125891,-0.07172,0.4061869999999999,254.7,7.2,52.17,4.42719,3.2,0.371789,220.965,4.328930000000001,108.242,57.3831,213.756,1.05036,-0.1040109999999999,246.375,4.2517,3.92115,-13.5671615600586,21.9994239807129,-13.6241474151611,22.0,1988650.0,246.116,pp-riro,4,0,-1,-1
1570541951.3,2019-10-08,15:39:11.300,14.0,15.0,17.6900005340576,-9.4,22.4,9.2,-15.4,-16.2,132.5,-8.10821,21.5282,8.4313,-12.4075,2.39186,4.58111,-15.3223,-10.9893,128.134,-0.0459096,-0.0847826,0.329615,254.7,7.2,52.17,4.42719,3.2,0.4127909999999999,247.152,4.329,110.461,56.6231,212.756,1.04265,-0.0902873,246.319,4.26755,3.93878,-13.4766998291016,21.9994239807129,-13.527801513671902,22.0,1988660.0,-123.058,pp-riro,4,0,-1,-1
1570541951.4,2019-10-08,15:39:11.400,14.0,13.0,17.8299999237061,-10.4,21.8,9.4,-16.1,-16.7,134.9,-8.10821,21.5282,8.4313,-12.4075,2.39186,4.58111,-15.3223,-10.9893,128.134,-0.0459096,-0.0847826,0.329615,254.7,7.2,52.17,4.42719,3.2,0.457118,258.269,4.32906,112.74,55.1031,211.656,1.0356299999999998,-0.0712871,246.05900000000003,4.28213,3.95984,-13.5961761474609,21.9994239807129,-13.2255144119263,22.0,1988690.0,769.112,pp-riro,4,0,-1,-1
1570541951.5,2019-10-08,15:39:11.500,14.0,14.0,18.1299991607666,-11.0,21.0,8.9,-16.4,-16.5,136.6,-9.39612,21.0295,8.86915,-11.6498,-9.32446,-2.86714,-16.7583,-11.9406,131.768,0.286496,-0.3889829999999999,0.2566179999999999,252.8,7.7,52.17,4.42719,3.2,0.433846,243.678,4.32913,114.813,54.3431,210.656,1.02818,-0.0588153,245.99,4.297619999999999,3.98584,-13.5193710327148,21.9994239807129,-13.015739440918,22.0,1988900.0,1230.58,pp-riro,4,0,-1,-1
1570541951.6,2019-10-08,15:39:11.600,14.0,16.0,18.3700008392334,-11.6,20.4,8.8,-17.3,-16.5,137.9,-10.3987,19.9911,8.33078,-6.34054,-5.9732400000000005,2.91823,-18.0743,-12.459,134.43,0.0123527,-0.0333873,0.1249,252.8,7.7,52.17,4.42719,3.2,0.41944,233.391,4.3292,116.829,53.2031,209.656,1.02138,-0.0441448,245.836,4.3036900000000005,4.00277,-13.2633514404297,21.9994239807129,-12.9165287017822,22.0,1988990.0,1599.75,pp-riro,4,0,-1,-1
1570541951.7,2019-10-08,15:39:11.700,14.0,9.0,18.9300003051758,-12.0,20.1,8.7,-18.1,-17.6,140.7,-10.3987,19.9911,8.33078,-6.34054,-5.9732400000000005,2.91823,-18.0743,-12.459,134.43,0.0123527,-0.0333873,0.1249,252.8,7.7,52.17,4.42719,3.2,0.380101,216.139,4.329280000000001,118.844,51.6831,208.656,1.01501,-0.0270979,245.626,4.31965,4.00742,-13.089263916015598,21.9994239807129,-13.007948875427198,22.0,1989140.0,1353.64,pp-riro,4,0,-1,-1
1570541951.8,2019-10-08,15:39:11.800,14.0,11.0,19.1200008392334,-11.9,19.5,8.5,-19.0,-17.7,143.5,-10.905,19.2889,8.08853,4.62446,2.93434,-4.35398,-18.9398,-12.792,137.71,0.0017611,-0.209211,0.563433,252.8,7.7,52.17,4.42719,3.2,0.368465,217.663,4.32935,120.801,50.9231,207.756,1.00789,-0.0159014,245.659,4.34879,4.0059,-12.9271240234375,21.9994239807129,-13.424934387207,22.0,1989210.0,553.761,pp-riro,4,0,-1,-1
1570541951.9,2019-10-08,15:39:11.900,14.0,10.0,19.5300006866455,-12.6,19.5,7.9,-19.4,-16.3,145.1,-10.905,19.2889,8.08853,4.62446,2.93434,-4.35398,-18.9398,-12.792,137.71,0.0017611,-0.209211,0.563433,252.8,7.7,52.17,4.42719,3.2,0.402818,234.159,4.32942,122.67,49.7831,206.956,1.0017,-0.00255431,245.677,4.3729,4.02872,-13.0807342529297,21.9994239807129,-13.262472152710002,22.0,1989270.0,553.761,pp-riro,4,0,-1,-1
1570541952.0,2019-10-08,15:39:12.000,14.0,10.0,19.5699996948242,-13.4,19.1,7.9,-19.4,-15.5,146.9,-11.5079,18.687,7.365989999999999,-3.4963,-0.6515350000000001,-3.52254,-20.5641,-11.7284,142.13299999999998,-0.100488,0.0997782,0.308919,252.8,7.7,52.17,4.42719,3.2,0.4122369999999999,242.958,4.32949,124.598,48.2631,206.156,0.995727,0.0133393,245.671,4.39238,4.04825,-13.3777084350586,21.9994239807129,35.0,22.0,1989310.0,707.5830000000001,pp-riro,4,0,-1,-1
1570541952.1,2019-10-08,15:39:12.100,14.0,10.0,19.8799991607666,-14.1,18.5,7.8,-19.7,-14.6,149.2,-12.5092,18.0297,7.324380000000001,-6.55605,-7.46586,-5.042730000000001,-21.3411,-10.3926,145.158,-0.1141119999999999,-0.159438,0.401424,252.8,7.7,52.17,4.42719,3.2,0.453239,277.87,4.32957,126.438,46.7431,205.256,0.989691,0.028712,245.563,4.42046,4.0699,-13.3589324951172,21.9994239807129,35.0,22.0,1989330.0,-123.058,pp-riro,4,0,-1,-1
1570541952.2,2019-10-08,15:39:12.200,14.0,11.0,19.9699993133545,-14.6,18.0,7.3,-20.1,-13.1,151.1,-13.2283,17.5453,7.06428,-7.629389999999999,-1.79182,0.97,-21.7797,-9.17611,147.467,0.165497,0.2230469999999999,0.551904,252.8,7.7,52.17,4.42719,3.2,0.895951,303.92,4.32964,128.22,45.6031,204.456,0.983525,0.041073,245.605,4.45119,4.09362,-12.9732055664062,21.9994239807129,35.0,22.0,1987540.0,-20950.6,pp-riro,4,0,-1,-1
1570541952.3,2019-10-08,15:39:12.300,14.0,11.0,20.1000003814697,-14.9,17.6,6.7,-20.4,-11.1,153.3,-13.4126,17.2139,6.78538,-3.86911,-4.57401,-6.61296,-21.8363,-8.45619,148.447,-0.135714,0.216644,0.482865,252.8,7.7,52.17,4.42719,3.2,1.12645,262.524,4.32971,129.94299999999998,44.0831,203.756,0.978121,0.0556092,245.652,4.48951,4.10981,-12.2222213745117,21.9994239807129,35.0,22.0,1987640.0,24580.8,pp-riro,4,0,-1,-1
1570541952.4,2019-10-08,15:39:12.400,14.0,8.0,20.2800006866455,-15.4,17.3,6.3,-20.4,-9.2,155.2,-13.737,16.9782,6.00087,-9.14263,-5.20662,-5.6773,-22.1414,-6.62107,150.289,0.0127273,0.0785057,0.4393399999999999,252.8,7.7,52.17,4.42719,3.2,0.980726,273.243,4.3298,131.608,42.5631,203.156,0.973037,0.0697963,245.773,4.52316,4.12726,-11.109405517578098,21.9994239807129,35.0,22.0,1987820.0,-9875.4,pp-riro,4,0,-1,-1
1570541952.5,2019-10-08,15:39:12.500,14.0,9.0,20.5799999237061,-16.4,16.5,6.8,-20.7,-7.9,157.4,-13.737,16.9782,6.00087,-9.14263,-5.20662,-5.6773,-22.1414,-6.62107,150.289,0.0127273,0.0785057,0.4393399999999999,249.4,7.2,52.17,4.42719,3.2,1.1874,318.916,4.32984,133.243,40.6631,202.356,0.96787,0.0863646,245.673,4.55349,4.15035,-9.64328002929688,21.9994239807129,35.0,22.0,1987300.0,1753.58,pp-riro,4,0,-1,-1
1570541952.6,2019-10-08,15:39:12.600,14.0,10.0,21.0,-16.7,15.8,6.3,-20.6,-7.4,159.9,-14.8106,16.1638,6.341880000000001,-10.1054,-6.33729,4.13336,-22.6898,-5.19928,154.144,-0.238903,-0.217266,0.6151,249.4,7.2,52.17,4.42719,3.2,1.15969,320.72,4.32985,134.85,39.1431,201.656,0.962548,0.100033,245.727,4.58259,4.17318,-7.82044982910156,21.9994239807129,35.0,22.0,1987730.0,8890.94,pp-riro,4,0,-1,-1
1570541952.7,2019-10-08,15:39:12.700,14.0,9.0,21.25,-16.7,14.9,5.6,-21.0,-6.7,161.3,-15.4304,14.9695,5.80103,-2.74335,-9.89656,-8.02642,-22.5278,-4.05358,157.75,-0.0805448,-0.31576,0.118768,249.4,7.2,52.17,4.42719,3.2,1.13476,298.394,4.32987,136.31,37.243,201.056,0.958179,0.11581,245.746,4.596369999999999,4.19592,-5.71599578857422,21.9994239807129,35.0,22.0,1988100.0,3630.21,pp-riro,4,0,-1,-1
1570541952.8,2019-10-08,15:39:12.800,14.0,10.0,21.0,-17.3,14.7,5.7,-21.4,-4.9,161.3,-15.4304,14.9695,5.80103,-2.74335,-9.89656,-8.02642,-22.5278,-4.05358,157.75,-0.0805448,-0.31576,0.118768,249.4,7.2,52.17,4.42719,3.2,1.09875,295.383,4.32988,137.71200000000002,35.723,200.456,0.953568,0.128702,245.811,4.60379,4.20505,-3.61154174804688,21.9994239807129,35.0,22.0,1988650.0,5045.38,pp-riro,4,0,-1,-1
1570541952.9,2019-10-08,15:39:12.900,14.0,8.0,20.5699996948242,-17.4,14.2,6.3,-21.8,-4.7,162.3,-16.2833,14.3769,5.33375,-5.55274,-6.86477,2.5918400000000004,-23.5561,-4.0829,159.293,-0.0413903,0.0611059,0.126629,249.4,7.2,52.17,4.42719,3.2,1.127,305.577,4.32989,139.143,33.823,199.756,0.94885,0.144049,245.779,4.6073900000000005,4.19449,-1.510498046875,21.9994239807129,35.0,22.0,1988740.0,892.17,pp-riro,4,0,-1,-1
1570541953.0,2019-10-08,15:39:13.000,14.0,8.0,20.3600006103516,-17.3,14.2,6.2,-22.5,-5.4,163.6,-16.5571,14.0516,5.81637,-2.32676,-1.32929,0.444468,-23.8805,-3.79974,160.637,0.00823876,-0.167433,0.186627,249.4,7.2,52.17,4.42719,3.2,1.1331,297.732,4.32991,140.487,32.303000000000004,199.056,0.944023,0.156475,245.771,4.60838,4.1838,0.580772399902344,21.9994239807129,35.0,22.0,1989090.0,4583.91,pp-riro,4,0,-1,-1
1570541953.1,2019-10-08,15:39:13.100,14.0,9.0,20.6200008392334,-17.2,14.3,6.2,-23.4,-6.0,163.4,-16.691,14.0136,6.01349,-1.42335,-2.3134,-0.666696,-23.8795,-3.94931,161.159,-0.0987401,-0.2244409999999999,-0.025515,249.4,7.2,52.17,4.42719,2.9,1.08766,287.765,4.32992,141.86,30.403,198.356,0.939294,0.171349,245.751,4.58723,4.1665,2.68926239013672,21.9994239807129,35.0,22.0,1989740.0,2707.28,pp-riro,4,0,-1,-1
1570541953.2,2019-10-08,15:39:13.200,14.0,9.0,20.9599990844727,-17.3,14.5,7.1,-24.6,-6.9,162.5,-16.691,14.0136,6.01349,-1.42335,-2.3134,-0.666696,-23.8795,-3.94931,161.159,-0.0987401,-0.2244409999999999,-0.025515,249.4,7.2,52.17,4.42719,2.9,1.10096,295.458,4.32993,143.291,28.8829,197.656,0.934028,0.183556,245.834,4.55535,4.13545,4.794349670410161,21.9994239807129,35.0,22.0,1989800.0,1261.34,pp-riro,4,0,-1,-1
1570541953.3,2019-10-08,15:39:13.300,14.0,7.0,21.0799999237061,-16.4,15.0,8.5,-26.2,-7.4,161.9,-16.691,14.0136,6.01349,-1.42335,-2.3134,-0.666696,-23.8795,-3.94931,161.159,-0.0987401,-0.2244409999999999,-0.025515,249.4,7.2,52.17,4.42719,2.9,1.13476,309.629,4.329940000000001,144.69299999999998,27.3629,196.856,0.928546,0.19555,245.83900000000003,4.53205,4.05957,6.89090728759766,21.9994239807129,35.0,22.0,1989950.0,1661.28,pp-riro,4,0,-1,-1
1570541953.4,2019-10-08,15:39:13.400,14.0,7.0,21.1200008392334,-15.1,15.6,9.5,-28.0,-8.9,161.3,-16.8993,14.8577,7.29576,9.13721,5.20991,16.4868,-27.9533,-7.97622,161.822,-0.663602,0.0654645,-0.293232,249.4,7.2,52.17,4.42719,2.9,1.12867,291.097,4.32996,146.153,25.4629,195.856,0.922532,0.209944,245.7,4.49648,3.97572,8.99770355224609,21.9994239807129,35.0,22.0,1990340.0,5260.73,pp-riro,4,0,-1,-1
1570541953.5,2019-10-08,15:39:13.500,14.0,5.0,20.9899997711182,-13.5,16.1,10.0,-29.8,-10.0,159.4,-15.6686,15.4698,8.69893,10.9629,11.4814,7.61136,-29.3409,-9.44387,161.231,-0.0950696,-0.142218,-0.163077,250.2,7.1,52.17,4.42719,2.9,1.02173,236.144,4.329969999999999,147.73,24.3229,194.856,0.915648,0.21924,245.733,4.451219999999999,3.89615,11.111297607421902,21.9994239807129,35.0,22.0,1991270.0,5599.14,pp-riro,4,0,-1,-1
1570541953.6,2019-10-08,15:39:13.600,14.0,7.0,20.659999847412102,-12.9,16.3,10.3,-30.3,-11.8,156.1,-13.2645,16.7831,10.155,5.92143,3.07059,6.5494,-32.1126,-13.005999999999998,157.115,-0.190494,0.0189555,-0.7269770000000001,250.2,7.1,52.17,4.42719,2.9,0.994024,230.971,4.32999,149.278,22.8029,193.855,0.909003,0.230818,245.731,4.37785,3.85708,13.2283096313477,21.9994239807129,35.0,22.0,1991470.0,3814.8,pp-riro,4,0,-1,-1
1570541953.7,2019-10-08,15:39:13.700,14.0,7.0,20.1399993896484,-11.4,16.5,11.8,-31.1,-14.2,152.2,-12.7606,16.8976,10.7147,16.5223,5.1578,17.915,-32.3298,-14.2213,155.611,-0.28163,-0.168596,-0.552137,250.2,7.1,52.17,4.42719,2.9,1.00012,232.2,4.33001,150.856,21.6629,192.855,0.902032,0.239756,245.805,4.29255,3.7674,15.3538284301758,21.9994239807129,35.0,22.0,1991550.0,307.645,pp-riro,4,0,-1,-1
1570541953.8,2019-10-08,15:39:13.800,14.0,8.0,19.4699993133545,-9.7,17.1,12.3,-31.9,-17.8,147.8,-11.7802,17.1909,11.796,13.2268,4.17512,8.5153,-33.276,-17.7935,152.741,-0.221818,-0.226496,-0.6185,250.2,7.1,52.17,4.42719,2.9,0.999565,220.073,4.330030000000001,152.52,20.903,191.755,0.894335,0.24616,245.906,4.1910300000000005,3.68207,17.4486923217773,21.9994239807129,35.0,22.0,1991830.0,3845.56,pp-riro,4,0,-1,-1
1570541953.9,2019-10-08,15:39:13.900,14.0,10.0,19.1000003814697,-8.9,17.5,13.1,-31.1,-20.8,142.7,-10.2968,18.0882,12.6487,18.3023,6.60112,6.8197,-34.1262,-21.6204,148.613,-0.275267,-0.122272,-1.08026,250.2,7.1,52.17,4.42719,2.9,0.95413,212.564,4.33005,154.214,19.383,190.655,0.8868379999999999,0.25732,245.982,4.08345,3.62704,19.5639953613281,21.9994239807129,35.0,22.0,1992260.0,1107.52,pp-riro,4,0,-1,-1
1570541954.0,2019-10-08,15:39:14.000,14.0,9.0,18.6800003051758,-6.7,18.2,14.2,-29.5,-24.5,136.9,-9.39449,18.4189,12.9886,13.219,2.44892,7.956910000000001,-34.0904,-23.7819,146.422,-0.3518139999999999,-0.181718,-1.13514,250.2,7.1,52.17,4.42719,2.9,0.97186,222.634,4.33007,155.967,19.003,189.455,0.8784280000000001,0.261081,246.13,3.96718,3.51874,21.674186706543,21.9994239807129,35.0,22.0,1992260.0,30.7645,pp-riro,4,0,-1,-1
1570541954.1,2019-10-08,15:39:14.100,14.0,10.0,18.4400005340576,-5.8,18.3,14.7,-28.5,-26.5,133.5,-8.00402,19.1076,14.3282,17.5302,5.87513,12.8191,-33.2686,-28.1898,141.409,-0.167968,-0.17413,-0.767899,250.2,7.1,52.17,4.42719,2.7,1.01397,244.16,4.330080000000001,156.90200000000002,18.623,188.855,0.8741129999999999,0.2641739999999999,246.234,3.90096,3.47516,23.7911911010742,21.9994239807129,35.0,22.0,1992270.0,276.88,pp-riro,4,0,-1,-1
1570541954.2,2019-10-08,15:39:14.200,14.0,10.0,18.1000003814697,-3.8,18.2,15.6,-26.4,-30.5,127.3,-6.31816,19.5185,15.4984,25.6569,-1.21577,16.7393,-32.1099,-32.9065,135.658,-0.287813,0.0247247999999999,-0.989183,250.2,7.1,52.17,4.42719,2.7,1.0339200000000002,245.388,4.3301,158.654,17.8631,187.455,0.8653139999999999,0.2701659999999999,246.231,3.77965,3.3834699999999995,25.9030914306641,21.9994239807129,35.0,22.0,1992440.0,2338.1,pp-riro,4,0,-1,-1
1570541954.3,2019-10-08,15:39:14.300,14.0,13.0,17.8099994659424,-1.8,18.5,15.8,-23.1,-34.4,120.1,-3.99091,19.589,16.3515,23.1814,5.70584,7.050160000000001,-29.6822,-37.6047,129.749,0.108082,-0.112264,-1.16946,250.2,7.1,52.17,4.42719,2.7,1.00455,224.558,4.33012,160.406,17.8631,186.055,0.856245,0.271361,246.304,3.65401,3.29951,28.0013732910156,21.9994239807129,35.0,22.0,1992820.0,3814.8,pp-riro,4,0,-1,-1
1570541954.4,2019-10-08,15:39:14.400,14.0,13.0,17.4099998474121,0.3,18.8,16.4,-18.4,-37.3,111.8,-0.575303,20.0641,16.9936,13.8202,6.50357,6.13633,-24.0452,-44.4338,117.61,0.0990728999999999,-0.642134,-1.24089,250.2,7.1,52.17,4.42719,2.7,0.963549,213.426,4.33014,162.305,17.4832,184.555,0.8465969999999999,0.274942,246.392,3.52366,3.2103900000000003,30.0417175292969,21.9994239807129,35.0,22.0,1993170.0,3322.56,pp-riro,4,0,-1,-1
1570541954.5,2019-10-08,15:39:14.500,14.0,12.0,17.2000007629395,2.4,18.4,16.9,-13.3,-39.5,102.7,1.92616,19.9063,17.7138,26.5178,-2.24919,10.7253,-19.472,-48.0448,109.026,0.118854,-0.1091579999999999,-1.13888,248.2,6.9,52.17,4.42719,2.7,0.980172,230.479,4.33017,164.08599999999998,17.8632,183.155,0.8373299999999999,0.27378,246.555,3.39442,3.12587,31.722732543945305,21.9994239807129,35.0,22.0,1993220.0,0.0,pp-riro,4,0,-1,-1
1570541954.6,2019-10-08,15:39:14.600,14.0,12.0,17.0400009155273,4.7,17.8,17.1,-7.4,-41.3,92.9,3.13753,19.7274,17.9809,26.272,-7.52204,2.20572,-16.3188,-49.6159,103.922,-0.105548,-0.169044,-1.21924,248.2,6.9,52.17,4.42719,2.7,1.02561,239.828,4.3302,165.89700000000002,17.8633,181.555,0.8275620000000001,0.274929,246.583,3.26,3.03123,33.0767211914062,21.9994239807129,23.0,22.0,1993390.0,2799.57,pp-riro,4,0,-1,-1
1570541954.7,2019-10-08,15:39:14.700,14.0,12.0,16.9400005340576,7.0,17.2,17.1,-0.9,-42.1,83.0,3.13753,19.7274,17.9809,26.272,-7.52204,2.20572,-16.3188,-49.6159,103.922,-0.105548,-0.169044,-1.21924,248.2,6.9,52.17,4.42719,2.7,1.01342,234.022,4.33022,167.679,18.2433,179.955,0.817762,0.273793,246.643,3.13135,2.93821,34.0577392578125,21.9994239807129,23.0,22.0,1993580.0,3599.45,pp-ro,1,1,-1,-1
1570541954.8,2019-10-08,15:39:14.800,14.0,13.0,16.8299999237061,9.0,16.7,17.2,5.5,-42.0,73.1,8.26197,18.6167,18.0617,22.3435,-12.2659,2.44336,-1.44086,-52.3592,80.845,-0.546144,0.180974,-1.01236,248.2,6.9,52.17,4.42719,2.7,0.987929,226.842,4.33025,169.34400000000002,19.0034,178.455,0.808465,0.27039,246.748,3.00575,2.86138,34.687896728515604,21.9994239807129,23.0,22.0,1993940.0,1630.52,pp-ro,1,1,-1,-1
1570541954.9,2019-10-08,15:39:14.900,14.0,12.0,16.8299999237061,10.9,15.8,16.9,12.2,-41.4,62.9,8.26197,18.6167,18.0617,22.3435,-12.2659,2.44336,-1.44086,-52.3592,80.845,-0.546144,0.180974,-1.01236,248.2,6.9,52.17,4.42719,2.7,0.994578,232.505,4.33027,170.979,20.1435,176.855,0.798845,0.264843,246.814,2.87726,2.78294,34.968917846679695,21.9994239807129,23.0,22.0,1994000.0,1261.34,pp-ro,1,1,-1,-1
1570541955.0,2019-10-08,15:39:15.000,14.0,12.0,16.879999160766598,12.9,14.6,16.7,18.8,-39.5,51.9,12.76,17.1103,17.8545,17.8525,-12.7982,-4.75689,14.8926,-52.2375,56.093,-0.70865,-0.0655583999999999,-1.50859,248.2,6.9,52.17,4.42719,2.7,1.01674,241.152,4.3303,172.585,21.2836,175.155,0.789014,0.259387,246.816,2.73197,2.69777,34.9178161621094,21.9994239807129,23.0,22.0,1994110.0,1138.29,pp-ro,1,1,-1,-1
1570541955.1,2019-10-08,15:39:15.100,14.0,13.0,17.0400009155273,15.0,13.7,16.0,24.2,-37.2,42.8,13.9825,16.2814,17.6212,14.6841,-15.1824,5.256959999999999,18.745,-51.488,49.8736,0.356454,-0.341102,-1.10048,248.2,6.9,52.17,4.42719,2.2,1.01951,241.566,4.3303400000000005,174.016,22.4237,173.555,0.779954,0.253911,246.791,2.60582,2.60917,34.73046875,21.9994239807129,23.0,22.0,1994440.0,2368.87,pp-ro,1,1,-1,-1
1570541955.2,2019-10-08,15:39:15.200,14.0,12.0,17.1900005340576,16.7,12.4,15.2,28.7,-34.8,34.8,17.3949,14.4734,16.2735,19.8043,-15.11,-3.58521,28.8459,-47.4425,33.5309,0.0994423,-0.134312,-1.39876,248.2,6.9,52.17,4.42719,2.2,1.02505,254.817,4.33035,175.36,24.3237,172.055,0.771123,0.2442099999999999,246.872,2.4937,2.52781,34.103729248046896,21.9994239807129,22.7475986480713,22.0,1994630.0,1507.46,pp-ro,1,1,-1,-1
1570541955.3,2019-10-08,15:39:15.300,14.0,11.0,17.2900009155273,18.4,11.2,14.6,33.2,-31.4,27.0,17.3949,14.4734,16.2735,19.8043,-15.11,-3.58521,28.8459,-47.4425,33.5309,0.0994423,-0.134312,-1.39876,248.2,6.9,52.17,4.42719,2.2,1.04334,265.886,4.33038,176.55700000000002,25.4638,170.655,0.763258,0.238776,246.868,2.3698,2.44915,33.1124877929688,21.9994239807129,21.44309425354,22.0,1994630.0,61.529,pp-ro,1,1,-1,-1
1570541955.4,2019-10-08,15:39:15.400,14.0,11.0,17.3899993896484,19.7,9.5,13.6,36.9,-27.9,19.4,18.5036,13.852,15.9003,25.197,-15.8327,-5.536580000000001,31.3315,-45.3399,28.6435,-0.268282,0.2089869999999999,-1.21897,248.2,6.9,52.17,4.42719,2.2,1.08988,281.967,4.3304,177.638,27.7439,169.255,0.755221,0.227056,246.925,2.24947,2.36778,31.7567901611328,21.9994239807129,20.0480976104736,22.0,1994690.0,1261.34,pp-ro,1,1,-1,-1
1570541955.5,2019-10-08,15:39:15.500,14.0,10.0,17.5400009155273,20.2,7.9,12.2,40.3,-24.3,12.3,18.5036,13.852,15.9003,25.197,-15.8327,-5.536580000000001,31.3315,-45.3399,28.6435,-0.268282,0.2089869999999999,-1.21897,245.9,6.6,52.17,4.42719,2.2,1.08711,274.692,4.330430000000001,178.543,29.264,168.055,0.748534,0.219504,246.93400000000003,2.12968,2.29398,30.053649902343803,21.9994239807129,18.7900333404541,22.0,1995020.0,3445.62,pp-ro,1,1,-1,-1
1570541955.6,2019-10-08,15:39:15.600,14.0,11.0,17.6399993896484,20.7,6.7,10.7,42.8,-20.0,6.3,22.7458,8.71618,12.3204,12.0579,-14.8179,-23.6836,41.9829,-31.8192,4.98041,-0.20834,0.0954618999999999,-1.34619,245.9,6.6,52.17,4.42719,2.2,1.03281,251.152,4.330430000000001,179.361,31.5441,167.055,0.7422979999999999,0.207868,247.129,2.01568,2.22583,28.0234985351562,21.9994239807129,17.6060695648193,22.0,1995620.0,3261.04,pp-ro,1,1,-1,-1
1570541955.7,2019-10-08,15:39:15.700,14.0,10.0,17.7399997711182,21.1,5.5,9.6,44.4,-15.5,1.4,23.1834,7.224639999999999,10.6459,2.36674,-12.6736,-13.6278,43.9339,-25.8687,-1.19179,-0.237219,0.1645609999999999,-1.47912,245.9,6.6,52.17,4.42719,2.2,1.03835,256.887,4.330430000000001,180.09099999999998,33.4441,166.055,0.736428,0.198341,247.236,1.90905,2.16478,25.9218292236328,21.9994239807129,16.5716152191162,22.0,1995780.0,1353.64,pp-ro,1,1,-1,-1
1570541955.8,2019-10-08,15:39:15.800,14.0,12.0,17.6800003051758,21.5,4.3,8.5,45.9,-11.1,-3.2,23.5007,6.57917,10.0222,10.1912,-17.024,-8.56701,44.5374,-23.1898,-3.68509,-0.285423,0.111873,-1.12526,245.9,6.6,52.17,4.42719,2.2,1.04777,258.478,4.33045,180.646,35.7242,165.255,0.731388,0.186704,247.423,1.80743,2.10301,23.295578002929695,21.9994239807129,15.4838933944702,22.0,1995870.0,1568.99,pp-ro,1,1,-1,-1
1570541955.9,2019-10-08,15:39:15.900,14.0,14.0,17.6299991607666,21.5,3.6,7.4,46.5,-7.3,-7.3,23.9002,4.378080000000001,8.144260000000001,0.426546,-16.2734,-19.052,45.3412,-15.6239,-10.4802,-0.116977,-0.0100467,-0.8954030000000001,245.9,6.6,52.17,4.42719,2.2,1.04666,255.683,4.33046,181.171,37.6243,164.455,0.726575,0.177164,247.556,1.71727,2.05846,21.3063125610352,21.9994239807129,14.750737190246598,22.0,1996130.0,3107.21,pp-ro,1,1,-1,-1
1570541956.0,2019-10-08,15:39:16.000,14.0,11.0,17.5300006866455,21.7,2.7,6.4,47.2,-3.4,-10.4,23.6722,2.92386,6.24116,-1.8000599999999998,-9.40694,-8.03555,45.9612,-8.411719999999999,-15.3873,-0.0709329,0.214685,-1.00389,245.9,6.6,52.17,4.42719,2.2,1.04167,260.737,4.33046,181.58,39.9043,163.855,0.722416,0.165606,247.815,1.63832,2.0076,19.381759643554695,21.9994239807129,13.8609390258789,22.0,1996390.0,2030.46,pp-ro,1,1,-1,-1
1570541956.1,2019-10-08,15:39:16.100,14.0,13.0,17.5300006866455,21.9,1.9,5.6,48.3,0.3,-13.7,23.7781,2.32525,5.78837,-3.23066,-10.4308,-6.23081,46.2199,-6.00598,-16.8648,0.101113,0.0943556,-1.00313,245.9,6.6,52.17,4.42719,1.7,1.07769,275.887,4.33047,181.901,42.1844,163.155,0.718123,0.154042,247.966,1.55946,1.96477,17.7399291992188,21.9994239807129,13.1466875076294,22.0,1996560.0,1630.52,pp-ro,1,1,-1,-1
1570541956.2,2019-10-08,15:39:16.200,14.0,13.0,17.5799999237061,22.2,1.1,4.7,48.9,3.8,-17.5,23.7949,1.87466,5.2783,3.92607,-4.668080000000001,-8.31513,46.6457,-4.0032,-18.3539,0.331449,0.145923,-0.833356,245.9,6.6,52.17,4.42719,1.7,1.08545,283.703,4.33047,182.164,44.0844,162.655,0.714766,0.144475,248.161,1.47617,1.91628,16.200294494628903,21.9994239807129,12.2931480407715,22.0,1996830.0,2953.39,pp-ro,1,1,-1,-1
1570541956.3,2019-10-08,15:39:16.300,14.0,12.0,17.729999542236303,22.4,0.0,3.7,49.7,6.2,-21.0,24.0245,0.943605,4.35766,4.38282,-9.46468,-19.2314,46.9556,0.19877,-22.0203,0.169492,-0.056757,-0.7987449999999999,245.9,6.6,52.17,4.42719,1.7,1.09154,296.774,4.3304800000000006,182.368,46.7445,162.155,0.7110270000000001,0.13099,248.47,1.41346,1.85902,14.8820571899414,21.9994239807129,11.276494026184098,22.0,1996930.0,1876.63,pp-ro,1,1,-1,-1
1570541956.4,2019-10-08,15:39:16.400,14.0,14.0,17.9300003051758,22.5,-1.2,2.7,50.7,8.3,-23.6,24.0245,0.943605,4.35766,4.38282,-9.46468,-19.2314,46.9556,0.19877,-22.0203,0.169492,-0.056757,-0.7987449999999999,245.9,6.6,52.17,4.42719,1.7,1.16468,333.622,4.33049,182.368,49.0246,161.755,0.7082890000000001,0.1192869999999999,248.649,1.36391,1.79804,13.698371887207,21.9994239807129,10.153986930847198,22.0,1996810.0,-2153.51,pp-ro,1,1,-1,-1
1570541956.5,2019-10-08,15:39:16.500,14.0,14.0,18.3600006103516,23.1,-2.3,1.2,51.7,10.4,-26.4,23.8522,-1.6444299999999998,2.40118,7.46468,-15.8609,-11.4139,48.1913,5.55423,-27.8269,0.163521,-0.0931288,-0.5474680000000001,247.1,6.4,52.17,4.42719,1.7,1.20347,340.50800000000004,4.33052,182.31,51.3046,161.455,0.70594,0.107553,248.871,1.31221,1.72429,12.5794143676758,21.9994239807129,8.76521873474121,22.0,1997110.0,4953.08,pp-ro,1,1,-1,-1
1570541956.6,2019-10-08,15:39:16.600,14.0,10.0,18.7399997711182,23.2,-3.5,0.3,52.6,11.2,-28.5,24.2031,-3.313,0.416041,0.998165,-15.615,-9.26568,48.9595,8.180660000000001,-31.811,-0.0614923,-0.135016,-0.3702,247.1,6.4,52.17,4.42719,1.7,1.18795,359.999,4.33057,182.076,53.5847,161.255,0.704271,0.0956016,249.05,1.28564,1.66924,11.3395233154297,21.9994239807129,7.724359035491941,22.0,1997570.0,2707.28,pp-ro,1,1,-1,-1
1570541956.7,2019-10-08,15:39:16.700,14.0,9.0,19.2900009155273,22.7,-4.8,-0.2,53.2,11.5,-30.7,24.0153,-4.6788300000000005,-0.35962,-7.29533,-15.6343,-3.73747,49.5875,9.42894,-33.7411,0.269575,-0.180876,-0.38797,247.1,6.4,52.17,4.42719,1.7,1.28769,412.941,4.33062,181.726,55.8647,161.055,0.702824,0.083522,249.166,1.26451,1.62239,10.0604629516602,21.9994239807129,6.84318351745605,22.0,1997320.0,-3107.21,pp-ro,1,1,-1,-1
1570541956.8,2019-10-08,15:39:16.800,14.0,9.0,20.1399993896484,22.3,-5.4,-1.0,54.0,12.6,-32.5,23.8901,-5.271380000000001,-0.6242979999999999,-0.4803659999999999,-10.5927,-0.724009,49.907,9.77407,-34.7843,0.146471,-0.116222,-0.262308,247.1,6.4,52.17,4.42719,1.7,1.37579,444.508,4.33068,181.229,58.1447,160.955,0.701975,0.07125,249.261,1.23768,1.58457,8.86825561523438,21.9994239807129,6.118496894836429,22.0,1997460.0,2861.1,pp-ro,1,1,-1,-1
1570541956.9,2019-10-08,15:39:16.900,14.0,8.0,20.9500007629395,21.9,-6.0,-1.6,54.8,14.1,-34.5,23.3888,-5.99094,-1.41911,1.26166,-3.22835,-5.93037,51.0753,11.3876,-36.1231,0.57527,0.0010821,-0.390664,247.1,6.4,52.17,4.42719,1.7,1.34254,424.095,4.33073,180.703,60.8048,160.955,0.7011189999999999,0.0570682,249.514,1.20472,1.55379,7.7935791015625,21.9994239807129,5.54051876068115,22.0,1998640.0,8921.7,pp-ro,1,1,-1,-1
1570541957.0,2019-10-08,15:39:17.000,14.0,7.0,21.690000534057603,21.3,-7.1,-2.5,54.7,15.7,-35.9,23.0486,-6.543069999999999,-2.10306,-5.60777,-6.80514,-8.44178,51.306,13.3671,-38.5595,0.038289,-0.0261385,-0.411941,247.1,6.4,52.17,4.42719,1.7,1.3237,424.377,4.33079,180.11900000000003,62.7048,160.955,0.7009569999999999,0.0465952,249.562,1.17501,1.49439,7.29966735839844,21.9994239807129,4.35975217819214,22.0,1998980.0,6583.6,pp-ro,1,1,-1,-1
1570541957.1,2019-10-08,15:39:17.100,14.0,8.0,21.9300003051758,20.5,-7.8,-3.1,54.8,15.8,-37.4,22.2552,-7.62065,-3.02904,-6.15156,-13.1535,-13.7149,51.3921,14.8846,-39.6984,0.0826668,0.0367144,-0.234528,247.1,6.4,52.17,4.42719,1.5,1.34974,429.357,4.33084,179.359,64.9849,161.055,0.70114,0.0339446999999999,249.663,1.16479,1.4530299999999998,6.43447113037109,21.9994239807129,3.5245940685272203,22.0,1999290.0,2922.63,pp-ro,1,1,-1,-1
1570541957.2,2019-10-08,15:39:17.200,14.0,9.0,22.1299991607666,20.0,-8.0,-4.1,54.6,16.6,-37.8,22.2552,-7.62065,-3.02904,-6.15156,-13.1535,-13.7149,51.3921,14.8846,-39.6984,0.0826668,0.0367144,-0.234528,247.1,6.4,52.17,4.42719,1.5,1.33368,421.896,4.33089,178.62900000000002,67.2649,161.255,0.70148,0.021356,249.872,1.15823,1.41353,5.57608795166016,21.9994239807129,2.72197604179382,22.0,1999990.0,8244.88,pp-ro,1,1,-1,-1
1570541957.3,2019-10-08,15:39:17.300,14.0,10.0,22.2900009155273,20.1,-9.1,-4.6,54.5,17.2,-38.0,21.1094,-8.36239,-4.60609,2.98,-6.90462,-7.7048,51.1746,16.4767,-40.9472,-0.0732696,-0.0597375999999999,-0.296232,247.1,6.4,52.17,4.42719,1.5,1.33922,437.473,4.33095,177.81099999999998,69.1649,161.655,0.702921,0.0104714,250.066,1.15534,1.37885,4.43157196044922,21.9994239807129,1.95094990730286,22.0,2000450.0,3507.15,pp-ro,1,1,-1,-1
1570541957.4,2019-10-08,15:39:17.400,14.0,11.0,22.4099998474121,20.4,-9.7,-4.4,54.5,17.6,-40.1,21.0865,-8.89729,-4.87636,4.5991800000000005,-16.1439,-0.3538719999999999,50.7964,16.8906,-41.0931,0.0224794,0.0817953,-0.125671,247.1,6.4,52.17,4.42719,1.5,1.44172,491.965,4.331,176.81799999999998,71.4449,161.955,0.70405,-0.00261306,250.197,1.13477,1.38542,3.56637573242188,21.9994239807129,2.02690696716309,22.0,2000710.0,2645.75,pp-ro,1,1,-1,-1
1570541957.5,2019-10-08,15:39:17.500,14.0,9.0,22.5699996948242,20.1,-9.5,-4.1,54.1,18.6,-42.1,21.6147,-9.95564,-4.81947,3.52463,-2.63295,2.87255,50.8926,17.340999999999998,-41.8276,0.131326,-0.329877,-0.139462,246.7,7.0,52.17,4.42719,1.5,1.4760799999999998,504.206,4.33105,175.884,73.3449,162.155,0.705029,-0.0137418999999999,250.217,1.10646,1.40171,2.74205780029297,21.9994239807129,2.30551791191101,22.0,2001240.0,6122.13,pp-ro,1,1,-1,-1
1570541957.6,2019-10-08,15:39:17.600,14.0,12.0,23.100000381469695,20.2,-10.0,-4.5,53.7,19.3,-43.3,21.6147,-9.95564,-4.81947,3.52463,-2.63295,2.87255,50.8926,17.340999999999998,-41.8276,0.131326,-0.329877,-0.139462,246.7,7.0,52.17,4.42719,1.5,1.4755200000000002,500.9980000000001,4.3310900000000006,174.92,75.625,162.455,0.7059310000000001,-0.0267685,250.415,1.0924200000000002,1.38724,2.18343353271484,21.9994239807129,1.9794738292694096,22.0,2002000.0,7568.06,pp-ro,1,1,-1,-1
1570541957.7,2019-10-08,15:39:17.700,14.0,11.0,23.3700008392334,20.2,-10.9,-4.7,53.9,18.7,-44.4,21.4971,-10.3198,-4.4658,-4.09243,-6.1856,-5.9139,50.1033,19.5236,-46.052,-0.00558664,-0.063172,-0.203006,246.7,7.0,52.17,4.42719,1.5,1.4722,499.298,4.331119999999999,173.83900000000003,77.525,162.755,0.707427,-0.038221,250.438,1.09471,1.36848,1.9637222290039096,21.9994239807129,1.52546155452728,22.0,2002450.0,8521.76,pp-ro,1,1,-1,-1
1570541957.8,2019-10-08,15:39:17.800,14.0,8.0,23.7000007629395,20.0,-10.9,-4.2,54.0,18.9,-46.3,21.5004,-11.224,-4.72511,-4.81278,-5.55828,5.02292,49.9551,19.8151,-46.9123,0.0677854,-0.1903109999999999,0.11563,246.7,7.0,52.17,4.42719,1.5,1.46444,503.522,4.33116,172.7,79.805,163.055,0.708583,-0.0516423,250.561,1.07899,1.38941,1.9586181640625,21.9994239807129,1.89469122886658,22.0,2003120.0,5783.72,pp-ro,1,1,-1,-1
1570541957.9,2019-10-08,15:39:17.900,14.0,9.0,23.5900001525879,19.4,-10.6,-4.1,53.7,20.1,-47.0,21.5004,-11.224,-4.72511,-4.81278,-5.55828,5.02292,49.9551,19.8151,-46.9123,0.0677854,-0.1903109999999999,0.11563,246.7,7.0,52.17,4.42719,1.5,1.48051,498.941,4.3312,171.61900000000003,82.085,163.355,0.709512,-0.064942,250.751,1.06482,1.3965,1.66908264160156,21.9994239807129,2.00716280937195,22.0,2003770.0,8029.53,pp-ro,1,1,-1,-1
1570541958.0,2019-10-08,15:39:18.000,14.0,10.0,23.5900001525879,19.0,-11.2,-4.4,54.0,20.4,-47.5,21.1367,-11.3993,-4.13514,-7.49598,6.81115,-1.87283,50.7733,20.0482,-48.6637,0.105991,0.0740329,-0.189916,246.7,7.0,52.17,4.42719,1.5,1.43452,473.407,4.331230000000001,170.53799999999998,83.605,163.655,0.711226,-0.0746493999999999,250.711,1.0617,1.37164,1.7014389038085902,21.9994239807129,1.40968239307404,22.0,2004790.0,9936.93,pp-ro,1,1,-1,-1
1570541958.1,2019-10-08,15:39:18.100,14.0,8.0,23.780000686645497,18.6,-11.4,-4.5,53.8,20.4,-48.6,20.2968,-11.8504,-4.37381,-4.36644,-2.5110900000000003,-4.285080000000001,50.5845,20.7992,-50.2207,-0.0570634,-0.0490501999999999,0.159209,246.7,7.0,52.17,4.42719,1.2,1.3885299999999998,445.259,4.33127,169.34099999999998,85.8851,163.955,0.7122729999999999,-0.0882491,250.866,1.05792,1.36443,1.85472106933594,21.9994239807129,1.23232436180115,22.0,2005680.0,9444.7,pp-ro,1,1,-1,-1
1570541958.2,2019-10-08,15:39:18.200,14.0,8.0,23.6299991607666,18.2,-11.3,-4.4,53.8,20.5,-49.0,19.7395,-11.7131,-4.38949,-14.8349,-0.103103,-8.13497,50.5662,20.5266,-50.9644,0.138214,-0.184625,0.1645829999999999,246.7,7.0,52.17,4.42719,1.2,1.3442,432.916,4.33131,168.202,87.4051,164.355,0.7143109999999999,-0.0981557,250.886,1.05856,1.36785,1.98927307128906,21.9994239807129,1.17051577568054,22.0,2006440.0,6306.72,pp-ro,1,1,-1,-1
1570541958.3,2019-10-08,15:39:18.300,14.0,8.0,23.4099998474121,18.0,-11.5,-4.4,53.7,20.6,-49.1,19.7395,-11.7131,-4.38949,-14.8349,-0.103103,-8.13497,50.5662,20.5266,-50.9644,0.138214,-0.184625,0.1645829999999999,246.7,7.0,52.17,4.42719,1.2,1.35584,434.994,4.33134,167.063,89.3051,164.655,0.715532,-0.109865,250.991,1.06391,1.3667200000000002,1.6827011108398402,21.9994239807129,1.09350180625916,22.0,2006930.0,5168.43,pp-ro,1,1,-1,-1
1570541958.4,2019-10-08,15:39:18.400,14.0,9.0,22.7700004577637,17.8,-11.8,-4.6,53.4,19.9,-49.2,19.7395,-11.7131,-4.38949,-14.8349,-0.103103,-8.13497,50.5662,20.5266,-50.9644,0.138214,-0.184625,0.1645829999999999,246.7,7.0,52.17,4.42719,1.2,1.36526,445.524,4.33138,165.894,90.8251,164.855,0.716929,-0.119902,250.893,1.07799,1.35558,1.28417205810547,21.9994239807129,0.7928090691566471,22.0,2007670.0,4645.44,pp-ro,1,1,-1,-1
1570541958.5,2019-10-08,15:39:18.500,14.0,8.0,22.3799991607666,17.7,-12.3,-4.4,53.1,18.8,-49.8,19.2677,-12.2445,-4.35185,-4.99924,-1.5199200000000002,-2.39883,49.6916,19.3767,-51.8645,-0.10583,-0.20506,0.0294141999999999,247.9,6.2,52.17,4.42719,1.2,1.3885299999999998,459.573,4.33141,164.638,93.1051,165.455,0.7187,-0.1337,251.296,1.09371,1.35857,1.13088226318359,21.9994239807129,0.758223533630371,22.0,2008080.0,3630.21,pp-ro,1,1,-1,-1
1570541958.6,2019-10-08,15:39:18.600,14.0,8.0,22.1800003051758,17.5,-12.3,-4.2,53.2,18.7,-50.5,19.2204,-12.5104,-4.2413,7.59035,-8.33498,-0.00565135,49.7445,19.121,-51.9591,-0.0496484,-0.117127,0.0296387,247.9,6.2,52.17,4.42719,1.2,1.40349,454.468,4.33145,163.412,94.6251,165.755,0.72041,-0.143944,251.261,1.09353,1.36747,0.8856353759765621,21.9994239807129,0.8247559666633609,22.0,2008680.0,7168.13,pp-ro,1,1,-1,-1
1570541958.7,2019-10-08,15:39:18.700,14.0,11.0,22.1800003051758,17.4,-12.1,-4.0,52.9,18.2,-51.3,19.0456,-12.7905,-3.82097,-3.43149,1.87799,0.8262729999999999,49.4588,18.1473,-53.2295,-0.0608863,-0.4570479999999999,-0.0424813,247.9,6.2,52.17,4.42719,1.2,1.36193,435.597,4.3314900000000005,162.126,96.5251,166.055,0.721691,-0.156112,251.349,1.0984,1.38422,0.737457275390625,21.9994239807129,1.10315930843353,22.0,2009530.0,8091.06,pp-ro,1,1,-1,-1
1570541958.8,2019-10-08,15:39:18.800,14.0,9.0,22.0599994659424,16.9,-12.2,-3.9,52.5,17.6,-52.6,18.8304,-12.5832,-3.53675,-8.26158,0.978101,-3.35292,49.1409,17.2497,-54.5992,0.0995447,-0.220042,0.102696,247.9,6.2,52.17,4.42719,1.2,1.34864,432.871,4.33153,160.9,98.0451,166.455,0.723586,-0.166414,251.414,1.09724,1.3807200000000002,0.8209152221679691,21.9994239807129,0.89490020275116,22.0,2009900.0,6891.25,pp-ro,1,1,-1,-1
1570541958.9,2019-10-08,15:39:18.900,14.0,9.0,21.8600006103516,16.5,-12.2,-3.7,52.6,17.3,-52.8,18.2727,-12.8543,-3.35914,-8.239930000000001,-1.4493200000000002,-0.895602,49.6443,16.0551,-55.2373,0.0285224,-0.143731,0.079541,247.9,6.2,52.17,4.42719,1.2,1.35141,431.139,4.33157,159.585,99.9451,166.755,0.724795,-0.178702,251.523,1.10682,1.38627,1.05083465576172,21.9994239807129,0.957967102527618,22.0,2010360.0,4583.91,pp-ro,1,1,-1,-1
1570541959.0,2019-10-08,15:39:19.000,14.0,10.0,21.5,16.3,-11.8,-3.3,52.9,16.8,-52.6,17.9343,-12.5727,-3.17445,-0.298822,2.90499,5.7051300000000005,49.8377,15.4721,-55.8633,-0.0450693,-0.238038,-0.22002,247.9,6.2,52.17,4.42719,1.2,1.29877,395.765,4.33161,158.359,101.465,167.055,0.726275,-0.189053,251.555,1.12229,1.4116,1.07127380371094,21.9994239807129,-35.0,22.0,2011550.0,8921.7,pp-ro,1,1,-1,-1
1570541959.1,2019-10-08,15:39:19.100,14.0,8.0,21.2999992370605,16.1,-11.8,-2.9,53.4,16.2,-52.1,17.9343,-12.5727,-3.17445,-0.298822,2.90499,5.7051300000000005,49.8377,15.4721,-55.8633,-0.0450693,-0.238038,-0.22002,247.9,6.2,52.17,4.42719,1.0,1.26885,391.858,4.33165,157.19,102.985,167.255,0.727276,-0.199258,251.573,1.1425,1.4281700000000002,0.9094772338867192,21.9994239807129,-35.0,22.0,2012080.0,3814.8,pp-ro,1,1,-1,-1
1570541959.2,2019-10-08,15:39:19.200,14.0,8.0,21.1299991607666,16.1,-11.9,-2.7,53.7,16.1,-52.3,17.5595,-12.0484,-2.57015,-1.2354,-2.81666,1.87776,50.8081,15.7105,-54.6489,-0.229952,-0.0326732,0.00533866,247.9,6.2,52.17,4.42719,1.0,1.27993,386.773,4.33169,155.934,104.885,167.555,0.728154,-0.211418,251.776,1.14956,1.4412,0.8890380859375,21.9994239807129,-35.0,22.0,2012230.0,2645.75,pp-ro,1,1,-1,-1
1570541959.3,2019-10-08,15:39:19.300,14.0,11.0,20.840000152587898,16.5,-11.6,-2.3,53.8,15.8,-53.2,17.538,-12.2401,-2.3696,1.17022,-3.09539,3.69085,51.3557,15.4724,-54.4259,0.138648,-0.155079,0.0294077999999999,247.9,6.2,52.17,4.42719,1.0,1.24724,356.059,4.33175,154.737,106.405,167.755,0.729105,-0.221753,251.808,1.14954,1.4791,0.550117492675781,21.9994239807129,-35.0,22.0,2013000.0,9598.52,pp-ro,1,1,-1,-1
1570541959.4,2019-10-08,15:39:19.400,14.0,9.0,20.590000152587898,16.7,-11.7,-2.0,53.9,15.6,-54.0,17.6124,-12.5403,-2.18936,1.18534,-4.12524,0.591679,51.577,15.3972,-54.6585,0.1207029999999999,-0.1104349999999999,-0.0299765,247.9,6.2,52.17,4.42719,1.0,1.18906,351.139,4.33177,153.539,108.305,167.955,0.729424,-0.233696,252.018,1.15062,1.49992,0.051094055175781,21.9994239807129,-35.0,22.0,2013730.0,1015.23,pp-ro,1,1,-1,-1
1570541959.5,2019-10-08,15:39:19.500,14.0,10.0,20.2800006866455,16.6,-12.0,-1.4,53.8,14.8,-54.8,17.8582,-12.2569,-1.32211,-3.4781800000000005,1.1035700000000002,7.448819999999999,52.0464,14.9631,-56.501000000000005,0.164751,0.0937703,0.0542558999999999,249.0,6.6,52.17,4.42719,1.0,1.21787,363.068,4.33181,152.313,109.445,168.055,0.730615,-0.242494,251.833,1.15685,1.51804,-1.24594879150391,21.9994239807129,-35.0,22.0,2013750.0,461.467,pp-ro,1,1,-1,-1
1570541959.6,2019-10-08,15:39:19.600,14.0,10.0,20.1100006103516,16.6,-11.7,-1.1,53.3,13.9,-56.1,17.7253,-12.265999999999998,-0.8141470000000001,-0.407303,8.5549,4.50381,52.4798,13.8884,-57.3744,0.0907684,-0.3858789999999999,0.0834868,249.0,6.6,52.17,4.42719,1.0,1.24779,371.057,4.33186,151.69899999999998,110.205,168.155,0.7310479999999999,-0.247745,251.861,1.15583,1.54004,-2.66939544677734,21.9994239807129,-35.0,22.0,2014020.0,3599.45,pp-ro,1,1,-1,-1
1570541959.7,2019-10-08,15:39:19.700,14.0,11.0,20.020000457763697,16.6,-11.7,-0.9,53.3,12.3,-56.1,17.6485,-11.9021,-0.544882,-1.37005,0.18911,0.957512,52.0762,12.8583,-58.1445,-0.00601384,-0.120965,0.200148,249.0,6.6,52.17,4.42719,1.0,1.23837,365.576,4.33191,150.56,112.105,168.255,0.730793,-0.259551,252.083,1.18376,1.55519,-3.96654510498047,21.9994239807129,-35.0,22.0,2014570.0,5660.67,pp-ro,1,1,-1,-1
1570541959.8,2019-10-08,15:39:19.800,14.0,12.0,19.979999542236303,16.6,-11.6,-0.4,53.6,10.8,-55.3,17.5541,-11.7579,-0.297906,-1.92226,2.76091,0.0690296,52.1826,12.0739,-57.4187,0.0310355,0.0955218,0.586477,249.0,6.6,52.17,4.42719,1.0,1.22563,362.198,4.33196,149.392,113.625,168.355,0.73114,-0.269815,252.135,1.21917,1.58302,-6.02833557128906,21.9994239807129,-35.0,22.0,2015010.0,3968.62,pp-ro,1,1,-1,-1
1570541959.9,2019-10-08,15:39:19.900,14.0,12.0,20.0699996948242,16.7,-11.3,0.0,54.4,9.1,-53.6,17.3694,-11.5621,-0.0133452,-1.74203,3.00108,11.4141,52.8205,11.697,-55.9285,0.18875,0.408569,0.233276,249.0,6.6,52.17,4.42719,1.0,1.18961,322.088,4.33201,148.165,115.525,168.455,0.730939,-0.281842,252.341,1.2693299999999998,1.6158,-8.14131927490234,21.9994239807129,-35.0,22.0,2015870.0,8183.35,pp-ro,1,1,-1,-1
1570541960.0,2019-10-08,15:39:20.000,14.0,12.0,19.979999542236303,17.6,-11.1,0.7,55.1,7.3,-52.2,17.8986,-11.1692,0.880285,10.1653,2.8458,10.8764,53.4384,9.63486,-53.1264,-0.106142,0.074114,0.197713,249.0,6.6,52.17,4.42719,1.0,1.13809,309.246,4.33206,146.997,117.045,168.455,0.730878,-0.292094,252.359,1.31592,1.66925,-10.237243652343802,21.9994239807129,-35.0,22.0,2016280.0,8275.65,pp-ro,1,1,-1,-1
1570541960.1,2019-10-08,15:39:20.100,14.0,11.0,20.0300006866455,18.3,-10.8,1.8,56.3,4.9,-51.5,18.6265,-10.8978,1.7964099999999998,2.32843,0.806017,10.8924,54.2207,8.58608,-51.118,-0.0991765,0.252687,0.487854,249.0,6.6,52.17,4.42719,0.6,1.13199,318.111,4.33211,145.887,118.945,168.355,0.7297170000000001,-0.30374,252.536,1.36298,1.73452,-12.350227355957,21.9994239807129,-35.0,22.0,2016540.0,1415.17,pp-ro,1,1,-1,-1
1570541960.2,2019-10-08,15:39:20.200,14.0,10.0,20.020000457763697,19.0,-10.3,3.1,57.2,3.1,-49.9,18.6265,-10.8978,1.7964099999999998,2.32843,0.806017,10.8924,54.2207,8.58608,-51.118,-0.0991765,0.252687,0.487854,249.0,6.6,52.17,4.42719,0.6,1.18851,341.155,4.33216,144.806,120.845,168.055,0.727841,-0.315218,252.616,1.4131,1.80935,-14.4427337646484,21.9994239807129,-35.0,22.0,2016580.0,738.3480000000001,pp-ro,1,1,-1,-1
1570541960.3,2019-10-08,15:39:20.300,14.0,10.0,20.1100006103516,20.0,-9.5,5.3,58.9,-2.4,-48.2,19.7352,-9.84036,4.54166,7.204289999999999,2.12658,16.7448,56.4148,3.70098,-47.7576,0.201553,0.0619158999999999,0.5437350000000001,249.0,6.6,52.17,4.42719,0.6,1.19682,339.55400000000003,4.33221,143.317,123.505,167.555,0.724825,-0.331109,252.721,1.51584,1.92321,-16.545486450195302,21.9994239807129,-35.0,22.0,2017140.0,3999.38,pp-ro,1,1,-1,-1
1570541960.4,2019-10-08,15:39:20.400,14.0,11.0,20.3299999237061,20.3,-9.3,6.1,59.6,-4.5,-47.2,20.0004,-9.1344,6.066409999999999,0.949847,8.9989,17.5577,57.57899999999999,-0.199489,-45.8736,0.3604949999999999,-0.183435,0.8902700000000001,249.0,6.6,52.17,4.42719,0.6,1.17853,334.944,4.33226,142.82,124.645,167.255,0.722962,-0.337425,252.801,1.55959,1.95956,-18.6652984619141,21.9994239807129,-35.0,22.0,2017610.0,4245.5,pp-ro,1,1,-1,-1
1570541960.5,2019-10-08,15:39:20.500,14.0,10.0,20.6299991607666,20.5,-8.0,7.6,60.9,-10.0,-44.9,20.2043,-8.70376,6.768439999999999,-0.7458140000000001,11.3205,16.7727,58.4582,-2.37605,-44.4691,0.526123,-0.0294724,0.947217,249.9,6.9,52.17,4.42719,0.6,1.17576,329.176,4.332330000000001,141.944,126.545,166.655,0.7196130000000001,-0.348048,252.855,1.66667,2.05207,-20.7851181030273,21.9994239807129,-35.0,22.0,2017950.0,3230.27,pp-ro,1,1,-1,-1
1570541960.6,2019-10-08,15:39:20.600,14.0,10.0,20.840000152587898,20.7,-6.7,9.5,62.1,-15.2,-42.4,20.2709,-8.050510000000001,7.543010000000001,-0.0472457,8.31863,12.7672,59.2711,-4.75736,-42.9241,0.151105,0.149489,0.898183,249.9,6.9,52.17,4.42719,0.6,1.17299,325.29400000000004,4.33242,141.184,128.825,165.855,0.714727,-0.359684,253.055,1.77296,2.15428,-22.8981018066406,21.9994239807129,-35.0,22.0,2018180.0,4460.85,pp-ro,1,1,-1,-1
1570541960.7,2019-10-08,15:39:20.700,14.0,11.0,20.7999992370605,20.6,-5.5,11.1,63.1,-22.0,-39.4,20.2766,-5.98761,9.99419,-1.93756,13.8086,17.7894,61.4351,-12.6864,-37.7567,0.317773,0.182621,1.33618,249.9,6.9,52.17,4.42719,0.6,1.1513799999999998,319.002,4.3325,140.571,130.725,164.855,0.709577,-0.369236,253.035,1.90496,2.24138,-25.0315780639648,21.9994239807129,-35.0,22.0,2018620.0,3968.62,pp-ro,1,1,-1,-1
1570541960.8,2019-10-08,15:39:20.800,14.0,11.0,20.6299991607666,20.3,-3.6,12.7,64.5,-28.4,-34.7,19.9224,-4.40089,11.4557,-3.87627,10.707,17.3961,61.9244,-18.5796,-31.9002,0.395833,0.710128,1.22476,249.9,6.9,52.17,4.42719,0.6,1.1403,300.896,4.33259,140.07399999999998,133.005,163.755,0.703195,-0.379717,253.233,2.04848,2.35147,-27.1309127807617,21.9994239807129,-35.0,22.0,2018970.0,3968.62,pp-ro,1,1,-1,-1
