time,date,time_of_day,airspeed_temperature,airspeed_angle_of_attack,airspeed_apparent_windspeed,kite_0_vx,kite_0_vy,kite_0_vz,kite_0_roll,kite_0_pitch,kite_0_yaw,kite_1_vx,kite_1_vy,kite_1_vz,kite_1_ax,kite_1_ay,kite_1_az,kite_1_roll,kite_1_pitch,kite_1_yaw,kite_1_roll_rate,kite_1_pitch_rate,kite_1_yaw_rate,ground_upwind_direction,ground_wind_velocity,ground_pos_latitude,ground_pos_longitude,ground_pos_altitude,ground_tether_reelout_speed,ground_tether_force,est_upwind_direction,kite_pos_east,kite_pos_north,kite_height,kite_elevation,kite_azimuth,kite_distance,kite_heading,kite_course,kite_actual_steering,kite_actual_depower,kite_set_steering,kite_set_depower,ground_mech_energy,ground_mech_power,flight_phase,flight_phase_index,phase,pattern,pattern_section
1570542561.0,2019-10-08,15:49:21.000,14.0,6.0,15.1800003051758,9.8,-5.2,2.3,18.5,-2.8,-73.8,9.02162,-4.59911,2.64005,14.6078,5.77154,3.5721300000000005,21.7669,10.7229,-75.2661,0.153727,0.2041059999999999,0.779033,245.2,7.8,52.1701,4.42719,-1.2,-2.17533,91.5575,4.30526,52.4567,19.381,241.094,1.34287,0.0532175999999999,247.49400000000003,0.6560819999999999,1.48701,-34.5724487304688,22.016416549682603,-35.0,22.0,2424270.0,-7321.95,pp-riro,4,0,-1,-1
1570542561.1,2019-10-08,15:49:21.100,14.0,7.0,14.8299999237061,11.0,-4.5,2.5,20.1,-4.6,-69.0,9.55233,-4.1419,2.80897,14.0639,8.61998,3.05479,22.8461,10.2007,-72.546,0.360598,0.214639,0.860964,245.2,7.8,52.1701,4.42719,-1.1,-2.22298,89.2608,4.30535,51.9309,20.9011,240.894,1.34247,0.0244,247.312,0.775209,1.61285,-34.927459716796896,22.0019989013672,-35.0,22.0,2423300.0,-10798.3,pp-riro,4,0,-1,-1
1570542561.2,2019-10-08,15:49:21.200,14.0,6.0,14.5200004577637,12.5,-3.2,3.2,22.8,-6.8,-62.4,11.0729,-2.91024,3.40047,9.11799,7.182239999999999,6.45034,25.7882,8.43561,-64.5078,0.204228,0.138194,0.922598,245.2,7.8,52.1701,4.42719,-1.1,-2.25124,89.3487,4.30544,51.4928,21.6611,240.694,1.34274,0.00880611,247.091,0.914334,1.76962,-34.971832275390604,22.0009689331055,-35.0,22.0,2422750.0,-11136.7,pp-riro,4,0,-1,-1
1570542561.3,2019-10-08,15:49:21.300,14.0,7.0,14.3400001525879,12.9,-2.8,3.5,23.5,-7.7,-59.9,11.9767,-2.08203,3.87459,7.958660000000001,8.66045,4.70568,27.6209,6.803789999999999,-59.1958,0.155746,0.170576,0.945127,245.2,7.8,52.1701,4.42719,-1.1,-2.3144,87.4023,4.30552,51.0839,22.8011,240.49400000000003,1.34225,-0.0129462999999999,246.914,0.983337,1.82982,-34.971832275390604,22.0009689331055,-35.0,22.0,2421710.0,-10798.3,pp-riro,4,0,-1,-1
1570542561.4,2019-10-08,15:49:21.400,14.0,7.0,14.1499996185303,13.7,-1.8,4.0,24.9,-9.5,-55.1,12.344,-1.60873,4.11994,8.13531,10.2503,4.86688,28.4381,5.92427,-56.5415,0.1836539999999999,0.140125,0.958701,245.2,7.8,52.1701,4.42719,-1.1,-2.41857,79.7573,4.30561,50.7918,24.3212,240.194,1.3405,-0.0397996,246.707,1.10138,1.94072,-34.975250244140604,22.0009689331055,-35.0,22.0,2419660.0,-15197.7,pp-riro,4,0,-1,-1
1570542561.5,2019-10-08,15:49:21.500,14.0,8.0,13.8999996185303,14.7,-0.3,4.5,26.5,-12.5,-47.7,13.3368,-0.1133349999999999,4.801080000000001,5.298080000000001,8.363760000000001,4.49326,30.5466,2.94292,-48.312,0.285935,0.177163,0.961541,245.8,7.4,52.1701,4.42719,-1.1,-2.4773,76.5807,4.3057,50.5289,26.2212,239.794,1.33771,-0.0719911,246.458,1.27493,2.08036,-34.9940185546875,22.0009689331055,-35.0,22.0,2418740.0,-17135.8,pp-riro,4,0,-1,-1
1570542561.6,2019-10-08,15:49:21.600,14.0,8.0,13.8400001525879,15.1,0.0,4.6,26.9,-13.3,-45.2,13.632,0.388009,5.05989,5.10186,10.7879,2.81016,31.3234,1.82773,-45.6467,0.152844,0.119627,0.979799,245.8,7.4,52.1701,4.42719,-1.1,-2.59033,72.7759,4.30577,50.4997,26.9813,239.594,1.33623,-0.0840807,246.34,1.33387,2.11117,-34.9957275390625,22.0009689331055,-35.0,22.0,2416770.0,-20889.1,pp-riro,4,0,-1,-1
1570542561.7,2019-10-08,15:49:21.700,14.0,8.0,13.7700004577637,15.7,1.0,5.0,27.7,-15.3,-40.0,14.2347,1.30499,5.27297,7.1812,9.10682,3.0242,32.1628,-0.316327,-40.3939,0.185594,0.242842,0.95292,245.8,7.4,52.1701,4.42719,-1.1,-2.72775,76.7153,4.30584,50.4997,28.8813,239.294,1.33231,-0.112928,246.264,1.46147,2.20197,-34.9957275390625,22.0009689331055,-35.0,22.0,2414500.0,-22919.5,pp-riro,4,0,-1,-1
1570542561.8,2019-10-08,15:49:21.800,14.0,8.0,13.8400001525879,16.3,1.9,5.5,28.1,-17.3,-34.9,14.7843,2.21008,5.66486,3.162,8.90648,7.23172,32.7725,-2.43306,-34.8952,0.0578398,0.258339,0.939814,245.8,7.4,52.1701,4.42719,-1.1,-2.88178,84.9798,4.30592,50.5873,30.4014,238.794,1.32849,-0.134658,245.979,1.5796,2.27565,-34.9974365234375,22.0009689331055,-35.0,22.0,2411650.0,-17166.6,pp-riro,4,0,-1,-1
1570542561.9,2019-10-08,15:49:21.900,14.0,9.0,13.8999996185303,16.7,3.0,5.9,28.3,-19.6,-29.4,15.1209,3.10679,6.04204,3.26625,10.5148,3.85432,32.9761,-4.75028,-29.0757,0.142302,0.202086,1.02605,245.8,7.4,52.1701,4.42719,-1.1,-2.95991,85.6667,4.30599,50.7917,31.9214,238.394,1.32427,-0.154694,245.826,1.70356,2.3553,-35.0008544921875,22.0009689331055,-35.0,22.0,2409980.0,-16951.2,pp-riro,4,0,-1,-1
1570542562.0,2019-10-08,15:49:22.000,14.0,8.0,13.8999996185303,16.9,4.2,6.3,28.2,-21.9,-23.6,15.1209,3.10679,6.04204,3.26625,10.5148,3.85432,32.9761,-4.75028,-29.0757,0.142302,0.202086,1.02605,245.8,7.4,52.1701,4.42719,-1.1,-3.03194,79.6732,4.3061,51.113,33.8215,237.894,1.31865,-0.178266,245.662,1.83515,2.44207,-35.0008544921875,22.0009689331055,-35.0,22.0,2408220.0,-18181.8,pp-riro,4,0,-1,-1
1570542562.1,2019-10-08,15:49:22.100,14.0,9.0,13.960000038147,17.0,5.5,6.6,27.7,-23.8,-17.9,15.5612,5.87519,6.892289999999999,0.896949,11.0551,2.51937,31.6927,-10.2701,-14.6046,0.148541,0.236813,0.979934,245.8,7.4,52.1701,4.42719,-1.1,-3.09233,76.315,4.3061300000000005,51.5511,35.7216,237.294,1.3124,-0.199712,245.442,1.95989,2.5287900000000003,-34.9991455078125,22.0009689331055,-35.0,22.0,2407060.0,-21781.3,pp-riro,4,0,-1,-1
1570542562.2,2019-10-08,15:49:22.200,14.0,8.0,14.0900001525879,17.1,6.8,6.9,27.1,-25.4,-12.3,15.6041,6.49613,7.04818,0.00542586,12.0099,3.49916,31.3304,-11.1234,-11.8054,0.0347598999999999,0.228755,0.924143,245.8,7.4,52.1701,4.42719,-1.1,-3.20149,77.1684,4.3062,52.1352,37.2416,236.794,1.30655,-0.2140929999999999,245.30900000000003,2.07324,2.60473,-35.0008544921875,22.0009689331055,-35.0,22.0,2404580.0,-26211.3,pp-riro,4,0,-1,-1
1570542562.3,2019-10-08,15:49:22.300,14.0,8.0,14.3400001525879,17.2,8.1,7.3,26.6,-26.3,-6.5,15.7316,8.26867,7.59606,1.54918,11.3799,6.57748,30.1966,-13.1727,-3.19862,0.1865619999999999,0.289273,0.873959,245.8,7.4,52.1701,4.42719,-1.1,-3.30455,88.3284,4.30628,52.7777,39.1417,236.194,1.29946,-0.232011,245.163,2.1886400000000004,2.6804900000000003,-35.0008544921875,22.0009689331055,-35.0,22.0,2402270.0,-20612.2,pp-riro,4,0,-1,-1
1570542562.4,2019-10-08,15:49:22.400,14.0,9.0,14.3999996185303,17.3,9.5,8.0,25.9,-27.4,-0.9,15.8412,9.48959,8.18201,1.0580200000000002,12.9501,4.74155,29.3852,-14.122,2.69582,0.0159246,0.298177,0.985648,245.8,7.4,52.1701,4.42719,-1.1,-3.3715900000000003,102.585,4.30635,53.6539,40.6618,235.49400000000003,1.29235,-0.242466,244.927,2.2934900000000003,2.75055,-35.0008544921875,22.0009689331055,-35.0,22.0,2400610.0,-7875.71,pp-riro,4,0,-1,-1
1570542562.5,2019-10-08,15:49:22.500,14.0,8.0,14.5200004577637,17.2,10.8,8.5,25.1,-28.7,4.2,15.8412,9.48959,8.18201,1.0580200000000002,12.9501,4.74155,29.3852,-14.122,2.69582,0.0159246,0.298177,0.985648,245.2,7.2,52.1701,4.42719,-1.1,-3.36771,104.835,4.30642,54.6177,42.5618,234.694,1.2839,-0.256002,244.695,2.39297,2.81884,-35.0008544921875,22.0009689331055,-23.0044822692871,22.0,2400240.0,-7198.89,pp-riro,4,0,-1,-1
1570542562.6,2019-10-08,15:49:22.600,14.0,11.0,14.5799999237061,17.1,12.1,8.9,24.3,-29.5,9.8,15.774,10.773,8.69655,-2.08541,11.5321,6.871169999999999,28.2087,-14.9988,8.65623,0.109928,0.330457,0.852216,245.2,7.2,52.1701,4.42719,-1.1,-3.32062,115.151,4.30644,55.6984,44.0819,233.894,1.27596,-0.263547,244.442,2.49148,2.87752,-34.9991455078125,22.0009689331055,-23.0044822692871,22.0,2399680.0,-1015.23,pp-riro,4,0,-1,-1
1570542562.7,2019-10-08,15:49:22.700,14.0,10.0,14.7600002288818,17.1,13.5,9.3,23.4,-30.1,15.8,15.5705,12.6192,9.2994,-1.788,11.7758,3.5275199999999995,26.534,-16.4372,16.718,0.0719551,0.301761,0.8781620000000001,245.2,7.2,52.1701,4.42719,-1.1,-3.28571,120.871,4.30645,56.9251,45.982,232.99400000000003,1.2664799999999998,-0.273521,244.215,2.59666,2.93554,-34.744842529296896,22.0009689331055,-23.0044822692871,22.0,2399790.0,2091.99,pp-riro,4,0,-1,-1
1570542562.8,2019-10-08,15:49:22.800,14.0,9.0,15.0600004196167,17.2,14.9,9.9,22.5,-30.7,21.7,15.5705,12.6192,9.2994,-1.788,11.7758,3.5275199999999995,26.534,-16.4372,16.718,0.0719551,0.301761,0.8781620000000001,245.2,7.2,52.1701,4.42719,-1.1,-3.17932,138.298,4.30647,58.2978,47.502,232.094,1.25746,-0.277792,243.973,2.69407,2.98206,-34.1030883789062,22.0009689331055,-23.0044822692871,22.0,2400830.0,15505.3,pp-riro,4,0,-1,-1
1570542562.9,2019-10-08,15:49:22.900,14.0,12.0,15.3500003814697,17.0,16.5,10.6,21.5,-31.5,27.5,15.6005,13.923,9.772,-0.4822649999999999,11.9452,6.00717,25.2593,-17.2667,22.6618,0.0100738999999999,0.317309,0.92654,245.2,7.2,52.1701,4.42719,-1.1,-2.98318,154.415,4.3065,59.7873,49.4021,230.99400000000003,1.24687,-0.284679,243.666,2.79179,3.04096,-33.1046295166016,22.0009689331055,-23.0044822692871,22.0,2403100.0,25042.3,pp-riro,4,0,-1,-1
1570542563.0,2019-10-08,15:49:23.000,14.0,11.0,15.5699996948242,16.5,18.0,11.2,20.3,-32.7,33.8,15.3194,16.774,10.9969,-4.2350900000000005,18.2324,4.684069999999999,22.0705,-19.4088,34.6314,0.188407,0.127323,0.8961309999999999,245.2,7.2,52.1701,4.42719,-1.1,-2.7283,167.942,4.3065,61.5397,51.3022,229.894,1.23545,-0.289037,243.455,2.8942900000000003,3.09866,-31.754562377929695,22.0009689331055,-23.0044822692871,22.0,2406120.0,31472.1,pp-riro,4,0,-1,-1
1570542563.1,2019-10-08,15:49:23.100,14.0,12.0,15.9099998474121,15.9,19.5,11.5,18.6,-33.3,40.0,15.0898,17.4907,11.2376,-5.29426,11.687,6.950660000000001,21.1067,-20.0458,37.521,0.124106,0.172337,0.956289,245.2,7.2,52.1701,4.42719,-1.1,-2.38809,175.565,4.30652,63.3506,52.4423,228.694,1.22559,-0.285603,243.032,2.98587,3.14836,-30.047790527343803,22.0009689331055,-23.0044822692871,22.0,2409720.0,35102.3,pp-riro,4,0,-1,-1
1570542563.2,2019-10-08,15:49:23.200,14.0,12.0,16.3999996185303,15.1,20.7,12.0,16.3,-34.0,46.1,14.5305,18.8643,11.6207,-6.34515,14.8893,3.47197,19.3231,-21.4243,43.3067,-0.0180609,0.0930222,1.03513,245.2,7.2,52.1701,4.42719,-1.1,-1.87114,174.755,4.30654,65.3366,54.3423,227.49400000000003,1.21329,-0.28794,242.849,3.07986,3.1993400000000003,-28.0747528076172,22.0009689331055,-23.0044822692871,22.0,2414240.0,28088.0,pp-riro,4,0,-1,-1
1570542563.3,2019-10-08,15:49:23.300,14.0,12.0,16.7800006866455,14.3,21.8,12.0,14.3,-34.3,52.3,14.2497,19.4701,11.7585,-6.27881,12.7454,4.82305,18.3652,-22.0915,46.2596,0.0308122999999999,0.123495,0.889956,245.2,7.2,52.1701,4.42719,-1.1,-1.6744400000000002,173.88,4.30656,67.4103,55.8624,226.294,1.20165,-0.2861599999999999,242.639,3.17044,3.2430000000000003,-27.170166015625,22.0009689331055,-22.9158821105957,22.0,2415490.0,24703.9,pp-riro,4,0,-1,-1
1570542563.4,2019-10-08,15:49:23.400,14.0,9.0,17.2399997711182,13.0,22.8,12.1,12.3,-34.1,58.6,13.0891,21.0831,12.0251,-5.94185,8.44877,1.25231,15.1698,-23.941,54.7446,-0.0752638,-0.0638145,0.995445,245.2,7.2,52.1701,4.42719,-1.1,-1.33423,175.365,4.30657,69.6592,57.3825,224.99400000000003,1.1893200000000002,-0.2832449999999999,242.42,3.26106,3.29686,-25.6357727050781,22.0009689331055,-22.3438682556152,22.0,2417570.0,19658.5,pp-riro,4,0,-1,-1
1570542563.5,2019-10-08,15:49:23.500,14.0,9.0,17.6000003814697,11.8,23.8,12.1,10.2,-33.8,64.0,12.0451,22.0438,12.0957,-13.4259,14.133,-2.08107,13.387,-24.5625,60.2945,0.2165659999999999,-0.087756,0.698523,244.8,7.1,52.1701,4.42719,-1.1,-0.798987,170.36700000000002,4.30659,71.9081,58.5225,223.794,1.17804,-0.2773219999999999,242.238,3.3357900000000003,3.34429,-24.4222564697266,22.0009689331055,-21.791925430297898,22.0,2419710.0,11444.4,pp-riro,4,0,-1,-1
1570542563.6,2019-10-08,15:49:23.600,14.0,8.0,17.9400005340576,10.5,24.6,11.9,9.0,-33.5,69.1,12.0451,22.0438,12.0957,-13.4259,14.133,-2.08107,13.387,-24.5625,60.2945,0.2165659999999999,-0.087756,0.698523,244.8,7.1,52.1701,4.42719,-1.1,-0.636641,167.912,4.30655,74.2739,59.6626,222.594,1.16639,-0.270899,242.124,3.40561,3.39088,-23.398193359375,22.0009689331055,-21.2763385772705,22.0,2420160.0,8706.35,pp-riro,4,0,-1,-1
1570542563.7,2019-10-08,15:49:23.700,14.0,9.0,18.0400009155273,9.1,25.3,11.7,7.4,-32.9,74.0,9.00612,24.1672,11.8711,-13.8527,7.347110000000001,-0.394926,9.39196,-24.529,72.4486,-0.176774,0.129777,0.565122,244.8,7.1,52.1701,4.42719,-1.1,-0.300867,168.884,4.30651,76.8149,60.8027,221.394,1.1542,-0.26369,242.101,3.47251,3.43812,-22.5686950683594,22.0009689331055,-20.771017074585,22.0,2420640.0,3784.03,pp-riro,4,0,-1,-1
1570542563.8,2019-10-08,15:49:23.800,14.0,8.0,18.1800003051758,7.8,25.8,11.7,6.1,-31.9,78.6,9.00612,24.1672,11.8711,-13.8527,7.347110000000001,-0.394926,9.39196,-24.529,72.4486,-0.176774,0.129777,0.565122,244.8,7.1,52.1701,4.42719,-1.1,0.0155143,178.205,4.3064800000000005,79.3267,61.5627,220.294,1.14312,-0.254062,242.099,3.5345800000000005,3.47644,-21.8211288452148,22.0009689331055,-20.3470630645752,22.0,2420720.0,-399.9380000000001,pp-riro,4,0,-1,-1
1570542563.9,2019-10-08,15:49:23.900,14.0,8.0,18.229999542236303,6.5,26.1,11.6,4.8,-31.6,83.1,7.12028,24.9801,11.7057,-12.6901,6.97779,-1.66192,7.08865,-23.6957,79.2088,0.125433,0.0683221,0.677272,244.8,7.1,52.1701,4.42719,-1.1,0.385641,183.235,4.30644,81.8969,62.3228,219.194,1.13184,-0.244546,242.151,3.5931800000000003,3.5130800000000004,-21.1708526611328,22.0009689331055,-19.9858112335205,22.0,2420190.0,-6645.13,pp-riro,4,0,-1,-1
1570542564.0,2019-10-08,15:49:24.000,14.0,8.0,18.2800006866455,5.3,26.5,11.4,3.4,-31.1,87.5,6.47293,25.1843,11.6295,-9.58979,-3.14128,-2.1562,6.36051,-23.3116,81.6474,-0.11047,0.136204,0.7066520000000001,244.8,7.1,52.1701,4.42719,-1.1,0.297542,181.498,4.3064,84.5839,63.0828,218.094,1.12018,-0.234819,242.278,3.65082,3.54801,-20.4966735839844,22.0009689331055,-19.6909580230713,22.0,2420580.0,3691.74,pp-riro,4,0,-1,-1
1570542564.1,2019-10-08,15:49:24.100,14.0,7.0,18.3700008392334,4.0,26.6,11.6,2.1,-29.5,91.6,5.24814,25.4433,11.4318,-12.7847,2.48976,-3.13707,4.89363,-23.1406,85.8101,-0.13038,0.0541321,0.607262,244.8,7.1,52.1701,4.42719,-0.9,0.373452,212.785,4.30636,87.2417,63.4629,216.99400000000003,1.10942,-0.222876,242.332,3.70763,3.5791800000000005,-19.9829330444336,22.0009689331055,-19.3919353485107,22.0,2420470.0,-399.9380000000001,pp-riro,4,0,-1,-1
1570542564.2,2019-10-08,15:49:24.200,14.0,9.0,18.4699993133545,2.7,26.8,11.9,0.0,-29.3,96.3,4.12758,25.5469,11.4093,-7.895010000000001,-2.45201,0.625297,3.08986,-22.0938,90.1206,0.0992385,0.132424,0.689558,244.8,7.1,52.1701,4.42719,-0.9,0.383979,222.147,4.30632,89.958,64.223,215.794,1.09743,-0.213942,242.454,3.76926,3.61305,-19.6978988647461,22.0009689331055,-19.1915607452393,22.0,2420520.0,953.699,pp-riro,4,0,-1,-1
1570542564.3,2019-10-08,15:49:24.300,14.0,10.0,18.6100006103516,1.4,27.0,11.8,-1.7,-28.9,100.6,2.2365,25.893,11.6294,-6.95592,3.52817,-1.07195,-0.0166307,-21.2073,96.9458,-0.0364091999999999,0.0583091,0.846376,244.8,7.1,52.1701,4.42719,-0.9,0.390628,227.173,4.30628,92.5866,64.223,214.594,1.08728,-0.200349,242.378,3.82205,3.64532,-19.3224105834961,22.0009689331055,-18.8393421173096,22.0,2420550.0,61.529,pp-riro,4,0,-1,-1
1570542564.4,2019-10-08,15:49:24.400,14.0,9.0,18.8899993896484,0.3,27.1,11.7,-3.9,-27.6,104.8,1.59443,25.9633,11.5403,-9.83862,0.606459,-6.98795,-0.984872,-20.9808,99.0893,-0.102899,0.0163534,0.68501,244.8,7.1,52.1701,4.42719,-0.9,0.400047,233.83900000000003,4.30625,95.3028,64.6031,213.49400000000003,1.07621,-0.189596,242.561,3.88118,3.67301,-19.0766372680664,22.0009689331055,-18.712329864502,22.0,2420620.0,892.17,pp-riro,4,0,-1,-1
1570542564.5,2019-10-08,15:49:24.500,14.0,11.0,19.1700000762939,-1.0,27.2,11.9,-5.8,-26.2,108.9,-0.214803,26.1166,11.4336,-8.47229,3.3614900000000003,-3.69653,-4.54365,-19.7562,105.297,-0.391395,0.0727156,0.611061,244.1,7.0,52.1701,4.42719,-0.9,0.417224,244.243,4.30621,97.9607,64.6031,212.294,1.06585,-0.17683,242.566,3.93854,3.70282,-18.8342742919922,22.0009689331055,-18.481647491455103,22.0,2420660.0,153.822,pp-riro,4,0,-1,-1
1570542564.6,2019-10-08,15:49:24.600,14.0,10.0,19.3500003814697,-2.3,27.2,12.0,-8.1,-25.4,112.8,-1.48188,26.1786,11.5679,-12.2624,1.44231,0.424372,-7.317369999999999,-18.6488,109.271,-0.158648,0.0350218,0.658845,244.1,7.0,52.1701,4.42719,-0.9,0.4504689999999999,264.409,4.30618,100.677,64.2231,211.094,1.05597,-0.161622,242.53,3.98727,3.73071,-18.5885009765625,22.0009689331055,-18.2336978912354,22.0,2420750.0,584.525,pp-riro,4,0,-1,-1
1570542564.7,2019-10-08,15:49:24.700,14.0,11.0,19.5300006866455,-3.6,27.2,11.9,-10.5,-24.2,117.0,-2.68296,26.0961,11.4885,-9.85606,-0.0220680999999999,1.80308,-9.62977,-17.7644,113.27,-0.185776,0.0912443999999999,0.614093,244.1,7.0,52.1701,4.42719,-0.9,0.4731859999999999,274.768,4.30615,103.481,64.2232,209.794,1.04482,-0.1492119999999999,242.582,4.04565,3.762680000000001,-18.3802719116211,22.0009689331055,-18.0657863616943,22.0,2420820.0,922.935,pp-riro,4,0,-1,-1
1570542564.8,2019-10-08,15:49:24.800,14.0,12.0,19.7999992370605,-5.1,27.0,11.8,-12.0,-22.7,120.1,-3.39922,26.1112,11.518,-14.5198,0.7111729999999999,-1.60382,-10.8391,-17.41,115.245,-0.165604,-0.0993626,0.6734829999999999,244.1,7.0,52.1701,4.42719,-0.9,0.488701,286.681,4.30612,106.197,63.4632,208.594,1.03547,-0.132385,242.522,4.08734,3.79715,-18.1549758911133,22.0009689331055,-17.6765079498291,22.0,2420910.0,707.5830000000001,pp-riro,4,0,-1,-1
1570542564.9,2019-10-08,15:49:24.900,14.0,11.0,19.9699993133545,-6.5,26.5,11.7,-14.0,-21.2,123.6,-4.80032,25.9655,11.469,-13.1352,-2.50188,-1.63835,-13.1826,-16.4167,118.655,-0.0904557,0.0622723,0.427543,244.1,7.0,52.1701,4.42719,-0.9,0.503107,292.994,4.30609,108.855,62.7032,207.294,1.02597,-0.116324,242.388,4.13592,3.82995,-17.9228515625,22.0009689331055,-17.374963760376,22.0,2420950.0,676.819,pp-riro,4,0,-1,-1
1570542565.0,2019-10-08,15:49:25.000,14.0,11.0,20.229999542236303,-8.0,26.1,11.5,-15.8,-20.3,127.0,-6.31035,25.5407,11.3839,-13.4258,-0.573308,-0.7056600000000001,-15.2775,-15.3336,121.855,-0.285238,0.0937378999999999,0.629038,244.1,7.0,52.1701,4.42719,-0.9,0.519729,301.034,4.30607,111.6,61.9432,205.99400000000003,1.01607,-0.100384,242.332,4.17853,3.86742,-17.7590026855469,22.0009689331055,-17.0423831939697,22.0,2421050.0,1199.82,pp-riro,4,0,-1,-1
1570542565.1,2019-10-08,15:49:25.100,14.0,12.0,20.409999847412102,-9.2,25.7,11.2,-17.2,-19.2,130.3,-7.681139999999999,25.113000000000003,11.1797,-19.2467,-2.38444,-2.66598,-17.3545,-14.4481,125.16,-0.0770005,0.0391036,0.4244699999999999,244.1,7.0,52.1701,4.42719,-0.7,0.5297029999999999,306.34,4.306030000000001,114.229,61.1833,204.794,1.00665,-0.0853757,242.347,4.22232,3.8978,-17.4005813598633,22.0009689331055,-16.8689823150635,22.0,2421190.0,1476.7,pp-riro,4,0,-1,-1
1570542565.2,2019-10-08,15:49:25.200,14.0,11.0,20.5300006866455,-10.6,25.2,11.0,-18.1,-18.2,133.3,-8.85397,24.5903,10.954,-7.22537,-3.09188,-0.177644,-19.0321,-13.3104,128.468,-0.230393,-0.128104,0.595784,244.1,7.0,52.1701,4.42719,-0.7,0.5607310000000001,329.848,4.30601,116.799,60.4233,203.49400000000003,0.997078,-0.0710306,242.286,4.26161,3.93456,-17.1018981933594,22.0009689331055,-16.624219894409197,22.0,2421340.0,584.525,pp-riro,4,0,-1,-1
1570542565.3,2019-10-08,15:49:25.300,14.0,11.0,20.8299999237061,-11.2,24.9,10.9,-18.8,-16.9,136.3,-8.85397,24.5903,10.954,-7.22537,-3.09188,-0.177644,-19.0321,-13.3104,128.468,-0.230393,-0.128104,0.595784,244.1,7.0,52.1701,4.42719,-0.7,0.583449,337.861,4.30598,119.311,59.2833,202.294,0.988409,-0.0547385,242.224,4.30227,3.94272,-16.9158554077148,22.0009689331055,-16.8937492370605,22.0,2421380.0,861.4060000000001,pp-riro,4,0,-1,-1
1570542565.4,2019-10-08,15:49:25.400,14.0,10.0,21.2099990844727,-13.0,23.8,10.4,-19.3,-15.3,139.4,-8.85397,24.5903,10.954,-7.22537,-3.09188,-0.177644,-19.0321,-13.3104,128.468,-0.230393,-0.128104,0.595784,244.1,7.0,52.1701,4.42719,-0.7,0.600071,347.348,4.30595,121.706,58.1433,201.094,0.979979,-0.0392392,242.14,4.34807,4.00047,-16.6154632568359,22.0009689331055,-16.2037353515625,22.0,2421550.0,1692.05,pp-riro,4,0,-1,-1
1570542565.5,2019-10-08,15:49:25.500,14.0,10.0,21.6200008392334,-13.6,23.4,10.2,-19.5,-14.8,141.0,-12.6082,22.503,10.1298,-9.12251,-8.83273,0.8535659999999999,-22.1007,-9.70643,137.82399999999998,-0.0200233,-0.0409741,0.6497890000000001,243.6,7.2,52.1701,4.42719,-0.7,0.611153,351.661,4.30592,122.962,57.3833,200.49400000000003,0.975816,-0.0301669,242.095,4.36787,4.01769,-16.5011138916016,22.0025119781494,-16.087957382202102,22.0,2421830.0,2091.99,pp-riro,4,0,-1,-1
1570542565.6,2019-10-08,15:49:25.600,14.0,9.0,21.899999618530305,-15.2,22.0,9.5,-19.8,-13.9,146.0,-12.6082,22.503,10.1298,-9.12251,-8.83273,0.8535659999999999,-22.1007,-9.70643,137.82399999999998,-0.0200233,-0.0409741,0.6497890000000001,243.6,7.2,52.1701,4.42719,-0.7,0.616694,360.356,4.30596,126.408,55.1033,199.394,0.965744,-0.00465047,242.432,4.42572,4.07026,-16.2945861816406,22.0019989013672,-15.6100234985352,22.0,2422020.0,1784.34,pp-riro,4,0,-1,-1
1570542565.7,2019-10-08,15:49:25.700,14.0,9.0,22.1800003051758,-16.2,21.0,8.8,-20.1,-12.0,148.9,-14.0576,21.1094,9.49512,-7.87006,-10.2868,-7.535489999999999,-22.6997,-8.38445,143.004,0.1143849999999999,-0.276325,0.638777,243.6,7.2,52.1701,4.42719,-0.7,0.629438,365.821,4.306,128.57,53.5833,197.794,0.957249,0.0115152,241.917,4.47159,4.110530000000001,-16.0829467773438,22.0025119781494,35.0,22.0,2422090.0,1353.64,pp-riro,4,0,-1,-1
1570542565.8,2019-10-08,15:49:25.800,14.0,9.0,22.4599990844727,-17.0,19.7,8.1,-19.9,-10.6,151.8,-15.464,19.5224,8.31873,-7.15798,-14.7278,-9.82579,-23.119,-6.544,147.791,0.12617,-0.0263621,0.620557,243.6,7.2,52.1701,4.42719,-0.7,0.646614,370.416,4.30604,130.585,51.6833,196.794,0.950971,0.0294852,241.767,4.511419999999999,4.15029,-15.7876739501953,22.003026962280305,35.0,22.0,2422300.0,2338.1,pp-riro,4,0,-1,-1
1570542565.9,2019-10-08,15:49:25.900,14.0,8.0,22.690000534057603,-17.5,18.2,7.3,-20.0,-9.4,154.1,-15.829,18.7296,8.06059,-1.02706,-17.7498,-1.37839,-23.2877,-5.99291,149.42,-0.0371388,-0.0933953999999999,0.627216,243.6,7.2,52.1701,4.42719,-0.7,1.31761,377.11300000000006,4.306080000000001,132.542,50.1633,195.894,0.944512,0.0445012,241.781,4.54328,4.19267,-15.1322784423828,22.0025119781494,35.0,22.0,2418650.0,-30733.7,pp-riro,4,0,-1,-1
1570542566.0,2019-10-08,15:49:26.000,14.0,7.0,22.8400001525879,-17.1,17.2,6.2,-20.5,-8.3,156.2,-16.3283,16.826,6.74511,-5.4227300000000005,0.474435,-12.6094,-23.0402,-5.771380000000001,154.251,0.0601688,-0.273361,0.356468,243.6,7.2,52.1701,4.42719,-0.7,1.37191,358.051,4.30612,134.32399999999998,48.2633,195.094,0.939173,0.0613318999999999,241.731,4.57006,4.20926,-14.6731567382812,22.0025119781494,35.0,22.0,2419530.0,16551.3,pp-riro,4,0,-1,-1
1570542566.1,2019-10-08,15:49:26.100,14.0,5.0,22.9599990844727,-17.0,16.8,5.9,-20.4,-7.3,157.1,-15.8846,15.9455,5.76503,3.52811,-7.45282,-9.83347,-23.1954,-5.10728,156.681,0.0757786,0.104933,0.359894,243.6,7.2,52.1701,4.42719,-0.7,1.07104,311.44,4.30616,135.2,47.5033,194.794,0.936534,0.068351,241.827,4.58715,4.21525,-13.4818267822266,22.0025119781494,35.0,22.0,2421520.0,12090.4,pp-riro,4,0,-1,-1
1570542566.2,2019-10-08,15:49:26.200,14.0,6.0,23.030000686645497,-17.1,15.9,5.8,-21.2,-5.6,160.8,-15.8846,15.9455,5.76503,3.52811,-7.45282,-9.83347,-23.1954,-5.10728,156.681,0.0757786,0.104933,0.359894,243.6,7.2,52.1701,4.42719,-0.7,1.18574,330.785,4.30619,137.566,44.8432,193.794,0.929462,0.0910793,241.849,4.63784,4.22106,-11.9457244873047,22.0025119781494,35.0,22.0,2421330.0,6275.96,pp-riro,4,0,-1,-1
1570542566.3,2019-10-08,15:49:26.300,14.0,8.0,22.9200000762939,-17.0,15.1,5.5,-21.3,-4.3,161.9,-15.7363,15.0138,5.63764,-7.24337,-5.368930000000001,0.366899,-23.2107,-3.48138,159.16299999999998,-0.205679,-0.100536,0.49105,243.6,7.2,52.1701,4.42719,-0.7,1.16634,327.256,4.30623,138.35399999999998,44.0832,193.49400000000003,0.927006,0.0977192,241.919,4.66134,4.23765,-10.0512008666992,22.0019989013672,35.0,22.0,2421710.0,1692.05,pp-riro,4,0,-1,-1
1570542566.4,2019-10-08,15:49:26.400,14.0,8.0,22.6399993896484,-16.7,14.4,5.0,-22.0,-2.8,163.0,-15.8252,13.9888,5.106,-5.52139,-5.23404,-7.567310000000001,-23.7592,-1.4207299999999998,162.244,0.0121082,-0.138375,0.23053,243.6,7.2,52.1701,4.42719,-0.7,1.16025,318.039,4.30627,139.785,42.5632,192.894,0.922496,0.110546,241.991,4.68196,4.247269999999999,-7.93821716308594,22.0019989013672,35.0,22.0,2422170.0,5906.78,pp-riro,4,0,-1,-1
1570542566.5,2019-10-08,15:49:26.500,14.0,11.0,22.2099990844727,-17.1,13.8,4.9,-22.9,-1.4,164.1,-15.8252,13.9888,5.106,-5.52139,-5.23404,-7.567310000000001,-23.7592,-1.4207299999999998,162.244,0.0121082,-0.138375,0.23053,240.8,7.4,52.1701,4.42719,-0.7,1.14861,322.556,4.30631,141.217,40.6632,192.394,0.918507,0.125713,242.097,4.69983,4.26357,-6.35091400146484,22.0025119781494,35.0,22.0,2422490.0,1722.81,pp-riro,4,0,-1,-1
1570542566.6,2019-10-08,15:49:26.600,14.0,11.0,21.5699996948242,-17.3,13.5,5.0,-23.4,0.0,164.8,-16.0088,13.2143,4.6173,1.06259,-2.14268,-0.351319,-24.5465,-0.338194,164.58900000000003,-0.299038,0.110542,0.383441,240.8,7.4,52.1701,4.42719,-0.7,1.17355,328.04400000000004,4.3063,142.502,39.1432,191.794,0.914294,0.138014,242.123,4.71459,4.264469999999999,-4.2447509765625,22.0025119781494,35.0,22.0,2422760.0,3322.56,pp-riro,4,0,-1,-1
1570542566.7,2019-10-08,15:49:26.700,14.0,13.0,21.159999847412102,-17.4,13.3,5.3,-24.6,-0.6,165.1,-16.0088,13.2143,4.6173,1.06259,-2.14268,-0.351319,-24.5465,-0.338194,164.58900000000003,-0.299038,0.110542,0.383441,240.8,7.4,52.1701,4.42719,-0.7,1.17133,327.592,4.30629,143.845,37.2432,191.194,0.910137,0.15275,242.144,4.70067,4.25328,-2.14200592041016,22.0025119781494,35.0,22.0,2422990.0,4337.79,pp-riro,4,0,-1,-1
1570542566.8,2019-10-08,15:49:26.800,14.0,12.0,20.6900005340576,-17.4,13.5,5.7,-26.4,-2.0,165.3,-16.5812,12.9614,4.61837,-7.85882,-0.8833190000000001,-0.258783,-26.0345,0.534746,165.257,-0.343296,-0.149059,0.0434761,240.8,7.4,52.1701,4.42719,-0.7,1.16634,329.11300000000006,4.30628,145.131,35.7232,190.49400000000003,0.905513,0.164762,242.13,4.67887,4.22911,-0.042671203613281,22.0025119781494,35.0,22.0,2423350.0,3537.92,pp-riro,4,0,-1,-1
1570542566.9,2019-10-08,15:49:26.900,14.0,11.0,20.2600002288818,-17.3,14.2,6.7,-28.2,-3.6,164.8,-16.6575,12.8195,4.7426900000000005,-3.71936,-9.13537,-4.60736,-26.4673,0.00445112,165.83599999999998,-0.162946,-0.204463,-0.169868,240.8,7.4,52.1701,4.42719,-0.7,1.17632,331.612,4.30627,146.474,33.8232,189.794,0.900914,0.1791819999999999,242.116,4.643330000000001,4.17477,2.06079864501953,22.0019989013672,35.0,22.0,2423650.0,2738.04,pp-riro,4,0,-1,-1
1570542567.0,2019-10-08,15:49:27.000,14.0,12.0,19.729999542236303,-16.3,14.1,7.6,-29.9,-6.6,165.2,-16.6949,13.8176,6.48607,6.762410000000001,0.5447029999999999,12.2633,-30.6562,-4.936780000000001,167.208,-0.0254127,-0.4241,-0.0913768,240.8,7.4,52.1701,4.42719,-0.7,1.17687,331.391,4.30626,147.847,32.3031,188.99400000000003,0.8956040000000001,0.19102,242.117,4.60666,4.1184,4.153968811035161,22.0025119781494,35.0,22.0,2424060.0,4183.97,pp-riro,4,0,-1,-1
1570542567.1,2019-10-08,15:49:27.100,14.0,11.0,19.3299999237061,-15.3,14.1,8.2,-31.0,-8.6,163.2,-16.6949,13.8176,6.48607,6.762410000000001,0.5447029999999999,12.2633,-30.6562,-4.936780000000001,167.208,-0.0254127,-0.4241,-0.0913768,240.8,7.4,52.17,4.42719,-0.7,1.16025,314.393,4.30625,149.19,30.4031,188.094,0.8903049999999999,0.2051059999999999,241.99400000000003,4.54652,4.06289,6.28289031982422,22.0009689331055,35.0,22.0,2424620.0,4030.15,pp-riro,4,0,-1,-1
1570542567.2,2019-10-08,15:49:27.200,14.0,10.0,19.0499992370605,-14.5,14.1,8.8,-32.5,-10.7,160.2,-16.6949,13.8176,6.48607,6.762410000000001,0.5447029999999999,12.2633,-30.6562,-4.936780000000001,167.208,-0.0254127,-0.4241,-0.0913768,240.8,7.4,52.17,4.42719,-0.7,1.10429,265.349,4.30624,150.563,29.2631,187.194,0.8843559999999999,0.214187,242.006,4.47595,4.01624,8.41522979736328,22.0019989013672,35.0,22.0,2425290.0,7968.0,pp-riro,4,0,-1,-1
1570542567.3,2019-10-08,15:49:27.300,14.0,10.0,18.770000457763697,-13.2,14.3,9.0,-32.7,-13.9,157.1,-15.205,14.1487,8.501719999999999,6.221080000000001,-1.52212,6.914110000000001,-33.5537,-12.8876,164.678,-0.264112,-0.00637412,-0.614325,240.8,7.4,52.17,4.42719,-0.7,1.03115,238.897,4.30623,151.907,28.1231,186.294,0.87846,0.2231,242.016,4.3926,3.95549,10.5100936889648,22.0009689331055,35.0,22.0,2425750.0,8860.17,pp-riro,4,0,-1,-1
1570542567.4,2019-10-08,15:49:27.400,14.0,10.0,18.4899997711182,-12.1,15.0,9.4,-32.3,-16.8,153.1,-13.0519,15.3631,9.49489,8.69995,11.9684,14.2833,-34.1643,-19.3498,157.04399999999998,-0.0208793,0.011462,-0.913094,240.8,7.4,52.17,4.42719,-0.7,0.979064,221.476,4.30622,153.309,26.6031,185.394,0.87255,0.234351,242.037,4.29954,3.88431,12.6117706298828,22.0009689331055,35.0,22.0,2426090.0,2245.81,pp-riro,4,0,-1,-1
1570542567.5,2019-10-08,15:49:27.500,14.0,7.0,18.0499992370605,-11.2,15.5,10.6,-31.5,-19.7,148.1,-12.197,15.9972,10.7484,10.1165,10.0722,18.3235,-34.2631,-22.4985,151.92600000000002,-0.420417,-0.0544591,-0.844108,242.1,7.2,52.17,4.42719,-0.7,1.02284,250.04,4.30621,154.798,25.4631,184.49400000000003,0.866117,0.24315,242.175,4.19611,3.81136,14.706634521484402,22.0009689331055,35.0,22.0,2426170.0,0.0,pp-riro,4,0,-1,-1
1570542567.6,2019-10-08,15:49:27.600,14.0,8.0,18.0499992370605,-9.9,15.9,11.5,-30.3,-23.8,142.3,-11.6185,16.2267,11.318,17.1531,10.927,8.61566,-34.1094,-24.8334,149.885,-0.3683349999999999,-0.387327,-0.919149,242.1,7.2,52.17,4.42719,-0.7,1.05054,262.918,4.30618,156.317,24.3231,183.49400000000003,0.8592930000000001,0.251845,242.274,4.07135,3.73174,16.8236389160156,22.0009689331055,35.0,22.0,2426310.0,1938.16,pp-riro,4,0,-1,-1
1570542567.7,2019-10-08,15:49:27.700,14.0,9.0,18.2900009155273,-8.2,16.7,12.5,-29.1,-28.1,136.5,-10.0581,17.0575,12.4248,16.6874,4.29495,8.890139999999999,-33.3924,-29.606,145.224,-0.146279,-0.219031,-1.04208,242.1,7.2,52.17,4.42719,-0.7,1.05941,268.056,4.30615,157.923,23.1832,182.294,0.851627,0.260476,242.298,3.94745,3.63135,18.9372406005859,22.0009689331055,35.0,22.0,2426400.0,1722.81,pp-riro,4,0,-1,-1
1570542567.8,2019-10-08,15:49:27.800,14.0,16.0,18.770000457763697,-6.4,17.0,13.7,-26.7,-31.2,130.4,-9.11617,17.4868,13.107,21.6477,6.31067,13.2863,-32.9631,-32.438,143.197,-0.171015,-0.1192619999999999,-1.0254299999999998,242.1,7.2,52.17,4.42719,-0.7,1.07547,278.23400000000004,4.3061300000000005,159.559,22.4232,181.094,0.843676,0.266644,242.398,3.83565,3.53419,21.0508422851562,22.0009689331055,35.0,22.0,2426600.0,2153.51,pp-riro,4,0,-1,-1
1570542567.9,2019-10-08,15:49:27.900,14.0,13.0,18.9500007629395,-4.6,17.6,14.8,-24.1,-34.6,123.4,-6.47032,18.4924,14.9733,18.8495,4.913119999999999,13.9795,-30.6004,-38.5168,133.697,-0.5377689999999999,-0.0933866,-1.03085,242.1,7.2,52.17,4.42719,-0.7,1.0970799999999998,290.408,4.3061,161.282,22.0432,179.794,0.835016,0.270455,242.536,3.71442,3.4421,23.1627349853516,22.0009689331055,35.0,22.0,2426760.0,1353.64,pp-riro,4,0,-1,-1
1570542568.0,2019-10-08,15:49:28.000,14.0,10.0,18.9500007629395,-2.5,17.7,15.8,-19.9,-37.4,116.0,-5.3822,18.8869,15.6698,25.6653,2.52937,9.09948,-29.3574,-40.533,130.283,-0.5280600000000001,0.0378746,-1.19361,242.1,7.2,52.17,4.42719,-0.7,1.11371,292.83,4.30607,163.035,21.6633,178.393,0.8259920000000001,0.274213,242.639,3.59637,3.34458,25.2695236206055,22.0009689331055,35.0,22.0,2427140.0,3261.04,pp-riro,4,0,-1,-1
1570542568.1,2019-10-08,15:49:28.100,14.0,9.0,18.9500007629395,0.0,17.3,16.2,-15.7,-40.4,107.2,-1.80818,19.2009,17.1308,25.7979,0.742405,4.98144,-23.2683,-46.3564,118.028,-0.331992,-0.128069,-1.26674,242.1,7.2,52.17,4.42718,-0.7,1.09653,285.813,4.30605,164.787,21.6633,176.793,0.8162590000000001,0.275628,242.652,3.46531,3.23688,27.3677978515625,22.0009689331055,35.0,22.0,2427520.0,3537.92,pp-riro,4,0,-1,-1
1570542568.2,2019-10-08,15:49:28.200,14.0,12.0,18.8500003814697,2.5,16.9,16.4,-10.3,-42.3,97.6,-0.329503,19.0577,17.5216,34.1959,8.94541,10.6708,-20.8232,-47.9856,113.319,-0.311647,-0.0877496,-0.940572,242.1,7.2,52.17,4.42718,-0.7,1.09376,282.35900000000004,4.306019999999999,166.452,21.6634,175.293,0.80707,0.276947,242.7,3.33441,3.12901,29.4626617431641,22.0009689331055,35.0,22.0,2427680.0,3014.92,pp-riro,4,0,-1,-1
1570542568.3,2019-10-08,15:49:28.300,14.0,11.0,18.8099994659424,4.8,16.2,16.4,-3.6,-43.6,87.0,2.60895,18.6914,17.6599,21.3157,-6.455509999999999,5.219930000000001,-15.0257,-50.6509,102.794,0.150948,0.0811533,-1.29332,242.1,7.2,52.17,4.42718,-0.7,1.0788,274.658,4.306,168.058,22.0434,173.69299999999998,0.797623,0.275973,242.691,3.1981,3.02871,31.261169433593803,22.0009689331055,23.0044822692871,22.0,2428050.0,3814.8,pp-riro,4,0,-1,-1
1570542568.4,2019-10-08,15:49:28.400,14.0,11.0,18.7099990844727,7.2,15.0,16.2,4.2,-44.1,75.4,2.60895,18.6914,17.6599,21.3157,-6.455509999999999,5.219930000000001,-15.0257,-50.6509,102.794,0.150948,0.0811533,-1.29332,242.1,7.2,52.17,4.42718,-0.7,1.07215,275.573,4.305969999999999,169.665,22.4235,172.19299999999998,0.788467,0.275005,242.774,3.05307,2.9169400000000003,33.015411376953104,22.0009689331055,23.0044822692871,22.0,2428310.0,2215.04,pp-ro,1,1,-1,-1
1570542568.5,2019-10-08,15:49:28.500,14.0,11.0,18.659999847412102,9.5,14.0,15.9,11.0,-42.7,63.8,2.60895,18.6914,17.6599,21.3157,-6.455509999999999,5.219930000000001,-15.0257,-50.6509,102.794,0.150948,0.0811533,-1.29332,244.8,6.9,52.17,4.42718,-0.7,1.08822,277.78,4.3059400000000005,171.15400000000002,23.1836,170.69299999999998,0.779505,0.271812,242.832,2.90637,2.81103,33.8056640625,22.0009689331055,23.0044822692871,22.0,2428650.0,3107.21,pp-ro,1,1,-1,-1
1570542568.6,2019-10-08,15:49:28.600,14.0,12.0,18.659999847412102,11.7,12.6,15.5,17.7,-40.9,53.0,2.60895,18.6914,17.6599,21.3157,-6.455509999999999,5.219930000000001,-15.0257,-50.6509,102.794,0.150948,0.0811533,-1.29332,244.8,6.9,52.17,4.42718,-0.7,1.0788,272.147,4.3059400000000005,172.497,24.3236,169.293,0.771103,0.266363,242.914,2.76667,2.70302,34.6640625,22.0009689331055,23.0044822692871,22.0,2428840.0,3537.92,pp-ro,1,1,-1,-1
1570542568.7,2019-10-08,15:49:28.700,14.0,15.0,18.520000457763697,13.6,11.3,14.6,23.3,-38.6,42.8,12.146,15.1648,17.1925,25.4919,-11.2792,-10.2253,14.1321,-53.2866,56.6427,-0.272401,-0.0940773,-1.30287,244.8,6.9,52.17,4.42718,-0.7,1.05608,261.969,4.3059400000000005,173.753,25.4637,167.793,0.762642,0.260935,242.885,2.62906,2.59996,34.953582763671896,22.0009689331055,23.0044822692871,22.0,2429190.0,3291.8,pp-ro,1,1,-1,-1
1570542568.8,2019-10-08,15:49:28.800,14.0,15.0,18.229999542236303,15.5,10.1,13.8,28.0,-35.5,33.7,15.7224,13.1447,15.896,17.1586,-8.53786,-5.59989,25.4773,-49.6642,38.1424,-0.0901176,0.0389324,-1.41535,244.8,6.9,52.17,4.42718,-0.7,1.05109,262.378,4.3059400000000005,174.863,26.6038,166.493,0.7551720000000001,0.255469,242.909,2.49601,2.50028,34.934844970703104,22.0009689331055,22.9144592285156,22.0,2429450.0,2491.92,pp-ro,1,1,-1,-1
1570542568.9,2019-10-08,15:49:28.900,14.0,15.0,18.1299991607666,17.0,8.8,12.9,32.5,-31.8,25.1,17.8817,11.754,15.0233,20.1446,-18.0686,-7.74693,30.9349,-45.6852,27.5286,-0.737923,0.0783358,-1.3661,244.8,6.9,52.17,4.42718,-0.7,1.05941,266.737,4.3059400000000005,175.885,28.5038,165.293,0.747897,0.24579,243.043,2.36329,2.41264,34.509063720703104,22.0009689331055,21.3729686737061,22.0,2429620.0,1599.75,pp-ro,1,1,-1,-1
1570542569.0,2019-10-08,15:49:29.000,14.0,14.0,17.9300003051758,18.3,7.5,11.7,36.8,-27.6,16.6,17.8817,11.754,15.0233,20.1446,-18.0686,-7.74693,30.9349,-45.6852,27.5286,-0.737923,0.0783358,-1.3661,244.8,6.9,52.17,4.42718,-0.7,1.06661,268.35200000000003,4.30593,176.761,30.0239,163.993,0.740859,0.238205,242.981,2.22242,2.32253,33.722213745117195,22.0009689331055,19.7949352264404,22.0,2429880.0,2984.16,pp-ro,1,1,-1,-1
1570542569.1,2019-10-08,15:49:29.100,14.0,14.0,17.7900009155273,18.9,6.4,10.3,40.4,-23.2,9.2,19.7871,10.2531,13.8491,12.8753,-11.8678,-8.5955,35.5099,-41.2303,17.9408,-0.207313,-0.126736,-1.46397,244.8,6.9,52.17,4.42719,-0.7,1.0610700000000002,265.83,4.30593,177.55,31.924,162.893,0.734454,0.228554,243.058,2.09124,2.25014,32.5743103027344,22.0009689331055,18.539720535278303,22.0,2430140.0,2522.69,pp-ro,1,1,-1,-1
1570542569.2,2019-10-08,15:49:29.200,14.0,13.0,17.5799999237061,19.3,5.2,8.9,42.9,-18.3,2.6,21.6036,7.883039999999999,11.6253,12.395,-16.9423,-18.0766,41.1852,-34.1439,5.385619999999999,0.0226049,-0.247973,-1.18091,244.8,6.9,52.17,4.42719,-0.7,1.05553,259.85200000000003,4.30593,178.192,33.824,161.993,0.729015,0.2188719999999999,243.18400000000003,1.96123,2.1756900000000003,31.0653076171875,22.0009689331055,17.2125453948975,22.0,2430420.0,2953.39,pp-ro,1,1,-1,-1
1570542569.3,2019-10-08,15:49:29.300,14.0,11.0,17.729999542236303,19.4,4.0,7.5,45.1,-13.3,-3.2,22.1526,6.39941,10.0338,9.2455,-16.6953,-24.9243,43.76,-27.7693,-1.63381,-0.269793,0.0860697,-1.2970700000000002,244.8,6.9,52.17,4.42719,-0.7,1.04167,255.76,4.30593,178.80599999999998,35.7241,161.093,0.7236130000000001,0.2092639999999999,243.308,1.83744,2.10271,29.2054748535156,22.0009689331055,15.9206523895264,22.0,2430740.0,2984.16,pp-ro,1,1,-1,-1
1570542569.4,2019-10-08,15:49:29.400,14.0,11.0,17.9300003051758,19.7,2.6,5.9,45.6,-8.5,-7.6,22.1526,6.39941,10.0338,9.2455,-16.6953,-24.9243,43.76,-27.7693,-1.63381,-0.269793,0.0860697,-1.2970700000000002,244.8,6.9,52.17,4.42719,-0.7,1.04832,259.657,4.30593,179.24400000000003,37.6242,160.493,0.7195630000000001,0.19956,243.52,1.73115,2.00889,27.0986938476562,22.0009689331055,14.1634464263916,22.0,2431010.0,1876.63,pp-ro,1,1,-1,-1
1570542569.5,2019-10-08,15:49:29.500,14.0,10.0,18.3600006103516,19.8,1.2,4.5,46.3,-4.2,-11.1,22.5373,2.59003,5.48921,4.73875,-12.4698,-16.6045,45.396,-13.111,-14.0497,-0.492379,0.234684,-1.15401,247.6,6.8,52.17,4.42719,-0.7,1.05442,262.81,4.30592,179.565,39.9042,159.993,0.71587,0.18779,243.79,1.64247,1.92184,24.9987258911133,22.0009689331055,12.524395942688,22.0,2431120.0,2061.22,pp-ro,1,1,-1,-1
1570542569.6,2019-10-08,15:49:29.600,14.0,11.0,18.6399993896484,19.7,-0.1,3.0,46.7,-0.1,-14.5,22.4004,0.956584,3.75697,-6.093319999999999,-13.2649,-16.2772,45.4927,-7.7543,-17.3152,-0.0683846,0.115328,-0.880827,247.6,6.8,52.17,4.42719,-0.7,1.06162,271.757,4.305969999999999,179.74,41.4243,159.69299999999998,0.71358,0.179903,243.976,1.55473,1.83018,22.897048950195305,22.0009689331055,10.7560949325562,22.0,2431320.0,1753.58,pp-ro,1,1,-1,-1
1570542569.7,2019-10-08,15:49:29.700,14.0,12.0,18.7399997711182,19.6,-0.6,2.2,47.3,3.7,-18.0,22.0845,-0.543037,2.02862,6.42168,-12.9859,-18.4551,45.2896,-3.41189,-20.8034,0.379129,0.1072369999999999,-0.76543,247.6,6.8,52.17,4.42719,-0.7,1.08933,283.182,4.306019999999999,179.798,43.7043,159.493,0.7114020000000001,0.167919,244.286,1.4724700000000002,1.79167,20.7970657348633,22.0009689331055,10.0346403121948,22.0,2431600.0,2891.86,pp-ro,1,1,-1,-1
1570542569.8,2019-10-08,15:49:29.800,14.0,12.0,18.6900005340576,19.2,-2.1,0.5,47.4,7.5,-21.5,21.4671,-1.7573299999999998,0.666411,-5.33891,-9.16202,-11.6351,44.9738,1.08523,-24.3387,-0.0951091,-0.0106623,-1.06202,247.6,6.8,52.17,4.42719,-0.7,1.09154,287.206,4.30607,179.769,45.9844,159.393,0.709695,0.155892,244.617,1.39037,1.68297,18.6902847290039,22.0009689331055,7.89444208145142,22.0,2431740.0,2522.69,pp-ro,1,1,-1,-1
1570542569.9,2019-10-08,15:49:29.900,14.0,13.0,18.590000152587898,19.1,-3.0,-0.4,47.4,10.9,-24.6,21.2987,-2.34025,-0.00102276,-12.1032,-17.1172,-15.1281,44.7368,3.2558,-25.8861,0.210247,0.1062299999999999,-0.767368,247.6,6.8,52.17,4.42719,-0.7,1.10484,292.918,4.30612,179.59400000000002,47.5044,159.393,0.709128,0.1476839999999999,244.779,1.31587,1.62214,16.5817947387695,22.0009689331055,6.67713928222656,22.0,2431920.0,1630.52,pp-ro,1,1,-1,-1
1570542570.0,2019-10-08,15:49:30.000,14.0,13.0,18.3999996185303,19.0,-4.0,-1.4,47.6,13.3,-28.0,21.2987,-2.34025,-0.00102276,-12.1032,-17.1172,-15.1281,44.7368,3.2558,-25.8861,0.210247,0.1062299999999999,-0.767368,247.6,6.8,52.17,4.42719,-0.7,1.1031799999999998,287.075,4.30617,179.30200000000002,49.7845,159.393,0.708292,0.135388,245.018,1.25395,1.55719,14.4801177978516,22.0009689331055,5.379925727844241,22.0,2432400.0,3937.85,pp-ro,1,1,-1,-1
1570542570.1,2019-10-08,15:49:30.100,14.0,14.0,18.2600002288818,18.9,-4.5,-2.3,48.1,15.3,-31.3,20.8437,-3.95819,-1.6622,-2.38004,-7.812010000000001,-7.18337,44.7658,8.85764,-30.4753,0.180776,-0.0604942,-0.827731,247.6,6.8,52.17,4.42719,-0.7,1.0932,286.212,4.30621,178.98,51.6845,159.393,0.707739,0.125052,245.176,1.19726,1.51164,12.3648071289062,22.0009689331055,4.46685552597046,22.0,2432610.0,3814.8,pp-ro,1,1,-1,-1
1570542570.2,2019-10-08,15:49:30.200,14.0,13.0,18.1700000762939,18.8,-5.3,-2.9,48.4,17.6,-34.3,20.7181,-4.5320800000000006,-2.09625,0.936509,-4.94696,-4.92543,44.8014,10.5492,-31.9661,0.0727323999999999,0.00902721,-0.8749790000000001,247.6,6.8,52.17,4.42719,-0.7,1.10207,295.612,4.30626,178.542,52.4445,159.593,0.708911,0.120426,245.148,1.13658,1.46559,10.3006057739258,22.0009689331055,3.478146553039549,22.0,2432790.0,1322.87,pp-ro,1,1,-1,-1
1570542570.3,2019-10-08,15:49:30.300,14.0,12.0,18.1700000762939,18.9,-6.1,-3.4,49.0,19.2,-37.5,20.1872,-6.0317,-3.5607900000000003,-1.46602,-8.645,-0.2534369999999999,45.4608,16.2708,-37.8538,0.0808211,-0.0458011999999999,-0.60977,247.6,6.8,52.17,4.42719,-0.7,1.13421,308.866,4.30631,178.016,55.8646,159.69299999999998,0.707919,0.101996,245.586,1.09179,1.4362700000000002,8.39989471435547,22.0009689331055,2.8955819606781,22.0,2432970.0,2153.51,pp-ro,1,1,-1,-1
1570542570.4,2019-10-08,15:49:30.400,14.0,11.0,18.1700000762939,18.7,-6.3,-3.6,49.2,19.9,-38.7,19.9413,-6.50995,-3.85881,-7.38245,-8.95376,-9.74901,45.67100000000001,17.3132,-39.2519,0.260295,-0.1582039999999999,-0.679692,247.6,6.8,52.17,4.42719,-0.7,1.13476,306.197,4.30636,177.46099999999998,57.7646,159.793,0.7080960000000001,0.0913431,245.689,1.07624,1.42654,7.5074462890625,22.0009689331055,2.6697022914886497,22.0,2433290.0,3353.33,pp-ro,1,1,-1,-1
1570542570.5,2019-10-08,15:49:30.500,14.0,12.0,18.2600002288818,18.7,-6.5,-4.0,50.5,21.9,-43.1,19.926,-7.00012,-4.49896,-9.34988,-8.40692,-0.0877251,46.7024,19.6971,-40.8282,0.4717189999999999,0.0621011999999999,-0.564992,251.3,7.0,52.17,4.42719,-0.7,1.12756,314.761,4.3064,176.84799999999998,59.6646,160.19299999999998,0.70929,0.0805978,245.961,1.00766,1.41284,5.56757354736328,22.0009689331055,2.3132529258728,22.0,2433820.0,2799.57,pp-ro,1,1,-1,-1
1570542570.6,2019-10-08,15:49:30.600,14.0,11.0,18.409999847412102,18.6,-7.6,-4.5,51.3,23.5,-45.0,19.5579,-7.71442,-5.146669999999999,-2.01194,-9.37582,-2.27206,47.6874,23.8936,-46.4017,0.23886,0.1054539999999999,-0.502325,251.3,7.0,52.17,4.42719,-0.7,1.14806,335.011,4.30646,176.176,61.9447,160.494,0.7099310000000001,0.0678203,246.238,0.974701,1.37095,4.3055419921875,22.0019989013672,1.41831183433533,22.0,2433850.0,492.232,pp-ro,1,1,-1,-1
1570542570.7,2019-10-08,15:49:30.700,14.0,11.0,18.7800006866455,18.4,-8.4,-4.6,51.3,24.0,-45.8,19.5579,-7.71442,-5.146669999999999,-2.01194,-9.37582,-2.27206,47.6874,23.8936,-46.4017,0.23886,0.1054539999999999,-0.502325,251.3,7.0,52.17,4.42719,-0.7,1.24724,379.775,4.30652,175.738,62.7047,160.594,0.710661,0.0631402,246.183,0.962462,1.34574,3.2700347900390603,22.0025119781494,0.8665039539337159,22.0,2433640.0,-2614.98,pp-ro,1,1,-1,-1
1570542570.8,2019-10-08,15:49:30.800,14.0,11.0,19.25,17.9,-9.0,-5.0,51.4,23.7,-47.2,19.3609,-8.47315,-5.19399,-8.41554,-14.4563,-4.50786,47.794,24.6061,-47.13399999999999,0.219558,-0.0471542,-0.205898,251.3,7.0,52.17,4.42719,-0.7,1.27494,379.867,4.30658,174.862,64.6047,160.894,0.7120479999999999,0.051902,246.246,0.957049,1.3130700000000002,2.40142822265625,22.0025119781494,0.117993302643299,22.0,2434090.0,6306.72,pp-ro,1,1,-1,-1
1570542570.9,2019-10-08,15:49:30.900,14.0,11.0,19.8799991607666,17.6,-9.0,-5.7,51.4,23.6,-47.5,19.3609,-8.47315,-5.19399,-8.41554,-14.4563,-4.50786,47.794,24.6061,-47.13399999999999,0.219558,-0.0471542,-0.205898,251.3,7.0,52.17,4.42719,-0.7,1.22563,358.29400000000004,4.30664,173.985,66.5047,161.29399999999998,0.71368,0.0406440999999999,246.393,0.962193,1.2885799999999998,1.4527816772460902,22.0025119781494,-0.482612580060959,22.0,2434810.0,7075.83,pp-ro,1,1,-1,-1
1570542571.0,2019-10-08,15:49:31.000,14.0,11.0,20.4400005340576,17.5,-9.6,-5.7,52.3,23.3,-47.5,18.1926,-9.54882,-6.10834,-0.389396,-7.78785,7.1031,48.6473,25.0536,-48.5051,0.0214159,-0.133768,-0.131687,251.3,7.0,52.17,4.42719,-0.7,1.2356,376.467,4.3067,173.08,68.4047,161.694,0.7153189999999999,0.0293118,246.537,0.973294,1.2794,0.4291915893554689,22.0025119781494,-0.7799059152603149,22.0,2435270.0,1815.1,pp-ro,1,1,-1,-1
1570542571.1,2019-10-08,15:49:31.100,14.0,10.0,20.9500007629395,17.5,-9.8,-5.3,51.7,22.9,-48.2,18.2964,-9.92681,-5.95616,1.07794,-6.9122,2.13571,48.535,24.6304,-48.6558,-0.0585581,-0.136909,0.0741139,251.3,7.0,52.1701,4.42719,-0.5,1.26054,384.22,4.30676,172.058,69.9247,162.094,0.717564,0.0196189,246.511,0.976203,1.29509,-0.228706359863281,22.0019989013672,-0.616934061050415,22.0,2435350.0,1692.05,pp-ro,1,1,-1,-1
1570542571.2,2019-10-08,15:49:31.200,14.0,11.0,21.2000007629395,17.7,-9.8,-5.3,51.5,22.8,-48.6,18.5289,-10.0227,-5.56043,2.96264,1.83925,-1.50302,48.3005,24.4269,-49.0427,-0.144663,-0.0643943999999999,-0.125223,251.3,7.0,52.1701,4.42719,-0.5,1.27439,382.229,4.30681,171.00599999999997,72.2048,162.594,0.719354,0.00604795,246.766,0.981746,1.30861,-0.488136291503906,22.0025119781494,-0.479880750179291,22.0,2435830.0,5845.25,pp-ro,1,1,-1,-1
1570542571.3,2019-10-08,15:49:31.300,14.0,11.0,21.3199996948242,17.6,-9.9,-5.1,51.7,23.0,-48.6,18.5289,-10.0227,-5.56043,2.96264,1.83925,-1.50302,48.3005,24.4269,-49.0427,-0.144663,-0.0643943999999999,-0.125223,251.3,7.0,52.1701,4.42719,-0.5,1.24447,375.994,4.30687,170.013,73.7248,162.994,0.7214149999999999,-0.00365193,246.793,0.985826,1.3173,-0.752685546875,22.0019989013672,-0.454618871212006,22.0,2436590.0,3507.15,pp-ro,1,1,-1,-1
1570542571.4,2019-10-08,15:49:31.400,14.0,11.0,21.409999847412102,17.8,-10.4,-5.1,51.3,22.7,-48.9,18.5289,-10.0227,-5.56043,2.96264,1.83925,-1.50302,48.3005,24.4269,-49.0427,-0.144663,-0.0643943999999999,-0.125223,251.3,7.0,52.1701,4.42719,-0.5,1.26663,388.129,4.30693,168.991,76.0048,163.394,0.722668,-0.017195,247.047,0.994927,1.31919,-0.592254638671875,22.0025119781494,-0.521900832653046,22.0,2436890.0,2953.39,pp-ro,1,1,-1,-1
1570542571.5,2019-10-08,15:49:31.500,14.0,10.0,21.530000686645497,17.7,-10.6,-4.9,51.7,22.6,-49.2,18.5802,-10.6692,-5.21135,-1.27104,-6.6711800000000006,0.680148,48.0207,24.2679,-49.5592,0.0207618,-0.129542,-0.117782,252.5,7.2,52.1701,4.42719,-0.5,1.27716,391.4330000000001,4.30699,167.91,77.5248,163.694,0.724524,-0.0271457999999999,246.981,0.999212,1.32573,-0.3806076049804689,22.0025119781494,-0.534845769405365,22.0,2437080.0,3784.03,pp-ro,1,1,-1,-1
1570542571.6,2019-10-08,15:49:31.600,14.0,10.0,21.6100006103516,17.7,-10.7,-4.9,51.6,22.5,-49.5,18.6852,-11.1037,-4.920059999999999,-5.30839,0.939045,-3.0632900000000003,48.0768,23.7567,-50.0516,0.0514963,-0.0935646,0.0171192,252.5,7.2,52.1701,4.42719,-0.5,1.27494,385.189,4.30705,166.8,79.4248,164.09400000000002,0.726268,-0.0390647,247.098,1.00483,1.33129,-0.483016967773438,22.0025119781494,-0.567459940910339,22.0,2437840.0,6091.37,pp-ro,1,1,-1,-1
1570542571.7,2019-10-08,15:49:31.700,14.0,12.0,21.649999618530305,17.7,-11.1,-4.8,51.6,22.1,-49.7,18.6991,-11.2836,-4.81901,1.63503,-1.7727400000000002,2.12518,48.0592,23.4437,-50.5321,-0.0301283,-0.0767351,-0.0484971,252.5,7.2,52.1701,4.42719,-0.5,1.26054,386.067,4.307119999999999,165.69,81.3248,164.49400000000003,0.727941,-0.051007,247.235,1.01523,1.33357,-0.500083923339844,22.0019989013672,-0.665410399436951,22.0,2438150.0,5752.96,pp-ro,1,1,-1,-1
1570542571.8,2019-10-08,15:49:31.800,14.0,11.0,21.780000686645497,17.8,-11.5,-4.9,51.8,21.3,-50.2,18.6991,-11.2836,-4.81901,1.63503,-1.7727400000000002,2.12518,48.0592,23.4437,-50.5321,-0.0301283,-0.0767351,-0.0484971,252.5,7.2,52.1701,4.42719,-0.5,1.28436,398.271,4.307180000000001,164.551,83.2248,164.894,0.729611,-0.0630418,247.373,1.02695,1.33165,-0.546165466308594,22.0025119781494,-0.852224588394165,22.0,2438410.0,2368.87,pp-ro,1,1,-1,-1
1570542571.9,2019-10-08,15:49:31.900,14.0,11.0,21.8600006103516,17.6,-11.6,-4.7,52.2,20.6,-50.6,18.696,-11.9181,-4.76036,-2.55146,-3.53222,4.36178,48.1142,22.2635,-51.3921,0.175702,-0.1298609999999999,0.149789,252.5,7.2,52.1701,4.42719,-0.5,1.3093,412.823,4.307259999999999,163.35399999999998,84.7448,165.294,0.731821,-0.0734267,247.362,1.03752,1.3384200000000002,-0.641746520996094,22.0025119781494,-0.912545740604401,22.0,2438800.0,3753.27,pp-ro,1,1,-1,-1
1570542572.0,2019-10-08,15:49:32.000,14.0,10.0,22.0599994659424,17.4,-11.5,-4.5,52.3,19.8,-50.4,18.4296,-12.0095,-4.52839,-3.48891,-0.277375,1.92543,48.1592,21.0794,-52.1047,0.0681168,-0.186719,0.202205,252.5,7.2,52.1701,4.42719,-0.5,1.32481,415.152,4.3073,162.185,86.6449,165.59400000000002,0.733125,-0.0855727,247.452,1.05771,1.35074,-0.8124237060546879,22.0025119781494,-0.797497987747192,22.0,2439240.0,4737.73,pp-ro,1,1,-1,-1
1570542572.1,2019-10-08,15:49:32.100,14.0,8.0,22.260000228881804,17.3,-11.2,-3.7,52.7,18.8,-50.7,18.1444,-11.847,-4.21908,-2.93079,1.93589,5.071619999999999,48.0627,19.7275,-52.4869,-0.00518096,-0.0344955999999999,0.2056909999999999,252.5,7.2,52.1701,4.42719,-0.4,1.2982200000000002,402.329,4.30737,160.958,88.5449,165.99400000000003,0.734793,-0.0979046,247.592,1.0745,1.39111,-0.8892288208007809,22.0025119781494,-0.158742412924767,22.0,2440140.0,5537.61,pp-ro,1,1,-1,-1
1570542572.2,2019-10-08,15:49:32.200,14.0,8.0,22.4200000762939,17.4,-10.9,-3.0,52.7,18.2,-51.5,18.0579,-11.7152,-3.86708,9.3203,3.62901,7.36021,48.3501,18.9303,-52.7134,0.0383579,-0.225017,-0.0216904,252.5,7.2,52.1701,4.42719,-0.4,1.28547,380.23800000000006,4.30743,159.849,90.4449,166.294,0.735809,-0.109945,247.761,1.08031,1.43321,-0.8294906616210941,22.0025119781494,0.567952275276184,22.0,2440750.0,7229.65,pp-ro,1,1,-1,-1
1570542572.3,2019-10-08,15:49:32.300,14.0,8.0,22.260000228881804,17.2,-10.3,-2.7,52.7,18.0,-51.6,18.1139,-11.2552,-2.7037400000000003,-2.27401,6.955310000000001,-0.2536719999999999,49.1845,17.3409,-53.5306,0.223068,-0.0242297,0.047061,252.5,7.2,52.1701,4.42719,-0.4,1.24835,367.473,4.3074900000000005,158.709,91.9649,166.49400000000003,0.737039,-0.120278,247.723,1.08854,1.46183,-0.488136291503906,22.0025119781494,1.00384604930878,22.0,2441200.0,8983.23,pp-ro,1,1,-1,-1
1570542572.4,2019-10-08,15:49:32.400,14.0,9.0,22.0599994659424,16.8,-10.1,-2.6,53.1,17.9,-51.0,18.1053,-10.9471,-2.55862,5.2852,10.3036,4.64411,49.5165,17.45,-53.4961,0.182199,0.0311623,-0.169963,252.5,7.2,52.1701,4.42719,-0.4,1.21178,355.278,4.30757,157.658,93.8649,166.794,0.737784,-0.132188,247.966,1.10505,1.47011,0.093673706054688,22.0025119781494,1.07375800609589,22.0,2441730.0,4153.21,pp-ro,1,1,-1,-1
1570542572.5,2019-10-08,15:49:32.500,14.0,10.0,21.6200008392334,16.7,-10.7,-2.5,53.4,18.2,-50.9,17.5723,-10.7899,-2.48485,1.42825,-5.57164,8.82455,50.2683,17.528,-52.7785,0.362613,-0.141301,0.00194869,255.7,6.5,52.1701,4.42719,-0.4,1.22951,368.336,4.30762,156.606,95.3849,166.99400000000003,0.738697,-0.142293,248.014,1.10944,1.46268,0.7987747192382809,22.0025119781494,0.8128703832626339,22.0,2442020.0,2768.8,pp-ro,1,1,-1,-1
1570542572.6,2019-10-08,15:49:32.600,14.0,12.0,21.1700000762939,16.5,-11.0,-2.5,53.1,17.6,-51.0,17.5723,-10.7899,-2.48485,1.42825,-5.57164,8.82455,50.2683,17.528,-52.7785,0.362613,-0.141301,0.00194869,255.7,6.5,52.1701,4.42719,-0.4,1.26719,381.073,4.30772,155.409,97.2849,167.294,0.739647,-0.154649,248.201,1.12389,1.45876,1.04061889648438,22.003026962280305,0.610502362251282,22.0,2442450.0,3845.56,pp-ro,1,1,-1,-1
1570542572.7,2019-10-08,15:49:32.700,14.0,12.0,20.7099990844727,16.5,-11.4,-2.9,53.0,17.5,-51.1,17.427,-11.583,-2.50753,1.80242,-6.955760000000001,-0.751691,50.1675,16.722,-53.5391,-0.0263445,-0.0857051,-0.100408,255.7,6.5,52.1701,4.42719,-0.4,1.26552,380.417,4.30783,154.27,98.8049,167.59400000000002,0.740945,-0.165089,248.293,1.13094,1.44117,0.9605712890625,22.003026962280305,0.09217843413353,22.0,2442760.0,5814.49,pp-ro,1,1,-1,-1
1570542572.8,2019-10-08,15:49:32.800,14.0,13.0,20.3199996948242,16.3,-12.0,-2.8,52.9,16.1,-52.4,17.01,-12.2858,-2.82505,0.333907,-4.20158,-0.471749,49.6691,15.2115,-54.809,-0.000448678,-0.561044,-0.0342394,255.7,6.5,52.1701,4.42719,-0.4,1.25167,381.768,4.30794,153.072,100.705,167.894,0.741754,-0.177455,248.518,1.14085,1.4338799999999998,0.783447265625,22.0025119781494,-0.1727992296218869,22.0,2443200.0,3599.45,pp-ro,1,1,-1,-1
1570542572.9,2019-10-08,15:49:32.900,14.0,12.0,20.2800006866455,15.9,-12.3,-2.9,51.5,13.9,-53.9,17.01,-12.2858,-2.82505,0.333907,-4.20158,-0.471749,49.6691,15.2115,-54.809,-0.000448678,-0.561044,-0.0342394,255.7,6.5,52.1701,4.42719,-0.4,1.2827,396.468,4.30805,151.75799999999998,102.225,168.19400000000002,0.743328,-0.188451,248.535,1.15691,1.42101,0.279312133789062,22.003026962280305,-35.0,22.0,2443510.0,3568.68,pp-ro,1,1,-1,-1
1570542573.0,2019-10-08,15:49:33.000,14.0,12.0,20.409999847412102,15.5,-12.3,-2.5,50.8,12.0,-54.0,16.6199,-12.6535,-2.73149,-7.67035,4.50017,2.46845,49.2889,13.154000000000002,-55.9144,-0.1248809999999999,-0.47197,0.0990931,255.7,6.5,52.1701,4.42719,-0.4,1.30099,407.213,4.30816,150.531,104.125,168.394,0.7437630000000001,-0.200913,248.713,1.1875,1.43396,-0.0921630859375,22.003026962280305,-35.0,22.0,2443860.0,3014.92,pp-ro,1,1,-1,-1
1570542573.1,2019-10-08,15:49:33.100,14.0,12.0,20.6700000762939,15.7,-11.5,-1.9,51.8,12.2,-53.4,16.0863,-12.6136,-2.4119200000000003,-3.84136,6.62315,5.14361,49.2022,11.8897,-55.7259,0.180207,-0.131065,0.162161,255.7,6.5,52.1701,4.42719,-0.3,1.26552,364.737,4.30826,149.275,105.265,168.59400000000002,0.7453810000000001,-0.210065,248.572,1.19862,1.48703,-0.539344787597656,22.003026962280305,-35.0,22.0,2444880.0,9567.76,pp-ro,1,1,-1,-1
1570542573.2,2019-10-08,15:49:33.200,14.0,11.0,20.7999992370605,16.1,-11.0,-1.4,52.3,12.1,-53.6,16.5196,-11.8009,-1.51447,9.69459,1.00635,5.71307,49.8493,12.4249,-55.3883,-0.231395,0.0516403,-0.30829,255.7,6.5,52.1701,4.42719,-0.3,1.17133,323.418,4.30837,148.165,106.785,168.794,0.746031,-0.220478,248.692,1.20456,1.53511,-1.34152221679688,22.0025119781494,-35.0,22.0,2445760.0,7844.94,pp-ro,1,1,-1,-1
1570542573.3,2019-10-08,15:49:33.300,14.0,10.0,20.8799991607666,16.5,-10.7,-1.0,52.5,12.4,-54.0,16.8985,-11.4571,-1.07624,3.18156,0.371372,4.033440000000001,49.7436,12.6235,-55.563,0.00872978,-0.2783,-0.201853,255.7,6.5,52.1701,4.42719,-0.3,1.14972,327.516,4.30848,146.997,108.685,168.894,0.745844,-0.232754,248.889,1.20451,1.57506,-2.5089569091796897,22.0025119781494,-35.0,22.0,2446090.0,1784.34,pp-ro,1,1,-1,-1
1570542573.4,2019-10-08,15:49:33.400,14.0,10.0,20.9200000762939,16.5,-10.4,-0.3,52.6,11.2,-54.8,16.9035,-11.0184,-0.455455,-6.91954,4.70929,6.51272,50.4687,11.9204,-55.7986,0.256211,-0.1039119999999999,0.328858,255.7,6.5,52.1701,4.42719,-0.3,1.17188,340.918,4.308590000000001,145.916,110.205,168.99400000000003,0.746019,-0.243005,248.99,1.21662,1.61689,-4.027992248535161,22.0025119781494,-35.0,22.0,2446120.0,461.467,pp-ro,1,1,-1,-1
1570542573.5,2019-10-08,15:49:33.500,14.0,11.0,20.8799991607666,16.6,-10.2,-0.1,53.3,9.9,-54.0,16.7379,-10.5346,0.0149352,2.70687,4.16529,2.72037,51.4729,11.4783,-55.1342,0.301605,0.2085699999999999,0.174701,249.1,6.9,52.1701,4.42719,-0.3,1.24391,370.176,4.3087,144.894,112.105,169.09400000000002,0.745383,-0.254807,249.30900000000003,1.25064,1.6401,-5.917388916015621,22.0035419464111,-35.0,22.0,2446390.0,3630.21,pp-ro,1,1,-1,-1
1570542573.6,2019-10-08,15:49:33.600,14.0,10.0,21.0100002288818,16.9,-10.5,0.3,54.4,8.2,-52.8,16.7379,-10.5346,0.0149352,2.70687,4.16529,2.72037,51.4729,11.4783,-55.1342,0.301605,0.2085699999999999,0.174701,249.1,6.9,52.1701,4.42719,-0.3,1.24502,372.883,4.30871,143.813,113.625,169.09400000000002,0.745152,-0.2649829999999999,249.371,1.29352,1.6584900000000002,-8.02867126464844,22.003026962280305,-35.0,22.0,2446620.0,4614.67,pp-ro,1,1,-1,-1
1570542573.7,2019-10-08,15:49:33.700,14.0,10.0,21.1700000762939,17.5,-10.4,0.8,55.6,6.5,-50.7,16.7379,-10.5346,0.0149352,2.70687,4.16529,2.72037,51.4729,11.4783,-55.1342,0.301605,0.2085699999999999,0.174701,249.1,6.9,52.1701,4.42719,-0.3,1.2622,380.429,4.308730000000001,142.733,115.525,169.09400000000002,0.744221,-0.276776,249.623,1.34848,1.6977,-10.141662597656198,22.0035419464111,-35.0,22.0,2447150.0,3322.56,pp-ro,1,1,-1,-1
1570542573.8,2019-10-08,15:49:33.800,14.0,11.0,21.4200000762939,18.1,-10.3,2.1,57.0,3.6,-48.8,16.9336,-10.6018,0.6688430000000001,1.70482,3.83559,8.8152,52.4361,9.48805,-52.832,0.277957,0.0397693,0.503721,249.1,6.9,52.1701,4.42719,-0.3,1.25666,376.557,4.30874,141.681,117.045,168.894,0.7432300000000001,-0.286819,249.597,1.41506,1.76212,-12.2444076538086,22.003026962280305,-35.0,22.0,2447690.0,5845.25,pp-ro,1,1,-1,-1
1570542573.9,2019-10-08,15:49:33.900,14.0,11.0,21.5400009155273,18.9,-9.5,3.6,58.2,0.0,-47.4,17.9108,-10.0561,2.6970400000000003,5.9004,3.56428,12.6118,55.4549,4.92422,-47.5568,0.160521,0.11166,0.776123,249.1,6.9,52.1701,4.42719,-0.3,1.24558,378.886,4.30876,140.659,119.325,168.59400000000002,0.740505,-0.299894,249.895,1.48707,1.85559,-14.3369140625,22.003026962280305,-35.0,22.0,2447940.0,4891.55,pp-ro,1,1,-1,-1
1570542574.0,2019-10-08,15:49:34.000,14.0,12.0,21.6299991607666,19.7,-8.6,5.3,59.4,-3.7,-45.1,18.5201,-8.99574,4.1297,4.26013,11.1131,9.73173,56.856,1.57567,-45.4432,0.332205,-0.0405049,0.95882,249.1,6.9,52.1701,4.42719,-0.3,1.27051,377.097,4.3087800000000005,139.754,120.845,168.19400000000002,0.7385109999999999,-0.309354,249.848,1.56872,1.95145,-16.4396667480469,22.0035419464111,-35.0,22.0,2448490.0,5906.78,pp-ro,1,1,-1,-1
1570542574.1,2019-10-08,15:49:34.100,14.0,10.0,21.6299991607666,20.4,-7.6,7.3,60.9,-8.4,-43.1,19.2266,-8.11537,6.00968,4.912640000000001,8.47724,21.2767,58.2524,-2.18102,-42.1755,0.1005139999999999,-0.0549853,0.8858370000000001,249.1,6.9,52.1701,4.4272,-0.3,1.23782,373.091,4.30879,138.936,123.125,167.59400000000002,0.734351,-0.321542,250.102,1.66203,2.0547,-18.5560684204102,22.003026962280305,-35.0,22.0,2449090.0,4645.44,pp-ro,1,1,-1,-1
1570542574.2,2019-10-08,15:49:34.200,14.0,10.0,21.5900001525879,20.8,-6.1,9.1,61.8,-13.3,-40.1,19.5891,-6.75587,8.02379,-0.251262,13.1106,20.2951,59.4552,-7.3832,-39.1006,0.286486,0.203115,1.08358,249.1,6.9,52.1701,4.4272,-0.3,1.25389,370.884,4.30881,138.264,124.645,166.894,0.7309,-0.330055,250.014,1.7669,2.15972,-20.6792984008789,22.003026962280305,-35.0,22.0,2449440.0,4030.15,pp-ro,1,1,-1,-1
1570542574.3,2019-10-08,15:49:34.300,14.0,12.0,21.7099990844727,20.9,-4.5,11.3,63.3,-19.8,-36.9,19.7817,-5.18942,9.96208,1.97777,17.6568,18.3112,60.599,-12.5041,-34.9016,0.243057,0.2690909999999999,1.08791,249.1,6.9,52.1701,4.4272,-0.3,1.24336,364.65,4.30882,137.68,126.925,165.894,0.7249770000000001,-0.341204,250.173,1.89664,2.27542,-22.811058044433604,22.003026962280305,-35.0,22.0,2449770.0,6183.66,pp-ro,1,1,-1,-1
1570542574.4,2019-10-08,15:49:34.400,14.0,11.0,21.6299991607666,20.9,-2.7,13.1,64.0,-25.6,-34.1,19.8371,-4.27009,10.8368,-1.7139099999999998,15.4446,16.4595,60.6399,-14.9542,-32.6446,0.1285,0.0459753,0.999113,249.1,6.9,52.1701,4.4272,-0.3,1.21787,356.01800000000003,4.30884,137.27100000000002,129.205,164.69400000000002,0.718064,-0.351591,250.323,2.01151,2.38262,-24.9257507324219,22.0035419464111,-35.0,22.0,2450290.0,4706.97,pp-ro,1,1,-1,-1
1570542574.5,2019-10-08,15:49:34.500,14.0,10.0,21.7000007629395,20.1,-0.6,14.9,64.1,-32.8,-30.7,19.5671,-2.66642,12.5784,-4.06565,15.5905,15.8986,61.0756,-21.1703,-28.9342,0.4198439999999999,0.0945371,1.213,249.6,7.5,52.1701,4.4272,-0.3,1.21233,351.792,4.30886,137.095,131.105,163.494,0.711354,-0.359533,250.428,2.14859,2.50171,-27.0319137573242,22.0035419464111,-35.0,22.0,2450700.0,4091.68,pp-ro,1,1,-1,-1
