time,date,time_of_day,airspeed_temperature,airspeed_angle_of_attack,airspeed_apparent_windspeed,kite_0_vx,kite_0_vy,kite_0_vz,kite_0_roll,kite_0_pitch,kite_0_yaw,kite_1_vx,kite_1_vy,kite_1_vz,kite_1_ax,kite_1_ay,kite_1_az,kite_1_roll,kite_1_pitch,kite_1_yaw,kite_1_roll_rate,kite_1_pitch_rate,kite_1_yaw_rate,ground_upwind_direction,ground_wind_velocity,ground_pos_latitude,ground_pos_longitude,ground_pos_altitude,ground_tether_reelout_speed,ground_tether_force,est_upwind_direction,kite_pos_east,kite_pos_north,kite_height,kite_elevation,kite_azimuth,kite_distance,kite_heading,kite_course,kite_actual_steering,kite_actual_depower,kite_set_steering,kite_set_depower,ground_mech_energy,ground_mech_power,flight_phase,flight_phase_index,phase,pattern,pattern_section
1570539051.9,2019-10-08,14:50:51.900,15.0,8.0,14.8500003814697,12.3,-4.0,1.7,17.8,-0.5,-62.6,11.3635,-3.08131,2.16814,8.627939999999999,9.48324,2.14069,20.9876,14.2111,-62.7415,0.105899,0.155847,0.950459,247.3,8.3,52.1701,4.42721,3.7,-2.62746,109.094,4.39079,63.2053,-6.45983,236.155,1.30798,0.4234449999999999,244.552,0.389353,1.1993,-34.688507080078104,22.0215663909912,-35.0,22.0,29972.0,-1968.93,pp-riro,4,0,-1,-1
1570539052.0,2019-10-08,14:50:52.000,15.0,8.0,14.609999656677198,13.2,-3.1,1.8,19.4,-1.8,-57.6,11.3635,-3.08131,2.16814,8.627939999999999,9.48324,2.14069,20.9876,14.2111,-62.7415,0.105899,0.155847,0.950459,247.3,8.3,52.1701,4.42721,3.7,-2.59421,103.508,4.39077,62.8256,-4.939780000000001,236.055,1.30991,0.400089,244.322,0.505426,1.30464,-34.9581909179688,22.0050868988037,-35.0,22.0,29860.8,-2430.39,pp-riro,4,0,-1,-1
1570539052.1,2019-10-08,14:50:52.100,15.0,8.0,14.359999656677198,14.0,-2.1,2.1,21.3,-3.1,-52.3,12.6002,-1.68253,2.54936,4.81859,7.041869999999999,0.952908,23.9968,12.2359,-54.083,0.0961074,0.200633,1.0076200000000002,247.3,8.3,52.1701,4.42721,3.7,-2.58701,94.0123,4.39074,62.5335,-3.79975,235.955,1.3112700000000002,0.382342,244.13,0.621518,1.40565,-34.971832275390604,21.9994239807129,-35.0,22.0,29283.5,-7721.89,pp-riro,4,0,-1,-1
1570539052.2,2019-10-08,14:50:52.200,15.0,9.0,14.1800003051758,14.8,-1.3,2.4,22.8,-4.8,-47.3,12.9437,-1.17955,2.68957,8.72499,9.34271,2.13258,25.1101,11.4405,-51.2266,0.094107,0.107368,0.937075,247.3,8.3,52.1701,4.42721,3.7,-2.64297,94.0273,4.39071,62.3583,-2.65971,235.755,1.31199,0.364309,243.877,0.734057,1.4860799999999998,-34.971832275390604,21.9994239807129,-35.0,22.0,27829.7,-9936.93,pp-riro,4,0,-1,-1
1570539052.3,2019-10-08,14:50:52.300,15.0,9.0,13.9200000762939,15.6,-0.2,2.9,24.3,-6.4,-42.1,14.0257,0.1089349999999999,3.2393400000000003,6.844530000000001,8.7582,6.08141,27.8199,9.01908,-42.591,0.312447,0.22384,1.01931,247.8,8.7,52.1701,4.42721,3.7,-2.67899,95.4753,4.39067,62.2122,-0.759638,235.655,1.31267,0.333928,243.73,0.86266,1.59405,-34.9889068603516,21.9994239807129,-35.0,22.0,26884.7,-10090.8,pp-riro,4,0,-1,-1
1570539052.4,2019-10-08,14:50:52.400,15.0,9.0,13.7299995422363,16.2,0.8,3.3,25.9,-8.3,-37.0,14.6963,1.0589,3.71837,4.262169999999999,10.5953,3.71809,29.3028,7.16967,-36.7769,0.00865314,0.179767,0.979654,247.8,8.7,52.1701,4.42721,3.7,-2.70558,92.2399,4.390630000000001,62.2122,0.760418,235.455,1.31246,0.309515,243.537,0.98468,1.6820099999999998,-34.9889068603516,21.9994239807129,-35.0,22.0,26050.5,-8860.17,pp-riro,4,0,-1,-1
1570539052.5,2019-10-08,14:50:52.500,15.0,9.0,13.6599998474121,16.9,2.0,3.7,26.9,-10.1,-32.0,15.5001,2.74958,4.35582,2.67852,8.949119999999999,3.65561,31.1127,3.91636,-28.5784,0.0528594,0.0266036,1.00012,247.8,8.7,52.1701,4.42721,3.7,-2.72276,90.6579,4.39059,62.32899999999999,2.66049,235.255,1.31158,0.279138,243.386,1.11065,1.78056,-34.9889068603516,21.9994239807129,-35.0,22.0,25427.9,-11905.9,pp-riro,4,0,-1,-1
1570539052.6,2019-10-08,14:50:52.600,15.0,8.0,13.6599998474121,17.3,3.2,4.1,28.0,-12.2,-26.8,15.786,3.3288,4.58635,4.96183,11.4617,3.4811,31.8439,2.73848,-25.9671,-0.0416205999999999,0.092197,0.922912,247.8,8.7,52.1701,4.42721,3.7,-2.76875,91.3479,4.39055,62.5626,4.18055,234.955,1.31001,0.255094,243.178,1.23491,1.86988,-34.9940185546875,21.9994239807129,-35.0,22.0,24146.6,-13013.4,pp-riro,4,0,-1,-1
1570539052.7,2019-10-08,14:50:52.700,15.0,10.0,13.7299995422363,17.7,4.3,4.5,28.9,-13.8,-21.6,16.0265,3.8047,4.737430000000001,3.70616,7.9587,5.2057400000000005,32.2354,1.58883,-23.2402,0.162646,0.279465,0.965631,247.8,8.7,52.1701,4.42721,3.7,-2.81418,93.6469,4.39051,62.9131,6.08062,234.655,1.30768,0.2255239999999999,243.019,1.36204,1.95459,-34.9991455078125,21.9994239807129,-35.0,22.0,23078.3,-10306.1,pp-riro,4,0,-1,-1
1570539052.8,2019-10-08,14:50:52.800,15.0,9.0,13.789999961853,18.0,5.5,5.0,29.6,-15.9,-16.2,16.3494,4.9538400000000005,5.13826,2.3330900000000003,12.3982,4.68834,32.9228,-0.377239,-17.8173,0.0351277,0.20668,1.00416,247.8,8.7,52.1701,4.42721,3.7,-2.84798,94.0131,4.39047,63.3804,7.60068,234.355,1.30486,0.202543,242.893,1.48779,2.03641,-34.9991455078125,21.9994239807129,-35.0,22.0,22084.2,-9752.34,pp-riro,4,0,-1,-1
1570539052.9,2019-10-08,14:50:52.900,15.0,10.0,13.9200000762939,18.2,6.8,5.4,29.9,-17.8,-11.0,16.5758,6.04641,5.54732,2.75993,11.9084,5.01803,33.4424,-2.55329,-12.2238,0.0603678,0.254846,0.956857,247.8,8.7,52.1701,4.42721,4.0,-2.8984,99.1316,4.39043,63.9353,9.50076,233.855,1.30113,0.1744339999999999,242.624,1.6135,2.12402,-35.0025634765625,21.9994239807129,-35.0,22.0,20625.4,-10367.6,pp-riro,4,0,-1,-1
1570539053.0,2019-10-08,14:50:53.000,15.0,10.0,14.0500001907349,18.3,8.0,5.9,30.0,-18.8,-5.5,16.8173,7.759589999999999,6.13908,1.32251,11.5998,1.73143,33.4968,-5.77303,-3.71764,0.0183970999999999,0.222627,0.990902,247.8,8.7,52.1701,4.42721,4.0,-2.90505,104.679,4.3904,64.6655,11.4008,233.655,1.29684,0.147482,242.706,1.73737,2.20519,-35.0059814453125,21.9994239807129,-35.0,22.0,19861.3,-6460.54,pp-riro,4,0,-1,-1
1570539053.1,2019-10-08,14:50:53.100,15.0,11.0,14.3000001907349,18.3,9.4,6.4,30.0,-21.9,0.2,16.8629,8.90161,6.6227800000000006,1.14427,11.5438,5.184,33.2513,-7.85152,2.03025,0.0327815,0.255713,0.997467,247.8,8.7,52.1701,4.42721,4.0,-2.89286,106.821,4.39036,65.5125,13.3009,232.855,1.29123,0.121727,242.261,1.87315,2.29189,-35.0076751708984,21.9994239807129,-35.0,22.0,19650.8,-4091.68,pp-riro,4,0,-1,-1
1570539053.2,2019-10-08,14:50:53.200,15.0,10.0,14.4799995422363,18.3,10.7,6.9,29.8,-24.0,6.1,16.8331,10.0947,7.08443,-3.62601,11.9174,4.82229,32.6723,-9.93251,8.259,0.158194,0.246746,1.06344,247.8,8.7,52.1701,4.42721,4.0,-2.86516,110.34,4.39032,66.4763,14.821,232.255,1.28555,0.102709,242.035,1.99901,2.36422,-35.0059814453125,21.9994239807129,-35.0,22.0,19561.4,30.7645,pp-riro,4,0,-1,-1
1570539053.3,2019-10-08,14:50:53.300,15.0,10.0,14.6599998474121,18.1,11.5,7.1,29.8,-24.9,9.2,16.6586,11.3985,7.52981,0.6458149999999999,17.0303,2.53753,31.8962,-11.9607,14.3346,0.171425,0.186968,1.00088,248.3,8.6,52.1701,4.42721,4.0,-2.77983,122.733,4.390280000000001,67.0312,15.961,231.955,1.28204,0.0883479,241.973,2.06753,2.41356,-35.0042724609375,21.9994239807129,-35.0,22.0,19947.7,3845.56,pp-riro,4,0,-1,-1
1570539053.4,2019-10-08,14:50:53.400,15.0,10.0,14.960000038147,17.9,13.0,7.7,29.2,-26.4,15.1,16.6586,11.3985,7.52981,0.6458149999999999,17.0303,2.53753,31.8962,-11.9607,14.3346,0.171425,0.186968,1.00088,248.3,8.6,52.1701,4.42721,4.0,-2.73329,128.67,4.39025,68.2287,17.8611,231.255,1.27478,0.0660998999999999,241.771,2.19082,2.4958400000000003,-35.0076751708984,21.9994239807129,-35.0,22.0,20348.8,7475.77,pp-riro,4,0,-1,-1
1570539053.5,2019-10-08,14:50:53.500,15.0,9.0,15.3199996948242,17.4,14.3,8.4,28.7,-28.1,21.0,16.2701,13.3911,8.34249,-4.96387,11.3565,9.29374,30.3685,-14.4588,23.7395,0.131794,0.332864,1.0381,248.3,8.6,52.1701,4.42721,4.0,-2.59255,139.204,4.390219999999999,69.5138,19.3812,230.555,1.26745,0.0502614,241.585,2.30738,2.57063,-35.0076751708984,21.9994239807129,-35.0,22.0,21646.8,14120.9,pp-riro,4,0,-1,-1
1570539053.6,2019-10-08,14:50:53.600,15.0,8.0,15.7200002670288,16.6,15.7,8.9,27.5,-29.9,27.5,15.9683,13.9875,8.69587,-8.21748,10.572,9.01717,29.9241,-15.3205,26.8547,0.068838,0.27102,1.01371,248.3,8.6,52.1701,4.42721,4.0,-2.41691,138.963,4.3901900000000005,71.0325,21.2813,229.655,1.2584799999999998,0.0311077,241.33,2.43483,2.65574,-35.0059814453125,21.9994239807129,-23.0,22.0,23288.7,17074.3,pp-riro,4,0,-1,-1
1570539053.7,2019-10-08,14:50:53.700,15.0,8.0,16.1599998474121,15.6,17.0,9.2,26.3,-31.5,34.2,14.7641,15.8691,9.33211,-9.79743,9.58747,2.35558,27.8653,-17.6069,36.7408,-0.0154913999999999,0.313529,1.0704,248.3,8.6,52.1701,4.42721,4.0,-2.22907,133.089,4.39016,72.5805,22.8013,228.855,1.24986,0.0178215999999999,241.169,2.5568,2.73497,-35.0059814453125,21.9994239807129,-22.1817264556885,22.0,24688.5,12582.7,pp-riro,4,0,-1,-1
1570539053.8,2019-10-08,14:50:53.800,15.0,7.0,16.5900001525879,14.6,18.2,9.6,24.9,-32.5,40.9,14.7641,15.8691,9.33211,-9.79743,9.58747,2.35558,27.8653,-17.6069,36.7408,-0.0154913999999999,0.313529,1.0704,248.3,8.6,52.1701,4.42721,4.0,-2.07836,136.563,4.39013,74.3329,24.7014,227.955,1.23982,0.00142747,241.037,2.67733,2.81307,-34.8267669677734,21.9994239807129,-21.550804138183604,22.0,25803.8,10982.9,pp-riro,4,0,-1,-1
1570539053.9,2019-10-08,14:50:53.900,15.0,8.0,16.8600006103516,13.6,19.4,10.1,23.7,-33.5,47.8,13.3081,17.4742,9.79602,-13.066,10.6408,5.1846,25.6257,-19.3695,46.6306,0.18327,0.3044679999999999,0.98615,248.3,8.6,52.1701,4.42721,4.1,-1.89773,148.642,4.3901,76.1729,25.8415,227.055,1.23033,-0.00477982,240.882,2.79012,2.87982,-34.0843200683594,21.9994239807129,-20.8111534118652,22.0,27089.2,13721.0,pp-riro,4,0,-1,-1
1570539054.0,2019-10-08,14:50:54.000,15.0,9.0,17.120000839233402,12.0,20.6,10.7,22.5,-34.1,54.5,11.6883,19.2081,10.6626,-13.6339,12.7977,6.835369999999999,22.9701,-20.8564,56.8298,0.0644401,0.381117,1.038,248.3,8.6,52.1701,4.42721,4.1,-1.54257,166.393,4.39008,78.1882,27.3616,226.055,1.21954,-0.0143121,240.755,2.9003,2.96715,-33.082427978515604,21.9994239807129,-19.8483753204346,22.0,29616.5,17843.4,pp-riro,4,0,-1,-1
1570539054.1,2019-10-08,14:50:54.100,15.0,8.0,17.2199993133545,10.5,21.5,11.1,21.0,-34.6,60.8,10.9485,19.6369,10.908,-15.7618,10.3513,5.32236,22.2785,-21.2754,60.0234,0.172379,0.129161,0.965931,248.3,8.6,52.1701,4.42721,4.1,-1.2173200000000002,168.139,4.39005,80.2619,28.5016,224.955,1.20886,-0.0188748,240.539,2.99884,3.03876,-31.7323760986328,21.9994239807129,-19.0560970306396,22.0,31314.4,16243.7,pp-riro,4,0,-1,-1
1570539054.2,2019-10-08,14:50:54.200,15.0,10.0,17.5300006866455,9.1,22.4,11.3,19.1,-35.0,67.2,9.48924,20.5942,11.2729,-13.022,9.70253,3.62235,20.706,-22.3176,66.1577,0.0309629,0.145139,0.9169,248.3,8.6,52.1701,4.42721,4.1,-0.915344,163.126,4.39002,82.4232,29.6417,223.955,1.1979799999999998,-0.022854,240.475,3.09716,3.10469,-30.0204772949219,21.9994239807129,-18.3924732208252,22.0,32581.0,11505.9,pp-riro,4,0,-1,-1
1570539054.3,2019-10-08,14:50:54.300,15.0,8.0,17.8799991607666,7.8,23.0,11.2,16.9,-34.9,74.4,8.21065,21.3483,11.3727,-11.8359,8.390360000000001,-2.97671,19.0792,-23.3096,72.0476,0.0293598,0.1930869999999999,1.00144,247.2,7.8,52.1701,4.42721,4.1,-0.7463489999999999,158.511,4.38999,84.7014,30.4018,222.855,1.18701,-0.0222037,240.33900000000003,3.20245,3.15764,-27.9894180297852,21.9994239807129,-17.863727569580103,22.0,33065.8,8983.23,pp-riro,4,0,-1,-1
1570539054.4,2019-10-08,14:50:54.400,15.0,8.0,18.0699996948242,6.6,23.4,11.2,14.8,-35.0,80.6,8.21065,21.3483,11.3727,-11.8359,8.390360000000001,-2.97671,19.0792,-23.3096,72.0476,0.0293598,0.1930869999999999,1.00144,247.2,7.8,52.1701,4.42721,4.1,-0.484268,152.64,4.38995,86.9503,31.5418,221.755,1.17563,-0.0255523,240.272,3.29576,3.20801,-26.9312133789062,21.9994239807129,-17.5683441162109,22.0,33626.8,4645.44,pp-riro,4,0,-1,-1
1570539054.5,2019-10-08,14:50:54.500,15.0,7.0,18.1200008392334,5.2,23.7,11.1,12.3,-35.1,86.5,5.28326,22.4212,11.2459,-7.87058,3.2531,-1.82985,13.9698,-25.1179,86.9687,0.1050589999999999,0.147477,0.956512,247.2,7.8,52.1701,4.42721,4.1,-0.227728,153.624,4.38991,89.2284,31.9219,220.755,1.1653,-0.0210858,240.236,3.37747,3.25759,-24.3027801513672,21.9994239807129,-16.9962272644043,22.0,33896.0,2153.51,pp-riro,4,0,-1,-1
1570539054.6,2019-10-08,14:50:54.600,15.0,7.0,18.1200008392334,4.0,23.4,11.1,10.3,-34.8,92.4,4.631819999999999,22.4297,11.1142,-11.1564,0.5900529999999999,-1.26103,12.9089,-25.385,89.6986,-0.35882,0.0294601,0.890739,247.2,7.8,52.1701,4.42721,4.1,0.11802,146.44899999999998,4.389869999999999,91.5358,32.3019,219.655,1.15469,-0.0167261,240.147,3.45961,3.29546,-22.2956161499023,21.9994239807129,-16.7022590637207,22.0,33872.6,-1322.87,pp-riro,4,0,-1,-1
1570539054.7,2019-10-08,14:50:54.700,15.0,7.0,18.0699996948242,2.8,23.4,10.8,7.8,-34.0,97.6,3.0775,22.362,10.9006,-7.378319999999999,1.14918,-5.60073,9.99497,-25.5642,97.6915,0.127519,0.143179,0.750733,247.2,7.8,52.1701,4.42721,4.1,0.231606,140.154,4.38983,93.8724,32.681999999999995,218.555,1.14396,-0.0124705,240.096,3.53318,3.33764,-20.5495834350586,21.9994239807129,-16.3590698242188,22.0,33774.2,-1968.93,pp-riro,4,0,-1,-1
1570539054.8,2019-10-08,14:50:54.800,15.0,8.0,17.9699993133545,1.8,23.2,10.3,5.7,-32.5,102.6,2.5766400000000003,22.3126,10.6442,-5.23537,-1.4332200000000002,-8.15066,8.8867,-25.3978,100.037,-0.0507761999999999,0.235285,0.646185,247.2,7.8,52.1701,4.42721,4.1,0.2493369999999999,124.085,4.38978,96.2089,33.062,217.555,1.13339,-0.00839533,240.165,3.60725,3.37306,-19.0766372680664,21.9994239807129,-16.1753540039062,22.0,33872.0,1968.93,pp-riro,4,0,-1,-1
1570539054.9,2019-10-08,14:50:54.900,15.0,8.0,17.9200000762939,1.0,23.1,10.3,3.9,-31.2,107.1,2.11269,22.2243,10.3514,-8.57165,-2.82878,-4.56299,8.004610000000001,-24.9393,102.171,-0.084609,0.209705,0.633907,247.2,7.8,52.1701,4.42721,4.3,0.21443,140.314,4.38975,98.5163,33.4421,216.555,1.12293,-0.00461609,240.249,3.67453,3.40044,-17.8989562988281,21.9994239807129,-16.184759140014602,22.0,33856.5,-861.4060000000001,pp-riro,4,0,-1,-1
1570539055.0,2019-10-08,14:50:55.000,15.0,8.0,17.8700008392334,0.0,23.0,10.5,2.0,-30.0,111.2,1.27902,22.1854,10.1182,-8.23127,0.998385,1.82974,5.97342,-23.9774,106.581,-0.1605339999999999,0.243734,0.714407,247.2,7.8,52.1701,4.42721,4.3,0.28369,164.313,4.3897,100.853,33.4421,215.555,1.11282,0.00250382,240.32,3.73354,3.4319900000000003,-16.9943695068359,21.9994239807129,35.0,22.0,33828.8,123.058,pp-riro,4,0,-1,-1
1570539055.1,2019-10-08,14:50:55.100,15.0,10.0,17.8700008392334,-0.8,23.1,10.4,0.0,-28.9,115.0,-0.0851987,22.157,10.3492,-9.84784,0.276036,-2.5265,2.84977,-22.7221,112.746,-0.158713,0.2067639999999999,0.598904,247.2,7.8,52.1701,4.42721,4.3,0.288677,169.12900000000002,4.38968,103.248,33.4422,214.455,1.10231,0.00947534,240.352,3.78831,3.45777,-16.3935852050781,21.9994239807129,35.0,22.0,33845.7,338.409,pp-riro,4,0,-1,-1
1570539055.2,2019-10-08,14:50:55.200,15.0,10.0,17.909999847412102,-1.7,23.0,10.2,-1.8,-27.4,118.4,-0.922794,22.2178,10.1273,-6.06905,-2.52183,-2.13489,0.673578,-21.7702,116.328,-0.390049,0.128696,0.539741,247.2,7.8,52.1701,4.42721,4.3,0.518067,176.28,4.38964,105.584,33.0622,213.455,1.09259,0.0192884,240.425,3.83774,3.48538,-16.004440307617198,21.9994239807129,35.0,22.0,33169.1,-7968.0,pp-riro,4,0,-1,-1
1570539055.3,2019-10-08,14:50:55.300,15.0,9.0,17.9599990844727,-2.7,22.9,10.2,-3.8,-26.0,121.6,-0.922794,22.2178,10.1273,-6.06905,-2.52183,-2.13489,0.673578,-21.7702,116.328,-0.390049,0.128696,0.539741,246.8,7.9,52.1701,4.42721,4.3,0.970198,174.59799999999998,4.3896,107.892,33.0623,212.355,1.08235,0.0254316,240.475,3.88742,3.51922,-15.3149032592773,21.9994239807129,35.0,22.0,31764.0,-3784.03,pp-riro,4,0,-1,-1
1570539055.4,2019-10-08,14:50:55.400,15.0,9.0,17.909999847412102,-3.4,22.5,10.0,-6.1,-25.1,124.5,-2.7608900000000003,22.181,9.79515,-11.5013,1.39004,-3.52308,-3.82552,-19.7693,122.452,-0.25267,0.194391,0.337708,246.8,7.9,52.1701,4.42721,4.3,0.8682469999999999,165.35,4.38957,110.287,32.6823,211.254,1.07219,0.0347205,240.541,3.92737,3.54082,-14.270355224609402,21.9994239807129,35.0,22.0,32697.4,8367.94,pp-riro,4,0,-1,-1
1570539055.5,2019-10-08,14:50:55.500,15.0,10.0,17.8600006103516,-4.0,22.2,9.9,-8.0,-24.3,127.2,-3.59352,21.4867,9.53965,-9.16932,-3.85141,0.681003,-6.72871,-19.1527,126.474,-0.145602,-0.173407,0.2998719999999999,246.8,7.9,52.1701,4.42721,4.3,0.8449760000000001,170.49400000000003,4.38954,112.536,32.3023,210.154,1.06251,0.0433046999999999,240.567,3.96457,3.5587800000000005,-12.8707962036133,21.9994239807129,35.0,22.0,32650.9,-861.4060000000001,pp-riro,4,0,-1,-1
1570539055.6,2019-10-08,14:50:55.600,15.0,11.0,17.9599990844727,-4.8,22.1,10.0,-9.8,-22.7,128.8,-4.00496,21.4672,9.66417,-9.3955,-0.744953,0.8972100000000001,-7.91365,-19.0935,127.563,-0.336391,-0.0669475,0.205332,246.8,7.9,52.1701,4.42721,4.3,0.943048,194.691,4.38951,114.755,31.9224,209.054,1.0529,0.0515425,240.607,3.99177,3.5828300000000004,-11.1162338256836,21.9994239807129,35.0,22.0,32339.3,-1599.75,pp-riro,4,0,-1,-1
1570539055.7,2019-10-08,14:50:55.700,15.0,11.0,17.9599990844727,-5.4,22.1,10.3,-11.4,-21.7,130.6,-4.00496,21.4672,9.66417,-9.3955,-0.744953,0.8972100000000001,-7.91365,-19.0935,127.563,-0.336391,-0.0669475,0.205332,246.8,7.9,52.1701,4.42721,4.3,0.950805,206.171,4.389480000000001,117.092,31.5424,207.854,1.04266,0.0597705,240.643,4.01812,3.59657,-9.04420471191406,21.9994239807129,35.0,22.0,32611.3,3230.27,pp-riro,4,0,-1,-1
1570539055.8,2019-10-08,14:50:55.800,15.0,11.0,18.1100006103516,-6.0,22.2,10.7,-12.9,-21.1,132.1,-4.00496,21.4672,9.66417,-9.3955,-0.744953,0.8972100000000001,-7.91365,-19.0935,127.563,-0.336391,-0.0669475,0.205332,246.8,7.9,52.1701,4.42721,4.3,0.984604,227.075,4.38945,119.341,31.1624,206.554,1.0324799999999998,0.0675026,240.579,4.03774,3.60881,-6.94316101074219,21.9994239807129,35.0,22.0,32664.8,338.409,pp-riro,4,0,-1,-1
1570539055.9,2019-10-08,14:50:55.900,15.0,12.0,18.0599994659424,-6.6,22.3,11.1,-14.7,-21.1,133.2,-6.09578,21.8387,10.4548,-5.74726,0.814318,4.78386,-14.609000000000002,-18.4542,132.64,-0.302129,-0.157076,0.180651,246.8,7.9,52.1701,4.42721,4.2,1.00234,237.028,4.389419999999999,121.561,30.0224,205.354,1.02324,0.0808204,240.518,4.04239,3.61561,-4.831878662109379,21.9994239807129,35.0,22.0,32722.3,1045.99,pp-riro,4,0,-1,-1
1570539056.0,2019-10-08,14:50:56.000,15.0,11.0,18.2000007629395,-7.1,22.4,11.7,-16.1,-21.2,133.4,-6.09578,21.8387,10.4548,-5.74726,0.814318,4.78386,-14.609000000000002,-18.4542,132.64,-0.302129,-0.157076,0.180651,246.8,7.9,52.1701,4.42721,4.2,1.0339200000000002,258.747,4.389390000000001,123.81,29.6425,203.954,1.0127700000000002,0.0879988999999999,240.426,4.03824,3.62174,-2.7223052978515603,21.9994239807129,35.0,22.0,32784.0,430.703,pp-riro,4,0,-1,-1
1570539056.1,2019-10-08,14:50:56.100,15.0,12.0,18.2999992370605,-7.3,22.5,12.3,-17.3,-21.4,133.4,-7.23015,22.293000000000003,11.7144,-1.22268,1.99729,6.35567,-18.9633,-20.1018,133.959,-0.328958,-0.1014809999999999,-0.167488,246.8,7.9,52.1701,4.42721,4.2,1.08046,276.60900000000004,4.38936,126.059,28.8825,202.554,1.0025700000000002,0.0977927,240.319,4.02827,3.61448,-0.621269226074219,21.9994239807129,35.0,22.0,32989.1,2738.04,pp-riro,4,0,-1,-1
1570539056.2,2019-10-08,14:50:56.200,15.0,11.0,18.3899993896484,-7.2,22.5,13.0,-18.2,-22.2,132.8,-7.23015,22.293000000000003,11.7144,-1.22268,1.99729,6.35567,-18.9633,-20.1018,133.959,-0.328958,-0.1014809999999999,-0.167488,246.8,7.9,52.1701,4.42721,4.2,1.07935,275.632,4.38933,128.366,28.1225,201.054,0.99189,0.1073819999999999,240.191,4.00515,3.59656,1.49195098876953,21.9994239807129,35.0,22.0,33153.1,3045.68,pp-riro,4,0,-1,-1
1570539056.3,2019-10-08,14:50:56.300,15.0,11.0,18.4400005340576,-6.9,22.6,13.6,-19.3,-23.4,131.9,-7.23015,22.293000000000003,11.7144,-1.22268,1.99729,6.35567,-18.9633,-20.1018,133.959,-0.328958,-0.1014809999999999,-0.167488,245.4,7.6,52.1701,4.42721,4.2,1.07326,271.289,4.38929,130.586,27.3626,199.554,0.981457,0.116546,240.048,3.97506,3.57252,3.58511352539062,21.9994239807129,35.0,22.0,33448.2,3199.51,pp-riro,4,0,-1,-1
1570539056.4,2019-10-08,14:50:56.400,15.0,11.0,18.6800003051758,-6.3,22.6,14.1,-19.9,-24.7,130.4,-7.274739999999999,22.5913,13.1884,4.81405,1.89237,7.53753,-22.0619,-23.1576,133.317,-0.311349,-0.187717,-0.135195,245.4,7.6,52.1701,4.42721,4.2,1.06218,266.386,4.38924,132.805,26.6026,197.954,0.970741,0.1254549999999999,239.856,3.936080000000001,3.53989,5.703826904296879,21.9994239807129,35.0,22.0,33737.0,2676.51,pp-riro,4,0,-1,-1
1570539056.5,2019-10-08,14:50:56.500,15.0,9.0,18.909999847412102,-5.5,22.7,14.5,-19.8,-26.3,128.1,-7.274739999999999,22.5913,13.1884,4.81405,1.89237,7.53753,-22.0619,-23.1576,133.317,-0.311349,-0.187717,-0.135195,245.4,7.6,52.1701,4.42721,4.2,1.05664,260.023,4.3891800000000005,135.142,25.8426,196.354,0.959582,0.134264,239.763,3.88396,3.5008800000000004,7.80550384521484,21.9994239807129,35.0,22.0,34034.2,3199.51,pp-riro,4,0,-1,-1
1570539056.6,2019-10-08,14:50:56.600,15.0,9.0,19.229999542236303,-4.7,22.6,15.1,-19.2,-28.0,125.4,-6.776839999999999,22.762,13.8534,2.72689,0.567735,3.03187,-22.8313,-24.8888,131.96200000000002,-0.297092,-0.251067,-0.433368,245.4,7.6,52.1701,4.42721,4.2,1.03835,256.361,4.38912,137.362,25.4627,194.754,0.948538,0.139976,239.678,3.82864,3.46403,9.91399383544922,21.9994239807129,35.0,22.0,34461.8,2184.28,pp-riro,4,0,-1,-1
1570539056.7,2019-10-08,14:50:56.700,15.0,7.0,19.409999847412102,-3.6,22.6,15.6,-18.2,-29.6,121.5,-5.24268,23.0902,15.0937,5.12713,0.457593,7.43863,-22.7836,-29.2435,127.703,-0.2786389999999999,-0.2479869999999999,-0.565561,245.4,7.6,52.1701,4.42721,4.2,1.04334,257.983,4.389069999999999,139.611,25.0827,193.154,0.937375,0.145557,239.643,3.75824,3.41731,12.0258865356445,21.9994239807129,35.0,22.0,34539.9,1568.99,pp-riro,4,0,-1,-1
1570539056.8,2019-10-08,14:50:56.800,15.0,8.0,19.5499992370605,-2.3,22.6,16.1,-16.9,-31.1,117.2,-4.17439,23.2974,15.776,16.3254,4.060980000000001,4.82028,-21.892,-31.7626,124.629,-0.319247,-0.2150989999999999,-0.6633979999999999,245.4,7.6,52.1701,4.42721,4.2,1.05109,256.97900000000004,4.38901,141.83,24.7028,191.554,0.926293,0.150938,239.623,3.68409,3.36409,14.1275634765625,21.9994239807129,35.0,22.0,34774.8,2676.51,pp-riro,4,0,-1,-1
1570539056.9,2019-10-08,14:50:56.900,15.0,9.0,19.6399993896484,-0.7,22.6,16.5,-15.2,-33.2,112.8,-2.05493,23.413,16.676,21.6225,6.3051,2.9946900000000003,-20.0056,-35.6515,118.693,-0.460046,-0.403428,-0.4392439999999999,245.4,7.6,52.1701,4.42721,4.1,1.03613,255.786,4.38895,144.02100000000002,24.3228,189.954,0.915293,0.156131,239.617,3.60633,3.3014,16.2394638061523,21.9994239807129,35.0,22.0,35089.2,2707.28,pp-riro,4,0,-1,-1
1570539057.0,2019-10-08,14:50:57.000,15.0,9.0,19.6399993896484,0.7,22.6,16.9,-12.4,-34.9,107.3,-0.4418539999999999,23.6744,17.3187,20.3598,1.00946,8.31715,-18.2276,-38.4804,114.201,-0.10908,0.0195946,-0.842939,245.4,7.6,52.1701,4.42721,4.1,1.07326,277.843,4.3889,146.27,24.3229,188.254,0.903631,0.158713,239.637,3.51957,3.2486900000000003,18.3462524414062,21.9994239807129,35.0,22.0,35232.1,1045.99,pp-riro,4,0,-1,-1
1570539057.1,2019-10-08,14:50:57.100,15.0,10.0,19.5400009155273,2.5,22.5,17.6,-8.9,-36.3,100.3,-0.4418539999999999,23.6744,17.3187,20.3598,1.00946,8.31715,-18.2276,-38.4804,114.201,-0.10908,0.0195946,-0.842939,245.4,7.6,52.1701,4.42721,4.1,1.0921,289.6,4.38884,148.49,24.3229,186.654,0.892325,0.161161,239.751,3.41542,3.18241,20.463249206543,21.9994239807129,35.0,22.0,35307.0,1445.93,pp-riro,4,0,-1,-1
1570539057.2,2019-10-08,14:50:57.200,15.0,12.0,19.409999847412102,4.8,22.2,18.5,-4.8,-37.5,92.6,-0.4418539999999999,23.6744,17.3187,20.3598,1.00946,8.31715,-18.2276,-38.4804,114.201,-0.10908,0.0195946,-0.842939,245.4,7.6,52.1701,4.42721,4.1,1.1297700000000002,320.147,4.388780000000001,150.768,24.703000000000003,184.754,0.87985,0.161201,239.74,3.30605,3.10242,22.5683364868164,21.9994239807129,23.0,22.0,35376.9,-184.587,pp-riro,4,0,-1,-1
1570539057.3,2019-10-08,14:50:57.300,15.0,13.0,19.270000457763697,7.1,21.5,18.8,0.0,-39.2,83.7,4.69608,23.8344,19.5607,27.7346,-7.53568,13.3866,-9.46599,-44.4035,96.228,-0.293565,-0.324317,-0.980931,244.9,7.8,52.1701,4.42721,4.1,1.2007,342.56699999999995,4.3887,152.9,25.0831,182.954,0.8681049999999999,0.1610849999999999,239.749,3.1823900000000003,3.0215,24.6666107177734,21.9994239807129,23.0,22.0,35435.1,1476.7,pp-ro,1,1,-1,-1
1570539057.4,2019-10-08,14:50:57.400,15.0,14.0,19.0799999237061,9.7,20.6,18.9,5.8,-39.7,73.8,7.429839999999999,23.4773,20.1006,25.0427,-5.54517,3.88871,-3.46335,-46.6957,86.9122,-0.351337,-0.0334587,-1.34399,244.9,7.8,52.1701,4.42721,4.1,1.19848,353.39300000000003,4.3886,154.97299999999998,25.8431,181.154,0.856348,0.1585,239.794,3.05125,2.93122,26.5366592407227,22.0019989013672,23.0092449188232,22.0,35880.0,4214.73,pp-ro,1,1,-1,-1
1570539057.5,2019-10-08,14:50:57.500,15.0,12.0,19.1299991607666,12.2,19.2,18.9,12.0,-39.9,63.4,10.461,22.6985,20.3786,26.6491,-12.9318,-0.0138532,2.84446,-48.0994,75.3615,-0.280615,-0.289361,-1.44321,244.9,7.8,52.1701,4.42721,4.1,1.25998,383.426,4.38849,156.959,26.6032,179.354,0.8448629999999999,0.156,239.816,2.91562,2.83875,28.0558624267578,22.0019989013672,23.0092449188232,22.0,36135.6,3045.68,pp-ro,1,1,-1,-1
1570539057.6,2019-10-08,14:50:57.600,15.0,12.0,19.3999996185303,13.5,18.3,18.6,18.9,-39.1,52.3,10.461,22.6985,20.3786,26.6491,-12.9318,-0.0138532,2.84446,-48.0994,75.3615,-0.280615,-0.289361,-1.44321,244.9,7.8,52.1701,4.42721,4.1,1.26996,395.131,4.38839,158.799,28.1233,177.65400000000002,0.833699,0.148718,239.935,2.77308,2.79058,29.2174072265625,22.003026962280305,23.0139999389648,22.0,36315.6,3507.15,pp-ro,1,1,-1,-1
1570539057.7,2019-10-08,14:50:57.700,15.0,11.0,19.8500003814697,17.1,15.4,17.7,25.3,-36.5,41.2,13.5822,21.2484,20.2916,35.1536,-25.8805,-3.31261,10.7882,-49.3496,62.2909,-0.605352,-0.149611,-1.3278,244.9,7.8,52.1701,4.42721,4.1,1.31262,408.514,4.38828,160.523,29.2634,175.854,0.8227979999999999,0.143784,239.892,2.6179,2.6358900000000003,30.0298004150391,22.003026962280305,21.4668960571289,22.0,36491.9,1507.46,pp-ro,1,1,-1,-1
1570539057.8,2019-10-08,14:50:57.800,15.0,10.0,20.2800006866455,17.8,14.3,16.9,29.6,-33.7,31.8,16.7612,19.4767,19.7738,29.0345,-20.5404,-6.1569,18.7903,-47.7071,49.0193,-0.478279,-0.0660446,-1.70993,244.9,7.8,52.1701,4.42721,4.1,1.30154,394.223,4.38818,161.954,31.1635,174.35299999999998,0.813182,0.1341109999999999,239.998,2.48355,2.5944700000000003,30.4913635253906,22.0025119781494,20.9843521118164,22.0,37192.5,8583.29,pp-ro,1,1,-1,-1
1570539057.9,2019-10-08,14:50:57.900,15.0,9.0,20.7099990844727,19.3,10.9,14.5,33.4,-29.3,23.4,16.7612,19.4767,19.7738,29.0345,-20.5404,-6.1569,18.7903,-47.7071,49.0193,-0.478279,-0.0660446,-1.70993,244.9,7.8,52.1701,4.4272,3.9,1.25001,376.783,4.38807,163.209,32.6836,173.053,0.804847,0.126673,240.11,2.34241,2.4552,30.6088714599609,22.0019989013672,18.5244178771973,22.0,37827.4,5045.38,pp-ro,1,1,-1,-1
1570539058.0,2019-10-08,14:50:58.000,15.0,9.0,20.8799991607666,19.5,9.9,13.8,35.0,-27.2,20.1,22.314,12.3002,15.467,-3.02505,-23.736,-9.04271,35.1224,-37.0541,18.1384,-0.459151,0.0684808,-1.46097,244.9,7.8,52.1701,4.4272,3.9,1.23394,343.939,4.38797,163.735,33.4436,172.453,0.8011159999999999,0.1229359999999999,240.141,2.2826,2.4176900000000003,30.5850219726562,22.0025119781494,17.918437957763697,22.0,38357.9,7075.83,pp-ro,1,1,-1,-1
1570539058.1,2019-10-08,14:50:58.100,15.0,10.0,20.8299999237061,20.1,8.2,12.1,37.0,-22.6,12.7,22.6496,11.1123,14.7127,11.1744,-14.1793,-17.351,36.73,-35.1757,13.5793,-0.707662,-0.543162,-1.42408,244.9,7.8,52.1701,4.4272,3.9,1.10816,300.807,4.38787,164.757,35.7237,171.253,0.793248,0.111002,240.31,2.14952,2.3371,29.9787139892578,22.0025119781494,16.5705986022949,22.0,39437.9,3107.21,pp-ro,1,1,-1,-1
1570539058.2,2019-10-08,14:50:58.200,15.0,12.0,20.7099990844727,20.8,6.4,10.4,38.4,-18.2,7.1,24.0547,8.2518,11.4091,8.85142,-10.9406,-10.1924,38.7867,-27.6674,3.78778,-0.0491634,0.0734472,-1.33845,244.9,7.8,52.1701,4.4272,3.9,1.12091,310.341,4.38773,165.517,37.6237,170.253,0.7869109999999999,0.101148,240.411,2.0371,2.24347,29.343444824218803,22.0025119781494,14.9208574295044,22.0,39494.6,1076.76,pp-ro,1,1,-1,-1
1570539058.3,2019-10-08,14:50:58.300,15.0,12.0,20.3199996948242,21.4,4.5,9.4,40.3,-13.8,1.2,24.9837,5.915780000000001,10.1928,9.725,-22.5236,-16.144000000000002,39.651,-23.1417,-2.09023,0.0204102,-0.292651,-1.06271,246.8,7.3,52.1701,4.4272,3.9,1.17576,342.788,4.38765,166.15900000000002,39.5238,169.35299999999998,0.7811600000000001,0.0912128,240.523,1.91933,2.16086,27.8361587524414,22.0025119781494,13.4709129333496,22.0,39517.0,-307.645,pp-ro,1,1,-1,-1
1570539058.4,2019-10-08,14:50:58.400,15.0,13.0,19.9699993133545,21.3,3.1,7.7,41.8,-9.7,-4.7,25.2363,4.07774,8.51121,2.94064,-19.1882,-19.8523,41.015,-18.2044,-7.962839999999999,-0.195801,0.0128155,-1.20763,246.8,7.3,52.1701,4.4272,3.9,1.22397,348.978,4.38754,166.655,41.8039,168.553,0.775805,0.0790798,240.69,1.80575,2.0845,26.235206604003896,22.0025119781494,12.1129245758057,22.0,39726.6,3322.56,pp-ro,1,1,-1,-1
1570539058.5,2019-10-08,14:50:58.500,15.0,12.0,19.7000007629395,21.4,1.7,6.1,42.8,-5.8,-10.0,25.13,3.15482,7.46276,-0.449038,-19.9454,-22.0126,41.1567,-15.3861,-11.0735,-0.101263,-0.0265930999999999,-1.29834,246.8,7.3,52.1701,4.4272,3.9,1.1574799999999998,321.289,4.38743,167.06400000000002,43.7039,167.85299999999998,0.771207,0.0690916,240.822,1.69997,2.0007,23.7486190795898,22.0025119781494,10.5977373123169,22.0,40627.1,3907.09,pp-ro,1,1,-1,-1
1570539058.6,2019-10-08,14:50:58.600,15.0,13.0,19.520000457763697,21.6,0.5,4.9,44.0,-1.8,-14.8,25.0986,2.30868,6.57141,-3.33328,-19.6033,-15.9316,41.43899999999999,-12.9697,-13.5586,-0.3745739999999999,0.212977,-1.03316,246.8,7.3,52.1701,4.4272,3.9,1.15249,314.125,4.38732,167.327,45.984,167.253,0.76698,0.0568712,241.011,1.60028,1.9327,21.63671875,22.0019989013672,9.36645984649658,22.0,41024.0,4553.14,pp-ro,1,1,-1,-1
1570539058.7,2019-10-08,14:50:58.700,15.0,13.0,19.520000457763697,21.5,-0.6,3.4,45.2,2.0,-19.2,25.1921,0.656144,4.90143,-1.7294200000000002,-13.672,-15.7097,42.464,-7.939989999999999,-18.4009,0.146772,0.1594269999999999,-1.03357,246.8,7.3,52.1701,4.4272,3.9,1.13919,315.36,4.38721,167.502,47.8841,166.753,0.763526,0.0467295,241.157,1.5064,1.85751,20.5841751098633,22.0019989013672,7.975982666015621,22.0,41271.4,4614.67,pp-ro,1,1,-1,-1
1570539058.8,2019-10-08,14:50:58.800,15.0,12.0,19.4699993133545,21.0,-1.9,2.1,45.9,5.0,-23.4,24.4652,-1.5622,2.42849,-11.7931,-17.5884,-13.7356,43.2172,-1.5240200000000002,-25.1707,-0.0931429999999999,0.0417855,-0.929133,246.8,7.3,52.1701,4.4272,3.9,1.1536,323.42,4.38709,167.56099999999998,50.5441,166.35299999999998,0.760022,0.0323288,241.46400000000003,1.42805,1.7828700000000002,17.9528198242188,22.0025119781494,6.572523593902591,22.0,41419.0,1076.76,pp-ro,1,1,-1,-1
1570539058.9,2019-10-08,14:50:58.900,15.0,11.0,19.3299999237061,20.6,-2.9,1.1,46.7,7.3,-26.8,24.0195,-2.2399,1.7990099999999998,-8.03004,-17.8395,-9.27924,43.4869,0.242281,-27.0756,-0.301235,-0.0539946,-0.913074,246.8,7.3,52.1701,4.4272,3.8,1.17964,333.096,4.38696,167.47299999999998,52.8242,166.153,0.757746,0.0197945,241.753,1.36691,1.72347,15.834114074707,22.0025119781494,5.4239296913147,22.0,41710.1,3568.68,pp-ro,1,1,-1,-1
1570539059.0,2019-10-08,14:50:59.000,15.0,10.0,19.2399997711182,20.2,-3.7,0.0,47.3,9.9,-29.6,23.0326,-3.99754,-0.0922771,-9.72428,-8.514569999999999,-7.21212,44.3981,5.41271,-31.3273,0.0803169,0.0856934,-0.8438680000000001,246.8,7.3,52.1701,4.4272,3.8,1.17133,326.378,4.38689,167.268,54.7242,165.953,0.756047,0.00931127,241.896,1.30807,1.66373,13.7341384887695,22.0019989013672,4.25523281097412,22.0,42092.8,3630.21,pp-ro,1,1,-1,-1
1570539059.1,2019-10-08,14:50:59.100,15.0,10.0,19.2399997711182,19.9,-4.5,-0.8,48.1,12.4,-32.2,22.3696,-4.86692,-1.16602,-2.48706,-16.0683,-9.37601,44.7795,8.9653,-34.0178,-0.16783,0.0034743,-0.542117,246.8,7.3,52.1701,4.4272,3.8,1.16025,324.939,4.38678,167.005,57.0043,165.85299999999998,0.754405,-0.00332378,242.173,1.25455,1.61527,11.629058837890598,22.0025119781494,3.2974066734314,22.0,42543.1,4399.32,pp-ro,1,1,-1,-1
1570539059.2,2019-10-08,14:50:59.200,15.0,11.0,19.3299999237061,19.6,-5.5,-1.3,48.5,14.4,-34.8,21.7727,-5.82247,-1.92175,-7.83856,-11.6709,-6.56169,45.2781,12.0662,-36.752,0.0510725,0.0839964,-0.81634,246.8,7.3,52.1701,4.4272,3.8,1.17299,339.686,4.38667,166.62599999999998,58.9043,165.85299999999998,0.753657,-0.0140845,242.366,1.20613,1.56951,9.55463409423828,22.0025119781494,2.35179877281189,22.0,42755.3,1199.82,pp-ro,1,1,-1,-1
1570539059.3,2019-10-08,14:50:59.300,15.0,10.0,19.4699993133545,19.3,-6.3,-2.2,48.7,15.7,-37.0,21.5005,-6.37007,-2.34786,-7.204289999999999,-14.207,-11.522,45.2061,13.0999,-38.1861,0.141485,0.0537922,-0.424302,248.0,8.2,52.1701,4.4272,3.8,1.21399,348.126,4.38655,166.12900000000002,61.1843,165.953,0.753092,-0.027044,242.658,1.1728,1.51729,7.57557678222656,22.0019989013672,1.25020980834961,22.0,42950.8,3076.45,pp-ro,1,1,-1,-1
1570539059.4,2019-10-08,14:50:59.400,15.0,9.0,19.520000457763697,18.7,-6.9,-2.3,49.2,16.5,-39.1,21.5005,-6.37007,-2.34786,-7.204289999999999,-14.207,-11.522,45.2061,13.0999,-38.1861,0.141485,0.0537922,-0.424302,248.0,8.2,52.1701,4.4272,3.8,1.18684,337.416,4.386430000000001,165.574,63.0844,166.053,0.752979,-0.0380688,242.833,1.1454799999999998,1.49395,5.381927490234379,22.0025119781494,0.709213733673096,22.0,43696.2,3722.5,pp-ro,1,1,-1,-1
1570539059.5,2019-10-08,14:50:59.500,15.0,11.0,19.4300003051758,18.1,-7.1,-2.5,49.3,17.4,-41.6,20.255,-7.798999999999999,-3.38032,-1.6730900000000002,-6.09685,-1.5919,46.3871,16.487000000000002,-41.3503,0.306296,-0.140522,-0.596058,248.0,8.2,52.1701,4.4272,3.8,1.1741,323.839,4.38631,164.873,65.3644,166.253,0.7530939999999999,-0.0513691,243.096,1.1137,1.47972,4.57293701171875,22.0025119781494,0.315632164478302,22.0,44159.3,5537.61,pp-ro,1,1,-1,-1
1570539059.6,2019-10-08,14:50:59.600,15.0,10.0,19.340000152587898,17.7,-7.2,-2.7,49.8,18.8,-42.5,20.255,-7.798999999999999,-3.38032,-1.6730900000000002,-6.09685,-1.5919,46.3871,16.487000000000002,-41.3503,0.306296,-0.140522,-0.596058,248.0,8.2,52.1701,4.4272,3.8,1.13809,308.017,4.38614,164.23,67.2645,166.453,0.753372,-0.0624851,243.316,1.09388,1.46972,3.1184539794921897,22.0019989013672,0.008946865797043,22.0,44647.3,4214.73,pp-ro,1,1,-1,-1
1570539059.7,2019-10-08,14:50:59.700,15.0,10.0,19.1100006103516,17.4,-7.7,-2.8,50.3,19.4,-43.3,19.1431,-7.91052,-3.4795800000000003,-1.80677,4.13715,-4.67359,46.2439,18.943,-44.1748,0.106018,0.0106243999999999,-0.306533,248.0,8.2,52.1701,4.4272,3.8,1.11537,290.524,4.38607,163.559,69.1645,166.653,0.753663,-0.0737503,243.533,1.0849,1.4527,1.90411376953125,22.0009689331055,-0.442357331514359,22.0,45046.0,4276.26,pp-ro,1,1,-1,-1
1570539059.8,2019-10-08,14:50:59.800,15.0,10.0,19.0100002288818,17.3,-7.9,-3.1,50.2,19.3,-43.8,18.3699,-8.57497,-3.675,-2.15162,-0.5339520000000001,-3.07369,46.4408,20.1635,-45.3167,-0.0282990999999999,0.0171845999999999,-0.0591034,248.0,8.2,52.1701,4.4272,3.8,1.10152,285.5,4.38594,162.741,71.0645,166.85299999999998,0.754265,-0.0852688,243.669,1.0881,1.44131,0.7425689697265621,22.0009689331055,-0.812654316425323,22.0,45286.1,4799.26,pp-ro,1,1,-1,-1
1570539059.9,2019-10-08,14:50:59.900,15.0,10.0,18.9200000762939,17.2,-8.1,-2.8,50.5,18.5,-44.4,18.3699,-8.57497,-3.675,-2.15162,-0.5339520000000001,-3.07369,46.4408,20.1635,-45.3167,-0.0282990999999999,0.0171845999999999,-0.0591034,248.0,8.2,52.1701,4.4272,3.6,1.08489,287.692,4.38583,161.981,72.5845,167.053,0.7550859999999999,-0.0947179,243.748,1.09701,1.45118,0.032356262207031,22.0009689331055,-0.765540063381195,22.0,45598.8,2153.51,pp-ro,1,1,-1,-1
1570539060.0,2019-10-08,14:51:00.000,15.0,11.0,18.8700008392334,17.2,-8.3,-2.4,50.6,17.7,-45.1,18.1832,-8.60586,-3.67944,-3.72068,-1.402,1.47082,46.5142,20.0661,-45.4938,6.136930000000001e-05,-0.1237099999999999,-0.0453649999999999,248.0,8.2,52.1701,4.4272,3.6,1.1198,288.493,4.38571,161.105,74.8646,167.253,0.755263,-0.1083269999999999,243.99400000000003,1.1076,1.46963,-0.542755126953125,22.0009689331055,-0.527794718742371,22.0,45854.3,3414.86,pp-ro,1,1,-1,-1
1570539060.1,2019-10-08,14:51:00.100,15.0,11.0,19.0100002288818,17.2,-8.2,-2.3,50.8,16.8,-45.1,18.0906,-8.95364,-2.91982,-3.5705,4.16551,2.89819,47.3951,19.0334,-45.7409,0.0379767,-0.00558554,0.0429769,248.0,8.2,52.1701,4.4272,3.6,1.0727,272.546,4.3855900000000005,160.287,76.3846,167.35299999999998,0.755822,-0.1179109999999999,243.995,1.1251,1.48307,-0.776580810546875,22.0009689331055,-0.3962362110614779,22.0,46408.6,5106.9,pp-ro,1,1,-1,-1
1570539060.2,2019-10-08,14:51:00.200,15.0,9.0,19.1100006103516,17.3,-8.1,-2.1,51.4,16.5,-44.7,18.0906,-8.95364,-2.91982,-3.5705,4.16551,2.89819,47.3951,19.0334,-45.7409,0.0379767,-0.00558554,0.0429769,248.0,8.2,52.1701,4.4272,3.6,1.05996,269.705,4.38547,159.44,78.2846,167.453,0.755938,-0.129499,244.111,1.14171,1.5036,-0.6810073852539059,22.0009689331055,-0.101077154278755,22.0,46560.2,2738.04,pp-ro,1,1,-1,-1
1570539060.3,2019-10-08,14:51:00.300,15.0,9.0,19.1100006103516,17.4,-8.4,-1.9,51.8,15.9,-44.8,17.9901,-8.77421,-2.65676,-0.542841,1.28618,3.01658,47.6958,18.3832,-45.6936,0.09483,-0.128093,-0.148942,245.6,8.1,52.1701,4.4272,3.6,1.07714,278.07,4.385330000000001,158.564,79.8046,167.553,0.75654,-0.139224,244.101,1.15457,1.51069,-0.442054748535156,22.0009689331055,-0.112598575651646,22.0,46689.6,1292.11,pp-ro,1,1,-1,-1
1570539060.4,2019-10-08,14:51:00.400,15.0,9.0,19.340000152587898,17.1,-8.5,-1.4,52.3,14.7,-44.4,17.9901,-8.77421,-2.65676,-0.542841,1.28618,3.01658,47.6958,18.3832,-45.6936,0.09483,-0.128093,-0.148942,245.6,8.1,52.1701,4.4272,3.6,1.09431,280.755,4.38516,157.688,81.7046,167.653,0.756602,-0.150832,244.231,1.18214,1.529,-0.151901245117188,22.0009689331055,0.135094657540321,22.0,47001.0,2245.81,pp-ro,1,1,-1,-1
1570539060.5,2019-10-08,14:51:00.500,15.0,9.0,19.4300003051758,16.8,-8.2,-1.4,52.4,13.4,-44.1,17.9861,-8.915519999999999,-2.36048,-0.00933363,-2.60325,1.56733,47.9603,17.7676,-45.642,0.0761411,-0.200194,-0.0383679,245.6,8.1,52.1701,4.4272,3.6,1.08877,270.673,4.385,156.811,83.2246,167.753,0.757097,-0.1605369999999999,244.248,1.20846,1.5396,-0.107528686523438,22.0009689331055,0.193323254585266,22.0,47214.8,4030.15,pp-ro,1,1,-1,-1
1570539060.6,2019-10-08,14:51:00.600,15.0,9.0,19.6100006103516,16.7,-7.8,-1.1,53.1,12.4,-43.5,17.9861,-8.915519999999999,-2.36048,-0.00933363,-2.60325,1.56733,47.9603,17.7676,-45.642,0.0761411,-0.200194,-0.0383679,245.6,8.1,52.1701,4.4272,3.6,1.03946,250.444,4.38483,155.964,84.7447,167.753,0.757173,-0.170172,244.229,1.23481,1.56914,0.12432861328125,22.0009689331055,0.674519062042236,22.0,47722.3,4953.08,pp-ro,1,1,-1,-1
1570539060.7,2019-10-08,14:51:00.700,15.0,7.0,19.4699993133545,16.9,-7.8,-0.6,53.2,12.2,-43.1,17.9521,-9.11625,-1.97215,-1.99429,0.8728670000000001,4.16458,48.3243,16.6824,-45.709,0.0751776999999999,-0.096752,0.171914,245.6,8.1,52.1701,4.4272,3.6,1.02007,249.599,4.38466,155.11700000000002,86.6447,167.85299999999998,0.756979,-0.181678,244.425,1.25022,1.60027,0.202674865722656,22.0009689331055,1.19791376590729,22.0,47945.4,1230.58,pp-ro,1,1,-1,-1
1570539060.8,2019-10-08,14:51:00.800,15.0,8.0,19.2000007629395,16.7,-7.8,-0.3,53.1,11.4,-43.3,17.3472,-8.7427,-1.45338,-8.18838,0.970392,3.1922,49.2509,14.5158,-44.391000000000005,0.158352,0.1184279999999999,0.345688,245.6,8.1,52.1701,4.4272,3.6,1.04555,254.858,4.3845,154.299,88.1647,167.85299999999998,0.756879,-0.191222,244.451,1.2644,1.61544,0.4819869995117189,22.0009689331055,-35.0,22.0,48040.3,1538.22,pp-ro,1,1,-1,-1
1570539060.9,2019-10-08,14:51:00.900,15.0,9.0,18.9699993133545,16.4,-7.5,-0.2,53.2,10.8,-43.1,17.3472,-8.7427,-1.45338,-8.18838,0.970392,3.1922,49.2509,14.5158,-44.391000000000005,0.158352,0.1184279999999999,0.345688,245.6,8.1,52.1701,4.4272,3.4,1.0339200000000002,253.873,4.38433,153.511,90.0647,167.85299999999998,0.7561220000000001,-0.202606,244.647,1.28221,1.6326,0.982711791992188,22.0009689331055,-35.0,22.0,48440.1,1784.34,pp-ro,1,1,-1,-1
1570539061.0,2019-10-08,14:51:01.000,15.0,10.0,19.020000457763697,16.5,-7.6,-0.1,53.5,10.5,-42.8,17.0044,-8.4187,-0.31024,-5.44004,-1.38789,-3.27235,49.8318,11.7971,-44.3171,-0.108707,-0.0269085,0.069026,245.6,8.1,52.1701,4.4272,3.4,1.03946,255.764,4.38416,152.69299999999998,91.5847,167.85299999999998,0.75592,-0.2120429999999999,244.699,1.29625,1.64146,1.18028259277344,22.0009689331055,-35.0,22.0,48525.9,1692.05,pp-ro,1,1,-1,-1
1570539061.1,2019-10-08,14:51:01.100,15.0,13.0,18.9699993133545,16.9,-7.9,0.2,53.9,10.1,-43.0,17.0493,-8.46299,-0.229672,1.91111,3.56771,1.76145,50.0332,11.724,-44.3099,-0.0324254,0.0683326,0.0577475,245.6,8.1,52.1701,4.4272,3.4,1.06328,274.591,4.384,151.875,93.4847,167.753,0.7548159999999999,-0.223372,244.84,1.3067799999999998,1.65723,1.06275939941406,22.0009689331055,-35.0,22.0,48780.9,1445.93,pp-ro,1,1,-1,-1
1570539061.2,2019-10-08,14:51:01.200,15.0,10.0,19.020000457763697,17.3,-8.0,0.5,53.8,9.6,-44.3,17.6336,-8.990839999999999,0.319436,2.68271,-1.60771,-0.6403840000000001,50.3213,11.3585,-44.5458,0.00657648,-0.194896,-0.0318368,245.6,8.1,52.1701,4.4272,3.4,1.09487,291.23900000000003,4.383830000000001,150.999,95.0048,167.653,0.7543529999999999,-0.233036,244.815,1.30414,1.6781099999999998,0.7153244018554691,22.0009689331055,-35.0,22.0,48871.2,1015.23,pp-ro,1,1,-1,-1
1570539061.3,2019-10-08,14:51:01.300,15.0,8.0,19.25,17.4,-8.4,0.7,53.4,9.2,-45.1,18.0252,-9.13908,0.573577,4.3193,-3.78845,-1.7756299999999998,50.3246,10.9744,-45.5396,-0.0167657999999999,-0.0684908,-0.155282,246.7,7.8,52.1701,4.4272,3.4,1.11481,300.918,4.38368,150.15200000000002,96.9048,167.553,0.7531979999999999,-0.244476,244.97,1.30748,1.6817799999999998,-0.04949951171875,22.0009689331055,-35.0,22.0,48955.6,1661.28,pp-ro,1,1,-1,-1
1570539061.4,2019-10-08,14:51:01.400,15.0,8.0,19.659999847412102,17.1,-9.2,0.7,53.6,8.3,-45.4,17.5769,-9.94255,0.8333010000000001,-9.00809,-1.66969,4.181109999999999,49.9652,10.2795,-46.1501,-0.137734,-0.0121994,0.216442,246.7,7.8,52.1701,4.4272,3.4,1.13809,313.54,4.38355,149.159,98.8048,167.453,0.752318,-0.25621,245.054,1.32339,1.65966,-1.19815826416016,22.0009689331055,-35.0,22.0,49165.6,1845.87,pp-ro,1,1,-1,-1
1570539061.5,2019-10-08,14:51:01.500,15.0,8.0,20.0100002288818,16.8,-9.0,1.1,53.7,6.4,-45.5,17.3392,-10.0147,0.904941,-2.63591,0.936189,3.39796,50.0308,9.75074,-45.7847,0.198992,0.0287703,0.277708,246.7,7.8,52.1701,4.4272,3.4,1.12257,286.432,4.38342,148.166,100.705,167.253,0.75107,-0.267982,245.088,1.35431,1.68474,-2.69670867919922,22.0009689331055,-35.0,22.0,49734.9,5383.79,pp-ro,1,1,-1,-1
1570539061.6,2019-10-08,14:51:01.600,15.0,7.0,20.229999542236303,16.7,-8.2,1.5,53.9,5.0,-44.9,17.0901,-9.40659,1.27188,-1.47289,6.73048,3.08535,50.4415,8.79418,-44.896,0.108489,0.0310591,0.194952,246.7,7.8,52.1701,4.4272,3.4,1.04666,246.004,4.38323,147.231,102.225,167.053,0.750222,-0.27781,245.018,1.38613,1.7324,-4.54002380371094,22.0009689331055,-35.0,22.0,50422.2,6829.72,pp-ro,1,1,-1,-1
1570539061.7,2019-10-08,14:51:01.700,15.0,7.0,20.229999542236303,16.5,-7.6,2.3,53.9,4.1,-44.4,16.9545,-9.04663,1.58841,-1.7783,6.39696,6.94928,50.5092,8.446110000000001,-44.3206,0.156221,-0.0598589,0.2130389999999999,246.7,7.8,52.1701,4.4272,3.4,0.999565,230.044,4.38315,146.384,104.125,166.85299999999998,0.748514,-0.289044,245.174,1.4115,1.79013,-6.63935852050781,22.0009689331055,-35.0,22.0,50682.8,4953.08,pp-ro,1,1,-1,-1
1570539061.8,2019-10-08,14:51:01.800,15.0,7.0,20.3600006103516,16.7,-6.9,2.6,54.2,2.8,-43.7,16.9545,-9.04663,1.58841,-1.7783,6.39696,6.94928,50.5092,8.446110000000001,-44.3206,0.156221,-0.0598589,0.2130389999999999,246.7,7.8,52.1701,4.4272,3.4,0.967428,207.217,4.38302,145.624,105.645,166.553,0.746868,-0.298246,245.168,1.44294,1.8362,-8.74552154541016,22.0009689331055,-35.0,22.0,51058.4,3445.62,pp-ro,1,1,-1,-1
1570539061.9,2019-10-08,14:51:01.900,15.0,7.0,20.3199996948242,16.9,-6.3,3.5,54.9,0.9,-42.9,16.8932,-7.17339,3.3118800000000004,2.56068,11.5296,7.289460000000001,51.6557,6.14987,-41.5812,0.0707868,0.147963,0.313898,246.7,7.8,52.1701,4.42721,3.5,0.950805,209.709,4.38289,144.894,107.545,166.253,0.744488,-0.309015,245.358,1.48439,1.9027,-10.8585052490234,22.0009689331055,-35.0,22.0,51206.1,2922.63,pp-ro,1,1,-1,-1
1570539062.0,2019-10-08,14:51:02.000,15.0,9.0,20.3999996185303,17.4,-5.8,4.4,55.8,-0.5,-40.9,16.8932,-7.17339,3.3118800000000004,2.56068,11.5296,7.289460000000001,51.6557,6.14987,-41.5812,0.0707868,0.147963,0.313898,246.7,7.8,52.1701,4.42721,3.5,1.00455,234.673,4.38276,144.222,109.065,165.953,0.7425579999999999,-0.317849,245.43,1.53232,1.96411,-12.9578399658203,22.0009689331055,-35.0,22.0,51160.6,-123.058,pp-ro,1,1,-1,-1
1570539062.1,2019-10-08,14:51:02.100,15.0,9.0,20.1800003051758,18.1,-5.2,5.6,57.3,-2.6,-39.0,16.9182,-6.60429,4.30196,2.60174,4.24667,5.2986,52.3669,4.708559999999999,-39.6887,0.0442804,-0.0611699,0.379637,246.7,7.8,52.1701,4.42721,3.5,1.01785,242.796,4.382630000000001,143.609,110.965,165.453,0.739222,-0.328108,245.584,1.58899,2.03769,-15.0674209594727,22.0009689331055,-35.0,22.0,51379.9,2584.22,pp-ro,1,1,-1,-1
1570539062.2,2019-10-08,14:51:02.200,15.0,11.0,20.0499992370605,18.5,-4.5,7.0,58.3,-5.5,-37.3,17.4095,-5.99939,5.33499,3.85511,4.31349,8.05229,53.4914,2.93529,-37.3114,0.159046,0.105808,0.573384,246.7,7.8,52.1701,4.42721,3.5,1.01785,247.275,4.3825,143.054,112.485,164.85299999999998,0.736054,-0.336452,245.548,1.65228,2.11526,-17.166748046875,22.0009689331055,-35.0,22.0,51476.8,1753.58,pp-ro,1,1,-1,-1
1570539062.3,2019-10-08,14:51:02.300,15.0,11.0,19.9200000762939,19.1,-3.8,8.4,59.5,-9.2,-35.3,17.4095,-5.99939,5.33499,3.85511,4.31349,8.05229,53.4914,2.93529,-37.3114,0.159046,0.105808,0.573384,244.8,7.6,52.1701,4.42721,3.5,1.04334,259.215,4.38236,142.528,114.765,164.053,0.730887,-0.347877,245.762,1.73154,2.18899,-19.2899780273438,22.0009689331055,-35.0,22.0,51528.4,338.409,pp-ro,1,1,-1,-1
1570539062.4,2019-10-08,14:51:02.400,15.0,11.0,19.9599990844727,19.4,-3.0,9.8,60.6,-13.8,-32.9,18.2538,-4.54285,8.09988,3.66099,3.57621,10.2677,55.6199,-2.5192900000000003,-32.6458,0.1744099999999999,0.0795728,0.8065479999999999,244.8,7.6,52.1701,4.42721,3.5,1.06162,266.624,4.38218,142.148,116.285,163.053,0.726053,-0.355534,245.591,1.82434,2.2601400000000003,-21.409797668457,22.0009689331055,-35.0,22.0,51747.8,2830.33,pp-ro,1,1,-1,-1
1570539062.5,2019-10-08,14:51:02.500,15.0,11.0,20.0100002288818,19.4,-1.9,11.3,61.6,-19.3,-30.7,18.3696,-3.07761,10.1003,-0.857615,12.7667,15.1049,56.7431,-9.30455,-27.9423,0.0503379,-0.0763872,0.981236,244.8,7.6,52.1701,4.42721,3.5,1.07714,281.844,4.38194,141.827,118.565,162.053,0.719755,-0.365855,245.833,1.92823,2.34476,-23.522781372070305,22.0009689331055,-35.0,22.0,52009.7,1076.76,pp-ro,1,1,-1,-1
1570539062.6,2019-10-08,14:51:02.600,15.0,9.0,20.1800003051758,19.2,-0.5,13.1,61.9,-24.9,-27.2,18.2531,-1.85311,11.416,1.86446,10.3365,14.7988,56.8898,-14.8216,-24.4037,0.258272,-0.0944766,1.19114,244.8,7.6,52.1701,4.42721,3.5,1.0932,288.769,4.38184,141.65200000000002,120.465,160.753,0.712853,-0.374195,245.802,2.04542,2.44288,-25.642601013183604,22.0009689331055,-35.0,22.0,52063.3,1015.23,pp-ro,1,1,-1,-1
1570539062.7,2019-10-08,14:51:02.700,15.0,10.0,20.3500003814697,18.8,0.9,14.7,61.6,-30.7,-23.8,18.2531,-1.85311,11.416,1.86446,10.3365,14.7988,56.8898,-14.8216,-24.4037,0.258272,-0.0944766,1.19114,244.8,7.6,52.1701,4.42721,3.5,1.09764,282.094,4.38167,141.593,122.365,159.453,0.705681,-0.3819599999999999,245.86,2.16206,2.53383,-27.7436447143555,22.0009689331055,-35.0,22.0,52524.1,4399.32,pp-ro,1,1,-1,-1
1570539062.8,2019-10-08,14:51:02.800,15.0,10.0,20.479999542236303,17.8,3.0,15.9,60.8,-37.4,-19.6,18.2531,-1.85311,11.416,1.86446,10.3365,14.7988,56.8898,-14.8216,-24.4037,0.258272,-0.0944766,1.19114,244.8,7.6,52.1701,4.42721,3.5,1.08101,273.786,4.3815,141.71,123.885,157.953,0.69817,-0.387492,245.72,2.29455,2.6465,-29.8003082275391,22.0009689331055,-35.0,22.0,52732.9,4183.97,pp-ro,1,1,-1,-1
1570539062.9,2019-10-08,14:51:02.900,15.0,9.0,20.479999542236303,16.7,5.1,17.2,59.2,-44.5,-13.5,16.7049,2.17451,14.9788,-12.8453,22.1825,10.31,54.9397,-29.7119,-13.0047,-0.0106402,0.135294,1.30616,244.8,7.6,52.1701,4.42721,3.7,1.05276,267.168,4.38132,142.09,125.785,156.35299999999998,0.689159,-0.393542,245.881,2.44581,2.76006,-31.5378112792969,22.0009689331055,-35.0,22.0,53223.8,2614.98,pp-ro,1,1,-1,-1
1570539063.0,2019-10-08,14:51:03.000,15.0,9.0,20.479999542236303,15.5,7.1,18.6,56.7,-50.2,-6.7,16.7049,2.17451,14.9788,-12.8453,22.1825,10.31,54.9397,-29.7119,-13.0047,-0.0106402,0.135294,1.30616,244.8,7.6,52.1701,4.42721,3.7,1.07437,278.964,4.38115,142.644,127.305,154.753,0.6804560000000001,-0.397399,245.973,2.57757,2.86716,-32.9237060546875,22.0009689331055,-35.0,22.0,53313.7,615.29,pp-ro,1,1,-1,-1
1570539063.1,2019-10-08,14:51:03.100,15.0,8.0,20.479999542236303,14.7,8.1,19.3,54.4,-53.2,-2.4,15.5947,4.09716,15.9124,-10.479,13.9042,7.713210000000001,52.4468,-35.1315,-6.39259,0.360478,0.293303,1.347,244.8,7.6,52.1701,4.42721,3.7,1.10207,291.3,4.38089,143.345,129.205,153.85299999999998,0.673057,-0.40224,246.805,2.65127,2.925,-33.9477691650391,22.0009689331055,-35.0,22.0,53497.8,2522.69,pp-ro,1,1,-1,-1
1570539063.2,2019-10-08,14:51:03.200,15.0,10.0,20.729999542236303,13.0,10.1,20.0,47.2,-58.5,8.9,15.5947,4.09716,15.9124,-10.479,13.9042,7.713210000000001,52.4468,-35.1315,-6.39259,0.360478,0.293303,1.347,244.8,7.6,52.1701,4.42721,3.7,1.10595,294.218,4.380809999999999,143.813,129.585,152.053,0.665816,-0.4018239999999999,246.159,2.79816,3.02952,-34.6168212890625,22.0009689331055,-35.0,22.0,53632.9,2738.04,pp-ro,1,1,-1,-1
1570539063.3,2019-10-08,14:51:03.300,15.0,9.0,20.979999542236303,11.2,12.1,20.8,36.0,-62.1,24.6,12.9095,7.83573,18.366,-15.3324,13.725,8.81591,43.0271,-45.8778,11.2285,-0.00859861,0.286125,1.5227700000000002,250.5,6.8,52.1701,4.42721,3.7,1.1126,295.128,4.38065,144.806,130.725,150.253,0.656302,-0.402606,246.239,2.95139,3.13386,-34.937698364257805,22.0025119781494,-35.0,22.0,53892.3,2707.27,pp-ro,1,1,-1,-1
1570539063.4,2019-10-08,14:51:03.400,15.0,10.0,21.3099994659424,8.9,14.0,21.3,23.0,-65.1,42.6,12.9095,7.83573,18.366,-15.3324,13.725,8.81591,43.0271,-45.8778,11.2285,-0.00859861,0.286125,1.5227700000000002,250.5,6.8,52.1701,4.42721,3.7,1.1198,307.046,4.38055,146.061,131.865,148.35299999999998,0.645994,-0.402579,246.436,3.10161,3.24458,-34.961593627929695,22.0019989013672,-23.0092449188232,22.0,54298.1,2030.46,pp-ro,1,1,-1,-1
1570539063.5,2019-10-08,14:51:03.500,15.0,11.0,21.6800003051758,6.5,15.8,21.2,8.1,-65.2,61.7,10.3182,10.6611,19.3171,-18.5971,14.9163,2.45882,29.7975,-51.2852,30.6205,0.251243,0.549854,1.47772,250.5,6.8,52.1701,4.42721,3.7,1.13421,313.029,4.38045,147.434,132.625,146.453,0.636107,-0.400636,246.525,3.24321,3.35381,-34.961593627929695,22.0019989013672,-23.0092449188232,22.0,54376.0,1568.99,pp-ro,1,1,-1,-1
1570539063.6,2019-10-08,14:51:03.600,15.0,10.0,21.7999992370605,2.3,18.0,20.4,-12.4,-62.1,88.1,4.5599,14.6757,19.7545,-27.2848,4.4946,-3.45047,2.81378,-53.5074,67.32300000000001,0.183754,0.410429,1.39146,250.5,6.8,52.1701,4.42721,3.7,1.1569200000000002,318.547,4.38035,149.916,133.385,143.653,0.621306,-0.395078,246.785,3.45356,3.52633,-34.847244262695305,22.0025119781494,-23.0116176605225,22.0,54833.2,4153.21,pp-ro,1,1,-1,-1
1570539063.7,2019-10-08,14:51:03.700,15.0,10.0,21.8400001525879,1.2,18.5,20.0,-17.7,-60.2,95.3,4.5599,14.6757,19.7545,-27.2848,4.4946,-3.45047,2.81378,-53.5074,67.32300000000001,0.183754,0.410429,1.39146,250.5,6.8,52.1701,4.42721,3.7,1.1513799999999998,327.42400000000004,4.38025,150.734,133.385,142.85299999999998,0.617228,-0.392277,246.818,3.5225800000000005,3.57135,-34.304489135742195,22.003026962280305,-23.0139999389648,22.0,55153.8,2091.99,pp-ro,1,1,-1,-1
1570539063.8,2019-10-08,14:51:03.800,15.0,9.0,21.8299999237061,-1.1,19.5,18.9,-26.5,-55.7,107.5,0.869397,16.5634,19.0195,-24.3914,8.65563,-7.82711,-11.837,-50.6184,87.492,0.2615659999999999,0.264038,1.38303,250.5,6.8,52.1701,4.42721,3.7,1.16967,334.648,4.38015,152.545,133.765,141.153,0.607849,-0.387665,247.158,3.6597,3.66937,-33.4101409912109,22.003026962280305,-23.0139999389648,22.0,55212.3,1169.05,pp-ro,1,1,-1,-1
1570539063.9,2019-10-08,14:51:03.900,15.0,12.0,21.9500007629395,-3.3,19.8,17.6,-32.5,-49.3,117.1,0.869397,16.5634,19.0195,-24.3914,8.65563,-7.82711,-11.837,-50.6184,87.492,0.2615659999999999,0.264038,1.38303,250.5,6.8,52.1701,4.42721,3.8,1.18518,331.444,4.38005,154.502,133.385,139.553,0.599703,-0.379844,247.26,3.81055,3.75838,-32.1556549072266,22.0035419464111,-23.0163822174072,22.0,55808.0,5568.37,pp-ro,1,1,-1,-1
1570539064.0,2019-10-08,14:51:04.000,15.0,13.0,22.149999618530305,-5.3,20.1,15.8,-35.5,-42.9,124.0,-3.36887,17.5286,16.8211,-26.0935,3.14163,-9.52726,-26.0978,-41.1786,109.059,0.304841,0.560363,1.42738,250.5,6.8,52.1701,4.42721,3.8,1.15415,317.181,4.37995,156.429,133.005,138.053,0.591923,-0.372208,247.425,3.94905,3.85422,-30.5393371582031,22.0035419464111,-23.0163822174072,22.0,56304.6,4799.26,pp-ro,1,1,-1,-1
1570539064.1,2019-10-08,14:51:04.100,15.0,13.0,22.219999313354503,-7.2,20.4,14.2,-37.3,-36.6,128.9,-3.36887,17.5286,16.8211,-26.0935,3.14163,-9.52726,-26.0978,-41.1786,109.059,0.304841,0.560363,1.42738,250.5,6.8,52.1701,4.42721,3.8,1.14584,319.607,4.37985,158.386,132.625,136.753,0.584752,-0.364571,247.74400000000003,4.07526,3.94599,-28.5919036865234,22.0035419464111,-23.0163822174072,22.0,56666.3,3137.98,pp-ro,1,1,-1,-1
1570539064.2,2019-10-08,14:51:04.200,15.0,14.0,22.100000381469695,-9.1,20.3,12.6,-38.7,-30.4,133.6,-5.32266,17.8624,15.4087,-15.7463,3.20341,-16.1029,-30.404,-35.736,116.681,0.0966797,0.33513,1.11426,250.5,6.8,52.1701,4.42721,3.8,1.1536,324.891,4.37975,160.431,131.485,135.553,0.5788260000000001,-0.353929,247.792,4.19988,4.0359300000000005,-26.791259765625,22.0035419464111,-23.0163822174072,22.0,56774.4,2030.46,pp-ro,1,1,-1,-1
1570539064.3,2019-10-08,14:51:04.300,15.0,14.0,21.899999618530305,-10.6,20.1,11.0,-38.9,-24.6,136.5,-9.03323,17.9984,12.7914,-16.2738,-0.501546,-14.4863,-34.8064,-24.3135,127.59,0.0851413999999999,0.192052,1.07905,259.0,6.8,52.1701,4.42721,3.8,1.1813,334.341,4.37964,162.446,130.725,134.453,0.5727220000000001,-0.344875,248.103,4.305969999999999,4.11702,-25.3473281860352,22.0035419464111,-22.253604888916,22.0,56991.0,2614.98,pp-ro,1,1,-1,-1
1570539064.4,2019-10-08,14:51:04.400,15.0,14.0,21.7000007629395,-12.0,19.8,9.7,-39.6,-19.3,139.7,-11.3171,17.8418,10.6519,-9.86535,-11.1704,-7.74861,-36.8166,-16.7288,133.319,-0.187243,0.46408,0.87926,259.0,6.8,52.1701,4.42721,3.8,1.1846299999999998,340.162,4.379580000000001,164.43200000000002,129.965,133.453,0.566987,-0.336041,248.472,4.40803,4.18863,-24.2447509765625,22.003026962280305,-20.980045318603494,22.0,57380.1,3907.09,pp-ro,1,1,-1,-1
1570539064.5,2019-10-08,14:51:04.500,15.0,16.0,21.4500007629395,-13.1,19.3,8.3,-40.3,-14.5,143.5,-11.3171,17.8418,10.6519,-9.86535,-11.1704,-7.74861,-36.8166,-16.7288,133.319,-0.187243,0.46408,0.87926,259.0,6.8,52.1701,4.42721,3.8,1.19349,333.81300000000005,4.37953,166.33,128.825,132.553,0.562221,-0.32615,248.66,4.50813,4.25624,-23.7088241577148,22.003026962280305,-19.7677021026611,22.0,57899.2,4706.97,pp-ro,1,1,-1,-1
1570539064.6,2019-10-08,14:51:04.600,15.0,12.0,21.159999847412102,-13.5,18.2,6.8,-41.0,-9.5,146.8,-12.7716,16.9038,8.59534,-4.8739300000000005,-11.4929,-16.2361,-38.5732,-9.11344,139.519,-0.037764,0.3109889999999999,0.926541,259.0,6.8,52.1701,4.42721,3.8,1.17743,326.615,4.37944,168.229,127.305,131.653,0.557908,-0.314851,248.676,4.606730000000001,4.31455,-22.5755233764648,22.0035419464111,-18.7382564544678,22.0,58207.0,6183.66,pp-ro,1,1,-1,-1
1570539064.7,2019-10-08,14:51:04.700,15.0,11.0,20.909999847412102,-14.0,17.3,5.5,-41.8,-4.8,150.0,-12.7716,16.9038,8.59534,-4.8739300000000005,-11.4929,-16.2361,-38.5732,-9.11344,139.519,-0.037764,0.3109889999999999,0.926541,259.0,6.8,52.1701,4.42721,3.8,1.13254,302.805,4.37937,170.01,125.785,130.953,0.554423,-0.3039679999999999,248.745,4.700480000000001,4.37268,-21.447341918945305,22.0035419464111,-17.6954650878906,22.0,58869.2,3753.27,pp-ro,1,1,-1,-1
1570539064.8,2019-10-08,14:51:04.800,15.0,11.0,20.7000007629395,-14.5,16.6,4.2,-42.0,-0.5,152.1,-13.769,15.1707,5.87858,-3.54971,-4.608969999999999,-14.0186,-40.333,0.430191,145.92700000000002,0.112518,0.439144,0.73111,259.0,6.8,52.1701,4.42721,3.8,1.12479,298.515,4.3793,171.675,124.265,130.35299999999998,0.55143,-0.293462,248.80900000000003,4.7784,4.43275,-20.058029174804695,22.0035419464111,-16.6048316955566,22.0,59090.3,4214.73,pp-ro,1,1,-1,-1
1570539064.9,2019-10-08,14:51:04.900,15.0,14.0,20.3099994659424,-15.0,15.7,2.7,-41.5,3.0,153.3,-14.3063,14.1834,4.63339,-6.55404,-11.3777,-12.643,-40.4051,4.34248,148.238,0.096197,0.181807,0.5457850000000001,259.0,6.8,52.1701,4.42721,3.8,1.10373,293.268,4.379230000000001,173.34,122.745,129.85299999999998,0.548732,-0.283001,248.948,4.83589,4.50588,-18.9639892578125,22.0035419464111,-15.2498235702515,22.0,59468.2,3384.09,pp-ro,1,1,-1,-1
1570539065.0,2019-10-08,14:51:05.000,15.0,13.0,19.9200000762939,-15.5,14.9,1.6,-41.7,6.2,154.4,-15.1904,12.9645,2.52361,-3.00529,-12.7211,-4.17886,-41.1344,8.56809,150.925,-0.054449,0.2321619999999999,0.6227779999999999,259.0,6.8,52.1701,4.42721,3.8,1.12534,307.002,4.379169999999999,174.859,121.606,129.452,0.546132,-0.274443,249.242,4.88886,4.56629,-17.8733596801758,22.0035419464111,-14.1437206268311,22.0,59774.2,2122.75,pp-ro,1,1,-1,-1
1570539065.1,2019-10-08,14:51:05.100,15.0,14.0,19.6499996185303,-16.2,14.1,0.7,-41.7,9.1,155.7,-15.6289,12.4933,1.95687,-10.1694,-6.729369999999999,-9.84096,-41.3444,9.6577,152.2,-0.421647,0.199312,0.5146649999999999,259.0,6.8,52.1701,4.42721,3.8,1.13531,310.997,4.3791,176.29,119.706,129.053,0.5445439999999999,-0.263254,249.123,4.93776,4.62225,-16.7485961914062,22.003026962280305,-13.1140766143799,22.0,59884.0,2091.99,pp-ro,1,1,-1,-1
1570539065.2,2019-10-08,14:51:05.200,15.0,14.0,19.3799991607666,-16.3,13.4,0.0,-42.1,11.1,158.5,-15.6289,12.4933,1.95687,-10.1694,-6.729369999999999,-9.84096,-41.3444,9.6577,152.2,-0.421647,0.199312,0.5146649999999999,259.0,6.8,52.1701,4.42721,3.8,1.14141,308.568,4.37903,177.66299999999998,118.186,128.753,0.542908,-0.253645,249.217,4.98807,4.66005,-15.6221160888672,22.003026962280305,-12.4464616775513,22.0,60180.4,3476.39,pp-ro,1,1,-1,-1
1570539065.3,2019-10-08,14:51:05.300,15.0,15.0,19.2000007629395,-16.3,12.5,-0.6,-41.9,13.0,161.1,-15.8547,11.7063,1.10554,0.782986,-15.3332,-3.37756,-41.6701,12.2247,154.438,-0.16055,-0.0697737,0.65069,253.2,6.7,52.1701,4.42721,3.8,1.12645,304.559,4.37896,178.977,116.286,128.452,0.541764,-0.242756,249.109,5.03439,4.69718,-14.4444427490234,22.0035419464111,-11.7889537811279,22.0,60611.1,4122.44,pp-ro,1,1,-1,-1
1570539065.4,2019-10-08,14:51:05.400,15.0,13.0,18.6900005340576,-16.0,11.6,-1.1,-42.4,15.0,163.2,-15.7466,10.3588,-0.0434142,3.69382,-12.4777,-9.53903,-41.6141,14.9623,159.364,0.0114326,-0.341134,0.599017,253.2,6.7,52.1701,4.42721,3.8,1.12146,297.545,4.37887,180.204,114.766,128.253,0.540643,-0.233563,249.185,5.07835,4.72916,-13.674690246582,22.003026962280305,-11.228931427002,22.0,60880.4,2768.8,pp-ro,1,1,-1,-1
1570539065.5,2019-10-08,14:51:05.500,15.0,13.0,18.2600002288818,-15.8,10.9,-1.5,-42.2,16.6,165.7,-15.5071,9.53761,-0.595057,3.45042,-4.69266,-8.81745,-41.7092,17.2143,161.757,0.0827328,-0.132417,0.474147,253.2,6.7,52.1701,4.42721,3.8,1.09875,277.968,4.378769999999999,181.314,112.866,128.053,0.5401060000000001,-0.2231679999999999,249.02,5.11965,4.75522,-12.742790222168,22.0035419464111,-10.7814254760742,22.0,61345.4,5383.79,pp-ro,1,1,-1,-1
1570539065.6,2019-10-08,14:51:05.600,15.0,12.0,17.8199996948242,-15.5,10.5,-2.0,-42.2,18.6,167.1,-15.0883,8.57293,-1.394,-2.46037,-3.59106,-0.192407,-41.7168,19.5159,164.86700000000002,-0.0626043,0.181045,0.508134,253.2,6.7,52.1701,4.42721,3.8,1.05054,263.461,4.37867,182.424,111.346,127.953,0.539458,-0.2142869999999999,249.094,5.15693,4.77968,-11.9406051635742,22.003026962280305,-10.3636980056763,22.0,61889.7,1876.63,pp-ro,1,1,-1,-1
1570539065.7,2019-10-08,14:51:05.700,15.0,10.0,17.5300006866455,-15.4,9.8,-2.2,-42.3,20.1,168.3,-15.0118,8.04947,-1.84385,3.72204,-2.6690400000000003,-5.47246,-41.764,21.1683,166.165,-0.296742,-0.1249089999999999,0.347823,253.2,6.7,52.1701,4.42721,3.8,1.0610700000000002,263.184,4.37858,183.417,109.446,127.953,0.539729,-0.20418,248.982,5.18438,4.80082,-11.1042861938477,22.0025119781494,-9.996710777282711,22.0,62096.0,2614.98,pp-ro,1,1,-1,-1
