time,date,time_of_day,airspeed_temperature,airspeed_angle_of_attack,airspeed_apparent_windspeed,kite_0_vx,kite_0_vy,kite_0_vz,kite_0_roll,kite_0_pitch,kite_0_yaw,kite_1_vx,kite_1_vy,kite_1_vz,kite_1_ax,kite_1_ay,kite_1_az,kite_1_roll,kite_1_pitch,kite_1_yaw,kite_1_roll_rate,kite_1_pitch_rate,kite_1_yaw_rate,ground_upwind_direction,ground_wind_velocity,ground_pos_latitude,ground_pos_longitude,ground_pos_altitude,ground_tether_reelout_speed,ground_tether_force,est_upwind_direction,kite_pos_east,kite_pos_north,kite_height,kite_elevation,kite_azimuth,kite_distance,kite_heading,kite_course,kite_actual_steering,kite_actual_depower,kite_set_steering,kite_set_depower,ground_mech_energy,ground_mech_power,flight_phase,flight_phase_index,phase,pattern,pattern_section
1570531585.3,2019-10-08,12:46:25.300,16.0,8.0,14.9799995422363,13.5,1.4,2.6,17.5,-5.6,-36.5,12.4969,1.57623,3.17381,5.71986,11.0336,4.67703,22.7035,9.06311,-39.1376,0.148202,0.193958,0.922192,269.2,5.2,52.1701,4.4272,10.0,-2.94661,99.2349,4.72435,42.614,-13.6803,230.159,1.37874,0.298654,234.471,0.6433,1.40329,-34.9445190429688,22.003026962280305,-35.0,22.0,-261336.0,-7168.13,nan,0,0,-1,-1
1570531585.4,2019-10-08,12:46:25.400,16.0,9.0,14.8000001907349,14.1,2.6,2.9,19.3,-6.6,-31.4,12.9404,2.81409,3.47899,3.79691,12.7149,2.08488,24.5821,8.043339999999999,-33.4691,0.1874849999999999,0.178885,0.966136,269.2,5.2,52.1701,4.4272,9.6,-2.94938,97.7747,4.72432,42.7892,-12.1603,230.05900000000003,1.3798,0.264957,234.321,0.7704770000000001,1.51632,-34.973541259765604,22.0009689331055,-35.0,22.0,-262466.0,-9383.17,nan,0,0,-1,-1
1570531585.5,2019-10-08,12:46:25.500,16.0,9.0,14.619999885559098,14.7,4.5,3.3,21.6,-8.4,-23.7,13.3642,4.0093,3.83512,2.0413,9.21241,3.12751,26.3005,6.7032,-27.7981,0.116073,0.198339,1.02284,269.2,5.2,52.1701,4.4272,9.6,-2.95935,98.3113,4.72429,43.1981,-9.88017,229.759,1.38027,0.21295,233.99400000000003,0.964144,1.68212,-34.9854888916016,22.0009689331055,-35.0,22.0,-263167.0,-4583.91,nan,0,0,-1,-1
1570531585.6,2019-10-08,12:46:25.600,16.0,9.0,14.4899997711182,14.9,5.1,3.5,22.2,-9.1,-21.3,13.7126,5.1709,4.13668,2.87025,11.6912,5.51855,28.0443,5.28639,-21.9194,0.1668319999999999,0.2367449999999999,0.939389,269.2,5.2,52.1701,4.4272,9.6,-2.95603,98.1513,4.72426,43.4318,-9.50015,229.659,1.37958,0.203461,233.923,1.01821,1.72492,-34.9854888916016,22.0009689331055,-35.0,22.0,-263633.0,-9444.7,nan,0,0,-1,-1
1570531585.7,2019-10-08,12:46:25.700,16.0,9.0,14.369999885559098,15.1,6.3,3.9,23.6,-10.8,-15.9,13.9597,6.31156,4.40782,1.07682,11.9708,1.87933,29.2554,3.5948900000000004,-16.2155,0.149177,0.230089,1.02142,269.2,5.2,52.1701,4.4272,9.6,-2.96157,96.5678,4.72423,43.9283,-7.60008,229.359,1.3788200000000002,0.159463,233.652,1.16271,1.83472,-34.9854888916016,22.0009689331055,-35.0,22.0,-264494.0,-7598.83,nan,0,0,-1,-1
1570531585.8,2019-10-08,12:46:25.800,16.0,9.0,14.3100004196167,15.3,7.5,4.2,24.5,-12.9,-10.6,13.9805,6.8773100000000005,4.620080000000001,-0.229496,8.543610000000001,3.46161,29.6854,2.66387,-13.436,-0.0432201,0.182035,1.01352,269.9,5.0,52.1701,4.4272,9.6,-2.98595,97.4596,4.7241800000000005,44.5708,-6.080019999999999,229.05900000000003,1.37688,0.1237559999999999,233.43400000000003,1.29843,1.92995,-34.9991455078125,22.0009689331055,-35.0,22.0,-265969.0,-9813.87,nan,0,0,-1,-1
1570531585.9,2019-10-08,12:46:25.900,16.0,9.0,14.3100004196167,15.3,8.7,4.5,25.4,-14.6,-5.4,14.0777,8.00222,4.82488,1.41949,15.2243,5.70744,30.7437,0.6663399999999999,-7.39305,0.226623,0.259261,1.03185,269.9,5.0,52.1701,4.4272,9.6,-2.99315,95.8902,4.724130000000001,45.301,-4.55996,228.759,1.3743299999999998,0.0885557,233.246,1.43028,2.02536,-35.0059814453125,22.0009689331055,-35.0,22.0,-266861.0,-9660.05,nan,0,0,-1,-1
1570531586.0,2019-10-08,12:46:26.000,16.0,9.0,14.369999885559098,15.2,10.1,4.9,25.9,-16.4,0.0,14.042,8.56297,5.02839,-0.152607,11.2898,4.82041,30.9998,-0.290529,-4.54971,0.0943476999999999,0.183667,0.99274,269.9,5.0,52.1701,4.4272,9.6,-3.00146,93.2925,4.724080000000001,46.2064,-3.03989,228.459,1.37082,0.0539817,233.105,1.56491,2.1284400000000003,-35.0059814453125,22.0009689331055,-35.0,22.0,-267359.0,-9167.82,nan,0,0,-1,-1
1570531586.1,2019-10-08,12:46:26.100,16.0,8.0,14.4300003051758,15.0,11.4,5.2,26.1,-18.2,5.4,13.7331,10.9612,5.6197,-1.81581,12.9073,4.65497,31.7053,-4.25338,6.908519999999999,0.111194,0.231456,1.0209,269.9,5.0,52.1701,4.4272,9.6,-3.0336,90.2766,4.724019999999999,47.2287,-1.13982,227.959,1.36645,0.0124682,232.803,1.70563,2.23115,-35.0042724609375,22.0009689331055,-35.0,22.0,-268640.0,-14459.3,nan,0,0,-1,-1
1570531586.2,2019-10-08,12:46:26.200,16.0,8.0,14.4899997711182,14.6,12.5,5.5,26.2,-20.2,10.9,13.3763,12.0933,5.93297,-4.29409,9.83542,1.20068,31.3494,-6.08825,12.7048,-0.091254,0.184968,0.974531,269.9,5.0,52.1701,4.4272,9.6,-3.08125,94.3486,4.72397,48.3677,0.380249,227.55900000000003,1.36136,-0.0194701,232.643,1.83858,2.3198,-35.0042724609375,22.0009689331055,-35.0,22.0,-270782.0,-13290.3,nan,0,0,-1,-1
1570531586.3,2019-10-08,12:46:26.300,16.0,9.0,14.609999656677198,14.1,13.8,5.9,25.9,-21.7,16.5,13.3763,12.0933,5.93297,-4.29409,9.83542,1.20068,31.3494,-6.08825,12.7048,-0.091254,0.184968,0.974531,269.9,5.0,52.1701,4.4272,9.6,-3.09954,95.2671,4.72392,49.5944,1.90032,227.05900000000003,1.3556,-0.049855,232.42,1.96866,2.4150400000000003,-35.0042724609375,22.0009689331055,-35.0,22.0,-271370.0,-11598.2,nan,0,0,-1,-1
1570531586.4,2019-10-08,12:46:26.400,16.0,9.0,14.7299995422363,13.5,15.0,6.4,25.7,-23.3,22.4,13.1253,12.6143,6.10623,-5.178319999999999,14.3178,3.76136,31.3799,-6.94265,15.5816,0.020938,0.256748,0.961759,269.9,5.0,52.1701,4.4272,9.2,-3.12613,96.4562,4.72387,51.0548,3.42038,226.459,1.34857,-0.0783986,232.168,2.10121,2.5057,-35.0042724609375,22.0009689331055,-35.0,22.0,-272914.0,-11813.6,nan,0,0,-1,-1
1570531586.5,2019-10-08,12:46:26.500,16.0,9.0,14.9099998474121,12.8,16.0,6.8,25.2,-24.6,28.1,11.6994,15.3428,6.95158,-9.70974,9.08363,4.07369,30.0051,-10.5309,30.6184,-0.0635725,0.281935,0.931341,269.9,5.0,52.1701,4.4272,9.2,-3.12835,98.8625,4.72381,52.5444,4.56044,225.859,1.34139,-0.0980268999999999,231.935,2.21945,2.58192,-35.0042724609375,22.0009689331055,-35.0,22.0,-273455.0,-10798.3,nan,0,0,-1,-1
1570531586.6,2019-10-08,12:46:26.600,16.0,9.0,15.0299997329712,12.1,17.1,7.2,24.6,-25.7,34.1,11.6994,15.3428,6.95158,-9.70974,9.08363,4.07369,30.0051,-10.5309,30.6184,-0.0635725,0.281935,0.931341,269.9,5.0,52.1701,4.4272,9.2,-3.11727,109.469,4.72376,54.1215,6.080509999999999,225.159,1.3334700000000002,-0.123254,231.652,2.34572,2.66355,-35.0042724609375,22.0009689331055,-35.0,22.0,-273983.0,1076.76,nan,0,0,-1,-1
1570531586.7,2019-10-08,12:46:26.700,16.0,10.0,15.210000038147,11.3,18.2,7.7,23.8,-27.0,40.2,11.6994,15.3428,6.95158,-9.70974,9.08363,4.07369,30.0051,-10.5309,30.6184,-0.0635725,0.281935,0.931341,269.9,5.0,52.1701,4.4272,9.2,-3.0602,112.645,4.72371,55.9324,7.220569999999999,224.459,1.32464,-0.139732,231.435,2.46469,2.73797,-35.0042724609375,22.0009689331055,-23.0044822692871,22.0,-273851.0,5106.91,nan,0,0,-1,-1
1570531586.8,2019-10-08,12:46:26.800,16.0,10.0,15.380000114440902,10.3,19.3,8.1,23.2,-27.9,46.3,9.75678,17.7771,7.96353,-10.0435,11.3084,4.37484,27.7148,-13.2077,46.0575,0.1114579999999999,0.41007,0.961357,274.4,4.9,52.1701,4.4272,9.2,-3.03249,114.323,4.72363,57.7432,8.36063,223.659,1.31562,-0.155085,231.144,2.57985,2.81535,-35.0042724609375,22.0009689331055,-23.0044822692871,22.0,-273843.0,153.822,nan,0,0,-1,-1
1570531586.9,2019-10-08,12:46:26.900,16.0,10.0,15.609999656677198,9.2,20.2,8.5,22.2,-28.6,52.7,8.80035,18.6614,8.35177,-8.78089,8.55068,3.90907,26.5454,-14.0523,52.1557,0.010391,0.3804949999999999,0.924608,274.4,4.9,52.1701,4.4272,9.2,-2.95548,120.173,4.72354,59.6709,9.50069,222.859,1.30604,-0.1690849999999999,230.904,2.6966900000000003,2.88878,-34.879669189453104,22.0009689331055,-22.594942092895497,22.0,-273300.0,7260.42,nan,0,0,-1,-1
1570531587.0,2019-10-08,12:46:27.000,16.0,10.0,15.8400001525879,8.1,21.0,9.0,20.9,-29.5,59.0,7.79551,19.4567,8.73444,-10.4745,4.4461,5.34558,25.3828,-14.8954,58.408,0.0277029,0.3336429999999999,0.998653,274.4,4.9,52.1701,4.4272,9.2,-2.85463,127.684,4.72344,61.7154,10.6408,222.058,1.29591,-0.181794,230.721,2.8099,2.9573400000000003,-34.188430786132805,22.0009689331055,-21.9335918426514,22.0,-272696.0,7291.18,nan,0,0,-1,-1
1570531587.1,2019-10-08,12:46:27.100,16.0,10.0,16.0599994659424,6.9,21.9,9.3,19.9,-30.2,65.8,7.260489999999999,19.8388,8.955680000000001,-12.3557,5.96786,5.00681,24.8046,-15.3815,61.5854,0.0411755,0.300086,1.0218,274.4,4.9,52.1701,4.4272,9.2,-2.6197,139.575,4.72335,63.8768,11.4008,221.058,1.28529,-0.1875869999999999,230.385,2.92289,3.02182,-33.232635498046896,22.0009689331055,-21.1993427276611,22.0,-270641.0,15043.8,nan,0,0,-1,-1
1570531587.2,2019-10-08,12:46:27.200,16.0,10.0,16.3299999237061,5.5,22.5,9.7,18.4,-30.5,72.1,5.52845,20.8891,9.50613,-11.893,4.087280000000001,4.48366,22.6225,-16.6993,71.0441,0.0590704,0.303275,0.951588,274.4,4.9,52.1701,4.4272,9.2,-2.53493,141.565,4.72326,66.0089,11.7808,220.158,1.27516,-0.187489,230.143,3.02124,3.08307,-31.928649902343803,22.0009689331055,-20.3649349212646,22.0,-269770.0,17043.5,nan,0,0,-1,-1
1570531587.3,2019-10-08,12:46:27.300,16.0,10.0,16.4899997711182,4.1,22.9,10.0,17.0,-30.8,78.7,5.52845,20.8891,9.50613,-11.893,4.087280000000001,4.48366,22.6225,-16.6993,71.0441,0.0590704,0.303275,0.951588,274.4,4.9,52.1701,4.4272,9.2,-2.32382,142.97299999999998,4.72317,68.3455,12.9209,219.158,1.26347,-0.197633,229.931,3.1324400000000003,3.15053,-30.2611389160156,22.0009689331055,-19.759693145752,22.0,-268091.0,16920.5,nan,0,0,-1,-1
1570531587.4,2019-10-08,12:46:27.400,16.0,9.0,16.6499996185303,2.7,23.5,10.1,15.3,-30.8,84.9,3.58155,21.5527,9.86675,-14.0486,2.9813,3.5187800000000005,20.4679,-18.0499,80.2888,-0.00132857,0.126203,0.963661,274.4,4.9,52.1701,4.4272,8.9,-2.11937,145.53799999999998,4.72308,70.6528,13.300999999999998,218.158,1.25246,-0.19682,229.699,3.22701,3.20776,-28.2624969482422,22.0009689331055,-19.0505084991455,22.0,-266327.0,18212.6,nan,0,0,-1,-1
1570531587.5,2019-10-08,12:46:27.500,16.0,10.0,16.8600006103516,1.4,23.7,10.2,13.6,-30.9,91.1,2.3448,22.0263,9.9578,-13.8399,3.38986,-1.65723,19.154,-18.9314,86.2206,0.11779,0.242913,0.8756459999999999,274.4,4.9,52.1701,4.4272,8.9,-1.88776,149.249,4.72299,72.9602,13.681,217.158,1.24142,-0.195966,229.495,3.321,3.258,-26.149513244628896,22.0009689331055,-18.4950046539307,22.0,-264690.0,16335.9,nan,0,0,-1,-1
1570531587.6,2019-10-08,12:46:27.600,16.0,9.0,17.020000457763697,0.0,23.9,10.2,11.9,-30.5,97.1,1.07208,22.2536,9.99032,-12.0886,3.75887,-4.07716,17.4586,-19.6842,91.8527,-0.0609493,0.0579587,0.8544959999999999,274.4,4.9,52.1701,4.4272,8.9,-1.66169,153.625,4.7229,75.4136,13.681,216.158,1.23005,-0.189976,229.344,3.40763,3.30689,-24.0791931152344,22.0009689331055,-17.8559627532959,22.0,-263109.0,15689.9,nan,0,0,-1,-1
1570531587.7,2019-10-08,12:46:27.700,16.0,9.0,17.129999160766598,-1.3,23.8,10.3,10.5,-30.2,102.6,-0.8861479999999999,22.4883,10.0359,-9.79232,-3.3692,-1.1146,15.0494,-20.2368,100.05,0.032243,0.1119329999999999,0.69519,274.4,4.9,52.1701,4.4272,8.9,-1.26608,155.25799999999998,4.72281,77.7794,13.6811,215.158,1.21901,-0.184539,229.194,3.48686,3.35166,-22.2375793457031,22.0009689331055,-17.3145580291748,22.0,-260933.0,13567.1,nan,0,0,-1,-1
1570531587.8,2019-10-08,12:46:27.800,16.0,9.0,17.2800006866455,-2.6,23.6,10.1,8.7,-29.8,107.8,-2.17389,22.3757,9.89079,-9.17136,-1.9166,-5.51612,13.4847,-20.3251,105.276,0.29972,0.0571015999999999,0.876698,272.9,5.0,52.1701,4.4272,8.9,-1.13864,152.069,4.72272,80.1744,13.6811,214.158,1.20784,-0.179393,229.082,3.56186,3.39792,-20.6297988891602,22.0009689331055,-16.7731323242188,22.0,-260348.0,11659.7,nan,0,0,-1,-1
1570531587.9,2019-10-08,12:46:27.900,16.0,8.0,17.3299999237061,-3.8,23.3,9.8,6.8,-29.2,113.0,-2.72947,22.258000000000003,9.78053,-6.71782,0.543094,-5.556769999999999,12.5828,-20.4594,107.7,0.147089,0.00385044,0.6619520000000001,272.9,5.0,52.1701,4.4272,8.9,-0.7856890000000001,140.05100000000002,4.7226300000000005,82.5402,13.3011,213.158,1.19701,-0.170013,228.967,3.63391,3.4379,-18.9400939941406,22.0009689331055,-16.239925384521502,22.0,-259183.0,6060.6,nan,0,0,-1,-1
1570531588.0,2019-10-08,12:46:28.000,16.0,8.0,17.4300003051758,-4.8,23.0,9.5,5.2,-28.2,117.7,-3.30021,22.1064,9.6318,-6.6365300000000005,-1.85683,-2.99032,11.6624,-20.4322,109.954,0.000567163,0.123805,0.746848,272.9,5.0,52.1701,4.4272,8.9,-0.606166,139.717,4.72253,84.8768,12.9212,212.158,1.1862700000000002,-0.161219,228.871,3.70057,3.4714400000000003,-18.0832901000977,22.0009689331055,-15.8630495071411,22.0,-258747.0,3968.62,nan,0,0,-1,-1
1570531588.1,2019-10-08,12:46:28.100,16.0,7.0,17.4300003051758,-5.9,22.5,9.4,3.4,-27.1,121.9,-3.30021,22.1064,9.6318,-6.6365300000000005,-1.85683,-2.99032,11.6624,-20.4322,109.954,0.000567163,0.123805,0.746848,272.9,5.0,52.1701,4.4272,8.9,-0.4116829999999999,144.52700000000002,4.72244,87.155,12.1612,211.258,1.17611,-0.1487369999999999,228.853,3.75735,3.50654,-17.107009887695302,22.0009689331055,-15.3380098342896,22.0,-258432.0,2922.63,nan,0,0,-1,-1
1570531588.2,2019-10-08,12:46:28.200,16.0,8.0,17.4300003051758,-6.7,22.0,9.2,1.8,-26.5,126.0,-4.786980000000001,21.7526,9.19031,-7.52103,-8.855030000000001,2.23767,9.23213,-19.6817,116.839,-0.0459327,0.2685349999999999,0.658012,272.9,5.0,52.1701,4.4272,8.9,-0.2133219999999999,145.339,4.72234,89.4623,11.4012,210.258,1.1656,-0.136713,228.783,3.81118,3.53206,-16.5113525390625,22.0009689331055,-15.0504570007324,22.0,-258228.0,1661.28,nan,0,0,-1,-1
1570531588.3,2019-10-08,12:46:28.300,16.0,8.0,17.379999160766598,-7.5,21.6,8.9,0.7,-25.2,129.3,-5.68936,21.3487,9.0211,-8.226510000000001,-5.63252,-2.47047,7.75207,-19.1745,120.941,-0.0227655,0.277684,0.635307,272.9,5.0,52.1701,4.4272,8.9,-0.0969643999999999,144.304,4.7222,91.6821,11.0212,209.358,1.15539,-0.129443,228.818,3.86075,3.56247,-15.8422927856445,22.0009689331055,-14.7995929718018,22.0,-258192.0,707.5830000000001,nan,0,0,-1,-1
1570531588.4,2019-10-08,12:46:28.400,16.0,8.0,17.379999160766598,-8.3,21.1,8.6,-0.4,-24.0,132.5,-7.30057,20.6369,8.44404,-5.65636,-2.60321,-0.2453489999999999,4.90408,-17.8374,127.658,0.0708291,0.267458,0.54184,272.9,5.0,52.1701,4.4272,8.7,0.0908695,142.203,4.72215,93.8435,10.2612,208.558,1.14574,-0.118725,228.928,3.90573,3.59151,-15.195426940918,22.0009689331055,-14.4646873474121,22.0,-258230.0,-707.5830000000001,nan,0,0,-1,-1
1570531588.5,2019-10-08,12:46:28.500,16.0,8.0,17.3199996948242,-9.1,20.7,8.6,-2.0,-23.0,135.6,-8.12035,20.3264,8.30615,-4.52391,-1.6639400000000002,-2.2566900000000003,3.59182,-17.2115,130.497,-0.42644,0.1587579999999999,0.39946,272.9,5.0,52.1701,4.4272,8.7,0.274825,144.387,4.72206,96.034,9.50124,207.657,1.1357700000000002,-0.1083339999999999,228.986,3.94885,3.61809,-14.8233489990234,22.0009689331055,-14.2246961593628,22.0,-258399.0,-2091.99,nan,0,0,-1,-1
1570531588.6,2019-10-08,12:46:28.600,16.0,9.0,17.2199993133545,-9.7,20.4,8.5,-3.1,-21.9,138.1,-8.8014,20.076,8.134139999999999,-7.684010000000001,-2.5313,-3.31768,2.1179900000000003,-16.3082,133.239,-0.045354,0.155909,0.442542,272.9,5.0,52.1701,4.4272,8.7,0.2365929999999999,155.44299999999998,4.72197,98.1077,8.361239999999999,206.757,1.12635,-0.0945964,229.006,3.98092,3.63364,-14.4478607177734,22.0009689331055,-14.0956029891968,22.0,-258267.0,-123.058,nan,0,0,-1,-1
1570531588.7,2019-10-08,12:46:28.700,16.0,9.0,17.1100006103516,-10.5,19.9,8.6,-4.4,-20.9,140.8,-8.8014,20.076,8.134139999999999,-7.684010000000001,-2.5313,-3.31768,2.1179900000000003,-16.3082,133.239,-0.045354,0.155909,0.442542,272.9,5.0,52.1701,4.4272,8.7,0.279258,163.165,4.72187,100.181,7.221239999999999,205.857,1.11686,-0.0814395,229.054,4.01625,3.65868,-14.3044891357422,22.0019989013672,-13.8158731460571,22.0,-258314.0,-861.4060000000001,nan,0,0,-1,-1
1570531588.8,2019-10-08,12:46:28.800,16.0,9.0,17.0100002288818,-11.3,19.6,8.8,-6.2,-20.5,143.2,-8.8014,20.076,8.134139999999999,-7.684010000000001,-2.5313,-3.31768,2.1179900000000003,-16.3082,133.239,-0.045354,0.155909,0.442542,272.8,5.0,52.1701,4.4272,8.7,0.301421,180.731,4.72178,102.168,6.46126,204.857,1.10737,-0.0725451,229.012,4.04708,3.68337,-14.0996780395508,22.0019989013672,-13.6859712600708,22.0,-258275.0,61.529,nan,0,0,-1,-1
1570531588.9,2019-10-08,12:46:28.900,16.0,10.0,17.0599994659424,-12.0,19.3,8.9,-7.6,-20.0,145.5,-9.90633,19.5555,8.28856,-2.45435,-4.7161800000000005,5.05738,-0.389388,-15.1722,137.161,-0.369101,0.0452453,0.418731,272.8,5.0,52.1701,4.4272,8.7,0.323584,186.074,4.7217400000000005,104.212,4.94125,203.857,1.09777,-0.0567281999999999,229.003,4.071000000000001,3.69869,-13.8538970947266,22.0025119781494,-13.575646400451696,22.0,-258248.0,553.761,nan,0,0,-1,-1
1570531589.0,2019-10-08,12:46:29.000,16.0,11.0,17.1100006103516,-12.5,18.9,9.1,-9.6,-19.9,148.0,-11.0085,19.1628,8.41763,-8.735669999999999,-5.01181,0.7683840000000001,-3.19753,-14.885,140.80100000000002,-0.248484,-0.1230769999999999,0.435209,272.8,5.0,52.1701,4.4272,8.7,0.325246,195.098,4.7217,106.111,3.80125,202.857,1.08859,-0.0451175,228.965,4.09886,3.71131,-13.7071151733398,22.0019989013672,-13.6353855133057,22.0,-258208.0,184.587,nan,0,0,-1,-1
1570531589.1,2019-10-08,12:46:29.100,16.0,10.0,17.1599998474121,-13.1,18.4,9.3,-11.1,-19.3,150.4,-11.9013,18.684,8.686069999999999,-9.04595,-1.69045,4.629569999999999,-6.162999999999999,-14.9954,144.433,-0.271902,-0.0576166999999999,0.37316,272.8,5.0,52.1701,4.4272,8.7,0.342977,200.071,4.72166,108.009,2.66126,201.857,1.07936,-0.0339039,228.953,4.12901,3.72965,-13.6183624267578,22.0019989013672,-13.6219644546509,22.0,-258208.0,0.0,nan,0,0,-1,-1
1570531589.2,2019-10-08,12:46:29.200,16.0,10.0,17.2600002288818,-13.3,17.9,9.4,-12.9,-18.9,152.8,-12.4141,18.1888,8.88214,-1.5756,-0.745243,2.21961,-8.46525,-14.6297,146.765,-0.317751,-0.00957923,0.498086,272.8,5.0,52.1701,4.4272,8.7,0.351842,202.459,4.72162,109.82,1.14125,200.757,1.07021,-0.0196223,228.834,4.15509,3.73269,-13.5995941162109,22.0019989013672,-13.848229408264196,22.0,-258160.0,615.29,nan,0,0,-1,-1
1570531589.3,2019-10-08,12:46:29.300,16.0,10.0,17.3099994659424,-14.1,17.2,9.4,-14.5,-18.7,155.1,-13.2412,17.3169,8.87035,-3.83224,-8.1671,-1.42923,-11.1394,-14.1965,150.05200000000002,-0.13248,0.00779352,0.2777739999999999,272.8,5.0,52.1701,4.4272,8.7,0.337436,195.704,4.72158,111.572,-0.378758,199.757,1.06142,-0.00579681,228.804,4.17852,3.76223,-13.8180541992188,22.0025119781494,-13.5610609054565,22.0,-258056.0,615.29,nan,0,0,-1,-1
1570531589.4,2019-10-08,12:46:29.400,16.0,10.0,17.4099998474121,-14.6,16.4,9.4,-16.0,-18.6,157.3,-13.5306,16.9741,8.86683,-4.4857,-11.6307,-2.04274,-11.9398,-14.1398,151.14,-0.251021,-0.132897,0.0983676,272.8,5.0,52.1701,4.4272,8.7,0.336882,197.207,4.72154,113.354,-1.51875,198.657,1.05223,0.00424508,228.727,4.20273,3.78762,-13.8180541992188,22.0019989013672,35.0,22.0,-258030.0,492.232,nan,0,0,-1,-1
1570531589.5,2019-10-08,12:46:29.500,16.0,10.0,17.520000457763697,-15.0,15.8,9.2,-17.3,-18.5,159.2,-13.8387,16.5701,8.87085,-1.99149,-6.40226,2.46123,-12.8466,-14.1235,152.132,-0.162288,-0.0287017,0.4465939999999999,272.8,5.0,52.1701,4.4272,8.7,0.482606,203.51,4.7215,114.961,-3.41877,197.557,1.04359,0.0205974999999999,228.596,4.21706,3.80291,-13.5756988525391,22.0019989013672,35.0,22.0,-258572.0,-10398.4,nan,0,0,-1,-1
1570531589.6,2019-10-08,12:46:29.600,16.0,10.0,17.6100006103516,-15.2,15.3,8.9,-18.3,-18.1,160.8,-14.2548,15.8091,8.8811,-4.24072,-10.7472,-2.0405900000000003,-14.1409,-14.1835,154.18,-0.220132,-0.0853258,0.237529,272.8,5.0,52.1701,4.4272,8.7,1.00898,179.38,4.72146,116.509,-4.55877,196.557,1.03539,0.0300345,228.538,4.2353,3.81732,-13.1251068115234,22.0019989013672,35.0,22.0,-260244.0,61.529,nan,0,0,-1,-1
1570531589.7,2019-10-08,12:46:29.700,16.0,9.0,17.5699996948242,-15.3,14.8,8.4,-18.9,-17.5,162.2,-14.5368,15.2612,8.62707,-3.53392,-4.0433,-9.38882,-14.8708,-14.1634,155.85299999999998,-0.182742,-0.143097,0.1852609999999999,272.8,5.0,52.1701,4.4272,8.7,0.8283530000000001,149.20600000000002,4.721419999999999,118.086,-6.4587900000000005,195.557,1.02689,0.0456066999999999,228.535,4.24717,3.82668,-12.3143920898438,22.0009689331055,35.0,22.0,-259268.0,5322.26,nan,0,0,-1,-1
1570531589.8,2019-10-08,12:46:29.800,16.0,7.0,17.5599994659424,-15.3,14.6,8.3,-18.9,-17.4,162.8,-14.5823,15.0649,8.35303,0.83567,-3.3332,-5.75936,-15.2005,-14.1221,156.668,-0.10234,-0.0852322,0.335015,277.9,5.1,52.1701,4.4272,8.7,0.869909,159.838,4.72139,118.758,-7.2188,195.157,1.02331,0.0517105,228.564,4.2514400000000006,3.82807,-11.1486587524414,22.0019989013672,35.0,22.0,-259483.0,-1876.63,nan,0,0,-1,-1
1570531589.9,2019-10-08,12:46:29.900,16.0,7.0,17.5100002288818,-15.4,14.1,8.5,-19.0,-17.0,163.6,-14.8381,14.0638,8.25572,-2.13381,-8.67747,0.73145,-15.8386,-14.3238,159.207,-0.0770345,0.0356246,0.119918,277.9,5.1,52.1701,4.4272,8.7,0.897059,171.609,4.72139,120.276,-8.73881,194.157,1.015,0.0635264,228.56,4.25611,3.8314,-9.622802734375,22.0019989013672,35.0,22.0,-259457.0,492.232,nan,0,0,-1,-1
1570531590.0,2019-10-08,12:46:30.000,16.0,8.0,17.4099998474121,-15.5,13.7,8.6,-19.2,-16.6,164.5,-14.8256,13.6416,8.370289999999999,-0.168291,-2.00703,1.6697400000000002,-16.0359,-14.4517,160.417,0.128894,-0.108245,0.135549,277.9,5.1,52.1701,4.4272,8.7,0.900938,174.155,4.72139,121.649,-10.6388,193.256,1.00727,0.0782284999999999,228.604,4.25996,3.8313,-7.74705505371094,22.0019989013672,35.0,22.0,-259367.0,430.703,nan,0,0,-1,-1
1570531590.1,2019-10-08,12:46:30.100,16.0,8.0,17.3600006103516,-15.4,13.5,8.5,-19.2,-16.6,165.4,-14.813,13.4827,8.35099,-1.36992,-5.17295,-2.10379,-15.8799,-14.709,161.05,0.132442,-0.135069,0.0982996,277.9,5.1,52.1701,4.4272,8.7,0.881545,166.672,4.7214,122.963,-11.7788,192.356,0.999942,0.0864919,228.604,4.26572,3.82809,-6.16487121582031,22.0009689331055,35.0,22.0,-259072.0,1968.93,nan,0,0,-1,-1
1570531590.2,2019-10-08,12:46:30.200,16.0,8.0,17.25,-15.6,13.4,8.8,-19.0,-16.4,165.7,-14.813,13.4827,8.35099,-1.36992,-5.17295,-2.10379,-15.8799,-14.709,161.05,0.132442,-0.135069,0.0982996,277.9,5.1,52.1701,4.4272,8.7,0.8926270000000001,173.253,4.7214,124.307,-13.6789,191.456,0.992182,0.10059,228.681,4.25978,3.82076,-3.53131866455078,22.0009689331055,35.0,22.0,-259056.0,-123.058,nan,0,0,-1,-1
1570531590.3,2019-10-08,12:46:30.300,16.0,8.0,17.25,-15.7,13.4,9.2,-19.0,-16.2,165.8,-15.1433,13.3317,8.76243,-1.51885,2.44452,5.71563,-16.0936,-15.4088,162.434,-0.0143292,-0.0931848,0.0388563,277.9,5.1,52.1701,4.4272,8.7,0.904817,176.351,4.7214,125.621,-15.1989,190.556,0.984612,0.111392,228.743,4.2538,3.80883,-1.94743347167969,22.0009689331055,35.0,22.0,-259034.0,430.703,nan,0,0,-1,-1
1570531590.4,2019-10-08,12:46:30.400,16.0,9.0,17.2000007629395,-15.5,13.4,9.5,-19.2,-16.8,166.3,-15.1321,13.3319,8.991019999999999,-0.325009,-0.604172,4.21893,-15.9862,-15.816,162.776,0.1809869999999999,-0.165368,0.0855986,277.9,5.1,52.1701,4.4272,8.7,0.904817,177.333,4.7214,126.907,-16.7189,189.556,0.976856,0.121974,228.728,4.24653,3.78913,0.1549835205078119,22.0009689331055,35.0,22.0,-258840.0,1230.58,nan,0,0,-1,-1
1570531590.5,2019-10-08,12:46:30.500,16.0,9.0,17.1499996185303,-15.4,13.6,9.7,-19.4,-17.3,166.1,-15.1157,13.5431,9.3623,-0.7128369999999999,3.10068,-0.529713,-16.5155,-17.8219,163.47299999999998,-0.00937486,-0.206166,-0.105297,277.9,5.1,52.1701,4.4272,8.7,0.904262,177.94099999999997,4.72141,128.25,-18.2389,188.556,0.96884,0.132249,228.767,4.23042,3.76918,2.26007080078125,22.0019989013672,35.0,22.0,-258783.0,1138.29,nan,0,0,-1,-1
1570531590.6,2019-10-08,12:46:30.600,16.0,9.0,17.2000007629395,-15.3,13.9,10.2,-19.7,-17.5,165.2,-15.0948,13.8809,9.7174,0.590669,-1.44065,2.8252900000000003,-16.8111,-18.4341,163.06,-0.178553,0.0108351,-0.133582,277.9,5.1,52.1701,4.4272,8.7,0.908695,180.816,4.72141,129.594,-19.7589,187.456,0.960528,0.142284,228.746,4.207409999999999,3.74282,4.365150451660161,22.0019989013672,35.0,22.0,-258695.0,799.877,nan,0,0,-1,-1
1570531590.7,2019-10-08,12:46:30.700,16.0,9.0,17.2000007629395,-14.9,14.2,10.7,-20.4,-18.4,164.2,-15.0948,13.8809,9.7174,0.590669,-1.44065,2.8252900000000003,-16.8111,-18.4341,163.06,-0.178553,0.0108351,-0.133582,277.9,5.1,52.1701,4.4272,8.7,0.915898,182.576,4.72141,130.996,-21.2789,186.356,0.951965,0.1520119999999999,228.782,4.17694,3.70748,6.47364044189453,22.0025119781494,35.0,22.0,-258584.0,1230.58,nan,0,0,-1,-1
1570531590.8,2019-10-08,12:46:30.800,16.0,10.0,17.25,-14.4,14.6,11.2,-20.7,-19.3,162.8,-15.0656,13.9974,10.023,-3.23176,0.788395,5.11917,-16.9314,-18.8525,162.747,-0.2066739999999999,-0.206467,-0.177593,278.1,5.4,52.1701,4.4272,8.7,0.91479,183.452,4.721419999999999,132.398,-22.7989,185.256,0.943362,0.161504,228.842,4.14121,3.66706,9.11351776123047,22.0025119781494,35.0,22.0,-258417.0,861.4060000000001,nan,0,0,-1,-1
1570531590.9,2019-10-08,12:46:30.900,16.0,9.0,17.25,-13.9,15.1,11.7,-21.3,-20.4,161.2,-14.6343,14.6754,10.8299,5.58815,-1.2343,-1.30977,-17.8023,-21.6619,161.588,-0.106016,-0.100231,-0.3292199999999999,278.1,5.4,52.1701,4.4272,8.7,0.917006,183.321,4.721430000000001,133.829,-24.3189,184.056,0.934361,0.170711,228.863,4.10128,3.62518,10.6872177124023,22.0025119781494,35.0,22.0,-258360.0,1138.29,nan,0,0,-1,-1
1570531591.0,2019-10-08,12:46:31.000,16.0,9.0,17.2999992370605,-13.2,15.6,12.5,-21.9,-22.0,158.6,-13.9782,15.6118,11.7771,6.62407,2.90468,7.48262,-18.843,-23.7223,158.918,-0.1245339999999999,-0.197024,-0.425278,278.1,5.4,52.1701,4.4272,8.7,0.917006,186.13,4.72145,135.406,-25.8389,182.756,0.92456,0.179507,228.915,4.04356,3.57437,12.7957077026367,22.0009689331055,35.0,22.0,-258167.0,1076.76,nan,0,0,-1,-1
1570531591.1,2019-10-08,12:46:31.100,16.0,9.0,17.2999992370605,-12.3,16.2,13.1,-22.3,-23.9,155.8,-13.3761,16.184,12.5492,9.05323,7.60352,5.9004900000000005,-19.4844,-26.2202,157.235,-0.45838,-0.407465,-0.400946,278.1,5.4,52.1701,4.4272,8.7,0.926426,192.753,4.72146,136.925,-26.9789,181.556,0.91545,0.185477,228.995,3.98322,3.5201,14.9076080322266,22.0009689331055,35.0,22.0,-258083.0,799.877,nan,0,0,-1,-1
1570531591.2,2019-10-08,12:46:31.200,16.0,10.0,17.2399997711182,-11.3,16.8,13.8,-22.3,-26.1,151.9,-12.5139,16.9264,13.2809,7.991630000000001,10.6763,12.6336,-20.1181,-29.4196,155.04,-0.272686,-0.317591,-0.5007590000000001,278.1,5.4,52.1701,4.4272,8.7,0.933629,196.314,4.72147,138.619,-28.4989,180.156,0.904939,0.193688,229.093,3.90417,3.46078,17.0126876831055,22.0009689331055,35.0,22.0,-258049.0,676.819,nan,0,0,-1,-1
1570531591.3,2019-10-08,12:46:31.300,16.0,10.0,17.2399997711182,-10.2,17.4,14.4,-21.8,-28.0,147.0,-11.6222,17.6508,14.1134,9.81991,12.2085,11.6701,-20.206,-32.1063,151.241,-0.394151,-0.134804,-0.551192,278.1,5.4,52.1701,4.4272,8.7,0.946373,200.608,4.72149,140.284,-29.2588,178.856,0.8953120000000001,0.196528,229.183,3.81913,3.40427,19.6627807617188,22.0009689331055,35.0,22.0,-257948.0,1169.05,nan,0,0,-1,-1
1570531591.4,2019-10-08,12:46:31.400,16.0,10.0,17.1399993896484,-8.9,18.0,15.1,-20.8,-30.4,142.1,-9.71449,18.6614,15.3682,17.9694,11.5965,10.8613,-19.8817,-36.8679,144.679,-0.701634,-0.386739,-0.837464,278.1,5.4,52.1701,4.42719,8.5,0.946373,203.997,4.7215,142.036,-30.0188,177.455,0.885125,0.199174,229.272,3.73178,3.34142,21.243293762207,22.0019989013672,35.0,22.0,-257793.0,1445.93,nan,0,0,-1,-1
1570531591.5,2019-10-08,12:46:31.500,16.0,10.0,17.1399993896484,-7.3,18.5,15.7,-18.8,-32.7,136.0,-8.27846,19.4945,16.224,18.4868,11.5635,6.3529800000000005,-18.7962,-39.6862,138.88299999999998,-0.700383,-0.192678,-0.8861399999999999,278.1,5.4,52.1701,4.42719,8.5,0.959671,209.973,4.72152,143.847,-30.7788,175.955,0.8744719999999999,0.201669,229.346,3.63075,3.27094,23.3483810424805,22.0019989013672,35.0,22.0,-257721.0,615.29,nan,0,0,-1,-1
1570531591.6,2019-10-08,12:46:31.600,16.0,10.0,17.129999160766598,-5.6,19.0,16.2,-16.3,-34.9,128.8,-6.37708,20.0641,16.9659,24.8702,10.664,10.6504,-16.7372,-43.0939,132.374,-0.222384,-0.317492,-1.00527,278.1,5.4,52.1701,4.42719,8.5,0.969644,216.395,4.72153,145.687,-31.9187,174.455,0.8634620000000001,0.206548,229.517,3.5158,3.1965,25.4636840820312,22.0019989013672,35.0,22.0,-257524.0,1353.64,nan,0,0,-1,-1
1570531591.7,2019-10-08,12:46:31.700,16.0,11.0,17.129999160766598,-3.7,19.2,16.7,-12.6,-37.3,121.2,-6.37708,20.0641,16.9659,24.8702,10.664,10.6504,-16.7372,-43.0939,132.374,-0.222384,-0.317492,-1.00527,278.1,5.4,52.1701,4.42719,8.5,0.97186,217.826,4.72154,147.52700000000002,-32.2987,172.955,0.8529969999999999,0.206384,229.611,3.40173,3.12246,27.567062377929695,22.0019989013672,35.0,22.0,-257460.0,1261.34,nan,0,0,-1,-1
1570531591.8,2019-10-08,12:46:31.800,16.0,11.0,17.1800003051758,-1.6,19.4,16.8,-8.2,-38.9,112.2,-6.37708,20.0641,16.9659,24.8702,10.664,10.6504,-16.7372,-43.0939,132.374,-0.222384,-0.317492,-1.00527,275.5,4.9,52.1701,4.42719,8.5,0.977955,217.672,4.72156,149.542,-32.6786,171.255,0.841406,0.205971,229.694,3.27556,3.04113,29.6431884765625,22.0019989013672,23.0092449188232,22.0,-257317.0,1661.28,nan,0,0,-1,-1
1570531591.9,2019-10-08,12:46:31.900,16.0,11.0,17.229999542236303,0.4,19.4,16.7,-3.1,-40.1,103.0,-0.981181,21.0517,17.9683,17.0959,2.48504,-0.726923,-5.497330000000001,-51.1447,110.197,-0.377559,-0.202235,-0.938046,275.5,4.9,52.1701,4.42719,8.5,0.971306,215.59,4.72156,151.412,-32.6786,169.655,0.830836,0.203399,229.731,3.15256,2.96552,31.409362792968803,22.0019989013672,23.0092449188232,22.0,-257123.0,2030.46,pp-ro,1,1,-1,-1
1570531592.0,2019-10-08,12:46:32.000,16.0,11.0,17.2800006866455,2.5,19.3,16.7,2.1,-40.3,93.2,-0.981181,21.0517,17.9683,17.0959,2.48504,-0.726923,-5.497330000000001,-51.1447,110.197,-0.377559,-0.202235,-0.938046,275.5,4.9,52.1701,4.42719,8.5,0.969644,215.951,4.72155,153.281,-32.6785,168.155,0.820564,0.2008849999999999,229.867,3.02409,2.88655,32.824661254882805,22.0019989013672,23.0092449188232,22.0,-256982.0,1138.29,pp-ro,1,1,-1,-1
1570531592.1,2019-10-08,12:46:32.100,16.0,11.0,17.3299999237061,4.6,19.0,16.4,8.2,-39.8,82.9,3.97958,21.018,17.8529,19.2689,-0.831308,-9.63364,9.30437,-53.1671,85.2027,-0.658496,-0.1343089999999999,-1.48318,275.5,4.9,52.1701,4.42719,8.5,0.979064,220.618,4.72155,155.179,-32.2984,166.555,0.810158,0.196049,229.923,2.89047,2.80715,33.880615234375,22.0025119781494,23.0116176605225,22.0,-256756.0,1722.81,pp-ro,1,1,-1,-1
1570531592.2,2019-10-08,12:46:32.200,16.0,11.0,17.479999542236303,6.8,18.4,15.8,14.2,-38.1,72.5,6.53045,20.6671,17.2971,24.1221,-0.331212,-4.62677,16.7907,-51.8971,72.4764,-0.6436689999999999,-0.0566701,-1.38439,275.5,4.9,52.1701,4.42719,8.5,0.980172,221.823,4.72154,157.107,-31.9183,164.955,0.799657,0.191279,230.025,2.75008,2.7191,34.582305908203104,22.0019989013672,23.0092449188232,22.0,-256614.0,1384.4,pp-ro,1,1,-1,-1
1570531592.3,2019-10-08,12:46:32.300,16.0,12.0,17.479999542236303,8.9,17.6,15.0,19.2,-35.5,63.0,7.788819999999999,20.3129,16.969,22.6917,-9.876,-4.08576,20.3682,-50.6444,66.8615,-0.4277439999999999,-0.2431019999999999,-1.29032,275.5,4.9,52.1701,4.42719,8.5,0.983496,222.187,4.72154,158.859,-30.7782,163.555,0.79075,0.182223,230.073,2.61661,2.63206,34.933151245117195,22.0025119781494,23.0116176605225,22.0,-256455.0,1722.81,pp-ro,1,1,-1,-1
1570531592.4,2019-10-08,12:46:32.400,16.0,11.0,17.479999542236303,10.8,16.6,14.0,24.0,-32.6,54.2,9.01417,19.9408,16.5413,26.6754,-9.40908,-4.85744,23.6309,-49.6001,60.7744,-0.294795,-0.188882,-1.01306,275.5,4.9,52.1701,4.42719,8.3,0.982388,220.613,4.72153,160.553,-30.0182,162.355,0.7823869999999999,0.175688,230.299,2.48515,2.54291,34.953582763671896,22.0025119781494,23.0116176605225,22.0,-256276.0,1845.87,pp-ro,1,1,-1,-1
1570531592.5,2019-10-08,12:46:32.500,16.0,12.0,17.4300003051758,12.4,15.7,12.8,27.5,-28.9,46.2,12.4665,18.3661,14.936,26.7732,-3.20399,-16.1001,31.2817,-44.2422,45.0646,-0.500916,-0.00970492,-1.36822,275.5,4.9,52.1701,4.42719,8.3,0.977955,218.162,4.72153,162.16,-28.8781,161.155,0.7744850000000001,0.167095,230.436,2.35538,2.45995,34.604446411132805,22.003026962280305,23.0139999389648,22.0,-256171.0,1815.1,pp-ro,1,1,-1,-1
1570531592.6,2019-10-08,12:46:32.600,16.0,13.0,17.4300003051758,14.0,14.6,11.9,30.7,-25.3,38.6,13.4538,17.822,14.2417,20.9999,-7.13502,-8.557960000000001,33.3572,-41.9417,40.0881,-0.808312,0.144769,-1.4418,275.5,4.9,52.1701,4.42719,8.3,0.983496,228.664,4.72153,163.678,-27.738000000000003,160.055,0.767129,0.1587319999999999,230.602,2.22914,2.37704,33.8755035400391,22.003026962280305,23.0139999389648,22.0,-255999.0,584.525,pp-ro,1,1,-1,-1
1570531592.7,2019-10-08,12:46:32.700,16.0,14.0,17.520000457763697,15.3,13.5,10.7,33.2,-21.4,32.1,14.4593,17.1212,13.7035,21.306,-16.9211,-12.5553,34.799,-39.6393,35.993,-0.417583,-0.0398593,-1.22961,275.5,4.9,52.1701,4.42719,8.3,1.0006700000000002,233.891,4.72152,165.051,-26.2179,159.055,0.760674,0.148396,230.711,2.11287,2.29658,32.7854919433594,22.0035419464111,22.3792686462402,22.0,-255980.0,369.174,pp-ro,1,1,-1,-1
1570531592.8,2019-10-08,12:46:32.800,16.0,13.0,17.6200008392334,16.3,12.1,9.5,34.9,-17.0,25.7,17.7268,14.4382,11.1187,10.6403,-18.24,-8.9229,38.9793,-30.2128,21.9149,-0.257182,0.00340063,-1.17443,271.7,4.6,52.1701,4.42719,8.3,0.997902,225.814,4.721509999999999,166.424,-24.6978,158.054,0.754173,0.138204,230.842,1.99036,2.2162900000000003,30.9222412109375,22.003026962280305,21.0775413513184,22.0,-255661.0,2491.92,pp-ro,1,1,-1,-1
1570531592.9,2019-10-08,12:46:32.900,16.0,14.0,17.6700000762939,17.0,11.2,8.2,36.2,-13.3,20.4,17.7268,14.4382,11.1187,10.6403,-18.24,-8.9229,38.9793,-30.2128,21.9149,-0.257182,0.00340063,-1.17443,271.7,4.6,52.1701,4.42719,8.3,0.985713,218.052,4.721480000000001,167.65,-23.1777,157.254,0.74869,0.12829,231.026,1.88834,2.14837,29.040283203125,22.003026962280305,19.986120223999,22.0,-255518.0,2953.39,pp-ro,1,1,-1,-1
1570531593.0,2019-10-08,12:46:33.000,16.0,13.0,17.7199993133545,17.7,10.3,7.0,37.4,-9.3,15.3,18.2899,13.6595,10.2986,9.34084,-12.7292,-13.1687,39.437,-27.9623,18.8356,-0.0392923,0.1678089999999999,-0.932728,271.7,4.6,52.1701,4.42719,8.3,0.957454,211.74,4.72144,168.78900000000002,-21.6577,156.554,0.74374,0.118543,231.232,1.7842,2.08039,26.936897277832,22.003026962280305,18.8779373168945,22.0,-255163.0,1507.46,pp-ro,1,1,-1,-1
1570531593.1,2019-10-08,12:46:33.100,16.0,12.0,17.770000457763697,18.1,9.2,5.9,38.4,-5.3,10.4,19.9582,11.1556,7.39088,7.29334,-14.5065,-19.1075,40.6244,-17.89,8.34864,0.104598,0.1791,-0.857977,271.7,4.6,52.1701,4.42719,8.3,0.976847,222.891,4.72141,169.84099999999998,-19.3776,155.954,0.73958,0.104582,231.394,1.6848299999999998,2.01848,25.8911666870117,22.003026962280305,17.8771648406982,22.0,-255121.0,276.88,pp-ro,1,1,-1,-1
1570531593.2,2019-10-08,12:46:33.200,16.0,12.0,17.5699996948242,18.4,8.2,4.8,39.0,-1.9,6.0,19.9582,11.1556,7.39088,7.29334,-14.5065,-19.1075,40.6244,-17.89,8.34864,0.104598,0.1791,-0.857977,271.7,4.6,52.1701,4.42719,8.3,0.991807,221.836,4.721369999999999,170.775,-17.8575,155.454,0.735762,0.0952044,231.623,1.59574,1.95519,23.8848724365234,22.003026962280305,16.8292407989502,22.0,-255005.0,1661.28,pp-ro,1,1,-1,-1
1570531593.3,2019-10-08,12:46:33.300,16.0,12.0,17.4699993133545,18.7,7.3,3.7,39.4,1.4,2.6,20.5668,8.53214,4.99478,3.54145,-12.7683,-15.7985,41.2024,-8.93872,-1.05723,-0.0637761,0.323762,-1.0669799999999998,271.7,4.6,52.1701,4.42719,8.3,0.982388,215.022,4.7213400000000005,171.622,-15.5774,154.954,0.732363,0.0815688,231.749,1.52244,1.89508,21.629905700683604,22.003026962280305,15.854477882385302,22.0,-254858.0,2984.16,pp-ro,1,1,-1,-1
1570531593.4,2019-10-08,12:46:33.400,16.0,12.0,17.3099994659424,18.7,6.4,2.6,40.4,4.6,-0.7,20.479,7.45182,3.60952,-6.44644,-14.3534,-11.3257,41.6499,-4.60962,-4.28114,0.0825755,0.224738,-0.892329,271.7,4.6,52.1701,4.4272,8.1,0.950805,206.348,4.7213,172.41099999999997,-14.0573,154.654,0.729514,0.0724404999999999,232.037,1.44861,1.83472,19.998291015625,22.0025119781494,14.836726188659698,22.0,-254513.0,1415.17,pp-ro,1,1,-1,-1
1570531593.5,2019-10-08,12:46:33.500,16.0,12.0,17.2099990844727,18.9,5.6,1.8,40.9,7.3,-3.6,20.5643,6.45455,2.41381,-2.68859,-4.575830000000001,-4.77737,41.499,-0.383494,-7.637639999999999,0.0306945,0.1766619999999999,-0.985462,271.7,4.6,52.1701,4.4272,8.1,0.965766,215.65,4.72127,173.024,-11.7773,154.35399999999998,0.727283,0.0590846,232.166,1.38886,1.78604,18.0754470825195,22.0025119781494,14.0577306747437,22.0,-254441.0,707.5830000000001,pp-ro,1,1,-1,-1
1570531593.6,2019-10-08,12:46:33.600,16.0,11.0,17.0599994659424,18.9,4.8,1.0,41.4,10.1,-6.7,20.5643,6.45455,2.41381,-2.68859,-4.575830000000001,-4.77737,41.499,-0.383494,-7.637639999999999,0.0306945,0.1766619999999999,-0.985462,271.7,4.6,52.1701,4.4272,8.1,0.980726,224.288,4.72123,173.579,-10.2572,154.154,0.725332,0.0501636999999999,232.375,1.32269,1.7357200000000002,17.3652420043945,22.003026962280305,13.2130556106567,22.0,-254356.0,892.17,pp-ro,1,1,-1,-1
1570531593.7,2019-10-08,12:46:33.700,16.0,11.0,16.9500007629395,18.9,4.1,0.3,42.3,12.6,-9.9,20.4236,5.80382,2.04389,-0.909469,-7.420719999999999,-8.39964,41.646,1.39287,-9.17238,0.124719,0.0236894,-0.740686,271.7,4.6,52.1701,4.4272,8.1,0.989591,227.627,4.7212,174.105,-7.977139999999999,153.954,0.723531,0.0369607,232.547,1.26231,1.69413,16.0589294433594,22.003026962280305,12.5777158737183,22.0,-254306.0,953.699,pp-ro,1,1,-1,-1
1570531593.8,2019-10-08,12:46:33.800,16.0,10.0,16.8999996185303,18.9,3.2,-0.3,42.9,14.6,-12.7,20.2972,3.09898,-0.48398,-0.6631,-12.7881,-10.0067,42.265,10.6406,-18.0619,0.203152,-0.00674731,-0.586726,267.2,5.6,52.1701,4.4272,8.1,1.0006700000000002,235.219,4.72117,174.484,-6.45709,153.85399999999998,0.722309,0.0282127,232.718,1.21021,1.6457400000000002,14.6095581054688,22.003026962280305,11.7501230239868,22.0,-254149.0,1722.81,pp-ro,1,1,-1,-1
1570531593.9,2019-10-08,12:46:33.900,16.0,10.0,16.7999992370605,18.7,2.3,-0.9,43.4,16.8,-15.0,20.2972,3.09898,-0.48398,-0.6631,-12.7881,-10.0067,42.265,10.6406,-18.0619,0.203152,-0.00674731,-0.586726,267.2,5.6,52.1701,4.4272,8.1,1.01397,241.299,4.7211,174.805,-4.17702,153.754,0.721272,0.015156,232.84,1.16447,1.59999,13.6285400390625,22.0025119781494,11.0151872634888,22.0,-254036.0,1045.99,pp-ro,1,1,-1,-1
1570531594.0,2019-10-08,12:46:34.000,16.0,11.0,16.8500003814697,18.5,1.5,-1.5,44.0,18.2,-17.8,20.246,2.7345200000000003,-0.865251,2.32879,-11.3179,-7.62179,42.6954,11.9511,-19.1788,0.154356,0.0766078999999999,-0.582255,267.2,5.6,52.1701,4.4272,8.1,1.0173,240.232,4.72106,175.03900000000002,-2.27697,153.754,0.720709,0.00433536,232.99,1.1217,1.55481,12.6884078979492,22.003026962280305,10.2559032440186,22.0,-253851.0,2245.81,pp-ro,1,1,-1,-1
1570531594.1,2019-10-08,12:46:34.100,16.0,10.0,16.8999996185303,18.3,0.8,-2.1,44.4,19.4,-20.0,19.6504,1.08188,-2.17272,-5.628819999999999,-7.494339999999999,-8.789769999999999,43.5419,16.3514,-23.7536,0.23529,0.0360129999999999,-0.321405,267.2,5.6,52.1701,4.4272,8.1,1.01397,244.118,4.72101,175.21400000000003,-0.376916,153.754,0.720254,-0.00649485,233.11,1.08847,1.51203,11.7142105102539,22.003026962280305,9.54889678955078,22.0,-253630.0,1815.1,pp-ro,1,1,-1,-1
1570531594.2,2019-10-08,12:46:34.200,16.0,10.0,17.0100002288818,18.2,0.4,-2.3,44.7,20.1,-21.0,19.6504,1.08188,-2.17272,-5.628819999999999,-7.494339999999999,-8.789769999999999,43.5419,16.3514,-23.7536,0.23529,0.0360129999999999,-0.321405,267.2,5.6,52.1701,4.4272,8.1,1.04832,264.26,4.72096,175.273,1.90314,153.85399999999998,0.720383,-0.0194255999999999,233.228,1.0768799999999998,1.49759,10.8387908935547,22.003026962280305,9.41299819946289,22.0,-253533.0,307.645,pp-ro,1,1,-1,-1
1570531594.3,2019-10-08,12:46:34.300,16.0,10.0,17.1100006103516,18.0,-0.3,-2.7,45.3,21.4,-24.0,19.2775,-0.0512738,-2.92357,-3.26092,-6.834860000000001,-3.41081,43.9541,18.8642,-26.6878,0.124695,0.0822801,-0.252326,267.2,5.6,52.1701,4.4272,8.1,1.0699299999999998,272.153,4.7209,175.243,3.4231800000000003,154.054,0.7210449999999999,-0.0280471999999999,233.355,1.03177,1.46049,10.430046081543,22.0035419464111,8.74723243713379,22.0,-253356.0,2338.1,pp-ro,1,1,-1,-1
1570531594.4,2019-10-08,12:46:34.400,16.0,10.0,17.3099994659424,17.8,-1.1,-3.2,45.6,21.7,-25.4,18.8067,-1.25861,-3.63285,-10.424,-4.68496,-5.95872,44.2706,20.6903,-29.636,0.384377,-0.0936003,-0.0692256,267.2,5.6,52.1701,4.4272,8.2,1.07104,276.884,4.72084,175.12599999999998,4.94321,154.254,0.721916,-0.0367081999999999,233.426,1.01752,1.41517,9.57847595214844,22.003026962280305,7.91085004806519,22.0,-253156.0,1753.58,pp-ro,1,1,-1,-1
1570531594.5,2019-10-08,12:46:34.500,16.0,11.0,17.520000457763697,17.1,-2.0,-3.6,45.3,22.9,-28.1,18.4106,-1.94783,-3.92913,-3.09182,-6.64214,-4.63865,44.3046,21.6546,-31.4768,0.269373,-0.18767,-0.244426,267.2,5.6,52.1701,4.4272,8.2,1.08434,278.355,4.7208,174.98,6.84325,154.454,0.722791,-0.0474997,233.497,0.97864,1.36519,9.07774353027344,22.003026962280305,7.01904153823853,22.0,-252992.0,2184.28,pp-ro,1,1,-1,-1
1570531594.6,2019-10-08,12:46:34.600,16.0,11.0,17.6200008392334,16.7,-2.5,-3.9,45.0,23.4,-30.0,18.2485,-2.219,-4.10122,-4.947019999999999,-6.947089999999999,-1.15835,44.1386,22.2507,-32.3597,0.0127357999999999,0.0852798,-0.263596,267.2,5.6,52.1701,4.4272,8.2,1.07492,273.957,4.72075,174.717,9.12329,154.754,0.7242029999999999,-0.0605285,233.577,0.959026,1.33725,8.31474304199219,22.003026962280305,6.58098030090332,22.0,-252688.0,3107.21,pp-ro,1,1,-1,-1
1570531594.7,2019-10-08,12:46:34.700,16.0,11.0,17.7199993133545,16.5,-2.7,-4.1,44.8,24.0,-31.5,17.7103,-2.86203,-4.44562,-11.9932,-7.50961,-2.97858,44.0315,23.202,-33.9426,0.287201,0.0299505999999999,-0.299764,267.2,5.6,52.1701,4.4272,8.2,1.06384,267.197,4.7207,174.454,10.6433,155.154,0.725986,-0.0692401999999999,233.71,0.940055,1.32413,7.70501708984375,22.0035419464111,6.35301685333252,22.0,-252427.0,2430.39,pp-ro,1,1,-1,-1
1570531594.8,2019-10-08,12:46:34.800,16.0,11.0,17.770000457763697,16.1,-3.3,-4.3,44.3,24.5,-32.4,17.7103,-2.86203,-4.44562,-11.9932,-7.50961,-2.97858,44.0315,23.202,-33.9426,0.287201,0.0299505999999999,-0.299764,270.4,5.1,52.1701,4.4272,8.2,1.05497,260.828,4.72064,174.27900000000002,11.4033,155.35399999999998,0.726986,-0.0736181,233.748,0.926494,1.2896,7.05442047119141,22.0035419464111,5.67435741424561,22.0,-252147.0,2768.8,pp-ro,1,1,-1,-1
1570531594.9,2019-10-08,12:46:34.900,16.0,11.0,17.8700008392334,15.3,-3.8,-4.5,43.3,24.9,-34.5,16.9605,-3.5525800000000003,-4.799919999999999,-4.63627,-3.67456,-4.091819999999999,43.0574,24.5969,-36.4642,0.0257577,-0.1587609999999999,-0.279958,270.4,5.1,52.1701,4.4272,8.2,1.04555,258.075,4.720619999999999,173.695,13.6834,155.85399999999998,0.729775,-0.0868588999999999,233.768,0.905687,1.25515,6.45832061767578,22.003026962280305,5.04369878768921,22.0,-251991.0,2922.63,pp-ro,1,1,-1,-1
1570531595.0,2019-10-08,12:46:35.000,16.0,11.0,17.8700008392334,14.9,-4.0,-4.7,42.5,25.4,-35.6,15.9701,-4.23905,-5.05006,-5.78967,-5.67306,-2.12112,41.5783,25.6192,-39.1679,-0.0794902,0.00799471,-0.263689,270.4,5.1,52.1701,4.4272,8.2,1.03503,246.699,4.7206,173.315,15.2034,156.254,0.731769,-0.0957182,233.847,0.892814,1.23577,5.75321197509766,22.0035419464111,4.69230270385742,22.0,-251673.0,2491.92,pp-ro,1,1,-1,-1
1570531595.1,2019-10-08,12:46:35.100,16.0,11.0,17.8700008392334,14.6,-4.2,-4.7,41.9,25.9,-36.8,15.8424,-4.37199,-5.12276,-1.75713,-2.1334,-0.740396,41.2318,26.1753,-39.6342,-0.0981635,0.125371,-0.270001,270.4,5.1,52.1701,4.4272,8.2,1.01065,236.877,4.72058,172.877,16.7234,156.654,0.733889,-0.104625,233.894,0.8788020000000001,1.22694,5.21501922607422,22.0035419464111,4.54860830307007,22.0,-251358.0,2922.63,pp-ro,1,1,-1,-1
1570531595.2,2019-10-08,12:46:35.200,16.0,11.0,17.8199996948242,14.4,-4.5,-4.8,40.9,26.1,-38.2,15.4465,-4.67235,-5.2117,-2.48345,-0.430843,0.886069,40.6184,27.051,-40.6404,0.119713,-0.0353484,-0.250028,270.4,5.1,52.1701,4.4272,8.2,1.00289,236.091,4.72056,172.43900000000002,18.2434,157.154,0.7362850000000001,-0.113571,234.02,0.865698,1.21221,4.768798828125,22.003026962280305,4.272089004516601,22.0,-251182.0,1538.22,pp-ro,1,1,-1,-1
1570531595.3,2019-10-08,12:46:35.300,16.0,11.0,17.7199993133545,14.3,-4.5,-4.8,40.5,26.2,-39.0,15.2895,-4.79542,-5.18182,-1.84642,1.32382,-1.37264,40.0167,27.0979,-41.5378,0.0179153,-0.1958079999999999,-0.177688,270.4,5.1,52.1701,4.4272,8.2,1.00843,237.672,4.72053,172.176,19.0035,157.35399999999998,0.737434,-0.118072,234.021,0.8579319999999999,1.2126,4.46563720703125,22.0035419464111,4.29476833343506,22.0,-251109.0,1353.64,pp-ro,1,1,-1,-1
1570531595.4,2019-10-08,12:46:35.400,16.0,11.0,17.6700000762939,13.9,-4.6,-4.9,39.8,26.4,-40.2,15.2895,-4.79542,-5.18182,-1.84642,1.32382,-1.37264,40.0167,27.0979,-41.5378,0.0179153,-0.1958079999999999,-0.177688,270.4,5.1,52.1701,4.4272,8.2,1.0067700000000002,234.632,4.72051,171.68,20.5235,157.754,0.739617,-0.127104,234.054,0.8472850000000001,1.19951,4.278297424316411,22.003026962280305,4.07614326477051,22.0,-250812.0,2184.28,pp-ro,1,1,-1,-1
1570531595.5,2019-10-08,12:46:35.500,16.0,10.0,17.6700000762939,13.6,-4.8,-4.9,39.5,26.8,-41.5,14.4539,-5.29286,-5.21708,-3.5770800000000005,0.0831175,3.0641700000000003,38.3653,27.8146,-44.9224,0.0302277,-0.0784443,-0.192967,270.4,5.1,52.1701,4.4272,8.2,1.00012,232.343,4.72049,171.15400000000002,21.6635,158.254,0.742296,-0.1340049999999999,234.109,0.831709,1.188,4.261260986328121,22.0035419464111,3.80158352851868,22.0,-250697.0,2215.04,pp-ro,1,1,-1,-1
1570531595.6,2019-10-08,12:46:35.600,16.0,10.0,17.5699996948242,13.3,-5.0,-4.9,38.7,27.3,-42.9,14.2981,-5.39637,-5.27665,-4.3453,-2.26123,-1.95801,37.9584,28.0164,-45.6303,0.195036,0.0265034,-0.174955,270.4,5.1,52.1701,4.4272,8.2,0.99347,226.285,4.72047,170.628,23.1835,158.654,0.7444890000000001,-0.143124,234.142,0.815446,1.1775,4.14884948730469,22.003026962280305,3.6446712017059295,22.0,-250393.0,2430.39,pp-ro,1,1,-1,-1
1570531595.7,2019-10-08,12:46:35.700,16.0,10.0,17.520000457763697,13.0,-5.1,-4.9,38.1,27.4,-44.3,14.2981,-5.39637,-5.27665,-4.3453,-2.26123,-1.95801,37.9584,28.0164,-45.6303,0.195036,0.0265034,-0.174955,270.4,5.1,52.1701,4.4272,8.2,0.986821,224.471,4.72045,170.102,24.7035,159.053,0.74664,-0.152288,234.186,0.803411,1.17041,3.88487243652344,22.0025119781494,3.568156242370609,22.0,-250278.0,2215.04,pp-ro,1,1,-1,-1
1570531595.8,2019-10-08,12:46:35.800,16.0,10.0,17.370000839233402,12.6,-5.2,-5.1,37.7,27.5,-45.6,14.0128,-5.59583,-5.18594,-0.117744,1.01977,0.696216,37.3312,28.4695,-47.1835,-0.121432,-0.112501,-0.1671099999999999,265.3,5.9,52.1701,4.4272,8.2,0.982388,221.946,4.72043,169.518,25.8435,159.553,0.749395,-0.159324,234.225,0.79102,1.14895,3.62088012695312,22.003026962280305,3.0965225696563703,22.0,-250123.0,1507.46,pp-ro,1,1,-1,-1
1570531595.9,2019-10-08,12:46:35.900,16.0,10.0,17.270000457763697,12.3,-5.3,-5.1,37.3,27.9,-46.8,14.0128,-5.59583,-5.18594,-0.117744,1.01977,0.696216,37.3312,28.4695,-47.1835,-0.121432,-0.112501,-0.1671099999999999,265.3,5.9,52.1701,4.4272,8.2,0.980172,218.876,4.72039,168.963,27.3636,159.953,0.751553,-0.168553,234.27,0.7784,1.14088,3.56978607177734,22.0019989013672,3.01382613182068,22.0,-249922.0,1968.93,pp-ro,1,1,-1,-1
1570531596.0,2019-10-08,12:46:36.000,16.0,10.0,17.1700000762939,11.8,-5.5,-5.1,36.8,28.0,-48.4,13.5973,-5.69664,-5.2222,-2.05451,-1.13901,0.545719,36.9861,28.3892,-48.6992,-0.043972,-0.171979,-0.150955,265.3,5.9,52.1701,4.4272,8.2,0.965766,212.117,4.72035,168.08700000000002,28.8836,160.653,0.755525,-0.178134,234.301,0.763914,1.12137,3.31771850585938,22.0025119781494,2.54865479469299,22.0,-249655.0,1630.52,pp-ro,1,1,-1,-1
1570531596.1,2019-10-08,12:46:36.100,16.0,10.0,17.120000839233402,11.6,-5.5,-5.0,36.8,27.9,-48.9,12.2606,-6.05639,-5.23105,-5.1651,0.541245,-1.39994,35.6388,29.273000000000003,-52.8282,0.0372985,-0.00789743,-0.0806688,265.3,5.9,52.1701,4.4272,8.2,0.962441,209.748,4.72031,167.795,29.2636,160.85299999999998,0.756799,-0.180584,234.276,0.7602909999999999,1.12012,2.95664978027344,22.0025119781494,2.4785957336425803,22.0,-249572.0,1661.28,pp-ro,1,1,-1,-1
1570531596.2,2019-10-08,12:46:36.200,16.0,10.0,17.120000839233402,11.3,-5.5,-5.0,36.6,27.9,-49.7,12.2606,-6.05639,-5.23105,-5.1651,0.541245,-1.39994,35.6388,29.273000000000003,-52.8282,0.0372985,-0.00789743,-0.0806688,265.3,5.9,52.1701,4.4272,8.2,0.9569,204.984,4.720269999999999,167.21099999999998,30.4036,161.35299999999998,0.75945,-0.187764,234.347,0.7551869999999999,1.11317,2.62283325195312,22.0025119781494,-35.0,22.0,-249386.0,2030.46,pp-ro,1,1,-1,-1
1570531596.3,2019-10-08,12:46:36.300,16.0,10.0,17.0699996948242,11.1,-5.6,-5.0,36.4,27.7,-50.5,12.2606,-6.05639,-5.23105,-5.1651,0.541245,-1.39994,35.6388,29.273000000000003,-52.8282,0.0372985,-0.00789743,-0.0806688,265.3,5.9,52.1701,4.4272,8.2,0.947481,203.33,4.72023,166.65599999999998,31.9236,161.85299999999998,0.761779,-0.197123,234.499,0.753659,1.1074700000000002,2.38098907470703,22.0025119781494,-35.0,22.0,-249151.0,861.4060000000001,pp-ro,1,1,-1,-1
1570531596.4,2019-10-08,12:46:36.400,16.0,10.0,16.9699993133545,10.9,-5.6,-4.9,36.2,27.6,-51.3,12.2606,-6.05639,-5.23105,-5.1651,0.541245,-1.39994,35.6388,29.273000000000003,-52.8282,0.0372985,-0.00789743,-0.0806688,265.3,5.9,52.1701,4.4272,8.2,0.949697,200.229,4.7201900000000006,166.071,32.6836,162.253,0.764275,-0.202144,234.466,0.7479020000000001,1.10749,1.84790802001953,22.0025119781494,-35.0,22.0,-249004.0,1907.4,pp-ro,1,1,-1,-1
1570531596.5,2019-10-08,12:46:36.500,16.0,11.0,16.8099994659424,10.8,-5.6,-4.9,36.3,27.6,-52.1,11.697,-6.20064,-5.1455,-6.46324,-1.0831,0.790326,35.4186,29.6085,-54.4162,0.0317207,-0.0188769,-0.0889855,265.3,5.9,52.1701,4.4272,8.2,0.943048,198.459,4.72015,165.458,33.8236,162.753,0.766926,-0.20943,234.54,0.742807,1.1083,0.957168579101562,22.0019989013672,-35.0,22.0,-248897.0,1999.69,pp-ro,1,1,-1,-1
1570531596.6,2019-10-08,12:46:36.600,16.0,10.0,16.8099994659424,10.8,-5.6,-4.8,36.1,27.1,-52.8,11.697,-6.20064,-5.1455,-6.46324,-1.0831,0.790326,35.4186,29.6085,-54.4162,0.0317207,-0.0188769,-0.0889855,265.3,5.9,52.1701,4.4272,8.2,0.940278,199.943,4.72011,164.903,34.9636,163.253,0.7693800000000001,-0.216657,234.664,0.743767,1.1183,0.381507873535156,22.0025119781494,-35.0,22.0,-248727.0,861.4060000000001,pp-ro,1,1,-1,-1
1570531596.7,2019-10-08,12:46:36.700,16.0,11.0,16.7000007629395,10.7,-5.7,-4.7,36.3,26.6,-53.5,11.4219,-6.14249,-4.96676,-3.04147,2.00565,1.08217,35.2705,29.4863,-56.3679,-0.0778859,0.0654344,0.0401869,265.3,5.9,52.1701,4.4272,8.2,0.950251,204.101,4.72008,164.31900000000002,36.1036,163.653,0.771584,-0.223986,234.705,0.744728,1.12006,-1.04454803466797,22.0025119781494,-35.0,22.0,-248625.0,1169.05,pp-ro,1,1,-1,-1
1570531596.8,2019-10-08,12:46:36.800,16.0,11.0,16.7000007629395,10.9,-5.8,-4.6,36.3,26.2,-53.8,11.2729,-6.2842,-4.78453,-2.25435,-3.14753,0.58236,35.4676,29.303,-56.8265,0.147618,-0.0652343,-0.0694038,262.5,5.8,52.1701,4.4272,8.2,0.951913,204.144,4.72006,163.67600000000002,36.8636,164.153,0.7744840000000001,-0.2291929999999999,234.724,0.748328,1.13326,-2.829833984375,22.0025119781494,-35.0,22.0,-248556.0,1292.11,pp-ro,1,1,-1,-1
1570531596.9,2019-10-08,12:46:36.900,16.0,11.0,16.7600002288818,11.1,-5.8,-4.6,36.8,25.5,-53.8,11.2729,-6.2842,-4.78453,-2.25435,-3.14753,0.58236,35.4676,29.303,-56.8265,0.147618,-0.0652343,-0.0694038,262.5,5.8,52.1701,4.4272,8.2,0.94471,201.515,4.72005,163.092,38.3837,164.553,0.7763800000000001,-0.238809,234.841,0.762178,1.14822,-4.91381072998047,22.0025119781494,-35.0,22.0,-248316.0,1476.7,pp-ro,1,1,-1,-1
1570531597.0,2019-10-08,12:46:37.000,16.0,11.0,16.7600002288818,11.4,-5.8,-4.4,37.4,24.6,-53.5,11.5766,-6.21062,-4.49177,5.9147,0.371625,4.24391,36.4957,29.2976,-56.3414,-0.0480526,0.101587,0.136462,262.5,5.8,52.1701,4.4272,8.2,0.946373,202.446,4.72004,162.50799999999998,39.1437,164.953,0.778766,-0.244027,234.842,0.778632,1.17371,-7.01996612548828,22.0025119781494,-35.0,22.0,-248256.0,1199.82,pp-ro,1,1,-1,-1
1570531597.1,2019-10-08,12:46:37.100,16.0,10.0,16.8099994659424,11.7,-5.8,-4.1,38.3,23.3,-52.9,11.7516,-6.22348,-4.27517,1.21512,2.38363,1.52016,37.1802,29.0066,-55.4916,0.0722723999999999,0.0279909,0.215144,262.5,5.8,52.1701,4.4272,8.2,0.951913,205.2,4.72003,161.924,40.2837,165.453,0.781166,-0.251479,234.983,0.804836,1.20498,-9.12783813476562,22.003026962280305,-35.0,22.0,-248072.0,1384.4,pp-ro,1,1,-1,-1
1570531597.2,2019-10-08,12:46:37.200,16.0,10.0,16.9200000762939,12.2,-5.7,-3.7,39.2,21.8,-52.2,12.1391,-6.1424,-3.85949,5.022869999999999,-0.5951380000000001,2.7865900000000003,38.2942,28.2039,-54.2383,-0.0272613,-0.0839341,0.253204,262.5,5.8,52.1701,4.4272,8.2,0.952468,205.042,4.72002,161.34,41.8037,165.753,0.782648,-0.261166,235.058,0.8364360000000001,1.2529,-11.2374114990234,22.0019989013672,-35.0,22.0,-247950.0,1169.05,pp-ro,1,1,-1,-1
1570531597.3,2019-10-08,12:46:37.300,16.0,10.0,17.0699996948242,12.8,-5.4,-3.3,40.6,20.4,-50.7,12.86,-5.71709,-3.12088,7.27533,2.27646,7.16973,40.4138,26.6152,-51.7863,-0.00310952,0.0530501999999999,0.31226,262.5,5.8,52.1701,4.4272,8.2,0.951913,203.158,4.72003,160.756,42.9437,166.153,0.784678,-0.268684,235.145,0.876381,1.30898,-13.3401641845703,22.0019989013672,-35.0,22.0,-247791.0,1722.81,pp-ro,1,1,-1,-1
1570531597.4,2019-10-08,12:46:37.400,16.0,9.0,17.229999542236303,13.5,-5.2,-2.7,42.0,18.5,-48.9,13.4054,-5.33804,-2.53829,6.20514,4.87314,2.70052,42.2398,25.3149,-49.3473,0.290542,0.0625396999999999,0.504337,262.5,5.8,52.1701,4.4272,8.2,0.94471,200.916,4.72,160.201,44.0837,166.453,0.786293,-0.276151,235.19,0.92588,1.3706200000000002,-15.449737548828098,22.0025119781494,-35.0,22.0,-247620.0,1630.52,pp-ro,1,1,-1,-1
1570531597.5,2019-10-08,12:46:37.500,16.0,9.0,17.379999160766598,14.2,-4.7,-2.1,43.9,15.9,-47.0,13.7441,-5.10611,-2.1977900000000004,6.5007,2.88173,6.17307,43.2406,24.5319,-47.9926,0.158142,0.179896,0.5115970000000001,262.5,5.8,52.1701,4.4272,8.2,0.943048,201.078,4.71999,159.704,45.6038,166.653,0.787098,-0.28576,235.284,0.986446,1.4429,-17.5627288818359,22.0019989013672,-35.0,22.0,-247562.0,1169.05,pp-ro,1,1,-1,-1
1570531597.6,2019-10-08,12:46:37.600,16.0,9.0,17.4300003051758,14.9,-4.2,-1.2,45.7,13.2,-44.7,13.7441,-5.10611,-2.1977900000000004,6.5007,2.88173,6.17307,43.2406,24.5319,-47.9926,0.158142,0.179896,0.5115970000000001,262.5,5.8,52.1701,4.4272,8.2,0.949697,203.812,4.71996,159.207,46.7438,166.85299999999998,0.788179,-0.293178,235.312,1.0525,1.52385,-19.679122924804695,22.0025119781494,-35.0,22.0,-247470.0,984.464,pp-ro,1,1,-1,-1
1570531597.7,2019-10-08,12:46:37.700,16.0,9.0,17.5799999237061,15.7,-3.5,-0.3,47.7,10.2,-41.8,14.5735,-4.22112,-0.907504,8.1396,8.93173,8.05902,46.6534,21.0848,-43.057,0.294783,0.0913339,0.684021,262.5,5.8,52.1701,4.4272,8.2,0.951913,203.73,4.7199800000000005,158.828,48.2638,166.953,0.7882640000000001,-0.3026,235.43400000000003,1.13226,1.61135,-21.7955322265625,22.0025119781494,-35.0,22.0,-247342.0,1384.4,pp-ro,1,1,-1,-1
1570531597.8,2019-10-08,12:46:37.800,16.0,10.0,17.729999542236303,16.5,-2.8,0.6,49.7,7.0,-38.4,15.5384,-3.09311,0.620725,5.603940000000001,7.7776,8.176060000000001,50.0912,16.7429,-37.1043,0.188122,0.2464,0.8706649999999999,261.1,5.7,52.1701,4.4272,8.2,0.947481,203.372,4.71997,158.506,49.7838,166.953,0.787837,-0.311907,235.533,1.2214200000000002,1.69288,-23.9085159301758,22.0025119781494,-35.0,22.0,-247203.0,1261.34,pp-ro,1,1,-1,-1
1570531597.9,2019-10-08,12:46:37.900,16.0,9.0,17.8299999237061,17.1,-1.8,1.9,52.3,2.8,-35.1,16.0996,-2.17184,1.73016,7.57119,11.0782,13.858,52.4725,13.4388,-32.5072,0.149471,0.156223,0.8740889999999999,261.1,5.7,52.1701,4.4272,8.2,0.959117,211.143,4.72001,158.214,51.3039,166.953,0.787284,-0.321167,235.663,1.32157,1.79663,-26.0232086181641,22.0025119781494,-35.0,22.0,-247026.0,1230.58,pp-ro,1,1,-1,-1
1570531598.0,2019-10-08,12:46:38.000,16.0,10.0,17.9300003051758,17.8,-0.7,3.4,54.5,-1.6,-31.7,16.6097,-1.15252,3.07982,4.80898,13.6163,14.7489,54.4904,9.27442,-27.7411,0.154799,0.26155,0.955515,261.1,5.7,52.1701,4.4272,8.2,0.96909,217.174,4.72005,158.039,53.2039,166.653,0.785094,-0.332371,235.754,1.42764,1.9058,-28.1310729980469,22.0025119781494,-35.0,22.0,-246924.0,1045.99,pp-ro,1,1,-1,-1
1570531598.1,2019-10-08,12:46:38.100,16.0,9.0,18.0300006866455,18.3,0.4,5.1,56.3,-6.9,-27.8,16.7943,-0.57125,3.82226,5.90868,10.2672,15.0542,55.2061,7.14824,-25.2677,0.1236599999999999,0.248738,1.0964200000000002,261.1,5.7,52.1701,4.4272,8.2,0.976293,218.207,4.72009,158.01,55.1039,166.35299999999998,0.782433,-0.343248,235.959,1.55129,2.0136,-30.1519012451172,22.0019989013672,-35.0,22.0,-246877.0,922.935,pp-ro,1,1,-1,-1
1570531598.2,2019-10-08,12:46:38.200,16.0,9.0,18.1299991607666,18.6,1.9,6.7,58.2,-12.3,-24.0,17.1293,0.636703,5.367030000000001,-1.14152,14.2945,15.4707,56.7188,2.4059,-20.0665,0.304269,0.254243,1.16553,261.1,5.7,52.1701,4.4272,8.2,0.976847,218.837,4.72013,158.097,57.004,165.85299999999998,0.778788,-0.353771,236.117,1.67478,2.12609,-31.824539184570305,22.0025119781494,-35.0,22.0,-246705.0,1907.4,pp-ro,1,1,-1,-1
1570531598.3,2019-10-08,12:46:38.300,16.0,9.0,18.3199996948242,18.7,3.3,8.3,59.7,-17.9,-19.7,17.2393,1.99169,6.934830000000001,1.42364,13.1955,15.6925,57.3982,-3.10383,-15.011,0.0488816999999999,0.232285,1.20289,261.1,5.7,52.1701,4.4272,8.2,0.982388,224.843,4.72017,158.33100000000002,58.524,165.253,0.774777,-0.3618139999999999,236.225,1.80442,2.22724,-33.1387634277344,22.003026962280305,-35.0,22.0,-246501.0,1138.29,pp-ro,1,1,-1,-1
1570531598.4,2019-10-08,12:46:38.400,16.0,10.0,18.4699993133545,18.4,4.9,10.1,60.5,-24.1,-14.9,17.2393,1.99169,6.934830000000001,1.42364,13.1955,15.6925,57.3982,-3.10383,-15.011,0.0488816999999999,0.232285,1.20289,261.1,5.7,52.1701,4.4272,8.2,0.995686,230.113,4.72021,158.74,60.4241,164.453,0.769252,-0.371512,236.419,1.94739,2.34114,-34.1047973632812,22.003026962280305,-35.0,22.0,-246394.0,1199.82,pp-ro,1,1,-1,-1
1570531598.5,2019-10-08,12:46:38.500,16.0,10.0,18.75,17.8,6.6,11.8,60.9,-30.1,-9.5,16.6576,4.94465,10.0577,-5.7477800000000006,14.7659,13.194,56.9176,-14.5896,-3.51934,0.0949895,0.293391,1.40112,261.1,5.7,52.1701,4.4272,8.2,0.999565,231.794,4.72025,159.236,62.3241,163.553,0.763146,-0.380904,236.622,2.09144,2.45418,-34.7089996337891,22.003026962280305,-35.0,22.0,-246311.0,1661.28,pp-ro,1,1,-1,-1
1570531598.6,2019-10-08,12:46:38.600,16.0,9.0,18.979999542236303,16.9,8.4,13.4,60.2,-36.4,-3.5,15.946,6.52693,11.6252,-8.52483,12.7186,14.2679,55.8166,-20.7028,2.72313,-0.0722026,0.252248,1.40635,261.1,5.7,52.1701,4.4272,8.2,1.00289,234.902,4.72029,159.995,64.2242,162.553,0.7559939999999999,-0.389623,236.953,2.24129,2.56762,-34.9581909179688,22.003026962280305,-35.0,22.0,-246069.0,1353.64,pp-ro,1,1,-1,-1
1570531598.7,2019-10-08,12:46:38.700,16.0,9.0,19.3099994659424,15.6,10.1,14.9,59.4,-42.5,2.6,15.5404,7.32759,12.3955,-9.22222,16.8066,13.7699,54.9661,-23.7303,6.17935,0.332254,0.298871,1.5425799999999998,261.1,5.7,52.1701,4.4272,8.2,1.00954,238.27,4.720330000000001,160.842,65.3643,161.35299999999998,0.7488020000000001,-0.393919,237.018,2.38165,2.67763,-34.966720581054695,22.003026962280305,-35.0,22.0,-245894.0,1938.16,pp-ro,1,1,-1,-1
1570531598.8,2019-10-08,12:46:38.800,16.0,9.0,19.6700000762939,14.0,11.8,16.1,56.0,-48.2,11.0,12.8685,10.4676,14.9165,-15.2109,18.2236,10.2688,48.4608,-35.175,21.8012,0.264053,0.437496,1.29832,268.4,6.1,52.1701,4.4272,8.2,1.01508,244.27,4.72035,161.923,67.2643,160.05200000000002,0.739854,-0.401678,237.403,2.53411,2.78935,-34.966720581054695,22.0035419464111,-35.0,22.0,-245740.0,1322.87,pp-ro,1,1,-1,-1
1570531598.9,2019-10-08,12:46:38.900,16.0,9.0,20.020000457763697,12.1,13.4,17.3,51.4,-52.9,20.5,11.1452,11.9121,15.9826,-15.2059,10.5664,11.9784,43.4216,-39.7441,30.9672,0.268445,0.444858,1.38968,268.4,6.1,52.1701,4.4272,8.2,1.02339,247.316,4.72039,163.12,68.4044,158.752,0.731434,-0.405053,237.676,2.67378,2.9,-34.963302612304695,22.0035419464111,-35.0,22.0,-245686.0,984.464,pp-ro,1,1,-1,-1
1570531599.0,2019-10-08,12:46:39.000,16.0,9.0,20.3199996948242,9.9,14.8,18.2,44.9,-57.4,31.8,10.1713,12.6511,16.5653,-22.4145,7.77941,16.6071,40.4032,-41.6512,36.1556,-0.135119,0.428457,1.21923,268.4,6.1,52.1701,4.4272,8.2,1.03447,253.276,4.72043,164.493,69.5444,157.252,0.721949,-0.408007,237.955,2.81638,3.00931,-34.966720581054695,22.0035419464111,-35.0,22.0,-245528.0,1784.34,pp-ro,1,1,-1,-1
