time,date,time_of_day,airspeed_temperature,airspeed_angle_of_attack,airspeed_apparent_windspeed,kite_0_vx,kite_0_vy,kite_0_vz,kite_0_roll,kite_0_pitch,kite_0_yaw,kite_1_vx,kite_1_vy,kite_1_vz,kite_1_ax,kite_1_ay,kite_1_az,kite_1_roll,kite_1_pitch,kite_1_yaw,kite_1_roll_rate,kite_1_pitch_rate,kite_1_yaw_rate,ground_upwind_direction,ground_wind_velocity,ground_pos_latitude,ground_pos_longitude,ground_pos_altitude,ground_tether_reelout_speed,ground_tether_force,est_upwind_direction,kite_pos_east,kite_pos_north,kite_height,kite_elevation,kite_azimuth,kite_distance,kite_heading,kite_course,kite_actual_steering,kite_actual_depower,kite_set_steering,kite_set_depower,ground_mech_energy,ground_mech_power,flight_phase,flight_phase_index,phase,pattern,pattern_section
1570539448.0,2019-10-08,14:57:28.000,15.0,7.0,15.8299999237061,11.8,-2.5,2.5,20.2,-1.6,-60.5,9.96782,-2.34152,2.73736,11.1999,7.756289999999999,3.56084,20.8596,12.8644,-66.8798,0.126424,0.168916,0.8868020000000001,248.8,8.8,52.1701,4.427230000000001,0.6,-2.83801,101.404,4.43011,71.3832,7.22077,232.628,1.27163,0.181467,243.441,0.642342,1.52869,-34.845535278320305,22.003026962280305,-35.0,22.0,90399.3,-4737.73,pp-riro,4,0,-1,-1
1570539448.1,2019-10-08,14:57:28.100,15.0,7.0,15.4300003051758,12.8,-1.6,2.9,21.9,-3.2,-55.4,11.7468,-0.7877609999999999,3.4386300000000003,6.81105,9.14117,5.0837,24.8776,10.8973,-54.8525,0.1208619999999999,0.203997,1.00727,248.8,8.8,52.1701,4.427230000000001,0.6,-2.83192,104.726,4.43008,71.1496,8.36081,232.428,1.27181,0.1653349999999999,243.218,0.754988,1.62989,-34.968414306640604,22.0009689331055,-35.0,22.0,90024.5,-2861.1,pp-riro,4,0,-1,-1
1570539448.2,2019-10-08,14:57:28.200,15.0,7.0,15.0799999237061,13.8,-0.6,3.3,23.6,-4.8,-50.4,12.1709,-0.361881,3.70636,8.05306,6.19305,4.50534,25.8375,10.1229,-51.8861,0.18614,0.198871,1.01506,248.8,8.8,52.1701,4.427230000000001,0.6,-2.81529,104.812,4.43005,71.0327,9.88086,232.228,1.27127,0.144123,243.049,0.871348,1.73104,-34.970123291015604,22.0009689331055,-35.0,22.0,89845.4,-1753.58,pp-riro,4,0,-1,-1
1570539448.3,2019-10-08,14:57:28.300,15.0,8.0,14.7799997329712,14.6,0.3,3.7,25.2,-6.3,-45.6,12.7104,0.0396704,3.88746,9.79555,9.41007,4.05575,26.8728,9.30675,-48.9076,0.143824,0.213978,0.990254,248.7,9.2,52.1701,4.427230000000001,0.6,-2.79645,103.119,4.43002,70.9743,11.0209,231.928,1.2704799999999998,0.12832,242.795,0.978317,1.81069,-34.971832275390604,22.0009689331055,-35.0,22.0,89572.1,-3353.33,pp-riro,4,0,-1,-1
1570539448.4,2019-10-08,14:57:28.400,15.0,7.0,14.6000003814697,15.5,1.4,4.2,27.0,-7.9,-40.5,13.5986,1.01063,4.28361,7.79738,10.3448,3.27287,28.5753,7.608230000000001,-43.2428,0.31388,0.280433,0.89369,248.7,9.2,52.1701,4.427230000000001,0.6,-2.78648,102.397,4.4299800000000005,71.0327,12.921,231.628,1.26864,0.1024559999999999,242.61900000000003,1.10104,1.9053,-34.971832275390604,22.0009689331055,-35.0,22.0,89030.6,-5876.02,pp-riro,4,0,-1,-1
1570539448.5,2019-10-08,14:57:28.500,15.0,9.0,14.4799995422363,16.2,2.6,4.7,28.5,-9.7,-35.5,14.7326,2.60953,5.05595,5.97312,11.3639,5.44332,30.9801,4.89136,-35.2762,0.0508108,0.145974,0.929477,248.7,9.2,52.1701,4.427230000000001,0.6,-2.77928,103.293,4.42994,71.1787,14.441,231.228,1.26645,0.0822848,242.366,1.2170299999999998,1.99369,-34.9957275390625,22.0009689331055,-35.0,22.0,88408.1,-5876.02,pp-riro,4,0,-1,-1
1570539448.6,2019-10-08,14:57:28.600,15.0,9.0,14.3500003814697,16.7,3.7,5.2,29.6,-11.8,-30.4,15.2951,3.65021,5.5034,4.64042,9.3261,3.52457,32.1784,2.82068,-29.92,0.199688,0.233401,0.940327,248.7,9.2,52.1701,4.427230000000001,0.6,-2.7720700000000003,101.205,4.4299,71.4707,15.9611,230.828,1.26359,0.062775,242.166,1.33536,2.07182,-34.9991455078125,22.0009689331055,-35.0,22.0,87869.6,-3999.38,pp-riro,4,0,-1,-1
1570539448.7,2019-10-08,14:57:28.700,15.0,9.0,14.1000003814697,17.1,5.0,5.7,30.4,-13.9,-25.4,15.2951,3.65021,5.5034,4.64042,9.3261,3.52457,32.1784,2.82068,-29.92,0.199688,0.233401,0.940327,248.7,9.2,52.1701,4.427230000000001,0.6,-2.77263,98.6824,4.42983,71.8796,17.4811,230.428,1.26016,0.0439448,242.011,1.45092,2.15548,-34.9991455078125,22.0009689331055,-35.0,22.0,87329.3,-6122.13,pp-riro,4,0,-1,-1
1570539448.8,2019-10-08,14:57:28.800,15.0,8.0,13.9799995422363,17.4,6.3,6.2,31.1,-16.2,-20.1,15.6916,4.80005,5.975969999999999,4.29351,8.90742,3.82841,33.0872,0.5296350000000001,-24.452,-0.0297608,0.160598,1.00109,248.7,9.2,52.1701,4.427230000000001,0.6,-2.77097,96.9052,4.42981,72.4345,19.3812,229.928,1.25556,0.0211301,241.845,1.57604,2.23907,-34.9974365234375,22.0009689331055,-35.0,22.0,86946.8,-7998.77,pp-riro,4,0,-1,-1
1570539448.9,2019-10-08,14:57:28.900,15.0,11.0,13.9099998474121,17.6,7.6,6.7,31.7,-18.3,-14.9,15.9888,6.01409,6.497000000000001,4.681080000000001,11.2229,5.11572,33.9628,-1.76157,-18.9094,0.113889,0.187715,1.00412,248.7,9.2,52.1701,4.427230000000001,0.4,-2.80754,97.5843,4.42977,73.077,21.2813,229.428,1.25047,-0.00076423,241.724,1.6964400000000002,2.31875,-34.9974365234375,22.0009689331055,-35.0,22.0,85467.5,-10213.8,pp-riro,4,0,-1,-1
1570539449.0,2019-10-08,14:57:29.000,15.0,9.0,13.9700002670288,17.8,8.8,7.3,32.1,-20.1,-9.7,16.4269,9.05454,7.634460000000001,-0.418721,8.71084,4.689030000000001,34.5283,-7.325639999999999,-5.11457,0.138998,0.199175,1.10658,248.7,9.2,52.1701,4.427230000000001,0.4,-2.81862,104.931,4.42973,73.8364,22.8014,228.828,1.24511,-0.0168622,241.524,1.80839,2.38539,-34.9991455078125,22.0009689331055,-35.0,22.0,84807.4,-4645.44,pp-riro,4,0,-1,-1
1570539449.1,2019-10-08,14:57:29.100,15.0,10.0,14.039999961853,17.9,10.2,7.9,32.1,-22.3,-4.1,16.4269,9.05454,7.634460000000001,-0.418721,8.71084,4.689030000000001,34.5283,-7.325639999999999,-5.11457,0.138998,0.199175,1.10658,248.7,9.2,52.1701,4.427230000000001,0.4,-2.80809,109.12,4.42969,74.771,24.7014,228.128,1.23842,-0.0363755999999999,241.336,1.93123,2.46099,-34.9991455078125,22.0009689331055,-35.0,22.0,84676.0,-2553.45,pp-riro,4,0,-1,-1
1570539449.2,2019-10-08,14:57:29.200,15.0,10.0,14.1000003814697,17.9,11.5,8.6,32.0,-24.6,1.5,16.5019,10.2552,8.27481,0.721716,12.9878,6.47649,34.463,-9.45441,0.746444,0.0806099,0.268687,1.0263,248.7,9.2,52.1701,4.427230000000001,0.4,-2.7693,115.509,4.42965,75.8224,26.2215,227.328,1.2315200000000002,-0.0502144,241.07,2.04777,2.5266,-34.9991455078125,22.0009689331055,-35.0,22.0,84828.7,2461.16,pp-riro,4,0,-1,-1
1570539449.3,2019-10-08,14:57:29.300,15.0,10.0,14.289999961853,17.7,12.9,9.1,31.3,-26.9,7.5,16.4159,11.4635,8.7984,-1.56767,14.5627,5.90333,33.6825,-11.6564,6.8902,0.111305,0.206926,1.04996,252.9,9.3,52.1701,4.427230000000001,0.4,-2.69672,119.183,4.42961,76.9615,28.5016,226.528,1.22321,-0.0718956,240.936,2.17583,2.60238,-34.9991455078125,22.0009689331055,-35.0,22.0,85197.7,5322.26,pp-riro,4,0,-1,-1
1570539449.4,2019-10-08,14:57:29.400,15.0,10.0,14.5299997329712,17.4,14.3,9.8,30.8,-29.0,13.8,16.2444,12.7597,9.33889,-3.29402,11.9395,4.83656,32.7709,-13.974,12.8831,0.136518,0.186884,1.05102,252.9,9.3,52.1701,4.427230000000001,0.4,-2.61084,124.077,4.42954,78.3342,30.0217,225.528,1.21468,-0.0831327,240.625,2.29578,2.66894,-34.9974365234375,22.0009689331055,-35.0,22.0,85866.5,6275.96,pp-riro,4,0,-1,-1
1570539449.5,2019-10-08,14:57:29.500,15.0,11.0,14.9499998092651,16.9,15.6,10.4,29.5,-30.7,20.3,15.6873,14.5929,10.1032,-4.74289,10.7416,5.52876,30.8354,-16.9218,22.542,0.149111,0.276542,1.03552,252.9,9.3,52.1701,4.427230000000001,0.4,-2.49115,132.344,4.42946,79.7361,31.9218,224.628,1.20559,-0.0978765,240.488,2.41733,2.73715,-34.9991455078125,22.0009689331055,-23.0044822692871,22.0,86828.7,11167.5,pp-riro,4,0,-1,-1
1570539449.6,2019-10-08,14:57:29.600,15.0,12.0,15.359999656677198,16.3,17.1,11.1,28.5,-32.3,27.1,15.1713,15.9245,10.7174,-6.513330000000001,14.0896,5.83726,29.4745,-18.6905,29.0956,-0.156398,0.248759,1.02714,252.9,9.3,52.1701,4.427230000000001,0.4,-2.34432,140.929,4.42939,81.3133,33.4418,223.528,1.19605,-0.1071869999999999,240.198,2.53587,2.80571,-34.9991455078125,22.0009689331055,-23.0044822692871,22.0,88212.4,14859.2,pp-riro,4,0,-1,-1
1570539449.7,2019-10-08,14:57:29.700,15.0,12.0,15.8199996948242,15.7,18.7,11.6,26.7,-34.1,34.4,14.6333,17.2907,11.2542,-5.94991,15.5474,3.79761,27.4836,-20.2788,36.106,0.0270853,0.250772,1.16267,252.9,9.3,52.1701,4.427230000000001,0.4,-2.0390200000000003,153.004,4.42932,83.0949,35.3419,222.428,1.18516,-0.119071,240.058,2.66234,2.87401,-34.9598999023438,22.0009689331055,-23.0044822692871,22.0,90700.5,17597.3,pp-riro,4,0,-1,-1
1570539449.8,2019-10-08,14:57:29.800,15.0,11.0,16.1499996185303,15.3,19.4,11.9,25.9,-34.8,37.8,14.6333,17.2907,11.2542,-5.94991,15.5474,3.79761,27.4836,-20.2788,36.106,0.0270853,0.250772,1.16267,252.9,9.3,52.1701,4.427230000000001,0.4,-1.92599,160.373,4.42925,83.9711,36.102,221.928,1.18011,-0.122898,240.014,2.7183,2.90571,-34.551971435546896,22.0009689331055,-23.0044822692871,22.0,91649.7,18827.9,pp-riro,4,0,-1,-1
1570539449.9,2019-10-08,14:57:29.900,15.0,10.0,16.4699993133545,14.1,21.0,12.7,24.2,-36.1,45.4,13.8414,18.6814,11.8453,-10.8871,11.5363,8.48117,25.3261,-21.6796,43.4091,-0.0953794,0.255382,1.16628,252.9,9.3,52.1701,4.427230000000001,0.2,-1.61737,180.995,4.42917,85.9571,37.242,220.728,1.16943,-0.125632,239.784,2.83557,2.97833,-33.7839202880859,22.0009689331055,-23.0044822692871,22.0,93783.8,22181.2,pp-riro,4,0,-1,-1
1570539450.0,2019-10-08,14:57:30.000,15.0,11.0,16.7900009155273,12.0,22.9,13.5,21.2,-37.4,56.1,12.1316,20.7525,12.8284,-14.6903,9.86547,5.81875,22.1522,-23.8238,54.0873,-0.0407118,0.2141969999999999,1.08755,252.9,9.3,52.1701,4.427230000000001,0.2,-1.24724,194.186,4.4291,89.1115,39.5221,218.828,1.15171,-0.134158,239.55900000000003,2.99939,3.08367,-32.659149169921896,22.0009689331055,-23.0044822692871,22.0,96047.9,22027.4,pp-riro,4,0,-1,-1
1570539450.1,2019-10-08,14:57:30.100,15.0,10.0,17.2099990844727,11.2,23.5,13.6,19.9,-37.7,59.7,10.7085,21.8957,13.2705,-18.1875,10.994000000000002,2.77422,20.072,-25.0402,60.8641,0.130331,0.199395,1.10424,252.9,9.3,52.1701,4.427230000000001,0.2,-0.7834720000000001,195.083,4.42903,90.2213,39.9022,218.228,1.14623,-0.133046,239.49,3.05018,3.11643,-31.181091308593803,22.0009689331055,-23.0044822692871,22.0,97854.7,15228.4,pp-riro,4,0,-1,-1
1570539450.2,2019-10-08,14:57:30.200,15.0,9.0,17.6200008392334,9.7,24.4,13.7,17.2,-38.0,67.2,10.0042,22.4273,13.3379,-14.2722,11.6584,1.98636,18.8268,-25.6633,64.3761,0.2147239999999999,0.241366,1.0674,252.9,9.3,52.1701,4.427230000000001,0.2,-0.355167,186.958,4.42896,92.5579,41.0422,216.828,1.13393,-0.133937,239.303,3.15731,3.17619,-29.3463134765625,22.0009689331055,-23.0044822692871,22.0,98646.3,5999.08,pp-riro,4,0,-1,-1
1570539450.3,2019-10-08,14:57:30.300,15.0,8.0,18.0100002288818,8.0,25.0,13.7,14.4,-38.0,78.7,7.774830000000001,23.4786,13.33,-13.284,8.43067,-0.561403,15.0455,-26.9192,74.8255,0.019283,0.14532,1.10249,251.6,8.4,52.1701,4.427230000000001,0.2,0.0698143999999999,179.645,4.42888,94.982,42.1823,215.528,1.12149,-0.134437,239.276,3.31941,3.2375700000000003,-27.409118652343803,22.0009689331055,-23.0044822692871,22.0,98679.0,-1384.4,pp-riro,4,0,-1,-1
1570539450.4,2019-10-08,14:57:30.400,15.0,8.0,18.2999992370605,6.4,25.1,13.5,11.2,-37.8,82.2,7.012639999999999,23.677,13.3306,-16.6356,2.1180000000000003,2.37208,13.9706,-27.3804,78.3843,0.1522329999999999,0.1676089999999999,1.0949,251.6,8.4,52.1701,4.427230000000001,0.2,0.381763,172.649,4.42889,98.6621,42.9424,214.328,1.10551,-0.127017,239.822,3.36219,3.2841400000000003,-25.8252258300781,22.0009689331055,-23.0044822692871,22.0,98332.2,-2614.98,pp-riro,4,0,-1,-1
1570539450.5,2019-10-08,14:57:30.500,15.0,8.0,18.3500003814697,4.0,25.1,13.2,7.4,-36.6,92.9,6.27716,23.8067,13.2208,-16.5674,2.62429,-3.16716,12.466,-27.5856,82.0008,0.164459,0.208976,0.936521,251.6,8.4,52.1701,4.427230000000001,0.2,0.2449039999999999,168.418,4.42889,101.145,43.7025,212.428,1.0923200000000002,-0.124356,239.303,3.51251,3.36281,-24.5963439941406,22.0009689331055,-22.4532165527344,22.0,98620.8,-830.6410000000001,pp-riro,4,0,-1,-1
1570539450.6,2019-10-08,14:57:30.600,15.0,8.0,18.3999996185303,2.4,25.1,13.4,5.4,-35.4,98.7,4.01431,23.715,12.8825,-12.4266,0.975259,1.79939,8.75512,-26.9788,92.069,-0.0667502,0.2285739999999999,0.917422,251.6,8.4,52.1701,4.427230000000001,0.2,0.343531,182.022,4.4289,103.598,44.0825,211.128,1.08089,-0.118818,239.271,3.5932699999999995,3.41175,-23.6832275390625,22.0009689331055,-22.0814533233643,22.0,98560.8,369.174,pp-riro,4,0,-1,-1
1570539450.7,2019-10-08,14:57:30.700,15.0,8.0,18.2999992370605,1.8,25.0,13.4,4.3,-35.4,101.6,2.476,23.7381,13.0073,-11.5519,2.80341,1.39004,6.34894,-26.1655,98.185,-0.0321109,0.2311869999999999,0.92037,251.6,8.4,52.1701,4.427230000000001,0.2,0.3258,183.634,4.42891,104.796,44.0825,210.528,1.07565,-0.114699,239.264,3.63004,3.42823,-23.0824356079102,22.0009689331055,-22.0011501312256,22.0,98655.2,1784.34,pp-riro,4,0,-1,-1
1570539450.8,2019-10-08,14:57:30.800,15.0,9.0,18.1499996185303,0.3,24.7,13.0,1.9,-34.7,107.3,1.05743,23.634,12.8602,-13.7091,-3.33046,1.30158,4.253830000000001,-24.8611,104.43,0.171563,0.266359,0.8537,251.6,8.4,52.1701,4.427230000000001,0.2,0.303637,180.24400000000003,4.42892,107.249,44.4626,209.328,1.0644,-0.109538,239.36900000000003,3.70775,3.4767900000000003,-22.4799499511719,22.0009689331055,-21.6669540405273,22.0,98689.8,-61.529,pp-riro,4,0,-1,-1
1570539450.9,2019-10-08,14:57:30.900,15.0,10.0,18.1499996185303,-1.1,24.7,12.8,0.0,-32.9,112.2,-0.262296,23.3344,12.5576,-10.8985,-1.47192,-4.61546,2.10093,-24.141,109.554,-0.0588420999999999,0.146507,0.66118,251.6,8.4,52.1701,4.427219999999999,0.2,0.323584,188.327,4.42892,109.819,44.4626,208.028,1.05308,-0.101227,239.401,3.77873,3.5201300000000004,-22.0225296020508,22.0009689331055,-21.395788192749,22.0,98737.0,799.877,pp-riro,4,0,-1,-1
1570539451.0,2019-10-08,14:57:31.000,15.0,10.0,18.1499996185303,-2.5,24.6,12.8,-2.0,-31.5,117.1,-2.33373,23.3061,12.2513,-15.8896,-6.29322,1.50457,-0.8947799999999999,-21.7798,116.809,-0.0219578,0.194432,0.730011,251.6,8.4,52.1701,4.427219999999999,0.2,0.333003,197.365,4.42892,112.273,44.0827,206.828,1.04284,-0.0906796,239.429,3.84661,3.56019,-21.6845855712891,22.0009689331055,-21.093952178955103,22.0,98759.0,0.0,pp-riro,4,0,-1,-1
1570539451.1,2019-10-08,14:57:31.100,15.0,10.0,18.2900009155273,-3.8,24.3,12.7,-4.5,-30.3,122.0,-3.57194,23.0057,12.054,-10.0261,-5.93561,-1.92168,-3.20547,-20.7029,121.489,-0.352444,0.222781,0.7198060000000001,251.6,8.4,52.1701,4.427219999999999,0.2,0.356829,205.638,4.42894,114.755,44.0827,205.528,1.03176,-0.0833139,239.486,3.91617,3.60048,-21.4302825927734,22.0009689331055,-20.941125869751,22.0,98805.2,799.877,pp-riro,4,0,-1,-1
1570539451.2,2019-10-08,14:57:31.200,15.0,10.0,18.2900009155273,-5.0,24.0,12.3,-6.4,-28.3,126.3,-4.166,22.8587,11.8551,-11.092,-3.4738,-6.96422,-4.38966,-20.0473,123.751,-0.247144,0.226446,0.7030609999999999,251.6,8.4,52.1701,4.427219999999999,0.2,0.373452,214.928,4.42893,117.179,43.7028,204.328,1.02155,-0.0735233999999999,239.564,3.98221,3.63839,-21.1589050292969,22.0009689331055,-20.7518081665039,22.0,98870.6,276.88,pp-riro,4,0,-1,-1
1570539451.3,2019-10-08,14:57:31.300,15.0,12.0,18.3899993896484,-6.3,23.6,12.1,-8.8,-26.5,130.9,-4.166,22.8587,11.8551,-11.092,-3.4738,-6.96422,-4.38966,-20.0473,123.751,-0.247144,0.226446,0.7030609999999999,263.2,7.0,52.1701,4.427219999999999,0.2,0.376776,218.314,4.42894,119.662,42.9428,203.128,1.01156,-0.0611040999999999,239.633,4.04976,3.6768,-20.9028854370117,22.0009689331055,-20.5186595916748,22.0,98955.1,892.17,pp-riro,4,0,-1,-1
1570539451.4,2019-10-08,14:57:31.400,15.0,10.0,18.5699996948242,-7.6,23.1,11.9,-11.5,-24.9,135.0,-5.9756,22.4104,11.4261,-11.4289,-5.95418,-3.35301,-7.91511,-17.5076,130.037,-0.100115,0.213504,0.747007,263.2,7.0,52.1701,4.427219999999999,0.2,0.375668,221.991,4.428999999999999,122.028,42.5628,201.928,1.00147,-0.0522150999999999,239.74400000000003,4.1121300000000005,3.71931,-20.752685546875,22.0009689331055,-20.305154800415,22.0,98984.5,584.525,pp-riro,4,0,-1,-1
1570539451.5,2019-10-08,14:57:31.500,15.0,12.0,18.7199993133545,-8.8,22.7,11.5,-13.3,-22.6,138.6,-7.15913,21.903,11.1825,-12.761,-6.700139999999999,-4.58408,-10.4666,-16.385,133.893,-0.145895,0.137397,0.472832,263.2,7.0,52.1701,4.427219999999999,0.2,0.399493,232.738,4.42906,124.306,41.8029,200.728,0.992066,-0.0410834,239.773,4.17261,3.75867,-20.5290985107422,22.0009689331055,-20.095027923584,22.0,99013.3,369.174,pp-riro,4,0,-1,-1
1570539451.6,2019-10-08,14:57:31.600,15.0,13.0,18.8999996185303,-10.0,22.0,11.2,-15.5,-20.6,142.3,-8.38183,21.4298,10.8132,-9.59222,-5.235930000000001,-1.46784,-13.0324,-14.4146,137.553,-0.14916,0.223071,0.69452,263.2,7.0,52.1701,4.427219999999999,0.2,0.4233189999999999,247.295,4.429119999999999,126.642,40.6629,199.428,0.98259,-0.0274214999999999,239.715,4.23055,3.79782,-20.3498840332031,22.0009689331055,-19.8957786560059,22.0,99116.0,646.054,pp-riro,4,0,-1,-1
1570539451.7,2019-10-08,14:57:31.700,15.0,12.0,19.0400009155273,-11.4,21.3,10.9,-17.6,-19.0,145.8,-9.52848,20.7558,10.5271,-4.97359,-6.445130000000001,-0.826304,-15.3812,-12.4554,140.97899999999998,-0.0200983,0.139209,0.81424,263.2,7.0,52.1701,4.427219999999999,0.2,0.444374,263.35,4.42919,128.804,39.5229,198.228,0.97384,-0.0145218,239.68,4.2832,3.84536,-20.1587295532227,22.0009689331055,-19.5201225280762,22.0,99175.4,492.232,pp-riro,4,0,-1,-1
1570539451.8,2019-10-08,14:57:31.800,15.0,13.0,19.270000457763697,-12.6,20.7,10.6,-19.0,-17.0,148.7,-11.5657,19.8238,9.99379,-14.9513,-3.4751300000000005,-6.03674,-18.9504,-10.5312,145.888,-0.380037,0.301838,0.66363,263.2,7.0,52.1701,4.427219999999999,0.2,0.462105,272.459,4.42925,130.936,38.3829,197.128,0.965345,-0.0020118,239.743,4.33202,3.88587,-19.868576049804695,22.0009689331055,-19.3069858551025,22.0,99190.4,276.88,pp-riro,4,0,-1,-1
1570539451.9,2019-10-08,14:57:31.900,15.0,13.0,19.4500007629395,-13.9,19.9,10.2,-20.9,-15.5,152.3,-12.628,19.0035,9.72827,-3.09996,-8.016960000000001,-2.34531,-20.8494,-8.84026,149.13,-0.36057,-0.00814216,0.800788,263.2,7.0,52.1701,4.427219999999999,0.2,0.495904,288.902,4.42931,133.039,36.8629,195.928,0.956987,0.0127786,239.679,4.38432,3.93213,-19.5442962646484,22.0009689331055,35.0,22.0,99264.6,1045.99,pp-riro,4,0,-1,-1
1570539452.0,2019-10-08,14:57:32.000,15.0,13.0,19.7199993133545,-14.9,19.1,9.7,-22.0,-13.8,155.6,-12.628,19.0035,9.72827,-3.09996,-8.016960000000001,-2.34531,-20.8494,-8.84026,149.13,-0.36057,-0.00814216,0.800788,263.2,7.0,52.1701,4.427219999999999,0.2,0.661574,308.862,4.42937,135.025,35.7229,194.728,0.94858,0.02438,239.639,4.437209999999999,3.97386,-19.3155822753906,22.0025119781494,35.0,22.0,98607.9,-15720.7,pp-riro,4,0,-1,-1
1570539452.1,2019-10-08,14:57:32.100,15.0,11.0,19.8099994659424,-16.0,18.1,9.2,-22.8,-11.8,158.3,-13.6468,18.087,9.43341,-9.00548,-8.69079,-5.44162,-22.4817,-7.64715,152.412,-0.175214,-0.124774,0.476914,263.2,7.0,52.1701,4.427219999999999,0.2,0.912574,311.866,4.42943,136.894,33.8229,193.628,0.941357,0.0407363,239.532,4.4814,4.01896,-18.9520416259766,22.0025119781494,35.0,22.0,97466.1,-21504.4,pp-riro,4,0,-1,-1
1570539452.2,2019-10-08,14:57:32.200,15.0,10.0,19.8999996185303,-16.5,17.2,8.3,-23.6,-10.5,161.3,-13.6468,18.087,9.43341,-9.00548,-8.69079,-5.44162,-22.4817,-7.64715,152.412,-0.175214,-0.124774,0.476914,263.2,7.0,52.1701,4.427219999999999,0.2,1.25278,293.786,4.42949,138.64700000000002,32.3029,192.628,0.934345,0.0539933,239.524,4.52528,4.05574,-18.2317810058594,22.0019989013672,35.0,22.0,96672.4,10367.6,pp-riro,4,0,-1,-1
1570539452.3,2019-10-08,14:57:32.300,15.0,10.0,19.8999996185303,-16.7,16.0,7.5,-24.0,-9.0,163.9,-14.7447,17.2246,8.85086,-13.6234,-3.63377,-7.51122,-24.1465,-6.23861,155.512,-0.0778372,-0.0407503,0.593684,260.9,6.7,52.1701,4.427219999999999,0.2,0.99347,266.222,4.42955,140.341,30.4029,191.628,0.927712,0.0694964,239.46,4.56406,4.08866,-17.151390075683597,22.0025119781494,35.0,22.0,98396.7,9044.76,pp-riro,4,0,-1,-1
1570539452.4,2019-10-08,14:57:32.400,15.0,10.0,19.9400005340576,-17.3,14.9,7.2,-24.6,-7.4,166.0,-15.823,14.5818,7.1346300000000005,-3.12882,-11.7803,-0.76149,-25.7578,-3.4100900000000003,162.813,0.1940839999999999,-0.0452819,0.54862,260.9,6.7,52.1701,4.427219999999999,0.2,1.10207,283.207,4.42962,141.918,28.8829,190.728,0.921344,0.0819969,239.483,4.599530000000001,4.12606,-15.7228240966797,22.0025119781494,35.0,22.0,97776.6,-5568.37,pp-riro,4,0,-1,-1
1570539452.5,2019-10-08,14:57:32.500,15.0,10.0,20.0300006866455,-17.3,14.3,6.8,-24.7,-6.0,168.5,-16.2372,13.6732,6.847589999999999,0.272136,-8.83217,-4.00711,-26.1301,-2.25566,165.338,0.0859623,-0.0279694,0.459026,260.9,6.7,52.1701,4.427219999999999,0.2,1.07714,287.508,4.42968,143.349,27.3629,189.928,0.915633,0.0940958,239.521,4.63888,4.13885,-13.9460678100586,22.0025119781494,35.0,22.0,98649.6,3230.27,pp-riro,4,0,-1,-1
1570539452.6,2019-10-08,14:57:32.600,15.0,10.0,20.2000007629395,-17.6,13.8,6.5,-24.9,-4.6,170.7,-16.2372,13.6732,6.847589999999999,0.272136,-8.83217,-4.00711,-26.1301,-2.25566,165.338,0.0859623,-0.0279694,0.459026,260.9,6.7,52.1701,4.427219999999999,0.2,1.12035,294.122,4.42974,144.78,25.4629,189.228,0.910329,0.108555,239.618,4.67235,4.15431,-11.863800048828098,22.0019989013672,35.0,22.0,98730.4,2061.22,pp-riro,4,0,-1,-1
1570539452.7,2019-10-08,14:57:32.700,15.0,9.0,20.2000007629395,-18.0,13.3,6.4,-25.0,-3.0,171.8,-16.2372,13.6732,6.847589999999999,0.272136,-8.83217,-4.00711,-26.1301,-2.25566,165.338,0.0859623,-0.0279694,0.459026,260.9,6.7,52.1701,4.427219999999999,0.2,1.11315,304.273,4.42981,146.095,23.9428,188.428,0.904849,0.120142,239.629,4.6952,4.17061,-9.75763702392578,22.0019989013672,35.0,22.0,99091.9,2553.45,pp-riro,4,0,-1,-1
1570539452.8,2019-10-08,14:57:32.800,15.0,9.0,20.2000007629395,-18.1,12.8,6.2,-25.1,-2.1,173.5,-17.0748,11.8987,5.96725,2.36078,-2.3753900000000003,-4.90535,-27.3049,0.355551,173.123,0.0324303,-0.241812,0.465755,260.9,6.7,52.1701,4.427219999999999,0.2,1.12645,305.498,4.429869999999999,147.409,22.0428,187.728,0.89975,0.1340849999999999,239.702,4.71699,4.17955,-7.64806365966797,22.0025119781494,35.0,22.0,99143.9,953.699,pp-riro,4,0,-1,-1
1570539452.9,2019-10-08,14:57:32.900,15.0,10.0,20.1100006103516,-18.2,12.3,6.1,-25.4,-1.6,174.6,-17.0748,11.8987,5.96725,2.36078,-2.3753900000000003,-4.90535,-27.3049,0.355551,173.123,0.0324303,-0.241812,0.465755,260.9,6.7,52.1701,4.427219999999999,0.1,1.14141,310.22700000000003,4.429930000000001,148.577,20.1428,187.028,0.8950309999999999,0.147708,239.709,4.72652,4.18685,-5.53507232666016,22.0025119781494,35.0,22.0,99535.2,5106.9,pp-riro,4,0,-1,-1
1570539453.0,2019-10-08,14:57:33.000,15.0,10.0,20.1100006103516,-18.3,12.2,6.2,-26.3,-0.9,174.8,-17.4224,11.4761,5.79309,-6.20919,-5.34031,3.70967,-27.8312,0.481877,174.396,-0.106914,0.0533919999999999,0.20953,260.9,6.7,52.1701,4.427219999999999,0.1,1.14917,309.654,4.43,149.775,18.2428,186.228,0.8898659999999999,0.16119,239.679,4.72616,4.17915,-3.42208862304688,22.0025119781494,35.0,22.0,99900.6,2215.04,pp-riro,4,0,-1,-1
1570539453.1,2019-10-08,14:57:33.100,15.0,10.0,20.2000007629395,-18.2,12.2,6.4,-26.8,-0.7,175.1,-17.4224,11.4761,5.79309,-6.20919,-5.34031,3.70967,-27.8312,0.481877,174.396,-0.106914,0.0533919999999999,0.20953,260.9,6.7,52.1701,4.427219999999999,0.1,1.1475,305.449,4.43007,150.94299999999998,16.7228,185.528,0.8848370000000001,0.172013,239.758,4.72386,4.1634400000000005,-2.36900329589844,22.0019989013672,35.0,22.0,100171.0,5260.73,pp-riro,4,0,-1,-1
1570539453.2,2019-10-08,14:57:33.200,15.0,10.0,20.3299999237061,-18.4,12.4,6.8,-27.8,-1.1,175.1,-17.5234,11.3339,5.96597,0.463164,1.6017,1.45299,-28.6963,0.735958,174.892,-0.169622,-0.191117,0.00393265,260.9,6.7,52.1701,4.427219999999999,0.1,1.11537,305.403,4.43012,152.19899999999998,14.4427,184.628,0.879178,0.187658,239.709,4.70714,4.14187,0.783447265625,22.0019989013672,35.0,22.0,100710.0,1045.99,pp-riro,4,0,-1,-1
1570539453.3,2019-10-08,14:57:33.300,15.0,11.0,20.3700008392334,-18.6,12.6,7.2,-29.0,-1.8,174.3,-17.7499,11.567,6.16361,-2.6822,2.88364,3.24119,-29.9388,0.0299748,175.578,-0.079109,-0.2084099999999999,-0.0291383,264.1,7.8,52.1701,4.427219999999999,0.1,1.13698,312.471,4.43018,153.338,12.9227,183.828,0.87384,0.198159,239.734,4.68041,4.12475,1.83769226074219,22.0019989013672,35.0,22.0,100750.0,769.112,pp-riro,4,0,-1,-1
1570539453.4,2019-10-08,14:57:33.400,15.0,11.0,20.409999847412102,-18.7,12.8,7.8,-30.0,-3.2,173.1,-17.7499,11.567,6.16361,-2.6822,2.88364,3.24119,-29.9388,0.0299748,175.578,-0.079109,-0.2084099999999999,-0.0291383,264.1,7.8,52.1701,4.427219999999999,0.1,1.16246,331.066,4.43025,154.536,10.6427,183.028,0.8684370000000001,0.213382,239.779,4.63689,4.097180000000001,3.93936920166016,22.0025119781494,35.0,22.0,101020.0,2861.1,pp-riro,4,0,-1,-1
1570539453.5,2019-10-08,14:57:33.500,15.0,12.0,20.5799999237061,-18.9,13.4,8.8,-30.9,-5.2,171.5,-18.6772,12.1421,7.07365,-1.02695,7.57454,7.14017,-32.5788,-2.70825,174.94099999999997,-0.198699,-0.282539,-0.2594349999999999,264.1,7.8,52.1701,4.427219999999999,0.1,1.19848,354.311,4.43031,155.763,9.1227,182.128,0.8624229999999999,0.223578,239.824,4.58521,4.05898,6.04785919189453,22.0025119781494,35.0,22.0,101146.0,799.877,pp-riro,4,0,-1,-1
1570539453.6,2019-10-08,14:57:33.600,15.0,11.0,20.7999992370605,-18.8,13.9,9.9,-32.2,-7.8,169.4,-18.6772,12.1421,7.07365,-1.02695,7.57454,7.14017,-32.5788,-2.70825,174.94099999999997,-0.198699,-0.282539,-0.2594349999999999,264.1,7.8,52.1701,4.427219999999999,0.1,1.24835,375.227,4.43037,157.048,6.8426800000000005,181.028,0.855741,0.238473,239.754,4.51668,4.01152,8.15634918212891,22.003026962280305,35.0,22.0,101372.0,2861.1,pp-riro,4,0,-1,-1
1570539453.7,2019-10-08,14:57:33.700,15.0,10.0,21.2199993133545,-18.3,14.5,11.0,-33.0,-11.0,166.8,-19.4085,13.6508,9.74724,0.00260057,5.2992300000000006,12.4327,-35.6936,-9.59777,171.167,-0.1363049999999999,-0.4923909999999999,-0.664623,264.1,7.8,52.1701,4.427219999999999,0.1,1.26275,386.382,4.43044,158.362,4.94266,179.928,0.84882,0.250752,239.74400000000003,4.43702,3.95511,10.2614364624023,22.003026962280305,35.0,22.0,101774.0,3937.85,pp-riro,4,0,-1,-1
1570539453.8,2019-10-08,14:57:33.800,15.0,10.0,21.5900001525879,-17.3,15.5,12.3,-33.6,-14.6,163.6,-18.9545,14.5402,11.0506,8.82485,8.18805,12.1164,-36.6705,-13.9864,169.02,-0.173441,-0.284175,-0.895315,264.1,7.8,52.1701,4.427219999999999,0.1,1.27938,386.948,4.4305,159.764,3.42267,178.72799999999998,0.84125,0.26047,239.75,4.34745,3.87727,12.3665161132812,22.003026962280305,35.0,22.0,102147.0,4183.97,pp-riro,4,0,-1,-1
1570539453.9,2019-10-08,14:57:33.900,15.0,10.0,21.9099998474121,-16.0,16.4,13.9,-34.5,-18.3,160.5,-18.0173,15.5783,12.6048,12.5793,7.286510000000001,12.75,-37.2766,-18.3325,165.967,-0.320434,-0.361517,-0.928048,264.1,7.8,52.1701,4.427219999999999,0.0,1.26386,384.366,4.43056,161.254,1.90267,177.328,0.8328030000000001,0.270028,239.69,4.25897,3.79059,14.475006103515598,22.003026962280305,35.0,22.0,102743.0,6183.66,pp-riro,4,0,-1,-1
1570539454.0,2019-10-08,14:57:34.000,15.0,10.0,21.9899997711182,-14.1,17.4,15.2,-34.5,-22.2,156.6,-16.7003,16.7521,14.2361,16.7461,13.8301,15.8313,-37.847,-22.509,163.145,-0.2942059999999999,-0.311369,-0.786763,264.1,7.8,52.1701,4.427219999999999,0.0,1.26608,378.975,4.430619999999999,162.918,0.0026739,175.928,0.823772,0.281748,239.777,4.15767,3.68974,16.5800933837891,22.003026962280305,35.0,22.0,103151.0,3876.33,pp-riro,4,0,-1,-1
1570539454.1,2019-10-08,14:57:34.100,15.0,10.0,22.1100006103516,-12.5,18.5,16.5,-33.7,-26.0,151.1,-14.9224,18.1683,15.6184,17.9734,20.1982,19.9578,-38.1708,-26.5567,159.213,-0.0922255,-0.0122335999999999,-0.902744,264.1,7.8,52.1701,4.427219999999999,0.0,1.23394,372.81,4.43069,164.554,-1.1373,174.428,0.814505,0.288613,239.801,4.0426,3.60366,18.7039108276367,22.003026962280305,35.0,22.0,104051.0,4953.08,pp-riro,4,0,-1,-1
1570539454.2,2019-10-08,14:57:34.200,15.0,10.0,21.9899997711182,-10.6,19.2,18.0,-32.3,-29.8,145.6,-13.1985,19.3593,17.275,20.7958,11.4089,20.024,-37.4948,-31.0472,154.585,-0.35093,-0.246753,-0.994279,264.1,7.8,52.1701,4.427219999999999,0.0,1.27273,392.961,4.43075,166.365,-2.27727,172.828,0.8044020000000001,0.295326,239.9,3.93006,3.51453,20.8226165771484,22.0035419464111,35.0,22.0,104237.0,1722.81,pp-riro,4,0,-1,-1
1570539454.3,2019-10-08,14:57:34.300,15.0,10.0,21.7900009155273,-9.5,19.5,18.7,-31.1,-32.0,142.5,-12.3485,19.7868,18.1817,14.7197,7.046860000000001,15.4662,-36.9149,-33.9177,151.825,-0.244306,-0.234352,-1.2116,266.4,8.1,52.1701,4.427219999999999,0.0,1.2921200000000002,404.891,4.43081,167.27,-3.03726,171.928,0.799045,0.2997309999999999,239.891,3.86689,3.4666,22.939620971679695,22.0035419464111,35.0,22.0,104406.0,3230.27,pp-riro,4,0,-1,-1
1570539454.4,2019-10-08,14:57:34.400,15.0,11.0,21.6200008392334,-7.4,20.3,19.7,-28.2,-36.0,135.6,-10.121,20.8157,19.7316,14.3882,7.50715,15.1126,-35.2311,-38.5326,145.82,-0.117644,-0.128406,-1.26147,266.4,8.1,52.1701,4.427219999999999,0.0,1.31872,414.396,4.43091,169.14,-3.79722,170.128,0.788184,0.3039219999999999,239.929,3.74226,3.38135,25.0378952026367,22.0035419464111,35.0,22.0,104706.0,3261.04,pp-riro,4,0,-1,-1
1570539454.5,2019-10-08,14:57:34.500,15.0,11.0,21.5,-4.7,20.8,20.8,-22.8,-40.3,126.4,-7.67282,21.8007,21.1265,20.7162,11.4587,15.3347,-31.8224,-43.2835,138.19,-0.257972,-0.2295039999999999,-1.6660700000000002,266.4,8.1,52.1701,4.427219999999999,0.0,1.31705,420.734,4.43101,171.12599999999998,-4.17716,168.22799999999998,0.77671,0.30578,240.004,3.59439,3.28276,27.1429748535156,22.0035419464111,35.0,22.0,105555.0,5383.79,pp-riro,4,0,-1,-1
1570539454.6,2019-10-08,14:57:34.600,15.0,13.0,21.5699996948242,-1.7,21.0,21.5,-15.9,-44.3,115.5,-4.82038,22.4384,22.3053,32.162,6.62052,11.3735,-26.8599,-48.7534,129.19,-0.25166,-0.399176,-1.28815,266.4,8.1,52.1701,4.427219999999999,0.0,1.32703,427.612,4.431109999999999,173.17,-4.5571,166.22799999999998,0.7647729999999999,0.307585,240.084,3.4369,3.17971,29.25146484375,22.004056930542003,35.0,22.0,105694.0,2645.75,pp-riro,4,0,-1,-1
1570539454.7,2019-10-08,14:57:34.700,15.0,12.0,21.7399997711182,1.3,20.9,22.1,-7.4,-46.6,103.1,-3.18052,22.5978,22.8045,23.8078,7.02302,8.41508,-23.1697,-51.7631,123.64,-0.401677,-0.397549,-1.63344,266.4,8.1,52.1701,4.427219999999999,0.0,1.36526,444.534,4.43121,175.15599999999998,-4.55702,164.22799999999998,0.753039,0.307186,240.148,3.28031,3.08102,31.080642700195305,22.004056930542003,23.018762588501,22.0,106388.0,5845.25,pp-riro,4,0,-1,-1
1570539454.8,2019-10-08,14:57:34.800,15.0,13.0,21.850000381469695,4.7,20.5,22.2,1.2,-47.6,90.8,2.35219,22.77,23.849,41.3911,-5.22206,4.27902,-8.80775,-56.2938,102.623,-0.402892,0.0316307,-1.44814,266.4,8.1,52.1701,4.427219999999999,0.0,1.37025,445.706,4.43131,177.142,-4.55695,162.22799999999998,0.741314,0.306794,240.246,3.13367,2.96987,32.576004028320305,22.004056930542003,23.018762588501,22.0,106619.0,4614.67,pp-ro,1,1,-1,-1
1570539454.9,2019-10-08,14:57:34.900,15.0,12.0,21.969999313354503,7.9,19.8,21.9,11.0,-47.0,77.4,6.16549,22.5562,23.8964,28.577,-2.06931,2.3121,3.59682,-57.6139,85.8618,-0.305674,-0.1082,-1.71151,266.4,8.1,52.1701,4.42721,0.0,1.38077,449.958,4.43141,179.157,-3.79686,160.028,0.728947,0.302165,240.251,2.97802,2.86596,33.7068939208984,22.004056930542003,23.018762588501,22.0,107226.0,6922.01,pp-ro,1,1,-1,-1
1570539455.0,2019-10-08,14:57:35.000,15.0,13.0,21.9300003051758,10.9,18.8,21.4,20.7,-45.2,64.0,9.69581,21.8134,23.3631,38.4027,-18.6592,-7.669010000000001,16.4042,-56.7285,68.7781,-0.7089300000000001,0.0060605,-1.58554,266.4,8.1,52.1701,4.42721,0.0,1.3885299999999998,462.483,4.43155,181.027,-3.03677,158.028,0.717599,0.297612,240.318,2.81641,2.7650900000000003,34.4801177978516,22.004571914672898,23.0211448669434,22.0,107722.0,3876.33,pp-ro,1,1,-1,-1
1570539455.1,2019-10-08,14:57:35.100,15.0,14.0,21.8400001525879,13.9,17.6,20.6,29.2,-41.7,51.5,9.69581,21.8134,23.3631,38.4027,-18.6592,-7.669010000000001,16.4042,-56.7285,68.7781,-0.7089300000000001,0.0060605,-1.58554,266.4,8.1,52.1701,4.42721,0.0,1.41845,475.57,4.43161,182.808,-2.2766900000000003,155.928,0.70617,0.293228,240.286,2.64998,2.65952,34.899093627929695,22.004571914672898,23.0211448669434,22.0,108572.0,7291.18,pp-ro,1,1,-1,-1
1570539455.2,2019-10-08,14:57:35.200,15.0,15.0,21.8799991607666,16.7,16.0,19.4,35.5,-37.6,41.0,17.0107,19.1803,21.6336,33.6514,-18.0985,-19.4817,36.1426,-49.4025,39.2966,-0.427217,-0.0837704,-1.4385,266.4,8.1,52.1701,4.42721,0.0,1.44172,487.366,4.43171,184.473,-0.376581,154.02700000000002,0.695696,0.2827159999999999,240.322,2.49931,2.55406,34.9638061523438,22.0050868988037,23.0235271453857,22.0,109062.0,4583.91,pp-ro,1,1,-1,-1
1570539455.3,2019-10-08,14:57:35.300,15.0,15.0,21.9599990844727,19.2,14.3,17.9,40.9,-32.7,32.0,17.0107,19.1803,21.6336,33.6514,-18.0985,-19.4817,36.1426,-49.4025,39.2966,-0.427217,-0.0837704,-1.4385,256.2,7.0,52.1701,4.42721,0.0,1.45613,495.145,4.43181,185.992,1.14351,152.127,0.685567,0.274426,240.285,2.35081,2.44792,34.710037231445305,22.0050868988037,23.0235271453857,22.0,109687.0,6614.37,pp-ro,1,1,-1,-1
1570539455.4,2019-10-08,14:57:35.400,15.0,15.0,22.2000007629395,21.1,12.4,16.2,45.0,-27.8,24.0,22.7999,15.3016,18.123,25.0947,-22.3416,-19.9139,46.5888,-38.1378,19.2923,0.0400125,0.0146110999999999,-1.35179,256.2,7.0,52.1701,4.42721,0.0,1.46167,494.711,4.43186,187.364,3.04361,150.42700000000002,0.676419,0.264282,240.298,2.2107,2.3492900000000003,34.049224853515604,22.0050868988037,22.8165111541748,22.0,110007.0,6429.78,pp-ro,1,1,-1,-1
1570539455.5,2019-10-08,14:57:35.500,15.0,15.0,22.2700004577637,22.6,10.6,14.1,48.1,-22.0,16.9,24.7791,13.1458,15.7333,17.4259,-19.3691,-26.5864,49.5197,-31.8063,11.2362,-0.0988844,-0.144748,-1.47496,256.2,7.0,52.1701,4.42721,0.0,1.45225,487.854,4.43191,188.532,4.94369,149.02700000000002,0.66873,0.25426,240.371,2.0662,2.24958,33.030731201171896,22.0056018829346,21.0672378540039,22.0,110805.0,8583.29,pp-ro,1,1,-1,-1
1570539455.6,2019-10-08,14:57:35.600,15.0,15.0,22.350000381469695,23.5,8.5,11.7,50.5,-16.6,10.8,24.7791,13.1458,15.7333,17.4259,-19.3691,-26.5864,49.5197,-31.8063,11.2362,-0.0988844,-0.144748,-1.47496,256.2,7.0,52.1701,4.42721,0.0,1.42399,470.083,4.43196,189.525,7.22378,147.727,0.6617390000000001,0.24233,240.407,1.9365900000000005,2.14554,31.6477966308594,22.0050868988037,19.2128639221191,22.0,111951.0,8091.06,pp-ro,1,1,-1,-1
1570539455.7,2019-10-08,14:57:35.700,15.0,14.0,22.350000381469695,24.1,6.9,9.5,52.1,-10.9,5.5,24.7791,13.1458,15.7333,17.4259,-19.3691,-26.5864,49.5197,-31.8063,11.2362,-0.0988844,-0.144748,-1.47496,256.2,7.0,52.1701,4.42721,0.0,1.4046,465.312,4.43201,190.372,9.88387,146.727,0.655992,0.22853,240.558,1.81119,2.05575,29.4302978515625,22.0050868988037,17.608907699585,22.0,112663.0,6183.66,pp-ro,1,1,-1,-1
1570539455.8,2019-10-08,14:57:35.800,15.0,15.0,22.350000381469695,24.5,5.1,7.7,53.3,-5.2,0.8,27.3119,7.93284,9.39059,9.48551,-20.4709,-20.1572,52.0212,-15.6325,-2.7178400000000003,0.180438,0.123982,-1.35672,256.2,7.0,52.1701,4.42721,0.0,1.40959,467.027,4.43206,191.073,11.7839,145.92700000000002,0.651313,0.218734,240.713,1.68872,1.96791,27.3405456542969,22.0050868988037,16.0169162750244,22.0,112945.0,5568.37,pp-ro,1,1,-1,-1
1570539455.9,2019-10-08,14:57:35.900,15.0,15.0,22.2700004577637,25.0,3.9,5.6,54.4,-0.1,-3.9,27.7526,5.81314,7.467119999999999,4.2971,-7.4512,-18.6463,52.3917,-10.1733,-7.386819999999999,-0.308311,-0.287126,-1.52067,256.2,7.0,52.1701,4.42721,0.0,1.4156799999999998,475.112,4.43211,191.715,14.444,145.227,0.646932,0.2050809999999999,240.945,1.57649,1.88274,25.238868713378896,22.0050868988037,14.4767684936523,22.0,113555.0,5845.25,pp-ro,1,1,-1,-1
1570539456.0,2019-10-08,14:57:36.000,15.0,15.0,22.190000534057603,25.4,2.4,3.7,55.1,4.8,-8.0,28.194000000000003,4.29244,5.04131,5.48703,-14.4976,-15.4329,52.591,-3.64083,-11.5657,-0.173254,0.0152679,-1.4038,256.2,7.0,52.1701,4.42721,0.0,1.43895,482.572,4.43216,192.183,17.1041,144.727,0.64357,0.191465,241.19,1.4733,1.79593,23.1388931274414,22.0056018829346,12.8770141601562,22.0,114036.0,5599.14,pp-ro,1,1,-1,-1
1570539456.1,2019-10-08,14:57:36.100,15.0,14.0,22.149999618530305,25.2,1.1,2.0,55.9,8.9,-11.7,28.0222,2.44269,2.90511,-7.76427,-22.4034,-34.0792,52.5108,1.7370599999999998,-15.7846,0.0819796,-0.0247255999999999,-0.908055,256.2,7.0,52.1701,4.42721,0.0,1.47386,514.993,4.43221,192.562,19.3842,144.227,0.6404380000000001,0.179855,241.366,1.38444,1.72052,21.5617828369141,22.0056018829346,11.5032644271851,22.0,114779.0,2522.69,pp-ro,1,1,-1,-1
1570539456.2,2019-10-08,14:57:36.200,15.0,13.0,22.2999992370605,24.9,0.0,0.3,56.5,12.7,-15.7,28.0222,2.44269,2.90511,-7.76427,-22.4034,-34.0792,52.5108,1.7370599999999998,-15.7846,0.0819796,-0.0247255999999999,-0.908055,256.2,7.0,52.1701,4.42721,0.0,1.50821,529.052,4.432259999999999,192.767,22.0442,143.928,0.6382369999999999,0.16627,241.578,1.29817,1.64851,19.9744491577148,22.0056018829346,10.174334526062,22.0,114946.0,3230.27,pp-ro,1,1,-1,-1
1570539456.3,2019-10-08,14:57:36.300,15.0,13.0,22.4200000762939,24.5,-1.8,-1.2,56.6,15.8,-19.2,28.1607,1.68025,1.96129,-8.95405,-9.73627,-17.9902,52.7811,4.23531,-17.820999999999998,0.413513,-0.0377493,-0.843447,257.3,6.3,52.1701,4.42721,0.0,1.54589,549.857,4.43231,192.883,24.7043,143.72799999999998,0.636498,0.152698,241.81,1.22716,1.56361,17.327766418457,22.0056018829346,8.57895755767822,22.0,115618.0,7045.07,pp-ro,1,1,-1,-1
1570539456.4,2019-10-08,14:57:36.400,15.0,14.0,22.6100006103516,23.3,-2.9,-2.8,56.4,17.7,-22.3,25.5105,-2.92582,-3.72117,-11.3751,-3.16048,-12.327,52.2512,15.0855,-27.9713,0.0577837,0.0663088999999999,-1.03808,257.3,6.3,52.1701,4.42721,0.0,1.56916,554.602,4.43236,192.766,26.6043,143.628,0.635835,0.142879,241.859,1.17479,1.48298,15.2908096313477,22.0066318511963,7.02243947982788,22.0,116274.0,7598.83,pp-ro,1,1,-1,-1
1570539456.5,2019-10-08,14:57:36.500,15.0,11.0,22.649999618530305,22.7,-3.8,-3.8,56.7,19.6,-24.6,25.5105,-2.92582,-3.72117,-11.3751,-3.16048,-12.327,52.2512,15.0855,-27.9713,0.0577837,0.0663088999999999,-1.03808,257.3,6.3,52.1701,4.42721,0.0,1.55309,544.349,4.4324,192.649,29.2644,143.628,0.6351829999999999,0.129237,242.072,1.1332,1.42985,13.3492279052734,22.0056018829346,6.03408479690552,22.0,117279.0,9629.29,pp-ro,1,1,-1,-1
1570539456.6,2019-10-08,14:57:36.600,15.0,12.0,22.7700004577637,22.0,-4.4,-4.7,56.4,21.5,-27.8,24.3385,-4.08539,-4.87162,-6.21329,-13.6202,-6.08222,52.072,18.4483,-29.7925,-0.0135652999999999,0.0853975,-0.6315470000000001,257.3,6.3,52.1701,4.42721,0.0,1.53315,538.232,4.43245,192.357,31.9244,143.828,0.6355310000000001,0.115477,242.295,1.08247,1.38474,11.4178619384766,22.0061168670654,5.17261648178101,22.0,118202.0,9352.4,pp-ro,1,1,-1,-1
1570539456.7,2019-10-08,14:57:36.700,15.0,13.0,22.8899993896484,21.5,-5.5,-5.5,55.5,22.8,-30.8,23.7414,-4.778169999999999,-6.061,-12.0197,-10.4009,-10.4017,51.9884,21.2787,-32.3722,-0.0741672,-0.0180599,-0.621911,257.3,6.3,52.1701,4.42721,0.0,1.55143,551.6030000000001,4.4324900000000005,191.978,33.8245,144.128,0.636659,0.105496,242.43,1.03961,1.33038,9.62956237792969,22.0061168670654,4.08166790008545,22.0,119244.0,7352.71,pp-ro,1,1,-1,-1
1570539456.8,2019-10-08,14:57:36.800,15.0,13.0,22.969999313354503,20.8,-6.2,-6.1,54.8,24.7,-33.4,22.545,-6.23773,-7.22571,-2.80408,-4.42875,-8.78715,50.9676,24.3698,-35.9226,0.100485,0.0172292,-0.492745,257.3,6.3,52.1701,4.42721,0.0,1.5719299999999998,559.061,4.43254,191.452,36.1045,144.428,0.637919,0.0934553,242.521,0.994462,1.28972,7.95537567138672,22.0061168670654,3.27099609375,22.0,119881.0,5568.37,pp-ro,1,1,-1,-1
1570539456.9,2019-10-08,14:57:36.900,15.0,13.0,22.8899993896484,20.4,-6.9,-6.6,53.6,25.9,-36.2,22.545,-6.23773,-7.22571,-2.80408,-4.42875,-8.78715,50.9676,24.3698,-35.9226,0.100485,0.0172292,-0.492745,257.3,6.3,52.1701,4.42721,0.1,1.58024,552.628,4.43259,190.897,38.3845,144.72799999999998,0.63918,0.0813735,242.613,0.956427,1.25692,6.42765808105469,22.0056018829346,2.62161755561829,22.0,120350.0,8860.17,pp-ro,1,1,-1,-1
1570539457.0,2019-10-08,14:57:37.000,15.0,13.0,22.7000007629395,19.8,-7.2,-7.1,53.0,25.8,-39.2,21.5124,-7.135089999999999,-8.106060000000001,-0.272647,-2.51987,0.844728,49.6509,26.9374,-39.4697,-0.0614545999999999,-0.305378,-0.595308,257.3,6.3,52.1701,4.42721,0.1,1.53093,534.5169999999999,4.4326300000000005,190.225,40.2845,145.22799999999998,0.6415069999999999,0.0710656,242.692,0.931313,1.22786,5.078765869140621,22.0056018829346,1.99067401885986,22.0,121570.0,12275.0,pp-ro,1,1,-1,-1
1570539457.1,2019-10-08,14:57:37.100,15.0,14.0,22.6599998474121,19.4,-7.6,-7.2,51.8,26.6,-41.8,20.7264,-7.8467,-8.59906,-5.70335,-2.75082,-9.66705,48.8286,28.226,-43.1432,-0.179567,-0.343456,-0.528787,257.3,6.3,52.1701,4.42721,0.1,1.53038,541.872,4.43268,189.495,42.5646,145.72799999999998,0.643717,0.0587547,242.81,0.90022,1.2148,3.91211700439453,22.0066318511963,1.69765782356262,22.0,122658.0,6429.78,pp-ro,1,1,-1,-1
1570539457.2,2019-10-08,14:57:37.200,15.0,13.0,22.7000007629395,18.5,-7.8,-7.4,50.5,27.2,-44.1,20.7264,-7.8467,-8.59906,-5.70335,-2.75082,-9.66705,48.8286,28.226,-43.1432,-0.179567,-0.343456,-0.528787,257.3,6.3,52.1701,4.42721,0.1,1.5614,548.187,4.43274,188.735,44.4646,146.22799999999998,0.6461399999999999,0.0482788,242.859,0.873624,1.18999,2.9055633544921897,22.0061168670654,1.1491459608078,22.0,123285.0,6183.66,pp-ro,1,1,-1,-1
1570539457.3,2019-10-08,14:57:37.300,15.0,13.0,22.780000686645497,17.9,-8.3,-7.3,50.0,27.7,-46.0,19.799,-8.093069999999999,-8.63911,-10.9826,-4.14426,-6.76345,47.9772,28.8788,-44.7772,0.0289679,-0.0958962,-0.168591,264.3,7.7,52.1701,4.42721,0.1,1.5298200000000002,523.34,4.43277,187.917,46.3646,146.828,0.648979,0.0377175,242.942,0.8527049999999999,1.1749,2.1118927001953103,22.0061168670654,0.7745822072029109,22.0,124425.0,12336.6,pp-ro,1,1,-1,-1
1570539457.4,2019-10-08,14:57:37.400,15.0,12.0,22.969999313354503,17.4,-8.1,-7.4,49.0,28.6,-47.9,18.8887,-8.61974,-8.80649,-6.15046,2.83717,0.444975,46.9742,30.6933,-47.3899,0.0495377,-0.153612,-0.338973,264.3,7.7,52.1701,4.42721,0.1,1.49879,507.0580000000001,4.432869999999999,187.1,47.8846,147.428,0.651998,0.0289664,242.969,0.8258129999999999,1.16856,1.6009521484375,22.0061168670654,0.551736891269684,22.0,125039.0,11752.0,pp-ro,1,1,-1,-1
1570539457.5,2019-10-08,14:57:37.500,15.0,11.0,23.0900001525879,16.7,-8.3,-7.3,48.1,29.1,-49.5,18.2548,-8.42187,-8.7035,-4.65425,-0.576227,-1.52772,46.5182,31.6513,-48.6655,0.0785916999999999,-0.0242562999999999,-0.271186,264.3,7.7,52.1701,4.42721,0.1,1.44616,488.475,4.43297,186.282,49.7846,148.028,0.654734,0.0182725,243.088,0.808385,1.15602,1.04402923583984,22.0050868988037,0.231138169765472,22.0,125977.0,8152.59,pp-ro,1,1,-1,-1
1570539457.6,2019-10-08,14:57:37.600,15.0,13.0,22.969999313354503,16.0,-8.2,-7.3,47.3,29.3,-51.0,17.5228,-8.681189999999999,-8.3668,-8.41313,-0.165877,-1.13059,46.249,31.7918,-50.0193,-0.0213648,-0.2091179999999999,-0.323997,264.3,7.7,52.1701,4.42721,0.1,1.44117,477.165,4.43306,185.46400000000003,51.3046,148.72799999999998,0.657995,0.00944799,243.206,0.794255,1.14431,0.636978149414062,22.0050868988037,-0.116740331053734,22.0,126654.0,6952.77,pp-ro,1,1,-1,-1
1570539457.7,2019-10-08,14:57:37.700,15.0,14.0,22.7000007629395,15.4,-8.3,-7.4,46.4,29.6,-52.1,16.8892,-8.65049,-8.38786,-11.069,0.186975,-0.9862,45.4223,32.4502,-51.349,-0.0853398,-0.157281,-0.134233,264.3,7.7,52.1701,4.42721,0.1,1.39296,458.226,4.43316,184.588,53.2047,149.428,0.661092,-0.00139636,243.376,0.784985,1.12744,0.292938232421875,22.0050868988037,-0.547049641609192,22.0,127896.0,6952.77,pp-ro,1,1,-1,-1
1570539457.8,2019-10-08,14:57:37.800,15.0,14.0,22.3899993896484,14.9,-8.3,-7.2,45.9,30.0,-53.4,16.6034,-8.59079,-8.442039999999999,-8.36543,4.76241,0.4212149999999999,45.3596,32.4639,-51.6108,0.0304709999999999,-0.0820643,-0.111329,264.3,7.7,52.1701,4.42721,0.1,1.39407,457.51,4.43325,183.741,54.7247,150.128,0.664333,-0.0103342,243.503,0.7709779999999999,1.12527,0.030654907226563,22.0056018829346,-0.709256947040558,22.0,128197.0,5752.96,pp-ro,1,1,-1,-1
1570539457.9,2019-10-08,14:57:37.900,15.0,14.0,22.0400009155273,14.4,-8.4,-6.9,45.3,30.7,-54.6,16.3209,-8.651760000000001,-8.42038,-8.648660000000001,2.5813900000000003,-1.98993,45.2864,32.5247,-52.1187,0.184156,-0.151523,-0.0795804,264.3,7.7,52.1701,4.42721,0.2,1.40017,460.6830000000001,4.43335,182.835,55.8647,150.928,0.66828,-0.0174964,243.575,0.753633,1.12339,-0.436935424804688,22.0056018829346,-0.9265434145927428,22.0,128987.0,4399.32,pp-ro,1,1,-1,-1
1570539458.0,2019-10-08,14:57:38.000,15.0,15.0,21.760000228881804,13.9,-8.3,-7.0,44.9,31.0,-55.7,15.6624,-8.989189999999999,-7.80939,-1.6990599999999998,-2.16669,6.70302,44.1132,33.8046,-54.6124,-0.0204846,0.200561,-0.2928409999999999,264.3,7.7,52.1701,4.42721,0.2,1.40349,451.244,4.43344,181.988,57.3847,151.628,0.671445,-0.0265075,243.729,0.74321,1.1108,-0.80389404296875,22.0056018829346,-1.3023175001144398,22.0,129312.0,6429.78,pp-ro,1,1,-1,-1
1570539458.1,2019-10-08,14:57:38.100,15.0,15.0,21.4300003051758,13.3,-8.2,-7.0,43.7,31.5,-57.3,15.0286,-8.775310000000001,-7.73532,-0.21248,-4.60426,-5.18257,43.4954,34.2569,-55.5058,0.133326,0.13713,-0.173028,264.3,7.7,52.1701,4.42721,0.2,1.32481,419.619,4.43354,181.112,58.9047,152.428,0.674959,-0.0355987,243.938,0.724767,1.09795,-1.01723480224609,22.0056018829346,-1.70955049991608,22.0,130636.0,6829.72,pp-ro,1,1,-1,-1
1570539458.2,2019-10-08,14:57:38.200,15.0,15.0,21.1399993896484,12.9,-8.2,-7.0,42.9,32.0,-58.7,14.5496,-8.92786,-7.59651,-3.99332,-0.264851,3.3194800000000004,43.0688,34.3687,-57.0532,0.183499,-0.0704128999999999,-0.192241,264.3,7.7,52.1701,4.42721,0.2,1.3253700000000002,415.583,4.43363,180.206,60.4247,153.22799999999998,0.6784979999999999,-0.0447727,244.14,0.7087979999999999,1.08918,-1.3995590209960902,22.0050868988037,-2.04285621643066,22.0,131118.0,4706.97,pp-ro,1,1,-1,-1
1570539458.3,2019-10-08,14:57:38.300,15.0,15.0,20.8899993896484,12.6,-8.5,-6.9,42.5,31.4,-60.0,14.0322,-8.953,-7.32793,-2.13113,2.2247,2.43399,41.9713,34.1344,-58.9657,-0.0753009999999999,-0.202606,-0.335469,265.4,8.0,52.1701,4.42721,0.2,1.31096,406.426,4.433730000000001,179.301,61.5647,154.028,0.682309,-0.0520884999999999,244.262,0.704142,1.07997,-1.8074722290039096,22.004571914672898,-2.42579221725464,22.0,131735.0,6429.78,pp-ro,1,1,-1,-1
1570539458.4,2019-10-08,14:57:38.400,15.0,15.0,20.6800003051758,12.1,-8.5,-6.8,42.2,30.9,-61.0,13.5023,-9.22488,-7.143730000000001,-0.207798,0.553659,-1.4689299999999998,41.4597,33.7168,-60.6991,0.00363552,-0.125988,-0.092372,265.4,8.0,52.1701,4.42721,0.2,1.29267,397.667,4.43384,178.396,62.7047,154.72799999999998,0.685775,-0.0593984,244.331,0.701914,1.0695,-2.02764892578125,22.004571914672898,-2.81815910339355,22.0,132334.0,6152.9,pp-ro,1,1,-1,-1
1570539458.5,2019-10-08,14:57:38.500,15.0,15.0,20.5599994659424,11.8,-8.3,-6.5,41.6,31.0,-62.4,13.1646,-9.03927,-6.8864,-1.76773,4.19,2.94986,41.5144,33.433,-61.6837,0.108377,-0.17179,-0.179818,265.4,8.0,52.1701,4.42721,0.2,1.28215,393.34,4.43394,177.519,63.8447,155.428,0.689141,-0.0667985,244.432,0.688517,1.07952,-2.2836685180664102,22.004571914672898,-2.80080699920654,22.0,132617.0,5260.73,pp-ro,1,1,-1,-1
1570539458.6,2019-10-08,14:57:38.600,15.0,16.0,20.3799991607666,11.6,-8.1,-6.4,41.5,31.4,-63.3,12.9599,-9.02007,-6.701010000000001,-2.81633,2.6308,2.78549,41.3525,33.5294,-62.3058,0.0818318,-0.272814,-0.127857,265.4,8.0,52.1701,4.42721,0.2,1.27328,377.095,4.43405,176.672,64.9847,156.22799999999998,0.692721,-0.0741263,244.629,0.678236,1.08513,-2.66598510742188,22.004571914672898,-2.89636015892029,22.0,133131.0,5968.31,pp-ro,1,1,-1,-1
1570539458.7,2019-10-08,14:57:38.700,15.0,15.0,20.2099990844727,11.3,-7.9,-6.2,41.2,31.4,-63.8,12.835,-8.85717,-6.56302,2.01386,0.492345,1.00571,41.2731,33.1778,-63.1359,-0.00010129,-0.081522,-0.209563,265.4,8.0,52.1701,4.42721,0.2,1.22674,364.283,4.43415,175.767,66.1247,156.928,0.6961,-0.0815939,244.73,0.6770229999999999,1.0912,-2.8110580444335898,22.004571914672898,-2.97567248344421,22.0,133824.0,5937.55,pp-ro,1,1,-1,-1
1570539458.8,2019-10-08,14:57:38.800,15.0,15.0,20.0799999237061,11.3,-7.9,-6.3,41.2,31.6,-64.4,12.5796,-8.83587,-6.2873,-6.39689,5.28721,-1.33297,41.1421,33.5621,-63.6599,-0.176029,-0.0578261,-0.0757443999999999,265.4,8.0,52.1701,4.42721,0.2,1.2261799999999998,354.54400000000004,4.43426,174.97799999999998,67.2647,157.628,0.699162,-0.0888733999999999,244.926,0.672492,1.09131,-2.9441909790039102,22.004056930542003,-3.15957403182983,22.0,134153.0,3045.68,pp-ro,1,1,-1,-1
1570539458.9,2019-10-08,14:57:38.900,15.0,14.0,19.9899997711182,11.3,-8.2,-6.3,41.7,31.9,-64.3,12.3603,-8.74055,-6.250030000000001,-1.64976,-1.21139,4.2011,41.1761,34.3801,-63.8923,-0.1526269999999999,0.000945191,-0.14506,265.4,8.0,52.1701,4.42721,0.4,1.19737,341.039,4.43437,174.07299999999998,68.4047,158.328,0.70248,-0.0964058,245.048,0.6758109999999999,1.08891,-3.0551300048828103,22.004056930542003,-3.4216525554657,22.0,134820.0,7475.77,pp-ro,1,1,-1,-1
1570539459.0,2019-10-08,14:57:39.000,15.0,14.0,19.9500007629395,11.2,-8.3,-6.4,41.7,30.8,-65.1,12.3615,-8.866480000000001,-6.18458,-0.912678,-0.0933674,5.09141,41.2463,34.5543,-63.8896,-0.227592,-0.130941,0.00916865,265.4,8.0,52.1701,4.42721,0.4,1.1840700000000002,346.629,4.43447,173.226,69.5447,159.029,0.705624,-0.1038559999999999,245.222,0.68171,1.08267,-3.28042602539062,22.004056930542003,-3.7565314769744895,22.0,135113.0,1199.82,pp-ro,1,1,-1,-1
1570539459.1,2019-10-08,14:57:39.100,15.0,14.0,19.909999847412102,11.2,-8.2,-6.0,41.7,30.3,-65.1,12.3197,-8.91043,-6.18921,-3.23845,-0.291836,-1.55839,40.9761,34.4323,-63.9586,-0.0563666999999999,-0.0364791999999999,0.0309341,265.4,8.0,52.1701,4.42721,0.4,1.2261799999999998,360.472,4.43458,172.35,70.3047,159.72899999999998,0.70919,-0.1095049999999999,245.276,0.690342,1.1066,-3.41696166992188,22.004056930542003,-3.5480508804321302,22.0,135365.0,4183.97,pp-ro,1,1,-1,-1
1570539459.2,2019-10-08,14:57:39.200,15.0,14.0,19.909999847412102,11.1,-8.3,-5.9,41.8,29.8,-65.2,12.1586,-9.0303,-5.69205,-3.87913,3.36506,4.90859,41.1748,33.2293,-64.6426,0.0576067,-0.00955972,-0.0326786,265.4,8.0,52.1701,4.42721,0.4,1.23671,357.311,4.43471,171.503,71.8247,160.329,0.711581,-0.118921,245.514,0.700535,1.11041,-3.62519073486328,22.004056930542003,-3.62302875518799,22.0,135880.0,3630.21,pp-ro,1,1,-1,-1
1570539459.3,2019-10-08,14:57:39.300,15.0,14.0,19.8700008392334,11.1,-8.1,-5.9,41.9,29.2,-65.6,12.1586,-9.0303,-5.69205,-3.87913,3.36506,4.90859,41.1748,33.2293,-64.6426,0.0576067,-0.00955972,-0.0326786,263.0,7.9,52.1701,4.42721,0.4,1.22729,350.696,4.4347900000000005,170.65599999999998,72.5847,161.029,0.715029,-0.124551,245.606,0.7051430000000001,1.11911,-3.65591430664062,22.004571914672898,-3.73243403434753,22.0,136235.0,7075.83,pp-ro,1,1,-1,-1
1570539459.4,2019-10-08,14:57:39.400,15.0,13.0,19.909999847412102,11.1,-8.2,-5.7,42.2,28.9,-65.3,12.1586,-9.0303,-5.69205,-3.87913,3.36506,4.90859,41.1748,33.2293,-64.6426,0.0576067,-0.00955972,-0.0326786,263.0,7.9,52.1701,4.42721,0.4,1.1874,347.23900000000003,4.434880000000001,169.77900000000002,73.7247,161.629,0.71782,-0.132158,245.732,0.717174,1.13069,-3.6798095703125,22.004571914672898,-3.7221782207489,22.0,136775.0,3660.97,pp-ro,1,1,-1,-1
1570539459.5,2019-10-08,14:57:39.500,15.0,13.0,19.8700008392334,11.2,-8.2,-5.3,42.5,28.5,-65.4,11.9853,-8.77921,-5.39889,-2.71294,-1.2890700000000002,3.5645800000000003,41.4458,31.6569,-64.7624,0.0618554999999999,0.161022,0.0625365,263.0,7.9,52.1701,4.42721,0.4,1.21676,352.28,4.43496,168.93200000000002,74.8648,162.129,0.720202,-0.13973,245.822,0.7251449999999999,1.15825,-3.72930908203125,22.0035419464111,-3.3631291389465297,22.0,137250.0,4922.32,pp-ro,1,1,-1,-1
1570539459.6,2019-10-08,14:57:39.600,15.0,13.0,19.8700008392334,11.3,-8.0,-5.2,43.4,27.9,-64.9,11.9989,-8.85015,-4.90637,-0.753404,0.6800609999999999,3.66736,42.092,31.0377,-64.8422,-0.0341889,-0.0567347,0.208151,263.0,7.9,52.1701,4.42721,0.4,1.19793,345.082,4.43505,168.085,76.0048,162.72899999999998,0.722859,-0.1473269999999999,245.988,0.742786,1.17737,-3.70882415771484,22.004056930542003,-3.2119066715240496,22.0,137690.0,3937.85,pp-ro,1,1,-1,-1
1570539459.7,2019-10-08,14:57:39.700,15.0,13.0,19.8199996948242,11.4,-8.0,-5.1,43.5,27.6,-64.7,12.1131,-8.67179,-4.7518400000000005,2.21628,-1.2713299999999998,1.45053,42.3573,30.6284,-64.6736,0.0979613999999999,-0.0451221,0.2248869999999999,263.0,7.9,52.1701,4.42721,0.4,1.19737,343.146,4.4351400000000005,167.64700000000002,76.3848,163.029,0.724424,-0.150272,246.005,0.750321,1.18809,-3.58251953125,22.004056930542003,-3.14744019508362,22.0,137904.0,3907.09,pp-ro,1,1,-1,-1
1570539459.8,2019-10-08,14:57:39.800,15.0,13.0,19.6900005340576,11.5,-8.1,-4.9,43.9,27.6,-64.1,12.1872,-8.71064,-4.53345,2.33114,-2.5761,-1.19518,42.575,29.9812,-64.669,0.29627,-0.121582,0.24306,263.0,7.9,52.1701,4.42721,0.4,1.19183,344.759,4.435219999999999,166.829,77.5248,163.529,0.7266630000000001,-0.157841,246.138,0.763196,1.2037,-3.2923736572265603,22.004571914672898,-3.0408735275268595,22.0,138494.0,3599.45,pp-ro,1,1,-1,-1
1570539459.9,2019-10-08,14:57:39.900,15.0,14.0,19.6499996185303,11.6,-8.1,-4.8,44.5,27.0,-63.6,12.2243,-8.7707,-4.28651,1.42669,1.04401,3.70474,43.3284,29.5558,-64.0352,0.0777962,0.0446623,0.166916,263.0,7.9,52.1701,4.42721,0.6,1.19682,345.497,4.43533,165.982,79.0448,164.02900000000002,0.7285020000000001,-0.167384,246.381,0.7823869999999999,1.21854,-3.16606903076172,22.004056930542003,-2.90625858306885,22.0,138631.0,2707.27,pp-ro,1,1,-1,-1
1570539460.0,2019-10-08,14:57:40.000,15.0,14.0,19.5100002288818,11.7,-8.3,-4.6,45.0,26.0,-63.2,12.3085,-8.686060000000001,-4.129569999999999,-2.88705,0.996525,3.44138,43.8423,28.9272,-63.4918,-0.00827031,0.118674,0.2676949999999999,263.0,7.9,52.1701,4.42721,0.6,1.20125,340.271,4.4354,164.726,80.1848,164.729,0.7323430000000001,-0.176019,246.374,0.803769,1.23204,-3.06365966796875,22.004056930542003,-3.05477023124695,22.0,139027.0,4860.79,pp-ro,1,1,-1,-1
1570539460.1,2019-10-08,14:57:40.100,15.0,14.0,19.4699993133545,11.8,-8.3,-4.3,45.3,25.5,-62.9,12.3554,-8.87036,-3.91555,-0.141219,-1.95628,2.11237,44.0835,27.6767,-63.5247,-0.0833238,-0.0190883,0.132231,263.0,7.9,52.1701,4.42721,0.6,1.18851,344.42,4.43548,163.87900000000002,81.7048,165.12900000000002,0.733788,-0.185594,246.576,0.8195969999999999,1.25617,-2.89298248291016,22.004056930542003,-35.0,22.0,139564.0,1630.52,pp-ro,1,1,-1,-1
1570539460.2,2019-10-08,14:57:40.200,15.0,14.0,19.4200000762939,11.7,-8.3,-4.1,45.0,24.4,-62.9,12.3554,-8.87036,-3.91555,-0.141219,-1.95628,2.11237,44.0835,27.6767,-63.5247,-0.0833238,-0.0190883,0.132231,263.0,7.9,52.1701,4.42721,0.6,1.20458,346.505,4.435569999999999,163.412,82.0848,165.52900000000002,0.7356659999999999,-0.18868,246.66,0.8332579999999999,1.26399,-2.80593872070312,22.0035419464111,-35.0,22.0,139681.0,2245.81,pp-ro,1,1,-1,-1
1570539460.3,2019-10-08,14:57:40.300,15.0,14.0,19.3299999237061,11.8,-8.2,-4.1,45.3,24.2,-62.9,12.3052,-8.85158,-3.83766,0.860389,3.40187,2.33292,44.38,27.4292,-62.9059,0.0882845,-0.0367975,0.134701,262.1,8.1,52.1701,4.42721,0.6,1.17909,336.695,4.43566,162.565,83.2248,165.729,0.73692,-0.196426,246.617,0.840874,1.27576,-2.8912811279296897,22.004056930542003,-35.0,22.0,140435.0,4860.79,pp-ro,1,1,-1,-1
1570539460.4,2019-10-08,14:57:40.400,15.0,14.0,19.2900009155273,11.9,-8.4,-3.8,45.3,24.0,-62.7,12.3471,-8.763539999999999,-3.692,-3.03456,-4.0841400000000005,2.18511,44.7008,26.56,-62.7243,-0.0636,0.0885149,-0.014921,262.1,8.1,52.1701,4.42721,0.6,1.17909,338.91900000000004,4.43571,161.718,84.3648,166.229,0.7390439999999999,-0.204157,246.784,0.85098,1.29293,-3.32821655273438,22.0035419464111,-35.0,22.0,140600.0,3107.21,pp-ro,1,1,-1,-1
1570539460.5,2019-10-08,14:57:40.500,15.0,14.0,19.2000007629395,12.1,-8.4,-3.5,45.8,22.8,-62.5,12.364,-8.82305,-3.4923900000000003,5.12277,-6.43156,0.895144,44.8742,26.4494,-62.8593,-0.0142052,-0.0486154,0.0190305,262.1,8.1,52.1701,4.42721,0.6,1.19571,341.89,4.43576,160.433,86.2648,166.729,0.741213,-0.2167199999999999,246.939,0.875382,1.32266,-4.13722229003906,22.004056930542003,-35.0,22.0,140890.0,3722.5,pp-ro,1,1,-1,-1
1570539460.6,2019-10-08,14:57:40.600,15.0,14.0,19.2399997711182,12.4,-8.4,-3.2,46.3,21.8,-62.3,12.5671,-8.77409,-3.14762,1.43026,2.02213,0.31616,44.8298,26.0682,-62.0289,0.1638079999999999,0.1105049999999999,0.291512,262.1,8.1,52.1701,4.42721,0.6,1.17521,326.317,4.43581,159.586,87.4048,167.12900000000002,0.7429560000000001,-0.224494,247.061,0.8942889999999999,1.35228,-5.308074951171879,22.003026962280305,-35.0,22.0,141569.0,5137.67,pp-ro,1,1,-1,-1
1570539460.7,2019-10-08,14:57:40.700,15.0,13.0,19.1499996185303,12.6,-8.2,-3.0,46.7,20.7,-62.0,12.5671,-8.77409,-3.14762,1.43026,2.02213,0.31616,44.8298,26.0682,-62.0289,0.1638079999999999,0.1105049999999999,0.291512,262.1,8.1,52.1701,4.42721,0.6,1.15415,326.809,4.43586,158.739,88.1648,167.429,0.744876,-0.230457,246.989,0.914324,1.37864,-6.83734130859375,22.003026962280305,-35.0,22.0,141960.0,2861.1,pp-ro,1,1,-1,-1
1570539460.8,2019-10-08,14:57:40.800,15.0,14.0,19.2399997711182,13.0,-8.2,-2.6,47.1,19.4,-60.9,12.6411,-8.71144,-2.99315,-0.618841,-1.59859,0.108875,45.5279,25.7636,-61.6417,0.153443,0.124511,0.131832,262.1,8.1,52.1701,4.42721,0.6,1.16413,328.915,4.43591,157.863,89.6848,167.729,0.745822,-0.240171,247.178,0.949892,1.41635,-8.71138000488281,22.0035419464111,-35.0,22.0,142040.0,1507.46,pp-ro,1,1,-1,-1
1570539460.9,2019-10-08,14:57:40.900,15.0,13.0,19.2399997711182,13.5,-8.1,-2.1,48.0,18.6,-60.2,13.3515,-8.28653,-1.81803,5.17849,-0.513466,3.23658,47.0466,23.5759,-59.7903,0.265702,0.162989,0.305525,262.1,8.1,52.1701,4.42721,0.8,1.17576,324.095,4.43596,157.016,91.2048,167.829,0.746057,-0.249806,247.263,0.974872,1.46361,-10.824371337890598,22.003026962280305,-35.0,22.0,142427.0,5291.49,pp-ro,1,1,-1,-1
1570539461.0,2019-10-08,14:57:41.000,15.0,13.0,19.4300003051758,14.3,-7.9,-1.6,49.1,16.3,-59.0,13.3515,-8.28653,-1.81803,5.17849,-0.513466,3.23658,47.0466,23.5759,-59.7903,0.265702,0.162989,0.305525,262.1,8.1,52.1701,4.42721,0.8,1.14972,320.798,4.43602,156.607,91.5849,168.02900000000002,0.747096,-0.252803,247.28,1.0185,1.5156,-12.9271240234375,22.003026962280305,-35.0,22.0,142979.0,1845.87,pp-ro,1,1,-1,-1
1570539461.1,2019-10-08,14:57:41.100,15.0,13.0,19.4699993133545,15.0,-7.9,-0.7,50.8,13.7,-57.2,14.4841,-7.8282,-0.540006,5.3358,3.06644,11.0195,49.8617,20.4208,-55.5643,0.107415,-0.0109048999999999,0.411837,262.1,8.1,52.1701,4.42721,0.8,1.16191,324.073,4.43607,155.81799999999998,93.1049,168.229,0.747429,-0.262273,247.485,1.07871,1.5771,-15.026458740234402,22.003026962280305,-35.0,22.0,143105.0,2399.63,pp-ro,1,1,-1,-1
1570539461.2,2019-10-08,14:57:41.200,15.0,13.0,19.6100006103516,15.8,-7.5,0.3,52.2,11.0,-55.1,14.4841,-7.8282,-0.540006,5.3358,3.06644,11.0195,49.8617,20.4208,-55.5643,0.107415,-0.0109048999999999,0.411837,262.1,8.1,52.1701,4.42721,0.8,1.16524,328.015,4.43612,155.029,94.6249,168.329,0.747421,-0.271739,247.634,1.1445299999999998,1.6547599999999998,-17.132614135742198,22.0035419464111,-35.0,22.0,143451.0,3507.15,pp-ro,1,1,-1,-1
1570539461.3,2019-10-08,14:57:41.300,15.0,14.0,19.7399997711182,16.9,-6.9,1.3,54.4,8.5,-52.6,15.8784,-7.0900300000000005,1.69934,11.6266,1.3090000000000002,12.1261,53.8836,15.3449,-50.065,0.261829,-0.0382376999999999,0.69262,255.1,6.9,52.1701,4.42721,0.8,1.16634,321.068,4.43617,154.27,96.5249,168.229,0.746157,-0.2828739999999999,247.825,1.21474,1.7397900000000002,-18.7096786499023,22.0035419464111,-35.0,22.0,143975.0,4276.26,pp-ro,1,1,-1,-1
1570539461.4,2019-10-08,14:57:41.400,15.0,13.0,19.8700008392334,17.8,-6.4,2.7,56.7,4.3,-49.8,16.8003,-6.075830000000001,2.89638,5.8720300000000005,5.56341,15.9177,55.7464,11.9291,-46.5578,0.1072849999999999,0.199245,0.88987,255.1,6.9,52.1701,4.42721,0.8,1.14141,317.406,4.43613,153.59799999999998,98.0449,168.12900000000002,0.745193,-0.291864,247.937,1.30857,1.8264,-21.3585968017578,22.003026962280305,-35.0,22.0,144421.0,3845.56,pp-ro,1,1,-1,-1
1570539461.5,2019-10-08,14:57:41.500,15.0,13.0,19.9599990844727,18.7,-5.7,4.3,58.8,-0.4,-46.9,17.5407,-5.52104,4.47283,4.57535,6.995139999999999,13.6348,57.7537,7.241219999999999,-42.9455,0.148249,0.0542438,0.939619,255.1,6.9,52.1701,4.42721,0.8,1.14529,319.35,4.43609,152.95600000000002,99.945,167.829,0.742962,-0.302483,248.095,1.41205,1.92108,-23.474998474121104,22.003026962280305,-35.0,22.0,144515.0,1784.34,pp-ro,1,1,-1,-1
