time,date,time_of_day,airspeed_temperature,airspeed_angle_of_attack,airspeed_apparent_windspeed,kite_0_vx,kite_0_vy,kite_0_vz,kite_0_roll,kite_0_pitch,kite_0_yaw,kite_1_vx,kite_1_vy,kite_1_vz,kite_1_ax,kite_1_ay,kite_1_az,kite_1_roll,kite_1_pitch,kite_1_yaw,kite_1_roll_rate,kite_1_pitch_rate,kite_1_yaw_rate,ground_upwind_direction,ground_wind_velocity,ground_pos_latitude,ground_pos_longitude,ground_pos_altitude,ground_tether_reelout_speed,ground_tether_force,est_upwind_direction,kite_pos_east,kite_pos_north,kite_height,kite_elevation,kite_azimuth,kite_distance,kite_heading,kite_course,kite_actual_steering,kite_actual_depower,kite_set_steering,kite_set_depower,ground_mech_energy,ground_mech_power,flight_phase,flight_phase_index,phase,pattern,pattern_section
1570536060.7,2019-10-08,14:01:00.700,14.0,8.0,15.0699996948242,11.3,-1.6,2.2,19.7,-2.7,-58.1,10.1,-1.24856,2.56222,9.10685,7.572319999999999,0.475631,21.2564,11.2383,-60.0036,0.124619,0.13935,0.929024,261.0,6.4,52.1701,4.42718,6.0,-2.01243,102.359,4.54209,55.6405,3.42044,238.752,1.34142,0.108901,245.174,0.6372369999999999,1.53743,-34.6492614746094,22.0143566131592,-35.0,22.0,-996952.0,-3045.68,pp-riro,4,0,-1,-1
1570536060.8,2019-10-08,14:01:00.800,14.0,8.0,14.9499998092651,12.2,-0.7,2.5,21.3,-4.5,-53.2,11.2529,0.1869549999999999,3.03361,6.56153,8.52915,2.34963,24.0411,9.40447,-51.4371,0.162279,0.1311369999999999,1.02164,261.0,6.4,52.1701,4.42718,6.0,-2.01409,101.701,4.5420300000000005,55.4944,4.56048,238.652,1.34158,0.0883643,245.062,0.749816,1.64122,-34.9479370117188,22.004571914672898,-35.0,22.0,-997109.0,-2953.39,pp-riro,4,0,-1,-1
1570536060.9,2019-10-08,14:01:00.900,14.0,8.0,14.710000038147,12.9,0.2,2.8,22.9,-6.0,-48.2,11.6545,0.654792,3.23244,5.69025,9.13806,5.038130000000001,24.9607,8.6757,-48.542,0.0376322,0.149267,1.01659,261.0,6.4,52.1701,4.42718,6.0,-2.0152,98.1364,4.54197,55.43600000000001,5.70052,238.452,1.34121,0.0679473,244.878,0.86364,1.7344700000000002,-34.970123291015604,21.9983940124512,-35.0,22.0,-997721.0,-4953.08,pp-riro,4,0,-1,-1
1570536061.0,2019-10-08,14:01:01.000,14.0,9.0,14.5299997329712,13.6,1.3,3.2,24.3,-7.3,-43.3,11.9948,1.1736,3.4191800000000003,9.07831,9.67181,4.5959900000000005,25.9509,7.7696,-45.6456,0.0981558,0.155746,1.0085,261.0,6.4,52.1701,4.42718,6.0,-2.03293,95.6706,4.54191,55.4652,6.840560000000001,238.252,1.3404,0.0477700999999999,244.719,0.97494,1.83494,-34.970123291015604,21.9994239807129,-35.0,22.0,-998323.0,-6798.95,pp-riro,4,0,-1,-1
1570536061.1,2019-10-08,14:01:01.100,14.0,9.0,14.3500003814697,14.2,2.4,3.5,25.7,-9.1,-38.1,12.6342,2.18056,3.78223,3.95674,12.5495,5.59145,27.4022,6.14481,-39.9445,0.249507,0.163696,1.00204,254.8,6.9,52.1701,4.42718,6.0,-2.04179,94.4519,4.5418400000000005,55.6112,8.360619999999999,238.052,1.33881,0.0212887,244.605,1.09965,1.93193,-34.9889068603516,21.9994239807129,-35.0,22.0,-998635.0,-6029.84,pp-riro,4,0,-1,-1
1570536061.2,2019-10-08,14:01:01.200,14.0,9.0,14.2200002670288,14.7,3.5,3.9,26.8,-10.9,-33.0,12.8799,2.71727,3.95278,7.573910000000001,10.6747,3.63827,28.0908,5.2329300000000005,-37.1761,0.298099,0.18231,0.960333,254.8,6.9,52.1701,4.42718,6.0,-2.07892,92.8026,4.54174,55.8741,9.88068,237.752,1.3365200000000002,-0.00437556,244.429,1.22192,2.02369,-34.9871978759766,21.9994239807129,-35.0,22.0,-999322.0,-7045.07,pp-riro,4,0,-1,-1
1570536061.3,2019-10-08,14:01:01.300,14.0,9.0,14.1599998474121,15.2,4.6,4.3,27.8,-12.9,-27.9,13.8621,4.85208,4.70209,4.17633,8.42305,2.22815,30.4386,1.29032,-25.8659,0.191145,0.153863,1.0236,254.8,6.9,52.1701,4.42718,6.0,-2.1154900000000003,93.5705,4.5416300000000005,56.2245,11.0207,237.452,1.3340299999999998,-0.0227991,244.267,1.33756,2.10174,-34.9871978759766,21.9994239807129,-35.0,22.0,-1000140.0,-7875.71,pp-riro,4,0,-1,-1
1570536061.4,2019-10-08,14:01:01.400,14.0,9.0,14.1599998474121,15.6,5.8,4.8,28.7,-14.9,-22.9,14.2403,5.9545900000000005,5.17708,2.52488,12.5179,4.65134,31.2249,-0.8200639999999999,-20.2889,0.138213,0.13572,0.993336,254.8,6.9,52.1701,4.42718,6.0,-2.14929,96.2121,4.541519999999999,56.6918,12.9208,237.152,1.33036,-0.0532182999999999,244.176,1.46325,2.19382,-34.9991455078125,21.9994239807129,-35.0,22.0,-1000950.0,-8121.83,pp-riro,4,0,-1,-1
1570536061.5,2019-10-08,14:01:01.500,14.0,9.0,14.1599998474121,15.9,7.1,5.2,29.0,-16.9,-17.4,14.479,7.081460000000001,5.569380000000001,2.80076,12.3016,5.302919999999999,31.6086,-3.0022,-14.5637,0.130155,0.208477,0.971601,254.8,6.9,52.1701,4.42718,6.0,-2.17422,95.3148,4.54142,57.3052,14.4409,236.752,1.32618,-0.0758862,244.017,1.5893,2.2786,-34.9991455078125,21.9994239807129,-35.0,22.0,-1001680.0,-7229.65,pp-riro,4,0,-1,-1
1570536061.6,2019-10-08,14:01:01.600,14.0,9.0,14.1599998474121,15.9,8.4,5.6,29.4,-18.8,-12.1,14.6267,8.2706,5.95222,0.0702689,11.906,3.53344,31.7518,-5.0849400000000005,-8.88296,0.050045,0.255248,0.958306,254.8,6.9,52.1701,4.42718,6.0,-2.22242,90.9254,4.54131,58.0061,15.9609,236.352,1.32155,-0.0974342,243.889,1.70963,2.36438,-35.0059814453125,21.9994239807129,-35.0,22.0,-1002960.0,-9752.34,pp-riro,4,0,-1,-1
1570536061.7,2019-10-08,14:01:01.700,14.0,9.0,14.2200002670288,16.0,9.6,6.0,29.4,-20.8,-6.7,14.5904,9.4106,6.31356,0.5442130000000001,8.93458,1.51956,31.7298,-7.16994,-3.32622,0.0903748,0.2104079999999999,1.01171,254.8,6.9,52.1701,4.42718,6.3,-2.26731,93.7145,4.5412,58.8239,17.480999999999998,235.852,1.31625,-0.117676,243.705,1.82996,2.4371400000000003,-35.0059814453125,21.9994239807129,-35.0,22.0,-1003950.0,-10336.9,pp-riro,4,0,-1,-1
1570536061.8,2019-10-08,14:01:01.800,14.0,8.0,14.3400001525879,15.9,10.9,6.5,29.5,-22.4,-1.3,14.5904,9.4106,6.31356,0.5442130000000001,8.93458,1.51956,31.7298,-7.16994,-3.32622,0.0903748,0.2104079999999999,1.01171,254.8,6.9,52.1701,4.42718,6.3,-2.30277,99.7173,4.5411,59.8169,19.0011,235.352,1.31019,-0.1362799999999999,243.577,1.94579,2.51468,-35.0059814453125,21.9994239807129,-35.0,22.0,-1004720.0,-6122.13,pp-riro,4,0,-1,-1
1570536061.9,2019-10-08,14:01:01.900,14.0,9.0,14.460000038147,15.7,12.2,7.0,29.3,-24.2,4.2,14.5121,11.2244,6.96405,-2.84269,10.6276,5.330830000000001,31.2778,-9.94664,5.36306,0.065233,0.295209,0.989066,254.8,6.9,52.1701,4.42718,6.3,-2.30609,101.812,4.54099,60.8976,20.9011,234.752,1.30311,-0.15922,243.421,2.06707,2.59494,-35.0059814453125,21.9994239807129,-35.0,22.0,-1004980.0,-4953.08,pp-riro,4,0,-1,-1
1570536062.0,2019-10-08,14:01:02.000,14.0,9.0,14.5900001525879,15.4,13.5,7.4,28.9,-25.9,9.7,14.5121,11.2244,6.96405,-2.84269,10.6276,5.330830000000001,31.2778,-9.94664,5.36306,0.065233,0.295209,0.989066,254.8,6.9,52.1701,4.42718,6.3,-2.30277,103.024,4.5408800000000005,62.1243,22.4212,234.052,1.29576,-0.174853,243.192,2.17957,2.66673,-35.0059814453125,21.9994239807129,-35.0,22.0,-1005380.0,-2891.86,pp-riro,4,0,-1,-1
1570536062.1,2019-10-08,14:01:02.100,14.0,9.0,14.8299999237061,15.0,14.8,7.8,28.3,-27.4,15.5,13.7287,14.1611,8.02135,-6.32272,10.4568,6.739039999999999,29.4324,-14.0731,20.1252,0.148467,0.314809,0.994077,256.5,7.5,52.1701,4.42718,6.3,-2.28559,108.632,4.54085,63.4678,23.9413,233.352,1.2879,-0.189171,243.011,2.29312,2.73668,-35.0059814453125,21.9994239807129,-35.0,22.0,-1005720.0,-1384.4,pp-riro,4,0,-1,-1
1570536062.2,2019-10-08,14:01:02.200,14.0,9.0,15.0699996948242,14.6,16.2,8.4,27.3,-28.6,21.9,13.5404,14.785,8.25708,-3.81945,11.4814,7.191560000000001,28.9449,-14.7941,23.0428,0.0415148,0.38464,1.0244799999999998,256.5,7.5,52.1701,4.42718,6.3,-2.24403,117.442,4.54089,65.045,25.4613,232.652,1.27912,-0.201606,242.912,2.41149,2.80475,-35.0059814453125,21.9994239807129,-23.0,22.0,-1005740.0,830.6410000000001,pp-riro,4,0,-1,-1
1570536062.3,2019-10-08,14:01:02.300,14.0,9.0,15.3500003814697,14.0,17.4,8.9,26.4,-30.0,28.1,12.8353,16.5318,8.97057,-7.188,13.2062,5.44169,27.1878,-16.6288,32.5861,0.0389834,0.322544,1.07521,256.5,7.5,52.1701,4.42718,6.3,-2.21578,122.166,4.54093,66.6221,26.6014,231.852,1.27073,-0.2084329999999999,242.696,2.52062,2.86449,-35.0042724609375,21.9994239807129,-23.0,22.0,-1005520.0,4183.97,pp-riro,4,0,-1,-1
1570536062.4,2019-10-08,14:01:02.400,14.0,10.0,15.5299997329712,13.2,18.6,9.5,25.0,-31.3,34.6,12.5101,17.0903,9.21356,-7.67425,11.5533,6.06772,26.4162,-17.1664,35.9514,0.114166,0.302269,1.06921,256.5,7.5,52.1701,4.42718,6.3,-2.04013,134.985,4.54096,68.3746,28.5015,230.952,1.26042,-0.223505,242.541,2.6396900000000003,2.93581,-34.976959228515604,21.9994239807129,-23.0,22.0,-1004390.0,10398.4,pp-riro,4,0,-1,-1
1570536062.5,2019-10-08,14:01:02.500,14.0,10.0,15.75,12.4,20.0,9.8,23.6,-32.4,41.8,12.1134,17.6159,9.42437,-6.58873,11.6272,2.43553,25.4656,-17.8764,39.2602,0.0841498999999999,0.29285,1.08805,256.5,7.5,52.1701,4.42718,6.3,-1.96311,137.72299999999998,4.54102,70.273,29.6416,229.952,1.25054,-0.227789,242.27,2.75722,2.99738,-34.473464965820305,21.9994239807129,-23.0,22.0,-1003810.0,11752.0,pp-riro,4,0,-1,-1
1570536062.6,2019-10-08,14:01:02.600,14.0,11.0,16.0300006866455,11.3,21.1,10.2,21.8,-33.2,48.8,11.2448,18.7179,9.83585,-8.01186,11.2307,4.285819999999999,23.7663,-19.0273,45.8519,-0.00989976,0.352155,1.0229700000000002,256.5,7.5,52.1701,4.42718,6.3,-1.6849599999999998,145.79399999999998,4.54106,72.2883,31.1616,229.052,1.23977,-0.2356739999999999,242.201,2.87236,3.0635,-33.6644439697266,21.9994239807129,-23.0,22.0,-1001990.0,12244.3,pp-riro,4,0,-1,-1
1570536062.7,2019-10-08,14:01:02.700,14.0,10.0,16.3600006103516,10.2,22.2,10.6,20.0,-33.8,55.5,10.3393,19.8137,10.1498,-10.9972,8.27319,5.5733,21.8887,-19.9302,52.642,0.0971768999999999,0.194477,0.962404,256.5,7.5,52.1701,4.42718,6.6,-1.58689,149.35,4.5411,74.3912,32.3017,228.052,1.22912,-0.238362,242.044,2.97662,3.12224,-32.5021362304688,21.9994239807129,-22.879247665405305,22.0,-1001280.0,13167.2,pp-riro,4,0,-1,-1
1570536062.8,2019-10-08,14:01:02.800,14.0,10.0,16.6800003051758,8.8,23.2,10.9,18.1,-34.1,62.7,8.675889999999999,21.3011,10.6344,-12.8513,8.96088,3.74714,18.9482,-21.2745,62.7426,0.0205449999999999,0.188649,1.03251,256.5,7.5,52.1701,4.42718,6.6,-1.33922,158.422,4.541180000000001,76.7278,33.0618,226.952,1.21806,-0.235642,241.842,3.08221,3.18224,-30.9813995361328,21.9994239807129,-22.108081817627,22.0,-999914.0,13413.3,pp-riro,4,0,-1,-1
1570536062.9,2019-10-08,14:01:02.900,14.0,10.0,16.9400005340576,7.4,24.0,11.2,15.9,-34.6,69.6,8.675889999999999,21.3011,10.6344,-12.8513,8.96088,3.74714,18.9482,-21.2745,62.7426,0.0205449999999999,0.188649,1.03251,256.5,7.5,52.1701,4.42718,6.6,-1.07824,164.15,4.54119,79.0351,33.8218,225.852,1.20709,-0.233151,241.66,3.18253,3.23787,-29.112472534179695,21.9994239807129,-21.4393291473389,22.0,-998668.0,12890.3,pp-riro,4,0,-1,-1
1570536063.0,2019-10-08,14:01:03.000,14.0,10.0,17.1000003814697,6.1,24.6,11.2,13.9,-34.4,76.1,7.49596,22.1513,10.9034,-12.2489,3.15844,1.74037,16.9687,-22.0005,69.2107,0.130981,0.226181,1.0260200000000002,256.5,7.5,52.1701,4.42718,6.6,-0.766296,162.614,4.5412300000000005,81.4009,34.9619,224.752,1.1953200000000002,-0.2345179999999999,241.582,3.27958,3.29037,-27.037033081054695,21.9994239807129,-20.9830284118652,22.0,-997622.0,9475.46,pp-riro,4,0,-1,-1
1570536063.1,2019-10-08,14:01:03.100,14.0,10.0,17.25,4.7,25.2,11.1,11.6,-33.8,82.6,4.889869999999999,23.3312,10.8653,-11.2632,5.15857,-1.66159,12.9757,-23.3116,81.5755,0.00233804,0.0634511,1.05574,254.8,7.6,52.1701,4.42718,6.6,-0.35018,158.68,4.54126,83.8543,35.3419,223.652,1.18438,-0.227748,241.455,3.3702300000000003,3.33827,-25.2022552490234,21.9994239807129,-20.3852996826172,22.0,-996779.0,3845.56,pp-riro,4,0,-1,-1
1570536063.2,2019-10-08,14:01:03.200,14.0,9.0,17.3999996185303,3.2,25.5,11.1,9.6,-33.5,88.5,4.889869999999999,23.3312,10.8653,-11.2632,5.15857,-1.66159,12.9757,-23.3116,81.5755,0.00233804,0.0634511,1.05574,254.8,7.6,52.1701,4.42718,6.6,-0.0637195,162.10299999999998,4.54126,86.4829,36.102,222.552,1.17224,-0.224323,241.479,3.4543,3.3896,-23.6132431030273,21.9994239807129,-19.878192901611303,22.0,-996647.0,584.525,pp-riro,4,0,-1,-1
1570536063.3,2019-10-08,14:01:03.300,14.0,9.0,17.5,1.9,25.7,11.0,7.5,-32.8,94.1,3.5803199999999995,23.8636,10.8422,-13.6133,4.38105,0.92016,11.1088,-23.3839,87.3169,0.267255,0.246251,1.03081,254.8,7.6,52.1701,4.42718,6.6,0.0703685,163.641,4.54128,88.9947,36.102,221.452,1.1616,-0.214275,241.38,3.52951,3.4274400000000003,-22.2358779907227,21.9994239807129,-19.414098739624,22.0,-996692.0,-922.935,pp-riro,4,0,-1,-1
1570536063.4,2019-10-08,14:01:03.400,14.0,8.0,17.5499992370605,0.5,25.6,10.7,5.7,-32.0,99.5,2.29255,24.0848,10.7733,-14.5919,-2.4357,-0.730801,9.10558,-23.2442,92.9731,0.0656067,0.250585,0.779881,254.8,7.6,52.1701,4.42718,6.6,0.341869,160.114,4.54129,91.5065,36.4821,220.452,1.15056,-0.208276,241.461,3.60584,3.4725,-21.636795043945305,21.9994239807129,-18.9437046051025,22.0,-997011.0,-3261.04,pp-riro,4,0,-1,-1
1570536063.5,2019-10-08,14:01:03.500,14.0,9.0,17.6000003814697,-0.6,25.5,10.5,3.8,-30.8,104.4,0.308075,24.157,10.3305,-12.2853,-3.48791,-3.4618,6.55629,-22.5495,100.685,-0.149226,0.331634,0.674338,254.8,7.6,52.1701,4.42718,6.6,0.19947,164.524,4.54131,94.1352,36.4821,219.351,1.13945,-0.198645,241.469,3.67385,3.50383,-20.3857345581055,21.9994239807129,-18.677997589111303,22.0,-996666.0,-92.2935,pp-riro,4,0,-1,-1
1570536063.6,2019-10-08,14:01:03.600,14.0,8.0,17.6499996185303,-1.9,25.4,10.7,2.5,-29.8,109.1,-0.805325,24.0064,10.1144,-9.46567,-2.13081,-3.53087,4.89663,-21.8896,105.403,-0.0228617,0.168278,0.8776959999999999,254.8,7.6,52.1701,4.42718,6.6,0.280366,176.89700000000002,4.54132,96.6762,36.4822,218.351,1.12879,-0.18977,241.567,3.73934,3.54109,-19.5954895019531,21.9994239807129,-18.3054752349854,22.0,-996816.0,-2953.39,pp-riro,4,0,-1,-1
1570536063.7,2019-10-08,14:01:03.700,14.0,9.0,17.75,-3.0,25.3,10.7,0.6,-28.8,113.4,-1.93849,23.9541,10.2138,-11.0963,-0.65284,-0.0696755,2.60691,-20.7386,110.024,-0.0354185999999999,0.173764,0.669564,254.8,7.6,52.1701,4.42718,6.9,0.359045,198.478,4.54133,99.2172,36.1022,217.251,1.11842,-0.177917,241.548,3.7969,3.56967,-18.9639892578125,21.9994239807129,-18.0360851287842,22.0,-996774.0,1538.22,pp-riro,4,0,-1,-1
1570536063.8,2019-10-08,14:01:03.800,14.0,10.0,17.840000152587898,-4.2,25.1,10.6,-1.3,-27.6,117.9,-3.67107,23.729,10.1013,-13.6297,-5.83064,-1.70568,-0.114347,-19.3521,116.535,-0.203022,0.0933722,0.528924,254.8,7.6,52.1701,4.42718,6.9,0.351288,202.604,4.54134,101.875,35.7222,216.151,1.10759,-0.166201,241.611,3.85906,3.60288,-18.4758453369141,21.9994239807129,-17.7241134643555,22.0,-996715.0,-30.7645,pp-riro,4,0,-1,-1
1570536063.9,2019-10-08,14:01:03.900,14.0,11.0,17.9899997711182,-5.5,25.1,10.5,-3.2,-26.0,121.7,-4.88965,23.7341,9.98409,-6.52308,2.14268,1.15796,-2.36613,-18.7208,120.365,-0.221054,0.255994,0.8458829999999999,254.8,7.6,52.1701,4.42718,6.9,0.363478,207.928,4.54135,104.416,35.3423,215.051,1.09712,-0.155332,241.659,3.91467,3.63967,-18.1037750244141,21.9994239807129,-17.3608894348145,22.0,-996680.0,676.819,pp-riro,4,0,-1,-1
1570536064.0,2019-10-08,14:01:04.000,14.0,12.0,18.2399997711182,-6.6,24.9,10.6,-5.2,-24.7,125.7,-4.88965,23.7341,9.98409,-6.52308,2.14268,1.15796,-2.36613,-18.7208,120.365,-0.221054,0.255994,0.8458829999999999,254.8,7.6,52.1701,4.42718,6.9,0.369573,223.05,4.54136,106.928,34.9623,213.951,1.08671,-0.144986,241.725,3.9725,3.66884,-17.738525390625,21.9994239807129,-17.180292129516598,22.0,-996630.0,246.116,pp-riro,4,0,-1,-1
1570536064.1,2019-10-08,14:01:04.100,14.0,11.0,18.3799991607666,-7.8,24.6,10.7,-7.2,-23.8,129.4,-5.98455,23.6842,9.96256,-9.89008,-4.1268400000000005,-3.52845,-4.5315,-17.2873,124.118,0.0243005,0.172547,0.5459510000000001,263.1,7.5,52.1701,4.42718,6.9,0.411129,238.229,4.54136,109.381,33.8223,212.851,1.0773,-0.128856,241.69,4.01879,3.69665,-17.3527908325195,21.9994239807129,-16.8532810211182,22.0,-996619.0,338.409,pp-riro,4,0,-1,-1
1570536064.2,2019-10-08,14:01:04.200,14.0,11.0,18.520000457763697,-9.1,24.2,10.5,-9.3,-22.2,132.8,-7.14045,23.3905,10.0453,-8.16918,1.59672,-1.00104,-6.93972,-16.7264,127.872,-0.2884469999999999,-0.0916911,0.679077,263.1,7.5,52.1701,4.42718,6.9,0.427197,252.422,4.54138,111.864,33.0623,211.751,1.06728,-0.116371,241.754,4.068969999999999,3.73446,-17.0967712402344,21.9994239807129,-16.473331451415998,22.0,-996552.0,615.29,pp-riro,4,0,-1,-1
1570536064.3,2019-10-08,14:01:04.300,14.0,11.0,18.7099990844727,-10.5,23.8,10.5,-11.0,-20.8,136.0,-8.40995,23.0634,9.91612,-16.9558,-2.46385,-3.79236,-9.32812,-15.9425,131.175,-0.454004,0.102494,0.351907,263.1,7.5,52.1701,4.42718,6.9,0.45601,266.701,4.54141,114.23,32.3024,210.551,1.05742,-0.104597,241.71,4.11591,3.77417,-16.775901794433597,21.9994239807129,-16.0877838134766,22.0,-996511.0,461.467,pp-riro,4,0,-1,-1
1570536064.4,2019-10-08,14:01:04.400,14.0,11.0,19.1299991607666,-11.9,23.2,10.5,-12.9,-20.1,139.6,-10.416,22.3968,9.8967,1.23705,-3.82529,5.84886,-12.52,-14.187,136.268,-0.0766935,-0.114089,0.705192,263.1,7.5,52.1701,4.42718,6.9,0.481498,281.705,4.541440000000001,116.683,31.1624,209.351,1.04754,-0.090026,241.69,4.16124,3.81303,-16.328727722168,22.0025119781494,-15.6871404647827,22.0,-996434.0,830.6410000000001,pp-riro,4,0,-1,-1
1570536064.5,2019-10-08,14:01:04.500,14.0,10.0,19.8099994659424,-13.0,22.2,10.2,-14.3,-18.5,143.0,-11.6707,21.634,9.76866,-10.7822,-11.3068,-3.3343199999999995,-14.5427,-13.8354,139.71200000000002,-0.151123,0.120742,0.464209,263.1,7.5,52.1701,4.42718,6.9,0.526378,306.033,4.54146,118.932,30.0224,208.151,1.03828,-0.076343,241.605,4.21181,3.8517,-16.1580505371094,22.0025119781494,-15.2965698242188,22.0,-996345.0,615.29,pp-riro,4,0,-1,-1
1570536064.6,2019-10-08,14:01:04.600,14.0,7.0,20.2000007629395,-13.5,21.6,10.0,-15.5,-17.2,145.7,-12.6967,20.52,9.46021,-12.7067,-12.137,6.19871,-16.3964,-12.3387,142.747,-0.267523,0.0437510999999999,0.481989,263.1,7.5,52.1701,4.42718,6.9,0.540784,308.334,4.5414900000000005,121.093,28.5024,207.051,1.02977,-0.0602704,241.549,4.24809,3.86409,-15.826934814453098,22.0019989013672,-15.3581094741821,22.0,-996285.0,1169.05,pp-riro,4,0,-1,-1
1570536064.7,2019-10-08,14:01:04.700,14.0,8.0,20.5100002288818,-15.6,20.4,9.1,-16.2,-15.6,148.0,-12.6967,20.52,9.46021,-12.7067,-12.137,6.19871,-16.3964,-12.3387,142.747,-0.267523,0.0437510999999999,0.481989,263.1,7.5,52.1701,4.42718,7.1,0.519729,299.09,4.541519999999999,123.284,27.3624,205.851,1.02053,-0.0475359,241.5,4.28415,3.94768,-15.5265426635742,22.0025119781494,-14.152241706848098,22.0,-995985.0,1907.4,pp-riro,4,0,-1,-1
1570536064.8,2019-10-08,14:01:04.800,14.0,14.0,20.4599990844727,-16.8,19.4,8.7,-16.8,-15.4,150.3,-14.1746,19.6746,8.97309,-15.9325,-9.97034,-6.3466,-17.7888,-10.9995,145.30100000000002,-0.2344949999999999,0.127972,0.362488,263.1,7.5,52.1701,4.42718,7.1,0.516405,303.723,4.54155,125.27,25.4624,204.851,1.0129,-0.0296901,241.46400000000003,4.30409,3.99053,-15.195426940918,22.003026962280305,-13.5695810317993,22.0,-995914.0,1445.93,pp-riro,4,0,-1,-1
1570536064.9,2019-10-08,14:01:04.900,14.0,13.0,20.6299991607666,-17.3,18.9,8.6,-17.3,-15.3,151.5,-16.0917,18.3283,8.281989999999999,-11.9578,-9.86788,-4.46509,-19.4591,-10.3481,149.136,0.00469485,-0.000260087,0.418988,263.1,7.5,52.1701,4.42718,7.1,0.607274,366.33,4.54157,126.205,24.7024,204.351,1.0091,-0.0224734,241.448,4.31616,4.00933,-14.6424331665039,22.003026962280305,-13.374897956848098,22.0,-995940.0,-1045.99,pp-riro,4,0,-1,-1
1570536065.0,2019-10-08,14:01:05.000,14.0,12.0,20.7600002288818,-18.3,18.2,8.6,-18.0,-14.2,153.9,-16.6562,17.8435,8.220360000000001,-12.8334,-8.635489999999999,-0.5154380000000001,-19.834,-10.1637,150.267,-0.0566446,-0.0314528,0.264635,263.1,7.5,52.1701,4.42718,7.1,0.688724,389.521,4.5416,128.10299999999998,22.8024,203.351,1.00158,-0.00536613,241.416,4.34616,4.03587,-14.0075073242188,22.0035419464111,-13.180477142334,22.0,-995845.0,2461.16,pp-riro,4,0,-1,-1
1570536065.1,2019-10-08,14:01:05.100,14.0,13.0,20.9300003051758,-19.2,17.1,8.5,-19.1,-13.0,158.0,-16.6562,17.8435,8.220360000000001,-12.8334,-8.635489999999999,-0.5154380000000001,-19.834,-10.1637,150.267,-0.0566446,-0.0314528,0.264635,266.2,6.9,52.1701,4.42718,7.1,0.664345,374.2480000000001,4.54164,129.856,20.9024,201.851,0.993292,0.011148,240.921,4.40224,4.06967,-13.468170166015598,22.0035419464111,35.0,22.0,-995468.0,3814.8,pp-riro,4,0,-1,-1
1570536065.2,2019-10-08,14:01:05.200,14.0,13.0,21.1000003814697,-19.5,16.9,8.1,-19.4,-12.5,159.1,-17.8443,16.5881,8.293330000000001,-3.61226,-3.73854,0.154676,-20.8844,-9.0723,153.835,-0.087875,-0.065895,0.4361569999999999,266.2,6.9,52.1701,4.42718,7.1,0.8084060000000001,364.39,4.54172,131.579,19.0023,201.451,0.987469,0.0272402,241.364,4.40906,4.07454,-13.106330871582,22.0035419464111,35.0,22.0,-996511.0,-19074.0,pp-riro,4,0,-1,-1
1570536065.3,2019-10-08,14:01:05.300,14.0,11.0,21.6700000762939,-20.2,16.4,7.7,-20.1,-11.0,161.5,-18.351,15.9352,8.07055,-7.124630000000001,-3.43837,-4.51772,-21.7253,-8.63102,156.72799999999998,-0.0754876,-0.126355,0.510578,266.2,6.9,52.1701,4.42718,7.1,1.2982200000000002,354.09,4.5418,133.273,17.1023,200.551,0.9805,0.0429591999999999,241.402,4.4444,4.0963,-12.4577560424805,22.003026962280305,35.0,22.0,-998843.0,-24027.1,pp-riro,4,0,-1,-1
1570536065.4,2019-10-08,14:01:05.400,14.0,10.0,22.149999618530305,-20.4,15.6,7.2,-20.5,-9.9,164.1,-18.659,15.7942,7.648919999999999,-9.49654,-4.88425,-7.01768,-22.2385,-8.17027,158.009,-0.261911,0.0382295,0.383005,266.2,6.9,52.1701,4.42718,7.1,1.07824,336.773,4.54188,134.85,15.2023,199.65,0.973818,0.0582873,241.404,4.47932,4.11506,-11.4541702270508,22.0035419464111,35.0,22.0,-996342.0,2091.99,pp-riro,4,0,-1,-1
1570536065.5,2019-10-08,14:01:05.500,14.0,8.0,22.7399997711182,-20.2,14.5,7.0,-21.1,-8.7,166.4,-19.4444,14.5147,6.84288,4.74894,-9.23805,-0.572922,-23.5758,-6.455030000000001,163.438,-0.0662035,-0.0677989,0.4206189999999999,266.2,6.9,52.1701,4.42718,7.1,1.25721,346.591,4.54196,136.311,13.3023,198.95,0.967895,0.0731498,241.534,4.511369999999999,4.12766,-10.0955810546875,22.003026962280305,35.0,22.0,-997191.0,-3230.27,pp-riro,4,0,-1,-1
1570536065.6,2019-10-08,14:01:05.600,14.0,8.0,22.9799995422363,-20.1,13.9,6.5,-21.6,-7.1,168.1,-19.2401,13.4668,6.781619999999999,1.46671,-13.0245,-1.43139,-24.1756,-5.62087,165.942,-0.0545848,0.0114806,0.290088,266.2,6.9,52.1701,4.42718,7.1,1.24004,346.046,4.54206,137.713,11.0222,198.15,0.961943,0.0904604,241.557,4.53696,4.13522,-8.38197326660156,22.003026962280305,35.0,22.0,-996495.0,13567.1,pp-riro,4,0,-1,-1
1570536065.7,2019-10-08,14:01:05.700,14.0,8.0,22.940000534057603,-20.2,13.5,6.5,-21.8,-6.0,169.0,-19.432,13.009,6.26724,-4.12551,-5.03002,-8.29865,-24.6623,-5.11607,167.708,-0.0378111999999999,-0.227289,0.336978,266.2,6.9,52.1701,4.42719,7.2,1.15582,338.7,4.54212,139.056,9.12223,197.45,0.956206,0.104764,241.674,4.5488800000000005,4.1361,-6.344085693359379,22.003026962280305,35.0,22.0,-995916.0,953.699,pp-riro,4,0,-1,-1
1570536065.8,2019-10-08,14:01:05.800,14.0,8.0,22.8199996948242,-20.1,13.0,6.7,-22.3,-5.8,170.1,-19.432,13.009,6.26724,-4.12551,-5.03002,-8.29865,-24.6623,-5.11607,167.708,-0.0378111999999999,-0.227289,0.336978,266.2,6.9,52.1701,4.42719,7.2,1.2212,360.636,4.5422,140.371,7.2222,196.65,0.950238,0.1187869999999999,241.718,4.55496,4.131419999999999,-4.23109436035156,22.003026962280305,35.0,22.0,-995576.0,5414.55,pp-riro,4,0,-1,-1
1570536065.9,2019-10-08,14:01:05.900,14.0,9.0,22.6200008392334,-19.8,12.9,6.7,-23.2,-5.2,170.5,-19.5325,12.6096,6.36802,-6.3302,-9.87716,2.12808,-25.1954,-4.69334,169.02700000000002,-0.007963,-0.130063,0.0757648,266.2,6.9,52.1701,4.42719,7.2,1.21676,362.597,4.54228,141.597,4.94217,195.95,0.944761,0.135225,241.807,4.55326,4.11347,-2.12493896484375,22.003026962280305,35.0,22.0,-995397.0,3537.92,pp-riro,4,0,-1,-1
1570536066.0,2019-10-08,14:01:06.000,14.0,9.0,22.5,-19.8,12.9,7.1,-23.6,-5.0,170.4,-19.4952,12.2806,6.5888,3.33253,2.30155,2.40498,-25.9761,-5.3604,170.97099999999998,-0.363061,-0.0823864,0.232285,266.2,6.9,52.1701,4.42719,7.2,1.23727,360.564,4.54235,142.912,3.04215,195.15,0.938601,0.148751,241.902,4.54293,4.09464,-0.0358428955078129,22.0035419464111,35.0,22.0,-995059.0,4799.26,pp-riro,4,0,-1,-1
1570536066.1,2019-10-08,14:01:06.100,14.0,10.0,22.350000381469695,-19.8,12.9,7.7,-24.3,-6.0,170.4,-19.4587,12.4012,6.590269999999999,-2.89344,4.661580000000001,-0.994871,-26.3752,-5.66657,171.30599999999998,-0.031464,-0.144514,0.0474811,264.3,6.7,52.1701,4.42719,7.2,1.21843,366.239,4.54245,144.109,1.14213,194.25,0.9325,0.16207,241.872,4.522,4.07226,2.06250762939453,22.0035419464111,35.0,22.0,-994558.0,3445.62,pp-riro,4,0,-1,-1
1570536066.2,2019-10-08,14:01:06.200,14.0,11.0,22.2299995422363,-19.3,13.2,8.3,-25.3,-7.7,169.1,-19.4587,12.4012,6.590269999999999,-2.89344,4.661580000000001,-0.994871,-26.3752,-5.66657,171.30599999999998,-0.031464,-0.144514,0.0474811,264.3,6.7,52.1701,4.42719,7.2,1.25777,376.065,4.54255,145.365,-0.757894,193.35,0.926122,0.175054,241.901,4.47583,4.03027,3.11164093017578,22.003026962280305,35.0,22.0,-994368.0,2399.63,pp-riro,4,0,-1,-1
1570536066.3,2019-10-08,14:01:06.300,14.0,12.0,22.149999618530305,-19.0,13.8,9.1,-26.7,-9.3,167.5,-19.4587,12.4012,6.590269999999999,-2.89344,4.661580000000001,-0.994871,-26.3752,-5.66657,171.30599999999998,-0.031464,-0.144514,0.0474811,264.3,6.7,52.1701,4.42719,7.2,1.25389,378.353,4.54265,146.709,-3.03792,192.35,0.919102,0.190445,241.932,4.42475,3.98068,5.2303466796875,22.0035419464111,35.0,22.0,-993819.0,5845.25,pp-riro,4,0,-1,-1
1570536066.4,2019-10-08,14:01:06.400,14.0,12.0,22.030000686645497,-18.4,14.2,10.1,-27.5,-12.2,165.7,-19.5311,13.1553,8.46325,-0.0501837,5.90477,7.7095,-28.6789,-10.5395,170.523,-0.16477,-0.285238,-0.326439,264.3,6.7,52.1701,4.42719,7.2,1.25666,378.839,4.54275,148.023,-4.557930000000001,191.25,0.911896,0.200423,241.885,4.36204,3.9298,8.39138031005859,22.003026962280305,35.0,22.0,-993457.0,3291.8,pp-riro,4,0,-1,-1
1570536066.5,2019-10-08,14:01:06.500,14.0,12.0,21.8700008392334,-17.5,15.0,11.1,-28.9,-15.7,163.9,-19.5311,13.1553,8.46325,-0.0501837,5.90477,7.7095,-28.6789,-10.5395,170.523,-0.16477,-0.285238,-0.326439,264.3,6.7,52.1701,4.42719,7.2,1.26165,385.874,4.54285,149.39600000000002,-6.45794,190.15,0.904398,0.212742,241.905,4.29165,3.86057,9.44392395019531,22.003026962280305,35.0,22.0,-993008.0,4522.38,pp-riro,4,0,-1,-1
1570536066.6,2019-10-08,14:01:06.600,14.0,13.0,21.6200008392334,-16.5,15.7,12.2,-29.5,-18.7,160.7,-18.1711,15.5203,11.673,5.76147,14.5958,11.7453,-31.9042,-20.9818,165.843,-0.0654766,-0.279472,-0.339986,264.3,6.7,52.1701,4.42719,7.2,1.28436,387.568,4.54295,150.856,-7.977939999999999,188.95,0.8963549999999999,0.222327,241.916,4.21011,3.79251,11.5524139404297,22.003026962280305,35.0,22.0,-992407.0,5537.61,pp-riro,4,0,-1,-1
1570536066.7,2019-10-08,14:01:06.700,14.0,12.0,21.4599990844727,-15.4,16.5,13.3,-29.5,-22.3,156.9,-18.1711,15.5203,11.673,5.76147,14.5958,11.7453,-31.9042,-20.9818,165.843,-0.0654766,-0.279472,-0.339986,264.3,6.7,52.1701,4.42719,7.2,1.27051,383.517,4.54305,152.375,-9.87795,187.65,0.8877430000000001,0.234078,241.926,4.11385,3.71926,13.6506881713867,22.0035419464111,35.0,22.0,-992076.0,6645.13,pp-riro,4,0,-1,-1
1570536066.8,2019-10-08,14:01:06.800,14.0,13.0,21.3299999237061,-13.9,17.6,14.3,-28.6,-25.5,152.0,-17.6336,15.8846,12.3639,9.07511,-5.19195,11.8689,-31.9913,-22.6495,164.28900000000002,-0.242488,-0.2796949999999999,-0.770796,264.3,6.7,52.1701,4.42719,7.2,1.25777,376.689,4.54315,154.011,-11.0179,186.35,0.8788739999999999,0.240661,242.006,4.01251,3.63573,15.7591781616211,22.0035419464111,35.0,22.0,-991366.0,4430.09,pp-riro,4,0,-1,-1
1570536066.9,2019-10-08,14:01:06.900,14.0,12.0,21.1200008392334,-12.3,18.4,15.5,-27.1,-29.1,146.5,-15.1393,18.2422,14.875,9.08895,2.2951,9.90571,-31.6937,-30.5462,155.986,-0.0765863,-0.281555,-0.976461,264.3,6.7,52.1701,4.42719,7.2,1.25389,375.814,4.54325,155.705,-12.5379,184.95,0.8694440000000001,0.249493,242.09,3.89999,3.55223,17.877883911132802,22.0035419464111,35.0,22.0,-991106.0,5168.43,pp-riro,4,0,-1,-1
1570536067.0,2019-10-08,14:01:07.000,14.0,12.0,20.909999847412102,-10.2,19.2,16.4,-25.1,-32.6,140.9,-15.1393,18.2422,14.875,9.08895,2.2951,9.90571,-31.6937,-30.5462,155.986,-0.0765863,-0.281555,-0.976461,264.3,6.7,52.1701,4.42719,7.2,1.24946,376.431,4.54335,157.487,-13.6779,183.45,0.8595459999999999,0.255727,242.163,3.79206,3.4591300000000005,19.9897842407227,22.0035419464111,35.0,22.0,-990699.0,3384.09,pp-riro,4,0,-1,-1
1570536067.1,2019-10-08,14:01:07.100,14.0,14.0,20.8199996948242,-8.0,20.2,17.1,-21.5,-35.7,132.8,-11.2845,20.3105,17.3942,16.4965,13.4099,15.8463,-28.5545,-39.1682,144.21,-0.476387,0.316287,-1.16972,259.2,6.7,52.1701,4.42719,7.2,1.25777,377.162,4.543480000000001,159.356,-14.4378,181.95,0.8494729999999999,0.259268,242.298,3.66034,3.3658300000000003,22.101676940918,22.0035419464111,35.0,22.0,-990244.0,5137.67,pp-riro,4,0,-1,-1
1570536067.2,2019-10-08,14:01:07.200,14.0,11.0,20.9899997711182,-5.4,20.6,18.3,-16.9,-38.9,124.0,-8.98133,21.5538,18.4176,16.6362,4.13627,13.3001,-24.9405,-42.9396,135.461,-0.392181,-0.171732,-1.55356,259.2,6.7,52.1701,4.42719,7.2,1.25832,390.528,4.54362,161.371,-15.1978,180.349,0.838684,0.262676,242.482,3.52361,3.2646,24.2118682861328,22.0035419464111,35.0,22.0,-989835.0,3137.98,pp-riro,4,0,-1,-1
1570536067.3,2019-10-08,14:01:07.300,14.0,12.0,21.3600006103516,-2.7,20.9,18.7,-10.4,-42.0,113.0,-6.081580000000001,22.3168,19.8402,24.4522,11.925,11.0892,-20.229,-47.0696,125.663,0.15168,-0.2973969999999999,-1.34142,259.2,6.7,52.1701,4.42719,7.2,1.3253700000000002,413.5580000000001,4.543819999999999,163.357,-15.5777,178.649,0.8278270000000001,0.263637,242.577,3.36765,3.16658,26.311843872070305,22.0035419464111,35.0,22.0,-989472.0,4307.03,pp-riro,4,0,-1,-1
1570536067.4,2019-10-08,14:01:07.400,14.0,11.0,21.8899993896484,0.3,20.8,18.8,-3.0,-43.7,101.3,-6.081580000000001,22.3168,19.8402,24.4522,11.925,11.0892,-20.229,-47.0696,125.663,0.15168,-0.2973969999999999,-1.34142,259.2,6.7,52.1701,4.42719,7.2,1.31428,412.87,4.54389,165.343,-15.9577,176.949,0.816979,0.264711,242.702,3.21456,3.05958,28.4288635253906,22.0035419464111,23.0163822174072,22.0,-988844.0,5845.25,pp-riro,4,0,-1,-1
1570536067.5,2019-10-08,14:01:07.500,14.0,11.0,22.2900009155273,3.4,20.1,18.4,5.5,-43.8,88.2,-2.85279,22.7766,20.3093,36.4645,-0.274465,4.99884,-12.5719,-50.1568,113.761,-0.0398565,-0.165147,-1.05558,259.2,6.7,52.1701,4.42719,7.2,1.31484,413.484,4.54403,167.417,-15.5776,175.149,0.805813,0.2611429999999999,242.793,3.05206,2.9493,30.4028015136719,22.0035419464111,23.0163822174072,22.0,-988594.0,4614.67,pp-ro,1,1,-1,-1
1570536067.6,2019-10-08,14:01:07.600,14.0,11.0,22.4799995422363,6.6,19.3,18.1,13.4,-42.6,75.7,-1.14131,22.7293,20.3389,24.4631,1.2877299999999998,-2.3429,-8.17333,-51.6992,106.863,-0.445046,-0.137943,-1.5378,259.2,6.7,52.1701,4.42719,7.2,1.32093,418.0630000000001,4.54416,169.345,-15.1975,173.549,0.795655,0.25773,242.957,2.89423,2.83237,32.029296875,22.003026962280305,23.0139999389648,22.0,-988166.0,4214.73,pp-ro,1,1,-1,-1
1570536067.7,2019-10-08,14:01:07.700,14.0,11.0,22.3600006103516,9.5,18.0,17.2,20.6,-40.2,64.0,-1.14131,22.7293,20.3389,24.4631,1.2877299999999998,-2.3429,-8.17333,-51.6992,106.863,-0.445046,-0.137943,-1.5378,259.2,6.7,52.1701,4.42719,7.2,1.32924,416.339,4.5443,171.155,-14.8174,171.949,0.785845,0.254447,243.064,2.73792,2.71536,33.298126220703104,22.0035419464111,23.0163822174072,22.0,-987386.0,5999.08,pp-ro,1,1,-1,-1
1570536067.8,2019-10-08,14:01:07.800,14.0,13.0,22.0400009155273,12.1,16.4,15.7,27.5,-36.2,52.1,9.67845,20.6972,19.009,32.5621,-13.3612,-12.9403,21.1335,-50.748000000000005,62.0964,-0.0682311,-0.389162,-1.3495,259.2,6.7,52.1701,4.42719,7.2,1.31872,410.896,4.54444,172.937,-13.6773,170.449,0.776594,0.246946,243.202,2.56592,2.59577,34.2178344726562,22.0035419464111,23.0163822174072,22.0,-987062.0,6368.25,pp-ro,1,1,-1,-1
1570536067.9,2019-10-08,14:01:07.900,14.0,16.0,21.6800003051758,14.5,14.8,14.4,32.8,-31.6,41.9,11.4603,19.7774,18.2692,30.8822,-21.5071,-13.8387,25.3146,-48.9969,54.923,0.338342,0.0668293,-1.61593,259.2,6.7,52.1701,4.42719,7.2,1.296,400.272,4.544569999999999,174.485,-12.1573,168.949,0.76807,0.237378,243.18,2.40468,2.48041,34.7696533203125,22.0035419464111,21.863204956054695,22.0,-986212.0,5506.84,pp-ro,1,1,-1,-1
1570536068.0,2019-10-08,14:01:08.000,14.0,15.0,21.270000457763697,16.8,13.3,12.8,37.3,-26.4,32.1,17.2308,16.6084,15.1896,26.8656,-9.7598,-17.8656,37.1086,-39.0231,31.3742,-0.675984,0.0261957,-1.93214,259.2,6.7,52.1701,4.42719,7.2,1.2899,396.516,4.54471,175.887,-11.0172,167.74900000000002,0.7607430000000001,0.230234,243.305,2.23558,2.35904,34.9672241210938,22.004056930542003,19.6736335754395,22.0,-985941.0,5014.61,pp-ro,1,1,-1,-1
1570536068.1,2019-10-08,14:01:08.100,14.0,16.0,20.9300003051758,18.6,11.7,10.7,40.7,-21.3,23.9,18.5479,15.6867,13.9313,21.5229,-4.36828,-20.3772,39.4066,-36.3081,26.1532,-0.309942,-0.0927173,-1.69123,252.9,6.3,52.1701,4.42719,7.2,1.28935,402.064,4.54485,177.201,-9.49708,166.649,0.754004,0.221081,243.438,2.08475,2.23776,34.887161254882805,22.004571914672898,17.4527206420898,22.0,-985457.0,4830.02,pp-ro,1,1,-1,-1
1570536068.2,2019-10-08,14:01:08.200,14.0,14.0,20.7600002288818,20.3,9.7,9.0,43.1,-15.7,16.2,21.8589,12.7644,10.7611,28.7232,-8.68731,-12.8529,43.4664,-27.6208,13.1662,-0.511532,-0.143099,-1.45997,252.9,6.3,52.1701,4.42719,7.2,1.3636,449.995,4.54496,178.36900000000003,-7.596989999999999,165.649,0.747987,0.210048,243.542,1.93282,2.11776,34.369415283203104,22.004571914672898,15.2223224639893,22.0,-985242.0,-369.174,pp-ro,1,1,-1,-1
1570536068.3,2019-10-08,14:01:08.300,14.0,14.0,20.7600002288818,21.1,7.3,6.8,45.1,-10.5,9.0,22.7389,11.4283,9.7412,19.7462,-24.6692,-20.5168,43.8798,-24.6923,9.89291,-0.21675,-0.1484359999999999,-1.80452,252.9,6.3,52.1701,4.42719,7.2,1.40294,442.437,4.54515,179.333,-5.3169,164.84900000000002,0.743121,0.196883,243.647,1.79143,1.99103,33.480377197265604,22.004571914672898,12.8039865493774,22.0,-984715.0,8183.35,pp-ro,1,1,-1,-1
1570536068.4,2019-10-08,14:01:08.400,14.0,14.0,20.7600002288818,21.4,5.4,4.0,45.3,-5.2,4.1,23.4284,10.072,8.661480000000001,9.88917,-22.3896,-29.3682,44.8758,-22.0051,5.88135,0.00899383,-0.142611,-1.31279,252.9,6.3,52.1701,4.42719,7.2,1.30376,391.286,4.54518,180.063,-3.4168199999999995,164.34900000000002,0.739714,0.186185,243.813,1.67323,1.85673,31.8760070800781,22.004571914672898,10.1963148117065,22.0,-983549.0,11136.7,pp-ro,1,1,-1,-1
1570536068.5,2019-10-08,14:01:08.500,14.0,11.0,20.590000152587898,21.6,3.2,2.0,46.1,-0.8,0.1,24.0316,6.45552,4.08903,2.34456,-13.9191,-22.4271,45.6528,-13.4205,-2.43783,-0.153172,-0.174256,-1.2669700000000002,252.9,6.3,52.1701,4.42719,7.2,1.26497,375.351,4.54536,180.618,-1.13674,164.049,0.737352,0.17332,244.0,1.57807,1.73312,30.1864929199219,22.004056930542003,7.74969148635864,22.0,-983051.0,9137.05,pp-ro,1,1,-1,-1
1570536068.6,2019-10-08,14:01:08.600,14.0,12.0,20.4599990844727,21.3,1.8,0.3,46.6,3.7,-4.0,24.0518,4.04549,1.70169,9.11052,-26.838,-17.2811,45.2176,-8.08803,-6.840789999999999,0.300919,0.22918,-0.8629959999999999,252.9,6.3,52.1701,4.42719,7.2,1.23394,362.836,4.5454,181.056,0.7633220000000001,163.949,0.735849,0.162778,244.256,1.47892,1.6407,28.1801910400391,22.0035419464111,5.90720462799072,22.0,-982483.0,1476.7,pp-ro,1,1,-1,-1
1570536068.7,2019-10-08,14:01:08.700,14.0,12.0,20.2000007629395,21.1,1.3,-0.3,46.3,8.2,-8.2,23.9807,2.3218400000000003,-0.038694,-8.50226,-16.6018,-13.9712,45.1244,-2.46583,-10.2044,-0.180007,0.127623,-0.955887,252.9,6.3,52.1701,4.42719,7.3,1.22286,347.759,4.5455,181.377,3.04339,164.049,0.735205,0.150107,244.579,1.38021,1.61285,26.6030883789062,22.003026962280305,5.30790328979492,22.0,-981790.0,8767.88,pp-ro,1,1,-1,-1
1570536068.8,2019-10-08,14:01:08.800,14.0,11.0,19.7999992370605,20.5,0.3,-1.7,46.2,10.5,-10.4,23.2391,1.02269,-1.71216,-11.447,-5.96767,-8.58202,44.1596,2.46404,-14.8271,-0.1348609999999999,0.172618,-1.05453,252.9,6.3,52.1701,4.42719,7.3,1.18241,341.182,4.54561,181.523,4.56344,164.049,0.734717,0.141642,244.711,1.3306,1.53591,24.5116271972656,22.0035419464111,3.744992256164549,22.0,-981408.0,7229.65,pp-ro,1,1,-1,-1
1570536068.9,2019-10-08,14:01:08.900,14.0,12.0,19.3999996185303,20.1,-0.7,-2.8,46.2,14.2,-14.5,22.7063,-0.406363,-3.1107,-6.97403,-17.0091,-14.2375,43.3539,7.28625,-18.9044,-0.0536885,0.2853449999999999,-0.910298,252.9,6.3,52.1701,4.42719,7.3,1.1874,338.375,4.545719999999999,181.611,6.083480000000001,164.24900000000002,0.734962,0.133183,244.943,1.24127,1.467,21.8581237792969,22.0035419464111,2.3088500499725297,22.0,-981248.0,1199.82,pp-ro,1,1,-1,-1
1570536069.0,2019-10-08,14:01:09.000,14.0,14.0,19.2199993133545,19.4,-2.1,-4.3,45.1,19.7,-21.0,22.0883,-1.82944,-4.3640300000000005,-1.6821400000000002,-17.4687,-10.0657,42.5207,12.0987,-22.8089,0.466526,0.0229707,-0.783645,252.9,6.3,52.1701,4.42719,7.3,1.1741,333.36800000000005,4.5458300000000005,181.581,9.12355,164.649,0.735904,0.116356,245.284,1.10798,1.37116,19.7394180297852,22.003026962280305,0.25407737493515,22.0,-980542.0,4768.5,pp-ro,1,1,-1,-1
1570536069.1,2019-10-08,14:01:09.100,14.0,12.0,19.0799999237061,19.1,-2.6,-4.9,44.8,21.4,-23.2,20.7792,-3.43406,-6.22207,-6.70907,-8.843,-9.72689,41.0959,18.4102,-29.2213,0.306,0.176306,-0.8572639999999999,257.2,6.3,52.1701,4.42719,7.3,1.17743,334.223,4.5459,181.406,11.0236,164.74900000000002,0.7363970000000001,0.105798,245.299,1.06855,1.33614,17.6309280395508,22.003026962280305,-0.5285426974296571,22.0,-980243.0,2830.33,pp-ro,1,1,-1,-1
1570536069.2,2019-10-08,14:01:09.200,14.0,13.0,18.9400005340576,18.4,-4.1,-6.3,43.8,25.6,-29.5,20.7792,-3.43406,-6.22207,-6.70907,-8.843,-9.72689,41.0959,18.4102,-29.2213,0.306,0.176306,-0.8572639999999999,257.2,6.3,52.1701,4.42719,7.3,1.1840700000000002,338.98800000000006,4.54595,181.143,12.9236,165.449,0.738883,0.0952143999999999,245.669,0.951931,1.23395,15.525848388671902,22.003026962280305,-2.75986218452454,22.0,-980072.0,3445.62,pp-ro,1,1,-1,-1
1570536069.3,2019-10-08,14:01:09.300,14.0,11.0,18.7099990844727,18.1,-4.6,-6.8,43.2,26.7,-31.8,20.1091,-4.64792,-7.311380000000001,-10.4324,-9.86471,-8.58084,39.978,22.1309,-33.1796,0.346273,-0.1584279999999999,-0.70093,257.2,6.3,52.1701,4.42719,7.3,1.19793,353.4,4.546,180.968,14.0637,165.74900000000002,0.740031,0.0888279,245.804,0.916477,1.19934,13.4241714477539,22.003026962280305,-3.54918575286865,22.0,-979803.0,2030.46,pp-ro,1,1,-1,-1
1570536069.4,2019-10-08,14:01:09.400,14.0,12.0,18.8500003814697,17.3,-5.6,-7.6,42.1,28.3,-35.9,19.2859,-5.6784300000000005,-8.21337,-7.095839999999999,-13.1794,-5.45178,38.7371,24.7027,-37.7746,0.0116994,-0.143294,-0.8314799999999999,257.2,6.3,52.1701,4.42719,7.3,1.24336,364.901,4.54606,180.53,15.5837,166.34900000000002,0.742689,0.0802246,245.979,0.855727,1.1296700000000002,11.3105621337891,22.0035419464111,-5.13667249679565,22.0,-979383.0,4953.08,pp-ro,1,1,-1,-1
1570536069.5,2019-10-08,14:01:09.500,14.0,13.0,19.0300006866455,16.4,-6.2,-8.1,41.1,29.6,-40.1,18.2653,-6.683889999999999,-9.00871,-16.8156,-7.580839999999999,-11.4371,37.5112,26.7063,-41.5222,0.295511,0.0580231,-0.169003,257.2,6.3,52.1701,4.42719,7.3,1.21621,359.121,4.54611,180.00400000000002,17.4837,167.048,0.745745,0.0694548,246.196,0.79861,1.07918,9.20378112792969,22.0035419464111,-6.38248777389526,22.0,-978862.0,4430.09,pp-ro,1,1,-1,-1
1570536069.6,2019-10-08,14:01:09.600,14.0,10.0,19.4899997711182,15.6,-6.6,-8.6,40.6,31.1,-43.7,16.7971,-7.36037,-9.73374,-7.252560000000001,-1.08998,1.4996,36.1055,30.26,-47.2473,-0.00219253,0.0338033,-0.741056,257.2,6.3,52.1701,4.42719,7.3,1.21898,360.12,4.54616,179.42,19.0037,167.748,0.7490100000000001,0.0607039999999999,246.358,0.745383,1.03385,7.09529113769531,22.0035419464111,-7.53228902816772,22.0,-978698.0,3045.68,pp-ro,1,1,-1,-1
1570536069.7,2019-10-08,14:01:09.700,14.0,10.0,19.8500003814697,14.9,-7.4,-9.1,39.0,32.5,-47.3,15.9245,-8.06012,-10.1958,-17.8938,-9.9955,-4.16052,34.8619,32.1744,-50.4214,0.180441,-0.0325637,-0.373886,257.2,6.3,52.1701,4.42719,7.3,1.2356,371.162,4.546209999999999,178.71900000000002,20.9038,168.548,0.75273,0.0497403,246.548,0.69508,0.980873,6.03253173828125,22.0035419464111,-8.88663291931152,22.0,-978332.0,4183.97,pp-ro,1,1,-1,-1
1570536069.8,2019-10-08,14:01:09.800,14.0,10.0,20.25,14.1,-8.1,-9.4,37.6,32.5,-50.9,14.8952,-8.66286,-10.3182,-3.67572,5.66959,-0.470682,33.7903,32.6124,-53.4638,0.345393,-0.301225,-0.458408,257.2,6.3,52.1701,4.42719,7.3,1.25112,375.358,4.54627,177.989,22.0438,169.44799999999998,0.757023,0.0429014,246.736,0.655131,0.930651,3.3875503540039102,22.0035419464111,-10.200674057006802,22.0,-978080.0,2307.34,pp-ro,1,1,-1,-1
1570536069.9,2019-10-08,14:01:09.900,14.0,10.0,20.4200000762939,13.5,-8.0,-9.8,37.3,33.0,-52.9,14.8952,-8.66286,-10.3182,-3.67572,5.66959,-0.470682,33.7903,32.6124,-53.4638,0.345393,-0.301225,-0.458408,257.2,6.3,52.1701,4.42719,7.3,1.24779,364.1230000000001,4.54635,177.2,23.9438,170.34799999999998,0.7611680000000001,0.0317251,246.965,0.633304,0.906381,1.28587341308594,22.0035419464111,-11.0340347290039,22.0,-977485.0,7198.89,pp-ro,1,1,-1,-1
1570536070.0,2019-10-08,14:01:10.000,14.0,10.0,20.6800003051758,13.4,-8.3,-9.7,36.8,32.8,-54.9,14.4136,-8.4833,-10.8361,-4.3796800000000005,0.769365,-0.979391,33.6835,33.6551,-54.7637,-0.1151539999999999,0.0441866,-0.385381,257.2,6.3,52.1701,4.42719,7.3,1.21122,364.643,4.54636,176.41099999999997,25.0838,171.248,0.765548,0.0247855,247.136,0.614566,0.903163,-0.8158416748046879,22.0035419464111,-11.4377698898315,22.0,-976968.0,3476.39,pp-ro,1,1,-1,-1
1570536070.1,2019-10-08,14:01:10.100,14.0,11.0,20.8899993896484,13.5,-8.5,-9.5,35.9,33.2,-56.6,14.2637,-8.76801,-10.5401,-1.15995,-4.16113,-0.627386,33.1026,34.2748,-56.4779,0.150704,-0.00529077,-0.0967541,249.8,5.7,52.1701,4.42719,7.3,1.26386,390.753,4.54638,175.56400000000002,26.2238,172.148,0.7700600000000001,0.0177412,247.276,0.59437,0.913069,-3.44939422607422,22.003026962280305,-11.5999755859375,22.0,-976924.0,369.174,pp-ro,1,1,-1,-1
1570536070.2,2019-10-08,14:01:10.200,14.0,11.0,21.1800003051758,13.5,-8.5,-9.5,35.8,33.1,-57.6,14.2589,-8.96325,-10.093,-7.0823100000000005,0.8291149999999999,0.902103,32.6127,35.2508,-58.2133,0.178846,0.0866207,-0.17669,249.8,5.7,52.1701,4.42719,7.3,1.29877,390.567,4.54628,174.717,28.1238,173.048,0.774205,0.00651373,247.513,0.590536,0.920784,-5.5692138671875,22.003026962280305,-11.840434074401902,22.0,-976522.0,5353.02,pp-ro,1,1,-1,-1
1570536070.3,2019-10-08,14:01:10.300,14.0,10.0,21.3899993896484,13.7,-8.8,-9.4,36.5,33.0,-57.3,14.2589,-8.96325,-10.093,-7.0823100000000005,0.8291149999999999,0.902103,32.6127,35.2508,-58.2133,0.178846,0.0866207,-0.17669,249.8,5.7,52.1701,4.42719,7.3,1.23339,371.711,4.54617,173.812,29.2638,173.94799999999998,0.778803,-0.000581991,247.639,0.600387,0.929001,-6.55743408203125,22.003026962280305,-12.071232795715302,22.0,-975467.0,4983.85,pp-ro,1,1,-1,-1
1570536070.4,2019-10-08,14:01:10.400,14.0,8.0,21.6399993896484,14.0,-8.9,-9.1,37.6,32.3,-56.9,14.4248,-8.97053,-9.70075,-4.64325,-0.810615,4.93938,33.3258,35.8049,-57.9185,0.0166285999999999,0.0666591,0.2167239999999999,249.8,5.7,52.1701,4.42719,7.3,1.23727,374.46,4.54611,172.93599999999998,30.4038,174.84799999999998,0.783288,-0.00775718,247.796,0.616637,0.95171,-8.29834747314453,22.0035419464111,-12.0189380645752,22.0,-975339.0,2399.63,pp-ro,1,1,-1,-1
1570536070.5,2019-10-08,14:01:10.500,14.0,9.0,21.760000228881804,14.5,-8.8,-8.6,38.8,31.4,-55.5,14.849,-9.11548,-9.21628,6.988630000000001,-1.83983,3.87543,34.391,34.903,-57.1987,0.168998,-0.00479358,0.2475389999999999,249.8,5.7,52.1701,4.42719,7.3,1.26442,377.075,4.54603,171.942,32.3039,175.648,0.787388,-0.0193498,247.911,0.650986,0.995278,-10.0392532348633,22.003026962280305,-11.5991020202637,22.0,-975020.0,4245.5,pp-ro,1,1,-1,-1
1570536070.6,2019-10-08,14:01:10.600,14.0,10.0,21.8799991607666,15.0,-8.5,-8.0,40.7,30.0,-53.6,15.0158,-9.05237,-8.80749,8.80605,0.285627,9.30886,35.1919,34.4328,-56.4538,0.0691508,0.0892426,0.124466,249.8,5.7,52.1701,4.42719,7.3,1.21455,353.235,4.54594,171.06599999999997,33.4439,176.34799999999998,0.791226,-0.0266192,247.953,0.693346,1.04404,-11.0496673583984,22.0035419464111,-11.0124063491821,22.0,-974112.0,5137.67,pp-ro,1,1,-1,-1
1570536070.7,2019-10-08,14:01:10.700,14.0,10.0,21.8799991607666,15.7,-8.4,-7.3,43.0,28.6,-51.5,15.6501,-8.594489999999999,-7.713719999999999,7.72578,2.61663,4.059,38.1281,32.5898,-53.0903,0.0410348,-0.0100059,0.4492279999999999,249.8,5.7,52.1701,4.42719,7.3,1.20402,346.67,4.54585,170.19,35.3439,177.048,0.794596,-0.0382276999999999,248.113,0.742001,1.09945,-11.6982421875,22.003026962280305,-10.3430957794189,22.0,-973680.0,4276.26,pp-ro,1,1,-1,-1
1570536070.8,2019-10-08,14:01:10.800,14.0,9.0,21.719999313354503,16.3,-8.0,-6.6,44.9,26.5,-49.5,16.3924,-8.51205,-6.789210000000001,9.14591,5.839980000000001,10.6453,40.1362,30.782,-51.0485,0.2480429999999999,-0.23405,0.410732,249.8,5.7,52.1701,4.42719,7.3,1.19848,345.324,4.54577,169.255,36.8639,177.648,0.798009,-0.0478298,248.123,0.795108,1.15801,-11.9918060302734,22.003026962280305,-9.601358413696287,22.0,-973464.0,4183.97,pp-ro,1,1,-1,-1
1570536070.9,2019-10-08,14:01:10.900,14.0,10.0,21.5200004577637,16.9,-7.5,-5.7,46.3,24.0,-47.5,16.875999999999998,-8.07025,-5.9076900000000006,6.36726,7.0057,8.2014,42.2315,28.0741,-48.9703,0.572335,-0.139768,0.583052,249.8,5.7,52.1701,4.42719,7.3,1.1946,342.686,4.54568,168.467,38.7639,178.148,0.800438,-0.0594535,248.235,0.854567,1.22716,-11.9645004272461,22.0035419464111,-8.62729454040527,22.0,-973118.0,3168.74,pp-ro,1,1,-1,-1
1570536071.0,2019-10-08,14:01:11.000,14.0,10.0,21.3199996948242,17.5,-7.1,-4.8,47.9,21.1,-44.8,17.3442,-7.50663,-4.9176400000000005,5.87669,1.30101,4.78307,44.3758,24.5528,-46.8022,0.307625,-0.134633,0.692757,249.8,5.7,52.1701,4.42719,7.3,1.19294,342.01800000000003,4.54559,167.678,40.2839,178.648,0.803053,-0.0689822,248.302,0.926718,1.29131,-11.5412216186523,22.0035419464111,-7.7475323677063,22.0,-972690.0,4706.97,pp-ro,1,1,-1,-1
1570536071.1,2019-10-08,14:01:11.100,14.0,10.0,21.1499996185303,18.2,-6.7,-4.1,49.7,18.6,-41.2,17.8979,-7.10762,-4.0561,8.97226,3.97598,6.4578,46.1404,21.8257,-43.5475,-0.0183563,-0.0391551999999999,0.559768,232.8,6.0,52.1701,4.42719,7.3,1.1901700000000002,343.85900000000004,4.54552,166.889,42.184,179.048,0.805072,-0.0807107,248.374,1.00908,1.35099,-10.7612228393555,22.003026962280305,-6.97375154495239,22.0,-972382.0,2399.63,pp-ro,1,1,-1,-1
1570536071.2,2019-10-08,14:01:11.200,14.0,9.0,21.229999542236303,18.6,-6.2,-3.2,51.5,15.4,-38.3,18.6166,-6.44944,-2.89525,12.5385,4.2819400000000005,12.1579,48.7186,17.1468,-38.9785,0.0339779,-0.0262924,0.6296149999999999,232.8,6.0,52.1701,4.42719,7.3,1.20125,341.56,4.54536,166.15900000000002,43.70399999999999,179.34799999999998,0.80686,-0.0901743,248.364,1.08906,1.41232,-9.61768341064453,22.003026962280305,-6.11714887619019,22.0,-972004.0,4645.44,pp-ro,1,1,-1,-1
1570536071.3,2019-10-08,14:01:11.300,14.0,10.0,21.2800006866455,19.2,-5.6,-2.2,52.3,12.7,-36.2,19.3171,-5.93583,-1.9337,5.66593,6.202380000000001,8.52876,49.7044,13.5127,-37.0141,0.155383,0.00757272,0.511342,232.8,6.0,52.1701,4.42719,7.3,1.18352,345.77,4.54521,165.517,45.984,179.548,0.8074899999999999,-0.1038839999999999,248.491,1.15699,1.4857,-8.678955078125,22.003026962280305,-5.03815221786499,22.0,-971588.0,3322.56,pp-ro,1,1,-1,-1
1570536071.4,2019-10-08,14:01:11.400,14.0,10.0,21.2800006866455,20.0,-4.9,-0.8,53.1,10.0,-33.9,19.3171,-5.93583,-1.9337,5.66593,6.202380000000001,8.52876,49.7044,13.5127,-37.0141,0.155383,0.00757272,0.511342,232.8,6.0,52.1701,4.42719,7.3,1.22009,359.259,4.54505,164.903,47.8841,179.648,0.807974,-0.115268,248.514,1.22638,1.57455,-7.55077362060547,22.0035419464111,-3.59992837905884,22.0,-971454.0,1261.34,pp-ro,1,1,-1,-1
1570536071.5,2019-10-08,14:01:11.500,14.0,11.0,21.1499996185303,20.2,-4.0,0.3,53.9,8.2,-32.4,20.003,-5.29731,-0.754343,5.01796,7.492319999999999,8.88006,50.8546,10.9034,-35.0368,0.3729679999999999,-0.144554,0.533408,232.8,6.0,52.1701,4.42719,7.3,1.21676,355.332,4.5449,164.407,49.7841,179.648,0.807787,-0.12654,248.55900000000003,1.27518,1.65219,-6.47039031982422,22.0035419464111,-2.3371114730835,22.0,-970741.0,5014.61,pp-ro,1,1,-1,-1
1570536071.6,2019-10-08,14:01:11.600,14.0,11.0,20.9400005340576,20.2,-3.3,1.4,53.9,5.9,-31.8,20.3556,-4.3952800000000005,0.537856,9.43004,1.2636,11.7557,51.9362,8.8075,-33.6068,-0.0429461,-0.0180143,0.184372,232.8,6.0,52.1701,4.42719,7.3,1.20568,342.223,4.54474,163.998,51.6841,179.44799999999998,0.806736,-0.13765,248.532,1.31837,1.72168,-5.070831298828121,22.0035419464111,-1.16116654872894,22.0,-970304.0,4860.79,pp-ro,1,1,-1,-1
1570536071.7,2019-10-08,14:01:11.700,14.0,10.0,20.8600006103516,20.5,-2.7,2.0,54.2,4.2,-29.4,20.3374,-3.86434,1.61155,-1.0420200000000002,11.7612,5.19273,52.5567,5.85896,-33.1609,0.189827,-0.0704244,0.488345,232.8,6.0,52.1701,4.42719,7.2,1.18961,331.856,4.544580000000001,163.589,53.9642,179.248,0.8052779999999999,-0.150832,248.603,1.3792799999999998,1.7731400000000002,-3.8692626953125,22.003026962280305,-0.377999365329742,22.0,-970003.0,5937.55,pp-ro,1,1,-1,-1
1570536071.8,2019-10-08,14:01:11.800,14.0,10.0,20.729999542236303,20.7,-2.0,2.8,55.0,2.8,-27.9,20.3374,-3.86434,1.61155,-1.0420200000000002,11.7612,5.19273,52.5567,5.85896,-33.1609,0.189827,-0.0704244,0.488345,232.8,6.0,52.1701,4.42719,7.2,1.14529,313.047,4.54443,163.296,55.8642,178.94799999999998,0.8034899999999999,-0.161661,248.614,1.42332,1.83181,-2.6301422119140603,22.003026962280305,0.646914541721344,22.0,-969453.0,5076.14,pp-ro,1,1,-1,-1
1570536071.9,2019-10-08,14:01:11.900,14.0,11.0,20.6499996185303,20.9,-1.7,3.5,54.3,1.6,-26.9,20.4974,-3.4540800000000003,1.81719,3.82752,4.45749,3.30132,52.6404,4.8952800000000005,-32.1011,0.395518,0.214732,0.659126,232.8,6.0,52.1701,4.42719,7.2,1.1403,320.995,4.54427,163.033,58.1443,178.548,0.8009149999999999,-0.1744609999999999,248.677,1.46003,1.87355,-1.4831848144531203,22.003026962280305,1.3519247770309402,22.0,-969135.0,2614.98,pp-ro,1,1,-1,-1
1570536072.0,2019-10-08,14:01:12.000,14.0,11.0,20.520000457763697,20.7,-1.6,4.0,54.0,0.3,-25.7,20.9997,-2.08388,3.6139,-2.15256,4.06538,2.17049,53.4785,1.2384700000000002,-28.8454,0.133438,0.104043,0.441007,232.8,6.0,52.1701,4.42719,7.2,1.18961,348.32199999999995,4.54412,162.829,60.0443,178.148,0.79848,-0.185013,248.707,1.49881,1.90097,-0.945556640625,22.003026962280305,-35.0,22.0,-969139.0,-799.877,pp-ro,1,1,-1,-1
1570536072.1,2019-10-08,14:01:12.100,14.0,13.0,20.3899993896484,21.2,-1.8,4.3,53.8,-0.5,-24.4,20.8802,-1.94663,3.8428,0.317056,2.77474,8.0298,53.5408,0.625066,-28.2615,0.304135,0.1192579999999999,0.481436,234.1,5.8,52.1701,4.42719,7.2,1.2284,354.213,4.54399,162.624,61.9444,177.648,0.795708,-0.195537,248.682,1.53264,1.90921,0.292938232421875,22.0035419464111,-35.0,22.0,-968819.0,4706.97,pp-ro,1,1,-1,-1
1570536072.2,2019-10-08,14:01:12.200,14.0,13.0,20.2600002288818,21.2,-1.9,4.7,53.5,-1.0,-23.9,20.8802,-1.94663,3.8428,0.317056,2.77474,8.0298,53.5408,0.625066,-28.2615,0.304135,0.1192579999999999,0.481436,234.1,5.8,52.1701,4.42719,7.2,1.19294,344.982,4.5439,162.391,64.2244,177.148,0.792557,-0.2081239999999999,248.751,1.55419,1.92694,1.08831024169922,22.0035419464111,-35.0,22.0,-968248.0,5168.43,pp-ro,1,1,-1,-1
1570536072.3,2019-10-08,14:01:12.300,14.0,14.0,20.2199993133545,21.1,-2.0,5.0,52.6,-2.0,-24.6,21.4462,-2.22642,4.67271,3.37411,1.43411,2.80866,52.0572,-1.97202,-26.6976,-0.216353,-0.244603,0.194615,234.1,5.8,52.1701,4.42719,7.2,1.19737,344.676,4.54381,162.128,66.1245,176.548,0.7895340000000001,-0.218676,248.65,1.5655,1.94049,1.5209045410156203,22.0035419464111,-35.0,22.0,-967989.0,2522.69,pp-ro,1,1,-1,-1
1570536072.4,2019-10-08,14:01:12.400,14.0,14.0,20.0400009155273,21.0,-2.1,5.3,52.0,-2.6,-24.9,21.4929,-2.39913,4.96034,0.410778,-2.556,-0.105044,51.4455,-2.81553,-26.7766,-0.0990548,0.0193502,0.189601,234.1,5.8,52.1701,4.42719,7.2,1.19239,346.074,4.54372,161.894,68.4045,176.048,0.786239,-0.2311,248.76,1.57825,1.95537,1.62309265136719,22.003026962280305,-35.0,22.0,-967392.0,3722.5,pp-ro,1,1,-1,-1
1570536072.5,2019-10-08,14:01:12.500,14.0,14.0,20.0,20.9,-2.1,5.4,51.7,-3.1,-25.4,21.4929,-2.39913,4.96034,0.410778,-2.556,-0.105044,51.4455,-2.81553,-26.7766,-0.0990548,0.0193502,0.189601,234.1,5.8,52.1701,4.42719,7.2,1.20568,346.682,4.54355,161.66,70.3045,175.44799999999998,0.783015,-0.241379,248.71400000000003,1.58585,1.96618,1.37273406982422,22.0035419464111,-35.0,22.0,-967085.0,3507.15,pp-ro,1,1,-1,-1
1570536072.6,2019-10-08,14:01:12.600,14.0,14.0,19.909999847412102,21.0,-2.3,5.6,51.3,-3.5,-25.8,21.3618,-2.45226,5.17554,3.08368,-0.234835,0.225267,51.0694,-3.2628,-27.5125,0.0290404,-0.0490028,-0.166153,234.1,5.8,52.1701,4.42719,7.2,1.20125,353.51,4.5435300000000005,161.42700000000002,72.5846,174.84799999999998,0.779297,-0.253703,248.795,1.59482,1.97356,0.7527923583984379,22.0035419464111,-35.0,22.0,-966683.0,3476.39,pp-ro,1,1,-1,-1
1570536072.7,2019-10-08,14:01:12.700,14.0,13.0,19.909999847412102,21.0,-2.3,5.8,51.5,-3.6,-26.3,21.3121,-2.64528,5.52576,-1.62653,0.939483,6.582160000000001,50.0605,-3.23868,-28.1491,-0.3069719999999999,-0.159019,0.120048,234.1,5.8,52.1701,4.42719,6.8,1.20845,355.436,4.54344,161.134,74.8646,174.248,0.775656,-0.26599,248.86,1.59885,1.98822,-0.23553466796875,22.003026962280305,-35.0,22.0,-966568.0,2184.28,pp-ro,1,1,-1,-1
1570536072.8,2019-10-08,14:01:12.800,14.0,13.0,20.0400009155273,21.1,-2.2,6.0,51.4,-4.5,-27.4,21.3121,-2.64528,5.52576,-1.62653,0.939483,6.582160000000001,50.0605,-3.23868,-28.1491,-0.3069719999999999,-0.159019,0.120048,234.1,5.8,52.1701,4.42719,6.8,1.21954,347.477,4.54335,160.871,76.7647,173.548,0.772038,-0.276188,248.78,1.60418,2.0043,-1.5770645141601598,22.003026962280305,-35.0,22.0,-966123.0,5660.67,pp-ro,1,1,-1,-1
1570536072.9,2019-10-08,14:01:12.900,14.0,11.0,20.2099990844727,21.0,-2.0,6.4,51.6,-5.9,-28.1,21.4262,-2.80727,5.8797,-3.87556,2.28535,10.962,49.981,-3.39632,-27.8955,0.132345,-0.0929198,-0.0699169,234.1,5.8,52.1701,4.42719,6.8,1.18186,342.616,4.54326,160.667,79.4247,172.94799999999998,0.767572,-0.289984,249.064,1.62339,2.03309,-3.27529907226562,22.0035419464111,-35.0,22.0,-965591.0,4614.67,pp-ro,1,1,-1,-1
1570536073.0,2019-10-08,14:01:13.000,14.0,12.0,20.5599994659424,20.9,-1.6,6.8,52.0,-7.0,-27.6,21.4262,-2.80727,5.8797,-3.87556,2.28535,10.962,49.981,-3.39632,-27.8955,0.132345,-0.0929198,-0.0699169,234.1,5.8,52.1701,4.42719,6.8,1.20956,356.541,4.54317,160.46200000000002,81.7048,172.248,0.76321,-0.301747,249.185,1.65192,2.0673,-5.311485290527339,22.0035419464111,-35.0,22.0,-965444.0,1169.05,pp-ro,1,1,-1,-1
1570536073.1,2019-10-08,14:01:13.100,14.0,12.0,20.770000457763697,21.1,-1.3,7.5,53.2,-9.0,-26.9,20.7924,-1.93137,7.243010000000001,-2.53485,-2.58396,3.90739,51.4118,-5.93808,-27.2403,0.228746,0.229942,0.489502,235.2,6.0,52.1701,4.42719,6.8,1.23505,364.666,4.543130000000001,160.287,83.6048,171.548,0.7591979999999999,-0.31151,249.219,1.69285,2.10273,-7.43471527099609,22.003026962280305,-35.0,22.0,-965097.0,4307.03,pp-ro,1,1,-1,-1
1570536073.2,2019-10-08,14:01:13.200,14.0,12.0,20.979999542236303,21.4,-0.5,8.4,54.4,-10.5,-25.9,20.7924,-1.93137,7.243010000000001,-2.53485,-2.58396,3.90739,51.4118,-5.93808,-27.2403,0.228746,0.229942,0.489502,235.2,6.0,52.1701,4.42719,6.8,1.22729,358.13,4.543130000000001,160.19899999999998,85.8849,170.748,0.754143,-0.322864,249.389,1.73203,2.15925,-9.53746032714844,22.0035419464111,-35.0,22.0,-964665.0,4645.44,pp-ro,1,1,-1,-1
1570536073.3,2019-10-08,14:01:13.300,14.0,12.0,21.1399993896484,21.2,0.0,9.6,55.3,-14.0,-24.8,20.8929,-0.57475,9.00203,-4.22484,6.49995,7.94412,53.6672,-8.97875,-24.2905,0.389604,0.0383687,0.633293,235.2,6.0,52.1701,4.42719,6.8,1.21455,360.614,4.54314,160.17,87.7849,169.94799999999998,0.7493920000000001,-0.332117,249.485,1.79659,2.21519,-11.6453323364258,22.004056930542003,-35.0,22.0,-964195.0,3968.62,pp-ro,1,1,-1,-1
1570536073.4,2019-10-08,14:01:13.400,14.0,12.0,21.270000457763697,21.0,0.5,10.5,56.2,-18.0,-22.5,20.6495,-0.227309,9.45838,-4.931719999999999,6.28212,11.6598,54.3762,-10.5293,-23.3727,0.636338,-0.00171005,0.750814,235.2,6.0,52.1701,4.42719,6.8,1.24114,375.177,4.54315,160.17,90.0649,168.94799999999998,0.7434390000000001,-0.343003,249.618,1.8825,2.26361,-13.749786376953098,22.004056930542003,-35.0,22.0,-964012.0,1230.58,pp-ro,1,1,-1,-1
1570536073.5,2019-10-08,14:01:13.500,14.0,12.0,21.3899993896484,20.8,1.2,11.5,56.6,-22.1,-18.2,20.3756,0.116002,10.0227,-8.3475,10.2674,11.5123,54.6005,-12.3296,-21.9954,0.107478,-0.0725093,0.792355,235.2,6.0,52.1701,4.42719,6.8,1.26386,373.111,4.543159999999999,160.22799999999998,91.965,167.84799999999998,0.737512,-0.351826,249.607,1.98996,2.31849,-15.8866729736328,22.003026962280305,-35.0,22.0,-963611.0,5537.61,pp-ro,1,1,-1,-1
1570536073.6,2019-10-08,14:01:13.600,14.0,13.0,21.4699993133545,20.6,2.7,12.9,57.2,-26.4,-15.3,20.0581,0.400329,10.3869,-6.5705800000000005,1.13815,3.61564,54.7688,-14.0996,-19.9993,0.411835,0.345473,1.07643,235.2,6.0,52.1701,4.42719,6.8,1.16579,316.781,4.54317,160.433,94.245,166.64700000000002,0.730398,-0.3619159999999999,249.784,2.08392,2.40625,-17.986007690429698,22.0035419464111,-35.0,22.0,-962455.0,8367.94,pp-ro,1,1,-1,-1
1570536073.7,2019-10-08,14:01:13.700,14.0,12.0,21.4699993133545,20.4,3.6,13.6,57.9,-31.3,-12.5,20.0581,0.400329,10.3869,-6.5705800000000005,1.13815,3.61564,54.7688,-14.0996,-19.9993,0.411835,0.345473,1.07643,235.2,6.0,52.1701,4.42719,6.5,1.13365,313.656,4.54318,160.754,95.7651,165.347,0.723713,-0.36806,249.705,2.18059,2.45545,-20.0955810546875,22.0035419464111,-35.0,22.0,-962161.0,5783.72,pp-ro,1,1,-1,-1
1570536073.8,2019-10-08,14:01:13.800,14.0,12.0,21.4699993133545,19.8,4.8,15.3,57.5,-33.7,-10.4,18.9613,3.94994,14.1284,-6.22065,10.0614,15.0205,55.0227,-27.1659,-6.964169999999999,0.0852863,0.0580547,1.1404299999999998,235.2,6.0,52.1701,4.42719,6.5,1.22674,370.447,4.54319,160.987,97.2851,164.64700000000002,0.719012,-0.374376,249.98,2.23699,2.53765,-22.208572387695305,22.0035419464111,-35.0,22.0,-962314.0,-2338.1,pp-ro,1,1,-1,-1
1570536073.9,2019-10-08,14:01:13.900,14.0,13.0,21.5499992370605,18.7,6.3,17.0,57.3,-39.1,-6.1,18.9613,3.94994,14.1284,-6.22065,10.0614,15.0205,55.0227,-27.1659,-6.964169999999999,0.0852863,0.0580547,1.1404299999999998,235.2,6.0,52.1701,4.42719,6.5,1.26996,372.109,4.5432,161.484,98.8051,163.047,0.710993,-0.379901,249.848,2.35156,2.63382,-24.3181457519531,22.004056930542003,-35.0,22.0,-961901.0,6922.01,pp-ro,1,1,-1,-1
1570536074.0,2019-10-08,14:01:14.000,14.0,11.0,21.7999992370605,17.0,8.4,18.3,55.9,-45.4,-1.1,17.1419,6.05349,16.4717,-14.3751,20.1717,13.7084,53.4924,-34.8721,0.0658567,-0.20024,-0.00468797,1.00761,235.2,6.0,52.1701,4.42719,6.5,1.21289,359.357,4.54321,162.185,101.085,161.347,0.7011609999999999,-0.388173,250.11,2.48121,2.75294,-26.4311294555664,22.004056930542003,-35.0,22.0,-961240.0,4583.91,pp-ro,1,1,-1,-1
1570536074.1,2019-10-08,14:01:14.100,14.0,12.0,21.9099998474121,15.4,10.1,19.6,53.2,-51.4,5.6,17.1419,6.05349,16.4717,-14.3751,20.1717,13.7084,53.4924,-34.8721,0.0658567,-0.20024,-0.00468797,1.00761,235.7,6.8,52.1701,4.42719,6.5,1.21787,358.741,4.54321,163.061,102.605,159.64700000000002,0.691975,-0.392472,250.208,2.61369,2.8529400000000003,-28.550949096679695,22.004571914672898,-35.0,22.0,-961119.0,2307.34,pp-ro,1,1,-1,-1
1570536074.2,2019-10-08,14:01:14.200,14.0,13.0,21.9899997711182,13.2,11.7,20.4,48.3,-56.7,14.7,16.4839,7.13732,17.0692,-7.699389999999999,26.1879,12.3272,52.5927,-37.7817,3.32112,0.315346,0.206083,1.13927,235.7,6.8,52.1701,4.42719,6.5,1.22231,350.845,4.54323,164.112,104.125,157.747,0.6817949999999999,-0.3962219999999999,250.318,2.7489,2.95971,-30.5137329101562,22.0035419464111,-35.0,22.0,-960698.0,5229.96,pp-ro,1,1,-1,-1
1570536074.3,2019-10-08,14:01:14.300,14.0,12.0,22.030000686645497,11.0,13.6,20.8,39.9,-61.0,27.8,11.6936,11.177,19.3083,-15.1301,17.5439,2.10743,39.404,-49.1075,26.662,0.222428,0.191613,1.60867,235.7,6.8,52.1701,4.42719,6.5,1.15969,319.60400000000004,4.54324,165.33900000000003,105.265,155.947,0.672071,-0.397792,250.474,2.89296,3.06883,-32.107864379882805,22.003026962280305,-35.0,22.0,-959829.0,5568.37,pp-ro,1,1,-1,-1
