time,date,time_of_day,airspeed_temperature,airspeed_angle_of_attack,airspeed_apparent_windspeed,kite_0_vx,kite_0_vy,kite_0_vz,kite_0_roll,kite_0_pitch,kite_0_yaw,kite_1_vx,kite_1_vy,kite_1_vz,kite_1_ax,kite_1_ay,kite_1_az,kite_1_roll,kite_1_pitch,kite_1_yaw,kite_1_roll_rate,kite_1_pitch_rate,kite_1_yaw_rate,ground_upwind_direction,ground_wind_velocity,ground_pos_latitude,ground_pos_longitude,ground_pos_altitude,ground_tether_reelout_speed,ground_tether_force,est_upwind_direction,kite_pos_east,kite_pos_north,kite_height,kite_elevation,kite_azimuth,kite_distance,kite_heading,kite_course,kite_actual_steering,kite_actual_depower,kite_set_steering,kite_set_depower,ground_mech_energy,ground_mech_power,flight_phase,flight_phase_index,phase,pattern,pattern_section
1570539956.2,2019-10-08,15:05:56.200,15.0,7.0,15.130000114440902,14.9,-2.2,3.4,24.2,-6.8,-47.0,13.5446,-1.7647,3.89998,5.9955300000000005,9.1419,0.714577,27.0228,7.82551,-47.6897,0.0523335,0.215993,1.06851,250.0,8.6,52.1701,4.427169999999999,-3.6,-3.40262,92.8641,4.47965,58.0063,3.04045,234.823,1.3283,0.180368,241.901,0.8393,1.53352,-34.9906158447266,22.0009689331055,-35.0,22.0,405299.0,-9813.87,pp-riro,4,0,-1,-1
1570539956.3,2019-10-08,15:05:56.300,15.0,8.0,14.960000038147,15.6,-1.1,3.8,25.8,-8.7,-41.7,14.194,-0.8219620000000001,4.10651,5.04666,9.1402,3.38803,28.6564,6.166519999999999,-41.3741,0.2383159999999999,0.267802,1.00199,250.0,8.6,52.1701,4.427169999999999,-3.6,-3.43919,92.2745,4.47957,57.7726,4.5605,234.623,1.32864,0.154042,241.674,0.966491,1.6371,-34.9923248291016,22.0009689331055,-35.0,22.0,403940.0,-14674.7,pp-riro,4,0,-1,-1
1570539956.4,2019-10-08,15:05:56.400,15.0,9.0,14.8400001525879,16.2,0.0,4.4,26.9,-10.7,-36.8,15.139,0.787346,4.83523,5.34611,14.0219,5.23657,30.7962,3.05999,-32.5624,0.2379929999999999,0.176253,0.988936,253.9,9.1,52.1701,4.427169999999999,-3.6,-3.48462,94.7806,4.4795,57.6849,6.46057,234.323,1.32797,0.121353,241.406,1.09362,1.7434900000000002,-34.9923248291016,22.0009689331055,-35.0,22.0,402573.0,-14090.1,pp-riro,4,0,-1,-1
1570539956.5,2019-10-08,15:05:56.500,15.0,9.0,14.6000003814697,16.7,1.3,4.6,27.8,-12.5,-31.5,15.5318,2.01674,5.20199,4.39812,13.8074,4.39655,31.5457,1.0905,-27.0499,0.196915,0.291714,0.96736,253.9,9.1,52.1701,4.427169999999999,-3.6,-3.50956,93.3665,4.47945,57.7141,7.60061,234.023,1.327,0.102,241.155,1.2134,1.8375,-34.9906158447266,22.0009689331055,-35.0,22.0,401414.0,-10982.9,pp-riro,4,0,-1,-1
1570539956.6,2019-10-08,15:05:56.600,15.0,8.0,14.4700002670288,17.0,2.6,5.0,28.5,-14.1,-26.4,15.5318,2.01674,5.20199,4.39812,13.8074,4.39655,31.5457,1.0905,-27.0499,0.196915,0.291714,0.96736,253.9,9.1,52.1701,4.427169999999999,-3.6,-3.54446,87.86,4.47939,57.8601,9.50068,233.623,1.32489,0.0702483999999999,240.86900000000003,1.34097,1.94261,-34.9974365234375,22.0009689331055,-35.0,22.0,399886.0,-16889.7,pp-riro,4,0,-1,-1
1570539956.7,2019-10-08,15:05:56.700,15.0,7.0,14.3500003814697,17.5,3.9,5.3,29.2,-15.4,-21.1,15.6552,2.64901,5.31472,7.114389999999999,12.5964,2.59465,31.8125,0.163832,-24.3572,0.152243,0.179844,0.913347,253.9,9.1,52.1701,4.427169999999999,-3.6,-3.60486,87.3388,4.4793400000000005,58.123000000000005,11.0207,233.323,1.32248,0.0456661,240.706,1.46277,2.03169,-34.9991455078125,22.0009689331055,-35.0,22.0,398029.0,-20089.2,pp-riro,4,0,-1,-1
1570539956.8,2019-10-08,15:05:56.800,15.0,7.0,14.289999961853,17.7,5.1,5.8,29.8,-17.3,-16.4,16.2201,4.440580000000001,5.83366,7.27238,14.7386,4.27402,32.7415,-2.7461,-16.4377,0.215664,0.227201,0.8531629999999999,253.9,9.1,52.1701,4.427169999999999,-3.6,-3.68243,99.1372,4.47928,58.5611,12.9208,232.823,1.3187,0.015949,240.423,1.58167,2.12255,-35.0042724609375,22.0009689331055,-35.0,22.0,395677.0,-11967.4,pp-riro,4,0,-1,-1
1570539956.9,2019-10-08,15:05:56.900,15.0,8.0,14.2299995422363,17.9,6.4,6.3,29.9,-19.2,-11.6,16.2201,4.440580000000001,5.83366,7.27238,14.7386,4.27402,32.7415,-2.7461,-16.4377,0.215664,0.227201,0.8531629999999999,253.9,9.1,52.1701,4.427169999999999,-3.9,-3.68409,100.984,4.47923,59.0868,14.4409,232.324,1.31473,-0.00653883,240.154,1.69447,2.20698,-35.0076751708984,21.9983940124512,-35.0,22.0,395205.0,-8890.94,pp-riro,4,0,-1,-1
1570539957.0,2019-10-08,15:05:57.000,15.0,8.0,14.289999961853,17.8,7.8,6.6,29.6,-20.8,-6.3,16.5531,6.84656,6.70639,-0.985099,11.6675,4.96483,32.7012,-6.2174,-5.58681,0.240114,0.203622,0.915938,253.9,9.1,52.1701,4.427169999999999,-3.9,-3.6924,99.1984,4.47917,59.7585,16.721,231.824,1.30925,-0.0396118,239.985,1.82356,2.30581,-35.0093841552734,21.997879028320305,-35.0,22.0,394377.0,-9629.29,pp-riro,4,0,-1,-1
1570539957.1,2019-10-08,15:05:57.100,15.0,8.0,14.539999961853,17.6,9.1,7.0,29.2,-22.3,-0.3,16.2642,8.7391,7.10992,-5.43348,10.8714,3.68325,32.0717,-8.85816,2.63603,0.150093,0.249252,0.973029,253.9,9.1,52.1701,4.427169999999999,-3.9,-3.70737,98.4735,4.47911,60.5763,18.241,231.224,1.3037299999999998,-0.0592134,239.722,1.94941,2.38744,-35.0076751708984,21.997879028320305,-35.0,22.0,392766.0,-12551.9,pp-riro,4,0,-1,-1
1570539957.2,2019-10-08,15:05:57.200,15.0,7.0,14.7799997329712,17.4,10.4,7.4,28.6,-23.9,5.4,16.0152,9.91273,7.471089999999999,-2.15124,12.1918,3.01173,31.3292,-10.2655,8.5147,-0.0461053,0.3880099999999999,0.979011,253.9,9.1,52.1701,4.427169999999999,-3.9,-3.70459,101.683,4.47906,61.5401,20.1411,230.524,1.29696,-0.0829661,239.445,2.07345,2.46978,-35.0076751708984,21.9983940124512,-35.0,22.0,392292.0,-8921.7,pp-riro,4,0,-1,-1
1570539957.3,2019-10-08,15:05:57.300,15.0,8.0,14.8999996185303,17.1,11.7,8.0,27.8,-25.6,11.9,15.8963,10.4768,7.71082,-5.35882,9.22111,6.34537,30.8021,-11.0506,11.7644,-4.63924e-05,0.380467,1.02476,253.9,9.1,52.1701,4.427169999999999,-3.9,-3.70238,109.79,4.479,62.5916,21.6612,229.824,1.29021,-0.0997849,239.177,2.20261,2.54636,-35.0076751708984,21.997879028320305,-35.0,22.0,391834.0,-2953.39,pp-riro,4,0,-1,-1
1570539957.4,2019-10-08,15:05:57.400,15.0,9.0,14.960000038147,16.7,12.9,8.5,26.8,-27.1,18.2,15.7685,11.0374,7.97946,-2.0143,11.9904,3.43948,30.3695,-11.7747,14.9728,0.106179,0.37534,1.01138,255.9,8.3,52.1701,4.427169999999999,-3.9,-3.64919,115.919,4.4789900000000005,63.8182,23.1812,229.024,1.2825799999999998,-0.115021,238.877,2.32446,2.61685,-35.0076751708984,21.9983940124512,-35.0,22.0,391916.0,369.174,pp-riro,4,0,-1,-1
1570539957.5,2019-10-08,15:05:57.500,15.0,11.0,15.0100002288818,16.3,14.3,9.0,25.4,-28.3,25.0,15.3885,12.1918,8.48625,-4.552230000000001,10.2017,5.8144,28.9615,-13.1322,21.5631,-0.00151598,0.330034,1.02002,255.9,8.3,52.1701,4.427169999999999,-3.9,-3.53338,126.246,4.479,65.1618,25.0813,228.124,1.27378,-0.134035,238.57,2.45459,2.69415,-35.0059814453125,21.9983940124512,-23.0,22.0,392974.0,7445.01,pp-riro,4,0,-1,-1
1570539957.6,2019-10-08,15:05:57.600,15.0,11.0,15.25,15.6,15.7,9.5,24.2,-29.4,31.9,15.1769,12.8424,8.683810000000001,-4.4868,14.8189,4.9876,28.3704,-13.7918,24.7583,0.0263955999999999,0.31678,0.999493,255.9,8.3,52.1701,4.427169999999999,-3.9,-3.47188,131.91,4.47901,66.6221,26.6014,227.324,1.26512,-0.1465119999999999,238.374,2.57813,2.77065,-35.0008544921875,21.9983940124512,-23.0,22.0,393668.0,13413.3,pp-riro,4,0,-1,-1
1570539957.7,2019-10-08,15:05:57.700,15.0,11.0,15.5900001525879,14.9,17.2,10.1,22.8,-30.4,38.9,14.0761,15.2652,9.63241,-4.53839,13.2056,8.26043,25.1991,-16.0671,37.9601,0.103839,0.32528,1.06518,255.9,8.3,52.1701,4.427169999999999,-3.9,-3.3211699999999995,143.594,4.479019999999999,68.2869,28.5015,226.324,1.2548,-0.162031,238.113,2.70398,2.84932,-34.734588623046896,21.9994239807129,-23.0,22.0,395675.0,22396.5,pp-riro,4,0,-1,-1
1570539957.8,2019-10-08,15:05:57.800,15.0,10.0,15.9799995422363,14.0,18.7,10.7,21.6,-31.4,45.2,14.0761,15.2652,9.63241,-4.53839,13.2056,8.26043,25.1991,-16.0671,37.9601,0.103839,0.32528,1.06518,255.9,8.3,52.1701,4.427169999999999,-3.9,-3.09954,154.029,4.47904,70.0101,29.6415,225.224,1.24525,-0.167153,237.71,2.80815,2.92041,-34.092849731445305,21.9994239807129,-23.0,22.0,398298.0,27349.6,pp-riro,4,0,-1,-1
1570539957.9,2019-10-08,15:05:57.900,15.0,9.0,16.2600002288818,12.7,19.9,11.1,20.3,-32.1,51.6,13.4047,16.6656,10.2037,-6.17548,16.4116,6.555969999999999,23.4032,-17.0758,44.6688,0.0645903,0.304404,1.03871,255.9,8.3,52.1701,4.427169999999999,-4.5,-2.68564,169.915,4.47905,71.9085,31.1616,224.224,1.23455,-0.175583,237.525,2.9147,2.99688,-33.096099853515604,21.9994239807129,-23.0,22.0,403034.0,33810.2,pp-riro,4,0,-1,-1
1570539958.0,2019-10-08,15:05:58.000,15.0,9.0,16.4699993133545,11.3,21.0,11.5,18.6,-32.6,58.2,12.4804,18.0248,10.784,-10.8036,11.0911,5.41466,21.8624,-18.2442,51.0141,0.116132,0.1469869999999999,1.07055,255.9,8.3,52.1701,4.427169999999999,-4.5,-2.36538,173.268,4.47906,73.9238,32.3017,223.124,1.22386,-0.1786299999999999,237.26,3.01806,3.06762,-31.744323730468803,21.9994239807129,-22.6103572845459,22.0,406521.0,33871.7,pp-riro,4,0,-1,-1
1570539958.1,2019-10-08,15:05:58.100,15.0,9.0,16.7900009155273,9.7,21.9,11.6,16.7,-33.3,64.8,9.85807,20.1327,11.457,-13.3521,6.56495,6.36525,18.5721,-20.4481,63.3888,0.134515,0.173988,1.0672,255.9,8.3,52.1701,4.427169999999999,-4.5,-2.1952700000000003,172.18900000000002,4.479080000000001,76.0267,33.4417,221.924,1.21268,-0.181084,236.957,3.1198,3.13928,-30.040954589843803,21.9994239807129,-21.7631397247314,22.0,408202.0,31533.6,pp-riro,4,0,-1,-1
1570539958.2,2019-10-08,15:05:58.200,15.0,9.0,17.1599998474121,8.9,22.3,11.7,14.4,-33.7,71.1,9.07513,20.5371,11.5266,-16.6261,6.43433,3.71721,17.6689,-20.8877,66.582,-0.0534237,0.067711,0.969147,255.9,8.3,52.1701,4.427169999999999,-4.5,-1.84343,167.668,4.47909,78.188,34.5818,220.824,1.20141,-0.183125,236.796,3.21536,3.17469,-28.0081939697266,21.9994239807129,-21.6487884521484,22.0,410871.0,25688.3,pp-riro,4,0,-1,-1
1570539958.3,2019-10-08,15:05:58.300,15.0,8.0,17.4599990844727,6.7,23.1,11.7,12.7,-33.5,77.5,8.35356,20.883000000000003,11.5979,-11.6164,5.67117,2.73604,16.6836,-21.4301,69.7008,-0.0402158,0.180554,0.921001,255.9,8.3,52.1701,4.427169999999999,-4.5,-1.36858,159.55200000000002,4.4791,80.5246,34.9618,219.624,1.19054,-0.176331,236.519,3.30456,3.25635,-26.4874572753906,21.9994239807129,-20.3650493621826,22.0,413744.0,16305.2,pp-riro,4,0,-1,-1
1570539958.4,2019-10-08,15:05:58.400,15.0,8.0,17.5100002288818,5.9,23.2,11.7,10.8,-33.2,83.4,6.942539999999999,21.5317,11.5967,-13.6541,7.08926,-0.4785569999999999,15.0598,-22.4464,75.4921,0.355056,0.198242,0.812455,262.9,9.0,52.1701,4.427169999999999,-4.5,-1.09764,154.32,4.47914,82.8027,35.7219,218.424,1.17925,-0.174008,236.308,3.39008,3.28398,-24.3642272949219,21.9994239807129,-20.3206253051758,22.0,415037.0,11659.7,pp-riro,4,0,-1,-1
1570539958.5,2019-10-08,15:05:58.500,15.0,7.0,17.4099998474121,3.7,23.6,11.4,9.4,-32.6,88.7,4.0996,22.1284,11.3094,-15.1453,-0.327061,-1.52443,11.9548,-23.0704,86.5255,0.0377748,0.195353,0.854383,262.9,9.0,52.1701,4.427169999999999,-4.5,-0.974077,152.578,4.4792,85.1101,36.482,217.324,1.168,-0.171767,236.23,3.46736,3.3666,-22.8178863525391,21.9994239807129,-19.1934757232666,22.0,415587.0,9752.34,pp-riro,4,0,-1,-1
1570539958.6,2019-10-08,15:05:58.600,15.0,7.0,17.2000007629395,2.4,23.6,11.2,7.7,-31.7,94.0,2.87012,22.2361,11.1044,-8.94576,-1.7348599999999998,-0.0717453,10.3016,-22.7672,91.8181,0.364028,0.160471,0.6547189999999999,262.9,9.0,52.1701,4.427169999999999,-4.5,-0.604504,149.88299999999998,4.47926,87.5343,36.482,216.224,1.1574799999999998,-0.1617569999999999,236.106,3.53931,3.40657,-21.5275650024414,21.9994239807129,-18.6896057128906,22.0,416566.0,5691.43,pp-riro,4,0,-1,-1
1570539958.7,2019-10-08,15:05:58.700,15.0,10.0,17.25,1.4,23.3,11.0,5.9,-31.2,99.1,1.7605400000000002,22.1255,10.8861,-11.2991,-5.1459,-1.94188,8.73194,-22.5071,96.8931,0.0147377,0.0695168,0.8552270000000001,262.9,9.0,52.1701,4.427169999999999,-4.5,-0.36514,144.812,4.47933,89.8416,36.862,215.124,1.14677,-0.156291,236.027,3.61114,3.4387,-20.3908538818359,21.9994239807129,-18.4917106628418,22.0,416945.0,3107.21,pp-riro,4,0,-1,-1
1570539958.8,2019-10-08,15:05:58.800,15.0,9.0,17.2999992370605,0.3,23.1,10.7,4.0,-30.7,104.1,1.25755,22.0132,10.7483,-9.20383,-3.36221,-4.66951,7.90516,-22.5337,99.2833,0.213701,0.207146,0.771235,262.9,9.0,52.1701,4.427169999999999,-4.5,-0.169549,138.086,4.47939,92.149,36.8621,214.124,1.13677,-0.147527,236.007,3.67876,3.47382,-19.6705932617188,21.9994239807129,-18.123958587646506,22.0,417107.0,1138.29,pp-riro,4,0,-1,-1
1570539958.9,2019-10-08,15:05:58.900,15.0,7.0,17.2999992370605,-0.3,22.7,10.4,2.1,-29.9,109.0,0.787662,21.9041,10.6405,-11.8745,-4.41086,1.8101,7.0514,-22.5343,101.743,-0.0333604,0.111117,0.679473,262.9,9.0,52.1701,4.427169999999999,-5.1,0.00498674,128.832,4.47947,94.4856,36.8621,213.124,1.12663,-0.139051,236.026,3.74657,3.49024,-18.9469146728516,21.9994239807129,-18.1634140014648,22.0,417125.0,-30.7645,pp-riro,4,0,-1,-1
1570539959.0,2019-10-08,15:05:59.000,15.0,6.0,17.0900001525879,-1.2,22.4,9.9,0.6,-28.4,113.1,-0.0873693,21.6114,10.2882,-8.86232,-4.79046,1.17107,5.45443,-21.8463,106.457,-0.0696333,0.215002,0.6632560000000001,262.9,9.0,52.1701,4.427169999999999,-5.1,0.113587,122.658,4.479509999999999,96.7637,36.8622,212.124,1.11668,-0.131098,236.048,3.80716,3.5216300000000005,-18.3990478515625,21.9994239807129,-17.9249305725098,22.0,417095.0,-369.174,pp-riro,4,0,-1,-1
1570539959.1,2019-10-08,15:05:59.100,15.0,8.0,16.9400005340576,-2.2,22.3,9.8,-0.7,-27.2,116.8,-1.27618,21.3237,9.67367,-8.32325,-0.159574,-4.73423,3.22558,-20.2757,112.545,-0.037673,0.16926,0.514257,262.9,9.0,52.1701,4.427169999999999,-5.1,0.193929,128.139,4.47957,99.0127,36.8622,211.124,1.10681,-0.123582,236.084,3.86128,3.5557800000000004,-18.1447296142578,21.9994239807129,-17.65651512146,22.0,417042.0,-646.054,pp-riro,4,0,-1,-1
1570539959.2,2019-10-08,15:05:59.200,15.0,8.0,16.9400005340576,-3.2,22.1,9.8,-1.5,-25.8,119.7,-2.21281,21.1458,9.60887,-13.3959,-2.09041,2.31868,1.94638,-19.4635,116.284,-0.211077,0.136675,0.5908760000000001,262.9,9.0,52.1701,4.427169999999999,-5.1,0.241026,135.148,4.47963,101.232,36.4822,210.224,1.09771,-0.1131359999999999,236.163,3.9029,3.5868900000000004,-17.9467468261719,21.9994239807129,-17.3442687988281,22.0,417010.0,-615.29,pp-riro,4,0,-1,-1
1570539959.3,2019-10-08,15:05:59.300,15.0,8.0,16.879999160766598,-3.6,21.8,9.8,-2.4,-25.2,121.3,-2.69003,21.1162,9.56552,-7.2445,-0.301734,1.08152,1.11406,-18.78,118.011,-0.0130397,0.32122,0.4145979999999999,262.9,9.0,52.1701,4.427169999999999,-5.1,0.24435,146.19799999999998,4.47969,102.284,36.4822,209.724,1.09301,-0.109916,236.172,3.9272,3.60086,-17.8409271240234,21.9994239807129,-17.2873401641846,22.0,417074.0,676.819,pp-riro,4,0,-1,-1
1570539959.4,2019-10-08,15:05:59.400,15.0,8.0,16.7199993133545,-4.8,21.3,9.7,-4.7,-24.2,126.0,-3.90173,20.4817,9.50216,-4.00601,-1.7124400000000002,-2.06337,-0.936035,-17.0881,122.714,-0.1223009999999999,0.0139522999999999,0.443528,256.5,9.7,52.1701,4.427169999999999,-5.1,0.255432,148.011,4.4797400000000005,105.584,35.7223,208.124,1.07911,-0.0935958,236.093,3.98829,3.63775,-17.4620208740234,21.9994239807129,-17.0674533843994,22.0,417065.0,-184.587,pp-riro,4,0,-1,-1
1570539959.5,2019-10-08,15:05:59.500,15.0,9.0,16.620000839233402,-5.6,21.2,9.5,-6.1,-22.5,128.5,-3.90173,20.4817,9.50216,-4.00601,-1.7124400000000002,-2.06337,-0.936035,-17.0881,122.714,-0.1223009999999999,0.0139522999999999,0.443528,256.5,9.7,52.1701,4.427169999999999,-5.1,0.255986,152.52200000000002,4.47978,107.804,35.3423,207.124,1.06969,-0.0841916,236.159,4.02833,3.66423,-17.2896423339844,21.9994239807129,-16.9582004547119,22.0,417117.0,246.116,pp-riro,4,0,-1,-1
1570539959.6,2019-10-08,15:05:59.600,15.0,10.0,16.5100002288818,-6.4,20.9,9.6,-7.8,-21.7,131.3,-3.90173,20.4817,9.50216,-4.00601,-1.7124400000000002,-2.06337,-0.936035,-17.0881,122.714,-0.1223009999999999,0.0139522999999999,0.443528,256.5,9.7,52.1701,4.427169999999999,-5.1,0.273163,158.765,4.47982,109.878,34.9623,206.124,1.06076,-0.0754972,236.18400000000003,4.06749,3.6896,-17.134323120117198,21.9994239807129,-16.8769855499268,22.0,417124.0,123.058,pp-riro,4,0,-1,-1
1570539959.7,2019-10-08,15:05:59.700,15.0,10.0,16.4599990844727,-6.7,20.7,9.7,-9.8,-21.4,134.0,-5.79893,20.0171,9.20612,-8.03888,-2.7657700000000003,0.749664,-4.90679,-15.0649,129.3,-0.168381,-0.0102047999999999,0.453764,256.5,9.7,52.1701,4.427169999999999,-5.1,0.277595,162.326,4.47986,111.951,33.8223,205.024,1.05241,-0.0608702999999999,236.034,4.09653,3.68918,-17.069465637207,21.9994239807129,-17.152297973632802,22.0,417140.0,276.88,pp-riro,4,0,-1,-1
1570539959.8,2019-10-08,15:05:59.800,15.0,10.0,16.2900009155273,-7.3,20.5,9.7,-11.4,-20.3,136.7,-6.57441,19.7052,9.31683,-9.96999,-5.719530000000001,-3.38097,-6.857489999999999,-14.6931,131.97899999999998,-0.157177,-0.103626,0.366404,256.5,9.7,52.1701,4.427169999999999,-5.1,0.287015,166.8,4.4799,114.025,33.0624,203.924,1.04358,-0.0497298,235.966,4.13465,3.70494,-16.8783111572266,21.9994239807129,-17.2497711181641,22.0,417162.0,215.351,pp-riro,4,0,-1,-1
1570539959.9,2019-10-08,15:05:59.900,15.0,13.0,16.0699996948242,-8.0,20.2,9.5,-12.4,-19.8,138.0,-7.06849,19.4662,9.08226,-2.93366,-5.2115800000000005,-3.3111,-9.04007,-13.8673,134.33,-0.0104748,0.0332205999999999,0.465597,256.5,9.7,52.1701,4.427169999999999,-5.8,0.29311,170.575,4.47994,114.989,32.6824,203.424,1.0395,-0.0444706,235.949,4.15295,3.73304,-16.9073181152344,21.9994239807129,-16.8849983215332,22.0,417201.0,399.9380000000001,pp-riro,4,0,-1,-1
1570539960.0,2019-10-08,15:06:00.000,15.0,13.0,16.020000457763697,-8.9,19.9,9.8,-14.3,-19.0,140.6,-7.82125,19.1983,9.04323,-6.17483,-4.18754,-2.06148,-11.2092,-13.1887,136.803,-0.353885,-0.0459824999999999,0.3478199999999999,256.5,9.7,52.1701,4.427169999999999,-5.8,0.304191,181.577,4.47998,117.092,31.9224,202.324,1.0304799999999998,-0.033749,235.93400000000003,4.1878400000000005,3.75822,-17.019973754882802,21.9994239807129,-16.8611640930176,22.0,417223.0,123.058,pp-riro,4,0,-1,-1
1570539960.1,2019-10-08,15:06:00.100,15.0,14.0,16.0699996948242,-9.9,19.7,9.8,-16.2,-18.5,143.2,-9.34809,18.8677,9.19897,-6.4019900000000005,-3.7407,-0.0902272,-14.3166,-12.3413,140.515,-0.246717,-0.0219538,0.3473239999999999,256.5,9.7,52.1701,4.427169999999999,-5.8,0.333003,196.465,4.48002,119.136,31.1624,201.124,1.0214,-0.0234673,235.83,4.22063,3.78963,-16.9158554077148,21.9994239807129,-16.7598781585693,22.0,417228.0,92.2935,pp-riro,4,0,-1,-1
1570539960.2,2019-10-08,15:06:00.200,15.0,13.0,16.3999996185303,-10.9,19.2,9.7,-17.5,-17.9,145.8,-9.34809,18.8677,9.19897,-6.4019900000000005,-3.7407,-0.0902272,-14.3166,-12.3413,140.515,-0.246717,-0.0219538,0.3473239999999999,256.5,9.7,52.1701,4.427169999999999,-5.8,0.357937,209.426,4.48008,121.093,29.6424,200.024,1.01344,-0.00775808,235.695,4.24978,3.82106,-16.8373413085938,21.9994239807129,-16.4865131378174,22.0,417262.0,461.467,pp-riro,4,0,-1,-1
1570539960.3,2019-10-08,15:06:00.300,15.0,12.0,16.6599998474121,-11.8,18.7,9.6,-19.1,-17.4,148.5,-9.34809,18.8677,9.19897,-6.4019900000000005,-3.7407,-0.0902272,-14.3166,-12.3413,140.515,-0.246717,-0.0219538,0.3473239999999999,256.5,9.7,52.1701,4.427169999999999,-5.8,0.376776,223.432,4.4801,122.992,28.8824,198.924,1.00496,0.00163891,235.653,4.284669999999999,3.85434,-16.6325302124023,21.9994239807129,35.0,22.0,417297.0,246.116,pp-riro,4,0,-1,-1
1570539960.4,2019-10-08,15:06:00.400,15.0,12.0,16.9699993133545,-12.8,18.0,9.4,-20.3,-16.7,151.3,-11.0979,17.7211,9.06871,-12.1499,-11.7526,-3.38566,-18.1014,-11.8791,145.784,-0.222859,-0.162544,0.361598,257.1,10.2,52.1701,4.427169999999999,-5.8,0.407805,237.048,4.48011,124.861,27.7424,197.725,0.996611,0.0136441,235.489,4.32057,3.89373,-16.5130615234375,21.9994239807129,35.0,22.0,417336.0,646.054,pp-riro,4,0,-1,-1
1570539960.5,2019-10-08,15:06:00.500,15.0,13.0,17.229999542236303,-13.7,17.2,9.1,-20.9,-16.2,153.8,-12.1905,17.1127,8.96529,-10.765,-4.94877,-2.10354,-19.7394,-11.2728,148.526,-0.0811435,0.106975,0.4327319999999999,257.1,10.2,52.1701,4.427169999999999,-5.8,0.528595,242.721,4.4801,126.584,26.2224,196.725,0.989432,0.0280276,235.397,4.34848,3.93156,-16.4140625,21.9994239807129,35.0,22.0,416689.0,-13659.4,pp-riro,4,0,-1,-1
1570539960.6,2019-10-08,15:06:00.600,15.0,12.0,17.4400005340576,-14.3,16.5,8.5,-21.7,-15.5,156.2,-13.0346,16.2182,8.650789999999999,-5.15107,-10.0404,-4.487019999999999,-20.9423,-10.4713,150.865,-0.119921,-0.152591,0.478977,257.1,10.2,52.1701,4.427169999999999,-5.8,1.15027,219.122,4.48008,128.249,24.7024,195.625,0.982121,0.0420237,235.217,4.37713,3.96374,-16.001022338867198,21.9994239807129,35.0,22.0,414978.0,11075.2,pp-riro,4,0,-1,-1
1570539960.7,2019-10-08,15:06:00.700,15.0,10.0,17.6900005340576,-14.4,15.9,7.8,-22.1,-14.6,158.4,-13.7451,15.2437,7.77907,1.3716,-3.74345,-8.78914,-21.8628,-9.99948,154.44299999999998,-0.00936616,-0.0688922,0.310612,257.1,10.2,52.1701,4.427169999999999,-5.8,1.02561,199.903,4.48007,129.885,23.1824,194.725,0.975291,0.0556949,235.213,4.4052,3.98068,-15.2329711914062,21.9994239807129,35.0,22.0,416170.0,22550.4,pp-riro,4,0,-1,-1
1570539960.8,2019-10-08,15:06:00.800,15.0,9.0,17.7900009155273,-14.7,15.1,7.5,-22.3,-13.2,160.1,-13.7983,14.4685,7.22775,-2.1703900000000003,-11.3724,-5.33298,-22.225,-9.63957,156.612,-0.202542,-0.0446631999999999,0.1074529999999999,257.1,10.2,52.1701,4.427169999999999,-5.8,0.83611,193.035,4.48006,131.374,21.6624,193.825,0.968881,0.0689127,235.152,4.43161,4.00315,-14.1065063476562,21.9994239807129,35.0,22.0,416314.0,-8244.88,pp-riro,4,0,-1,-1
1570539960.9,2019-10-08,15:06:00.900,15.0,8.0,17.8799991607666,-15.0,14.3,7.5,-22.2,-12.8,161.8,-14.0042,14.0123,7.26394,-8.11253,-8.82409,-2.86662,-22.2592,-9.39422,157.645,-0.0527193,-0.161653,0.376208,257.1,10.2,52.1701,4.42718,-6.4,1.03724,221.949,4.48004,132.806,20.5224,193.025,0.962632,0.0790296,235.196,4.45084,4.023569999999999,-13.0278167724609,21.9994239807129,35.0,22.0,415764.0,1322.87,pp-riro,4,0,-1,-1
1570539961.0,2019-10-08,15:06:01.000,15.0,10.0,17.8799991607666,-14.9,13.8,7.2,-22.1,-11.6,163.6,-14.0042,14.0123,7.26394,-8.11253,-8.82409,-2.86662,-22.2592,-9.39422,157.645,-0.0527193,-0.161653,0.376208,257.1,10.2,52.1701,4.42718,-6.4,0.956346,214.264,4.48003,134.178,18.6224,192.225,0.95691,0.0944526,235.162,4.47524,4.02597,-11.2834930419922,21.9994239807129,35.0,22.0,416404.0,3445.62,pp-riro,4,0,-1,-1
1570539961.1,2019-10-08,15:06:01.100,15.0,8.0,18.0799999237061,-14.9,13.5,6.9,-21.8,-10.2,164.8,-14.16,12.6989,6.8594,-0.513306,-2.52868,-4.19037,-22.0816,-7.85727,162.643,-0.128688,-0.0320482,0.2208969999999999,257.1,10.2,52.1701,4.42718,-6.4,0.947481,200.491,4.48002,135.493,17.4824,191.525,0.951196,0.104054,235.257,4.49805,4.0321,-9.21318054199219,21.9994239807129,35.0,22.0,416687.0,4153.21,pp-riro,4,0,-1,-1
1570539961.2,2019-10-08,15:06:01.200,15.0,8.0,18.1800003051758,-15.2,13.1,7.0,-21.8,-9.4,165.7,-14.16,12.6989,6.8594,-0.513306,-2.52868,-4.19037,-22.0816,-7.85727,162.643,-0.128688,-0.0320482,0.2208969999999999,257.1,10.2,52.1701,4.42718,-6.4,0.937507,205.562,4.48,136.80700000000002,15.9624,190.825,0.945597,0.1162339999999999,235.34,4.50866,4.04036,-7.10871887207031,21.9994239807129,35.0,22.0,416778.0,1722.81,pp-riro,4,0,-1,-1
1570539961.3,2019-10-08,15:06:01.300,15.0,8.0,18.2199993133545,-15.3,12.9,7.2,-21.8,-8.8,166.3,-14.5586,12.4282,6.797839999999999,-4.47579,-5.91633,1.97173,-22.0484,-7.45683,163.92,-0.0227106,0.0590941,0.101904,257.1,10.2,52.1701,4.42718,-6.4,0.977955,219.726,4.47999,138.034,14.4423,190.025,0.939981,0.128143,235.311,4.51335,4.03492,-4.9991455078125,21.9994239807129,35.0,22.0,416730.0,-369.174,pp-riro,4,0,-1,-1
1570539961.4,2019-10-08,15:06:01.400,15.0,9.0,18.3700008392334,-15.3,13.0,7.3,-22.2,-8.4,166.9,-14.9575,12.1906,7.01722,-1.49374,-1.53885,-0.531934,-22.212,-7.32654,165.512,0.085797,0.0223500999999999,0.103056,256.1,9.3,52.1701,4.42718,-6.4,0.989037,226.052,4.47996,139.319,12.9223,189.225,0.9341,0.1399359999999999,235.336,4.51618,4.02067,-2.8895721435546897,21.9994239807129,35.0,22.0,416929.0,2553.45,pp-riro,4,0,-1,-1
1570539961.5,2019-10-08,15:06:01.500,15.0,8.0,18.4599990844727,-15.4,13.1,7.6,-22.7,-8.0,166.8,-15.0575,12.3632,7.05921,-5.01405,3.94403,2.1682200000000003,-22.8324,-7.51615,166.076,-0.261843,-0.0415862,0.0120869,256.1,9.3,52.1701,4.42718,-6.4,1.00289,233.462,4.47993,140.546,11.4023,188.425,0.928353,0.151492,235.345,4.509530000000001,4.005669999999999,-0.7902374267578121,21.9994239807129,35.0,22.0,417169.0,1907.4,pp-riro,4,0,-1,-1
1570539961.6,2019-10-08,15:06:01.600,15.0,9.0,18.6000003814697,-15.4,13.2,8.2,-23.3,-8.0,166.5,-15.3255,12.6937,7.69988,1.19937,1.90983,2.90099,-24.382,-8.10719,166.275,-0.188373,-0.0235012,-0.1119599999999999,256.1,9.3,52.1701,4.42718,-6.4,1.00788,240.177,4.47989,141.83100000000002,9.88231,187.525,0.922091,0.162935,235.328,4.496180000000001,3.98154,1.31993103027344,21.9994239807129,35.0,22.0,417329.0,1261.34,pp-riro,4,0,-1,-1
1570539961.7,2019-10-08,15:06:01.700,15.0,11.0,18.7000007629395,-15.1,13.5,8.5,-24.5,-8.6,165.8,-15.3255,12.6937,7.69988,1.19937,1.90983,2.90099,-24.382,-8.10719,166.275,-0.188373,-0.0235012,-0.1119599999999999,256.1,9.3,52.1701,4.42718,-6.4,1.01674,239.511,4.47985,143.116,7.982289999999999,186.625,0.91584,0.176819,235.318,4.469180000000001,3.94722,3.41820526123047,21.9994239807129,35.0,22.0,417386.0,1076.76,pp-riro,4,0,-1,-1
1570539961.8,2019-10-08,15:06:01.800,15.0,10.0,18.75,-14.8,13.8,9.1,-25.6,-9.6,164.8,-15.3255,12.6937,7.69988,1.19937,1.90983,2.90099,-24.382,-8.10719,166.275,-0.188373,-0.0235012,-0.1119599999999999,256.1,9.3,52.1701,4.42718,-6.4,1.01452,234.655,4.47982,144.372,6.8423,185.725,0.909481,0.185215,235.338,4.43831,3.91175,5.53691101074219,21.9994239807129,35.0,22.0,417686.0,3722.5,pp-riro,4,0,-1,-1
1570539961.9,2019-10-08,15:06:01.900,15.0,9.0,18.6000003814697,-14.6,14.0,9.9,-27.0,-11.1,163.0,-15.1284,13.4479,8.704369999999999,-0.0465786,7.48112,10.2367,-26.7502,-10.4332,165.043,-0.417436,-0.174983,-0.230148,256.1,9.3,52.1701,4.42718,-6.7,0.995132,233.688,4.47978,145.745,4.94228,184.625,0.902268,0.198713,235.271,4.3873,3.87477,7.64540100097656,21.9994239807129,35.0,22.0,417946.0,1599.75,pp-riro,4,0,-1,-1
1570539962.0,2019-10-08,15:06:02.000,15.0,10.0,18.5100002288818,-14.0,14.4,10.6,-28.2,-13.0,160.9,-15.1284,13.4479,8.704369999999999,-0.0465786,7.48112,10.2367,-26.7502,-10.4332,165.043,-0.417436,-0.174983,-0.230148,256.1,9.3,52.1701,4.42718,-6.7,1.00898,232.344,4.4797400000000005,147.11700000000002,3.80229,183.625,0.8951709999999999,0.206807,235.321,4.33248,3.82678,9.75048828125,21.9994239807129,35.0,22.0,418237.0,3291.8,pp-riro,4,0,-1,-1
1570539962.1,2019-10-08,15:06:02.100,15.0,9.0,18.3099994659424,-13.3,14.9,11.3,-29.1,-15.4,158.8,-15.0406,13.6256,9.1092,1.51407,6.95288,4.80276,-27.5317,-11.4393,164.607,-0.306801,-0.4051079999999999,-0.374795,256.1,9.3,52.1701,4.42718,-6.7,0.99347,230.465,4.47971,148.461,2.6623,182.525,0.887876,0.214753,235.294,4.272880000000001,3.77422,11.8606796264648,21.9994239807129,35.0,22.0,418475.0,1661.28,pp-riro,4,0,-1,-1
1570539962.2,2019-10-08,15:06:02.200,15.0,10.0,18.1700000762939,-12.6,15.5,12.2,-29.8,-18.0,155.3,-15.0406,13.6256,9.1092,1.51407,6.95288,4.80276,-27.5317,-11.4393,164.607,-0.306801,-0.4051079999999999,-0.374795,256.1,9.3,52.1701,4.42718,-6.7,1.004,233.997,4.47967,150.009,1.1423,181.325,0.8796200000000001,0.225106,235.336,4.19094,3.71611,13.9640655517578,21.9994239807129,35.0,22.0,418611.0,1568.99,pp-riro,4,0,-1,-1
1570539962.3,2019-10-08,15:06:02.300,15.0,10.0,18.0699996948242,-11.7,16.0,13.2,-30.0,-21.5,151.8,-14.6245,14.4023,10.3326,5.96111,5.9920800000000005,13.6123,-29.4043,-14.9439,162.45,-0.0962542,-0.0494522,-0.44896,256.1,9.3,52.1701,4.42718,-6.7,1.00843,237.189,4.47963,151.469,0.00231129,180.025,0.8713290000000001,0.232724,235.27,4.10299,3.6552,16.0759658813477,21.9994239807129,35.0,22.0,418713.0,1907.4,pp-riro,4,0,-1,-1
1570539962.4,2019-10-08,15:06:02.400,15.0,11.0,18.020000457763697,-10.4,16.6,14.1,-29.6,-24.9,147.5,-14.0854,14.9849,11.1885,1.31697,4.15987,7.18116,-30.5505,-18.1039,160.437,-0.2760309999999999,-0.1413859999999999,-0.566138,250.8,8.1,52.1701,4.42718,-6.7,1.01563,241.447,4.47955,153.047,-1.1376700000000002,178.725,0.8626290000000001,0.240273,235.303,4.00698,3.58142,18.1810455322266,21.9994239807129,35.0,22.0,418885.0,1630.52,pp-riro,4,0,-1,-1
1570539962.5,2019-10-08,15:06:02.500,15.0,11.0,17.9200000762939,-8.8,17.1,15.0,-28.6,-28.4,142.5,-10.5623,17.5698,15.0414,14.5484,1.03607,7.7306,-31.4301,-31.6226,148.434,-0.263177,-0.17314,-1.08667,250.8,8.1,52.1701,4.42718,-6.7,1.01785,239.878,4.47949,154.711,-2.27765,177.325,0.8533459999999999,0.247619,235.34,3.90296,3.4996400000000003,20.2980499267578,21.9994239807129,35.0,22.0,419084.0,2153.51,pp-riro,4,0,-1,-1
1570539962.6,2019-10-08,15:06:02.600,15.0,11.0,17.8199996948242,-7.2,17.7,15.8,-26.5,-31.9,136.7,-10.5623,17.5698,15.0414,14.5484,1.03607,7.7306,-31.4301,-31.6226,148.434,-0.263177,-0.17314,-1.08667,250.8,8.1,52.1701,4.42718,-6.7,1.01397,239.642,4.47941,156.376,-3.03762,175.925,0.844067,0.252402,235.399,3.79316,3.42171,22.4116516113281,21.9994239807129,35.0,22.0,419330.0,2368.87,pp-riro,4,0,-1,-1
1570539962.7,2019-10-08,15:06:02.700,15.0,11.0,17.770000457763697,-5.5,17.9,16.5,-23.7,-35.2,129.5,-8.876330000000001,18.213,16.0995,22.0387,4.39449,10.9821,-30.6525,-35.9259,143.391,-0.188085,-0.147532,-1.01984,250.8,8.1,52.1701,4.42718,-6.7,1.01397,240.49,4.47933,158.07,-3.79759,174.425,0.834404,0.257081,235.425,3.67037,3.3461,24.5184326171875,21.9994239807129,35.0,22.0,419504.0,1599.75,pp-riro,4,0,-1,-1
1570539962.8,2019-10-08,15:06:02.800,15.0,11.0,17.8199996948242,-3.4,18.2,17.0,-20.1,-38.2,122.1,-7.03039,18.7963,17.0161,19.7918,3.32361,4.82867,-28.2023,-39.9471,136.94299999999998,-0.175094,-0.181503,-1.29728,250.8,8.1,52.1701,4.42718,-6.7,1.01563,237.319,4.47925,159.82299999999998,-4.1775400000000005,172.825,0.824297,0.259274,235.43400000000003,3.5531900000000003,3.25816,26.6252212524414,21.9994239807129,35.0,22.0,419721.0,2461.16,pp-riro,4,0,-1,-1
1570539962.9,2019-10-08,15:06:02.900,15.0,11.0,17.9200000762939,-1.2,18.5,17.2,-15.4,-40.6,113.3,-3.71,19.4851,18.0673,24.2101,8.04622,6.15945,-23.3832,-45.8925,125.831,-0.308587,-0.2035539999999999,-1.07715,250.8,8.1,52.1701,4.42718,-6.7,0.999565,235.647,4.47917,161.63299999999998,-4.5574900000000005,171.325,0.8143,0.261412,235.581,3.4259800000000005,3.16841,28.7371215820312,21.9994239807129,35.0,22.0,420098.0,2307.34,pp-riro,4,0,-1,-1
1570539963.0,2019-10-08,15:06:03.000,15.0,11.0,18.1100006103516,1.0,18.6,17.8,-9.0,-42.2,103.2,-1.23545,19.887,18.4401,26.8016,3.88387,4.54301,-18.5916,-49.7775,116.785,-0.328762,-0.259025,-1.32122,250.8,8.1,52.1701,4.42718,-6.7,1.02339,254.12,4.479080000000001,163.47299999999998,-4.55743,169.625,0.803671,0.261176,235.621,3.29118,3.08264,30.6650695800781,21.9994239807129,23.0,22.0,420144.0,0.0,pp-riro,4,0,-1,-1
1570539963.1,2019-10-08,15:06:03.100,15.0,12.0,18.2099990844727,3.4,18.5,18.1,-1.9,-43.5,92.4,1.21194,20.117,19.0898,25.1788,0.8254370000000001,4.1954400000000005,-12.1719,-52.4473,105.882,-0.602949,-0.00335271,-1.06956,250.8,8.1,52.1701,4.42718,-6.7,1.04832,264.959,4.479,165.28400000000002,-4.17736,168.025,0.793463,0.258654,235.731,3.15365,2.99293,32.231964111328104,21.9994239807129,23.0,22.0,420141.0,-61.529,pp-ro,1,1,-1,-1
1570539963.2,2019-10-08,15:06:03.200,15.0,13.0,18.3999996185303,5.8,18.2,18.2,5.9,-43.8,80.9,2.66403,20.2,19.3507,28.9209,-4.00192,7.04183,-8.48212,-53.7326,100.051,-0.211445,-0.119001,-1.35536,250.8,8.1,52.1701,4.42718,-6.7,1.08434,283.641,4.47892,167.06599999999997,-4.1773,166.326,0.783021,0.258466,235.781,3.00926,2.90231,33.454833984375,21.9994239807129,23.0,22.0,420294.0,2245.81,pp-ro,1,1,-1,-1
1570539963.3,2019-10-08,15:06:03.300,15.0,12.0,18.4400005340576,8.2,17.6,18.0,14.4,-43.2,69.0,6.870939999999999,19.9662,19.6024,31.4599,-1.90124,-5.06791,6.78476,-55.5867,78.4711,-0.396719,-0.326345,-1.20271,250.8,8.1,52.1701,4.42718,-6.7,1.10927,303.981,4.47884,168.935,-3.41721,164.52599999999998,0.772073,0.253774,235.838,2.86305,2.8126,34.313201904296896,21.9994239807129,23.0,22.0,420400.0,430.703,pp-ro,1,1,-1,-1
1570539963.4,2019-10-08,15:06:03.400,15.0,12.0,18.590000152587898,9.2,17.3,17.9,18.2,-42.4,63.5,8.26338,19.7148,19.6313,23.0772,-6.60469,-0.699853,11.9046,-54.9291,70.7521,-0.404838,-0.0903827,-1.21725,251.0,7.7,52.1701,4.42718,-6.7,1.16191,329.672,4.47875,169.753,-3.03717,163.726,0.767246,0.251529,235.863,2.79333,2.7751900000000003,34.813934326171896,21.9994239807129,23.0,22.0,420680.0,2738.04,pp-ro,1,1,-1,-1
1570539963.5,2019-10-08,15:06:03.500,15.0,12.0,18.909999847412102,12.6,16.1,16.8,29.9,-37.9,46.3,9.65035,19.4284,19.478,34.4855,-7.70432,-1.70513,17.4885,-54.5212,63.365,-0.067335,0.0956549999999999,-1.13054,251.0,7.7,52.1701,4.42718,-6.7,1.19183,346.42900000000003,4.47865,172.294,-1.51705,161.126,0.751896,0.242542,235.9,2.5590200000000003,2.63921,34.948486328125,21.9994239807129,23.0,22.0,420841.0,1322.87,pp-ro,1,1,-1,-1
1570539963.6,2019-10-08,15:06:03.600,15.0,13.0,19.3700008392334,13.9,15.3,16.3,32.7,-36.0,40.7,9.65035,19.4284,19.478,34.4855,-7.70432,-1.70513,17.4885,-54.5212,63.365,-0.067335,0.0956549999999999,-1.13054,251.0,7.7,52.1701,4.42718,-6.7,1.22674,369.084,4.47855,173.9,0.00304653,160.326,0.7448060000000001,0.2338179999999999,236.528,2.48127,2.5853200000000003,34.7849731445312,21.9994239807129,23.0,22.0,421075.0,2307.34,pp-ro,1,1,-1,-1
1570539963.7,2019-10-08,15:06:03.700,15.0,13.0,19.729999542236303,16.1,13.6,14.8,38.1,-31.5,31.2,10.9506,19.2114,19.1904,24.933000000000003,-4.74708,-4.7307,22.88,-53.1503,55.7098,-0.313417,0.0359592,-1.62453,251.0,7.7,52.1701,4.42718,-6.7,1.24336,377.205,4.47845,174.572,0.383079,158.826,0.7382029999999999,0.23174,236.011,2.32539,2.46772,34.2195434570312,21.9994239807129,22.7621250152588,22.0,421181.0,2030.46,pp-ro,1,1,-1,-1
1570539963.8,2019-10-08,15:06:03.800,15.0,14.0,19.8999996185303,17.9,11.8,13.1,41.8,-25.9,23.5,15.2034,17.4232,17.7249,31.4792,-24.1095,-8.31895,34.5298,-47.0669,36.2766,-0.0388871,-0.0900128999999999,-1.16514,251.0,7.7,52.1701,4.42718,-6.7,1.27328,384.009,4.47836,175.886,2.28317,157.526,0.730344,0.221052,236.126,2.1796,2.35732,33.2862243652344,21.9994239807129,20.803762435913104,22.0,421503.0,4245.5,pp-ro,1,1,-1,-1
1570539963.9,2019-10-08,15:06:03.900,15.0,13.0,20.1200008392334,19.4,10.1,11.5,44.4,-20.3,16.7,22.0982,11.6751,12.2238,19.8531,-24.3332,-11.8857,45.6138,-28.561,10.2743,0.0839982,0.164369,-1.48861,251.0,7.7,52.1701,4.42718,-6.5,1.26165,387.031,4.47826,177.58,4.56329,156.42600000000002,0.721984,0.20844,236.695,2.04171,2.25582,31.9986419677734,21.9994239807129,19.0450286865234,22.0,422254.0,3660.97,pp-ro,1,1,-1,-1
1570539964.0,2019-10-08,15:06:04.000,15.0,14.0,20.3799991607666,20.4,8.2,9.8,46.6,-12.2,7.5,22.0982,11.6751,12.2238,19.8531,-24.3332,-11.8857,45.6138,-28.561,10.2743,0.0839982,0.164369,-1.48861,251.0,7.7,52.1701,4.42718,-6.5,1.2865799999999998,393.671,4.47816,178.456,6.843369999999999,155.126,0.71521,0.195902,236.553,1.84162,2.15548,30.3533935546875,21.9994239807129,17.258766174316403,22.0,422605.0,4276.26,pp-ro,1,1,-1,-1
1570539964.1,2019-10-08,15:06:04.100,15.0,14.0,20.6399993896484,21.3,6.6,7.8,47.3,-6.8,1.7,22.789,10.628,11.1258,16.9754,-9.38837,-15.3222,46.1866,-25.4553,6.8186,-0.098586,-0.1206319999999999,-1.5907,251.0,7.7,52.1701,4.42718,-6.5,1.28713,393.913,4.47806,179.24400000000003,9.12345,154.526,0.710835,0.183473,236.833,1.71314,2.05148,28.3522033691406,21.9994239807129,15.31165599823,22.0,422888.0,5414.55,pp-ro,1,1,-1,-1
1570539964.2,2019-10-08,15:06:04.200,15.0,14.0,20.7600002288818,22.2,4.1,4.9,48.3,-1.6,-3.0,24.2728,7.547919999999999,7.711419999999999,12.2225,-21.9253,-34.3035,46.3756,-15.7887,-1.55123,-0.2098809999999999,-0.170148,-1.41375,251.0,7.7,52.1701,4.42718,-6.5,1.28492,397.328,4.47796,179.829,11.0235,154.026,0.707338,0.173204,237.031,1.59778,1.89106,26.2522354125977,21.9994239807129,12.2155294418335,22.0,423573.0,4307.03,pp-ro,1,1,-1,-1
1570539964.3,2019-10-08,15:06:04.300,15.0,14.0,20.8899993896484,22.2,3.4,4.1,48.5,0.9,-5.2,24.8079,5.44919,5.51872,11.5449,-20.684,-15.9896,46.6978,-10.0746,-6.67801,-0.317121,0.062546,-1.37438,251.0,7.7,52.1701,4.42718,-6.5,1.2982200000000002,406.268,4.47786,180.09099999999998,12.1636,153.826,0.705778,0.167088,237.157,1.54372,1.85029,24.6853485107422,21.9994239807129,11.447582244873,22.0,423916.0,2676.51,pp-ro,1,1,-1,-1
1570539964.4,2019-10-08,15:06:04.400,15.0,13.0,20.9699993133545,22.2,2.1,2.2,48.7,5.6,-9.9,24.7152,2.7853,2.51152,2.28228,-18.3381,-30.7718,46.2263,-1.66565,-13.9259,-0.178081,0.0350716,-1.0592700000000002,255.2,8.6,52.1701,4.42718,-6.5,1.3104,404.364,4.47778,180.5,14.4436,153.626,0.703565,0.154756,237.465,1.43622,1.75876,22.580261230468803,21.9994239807129,9.67816543579102,22.0,424113.0,3722.5,pp-ro,1,1,-1,-1
1570539964.5,2019-10-08,15:06:04.500,15.0,12.0,20.9699993133545,21.9,0.9,0.7,49.0,9.3,-13.9,24.2361,1.26128,0.631025,-8.56226,-11.894,-16.3723,46.0202,3.18976,-18.0202,0.146627,0.0699983,-1.07241,255.2,8.6,52.1701,4.42718,-6.5,1.29378,393.911,4.47772,180.792,16.7237,153.42600000000002,0.7015979999999999,0.142428,237.708,1.35015,1.6815099999999998,20.463249206543,21.9994239807129,8.19004917144775,22.0,424826.0,7937.24,pp-ro,1,1,-1,-1
1570539964.6,2019-10-08,15:06:04.600,15.0,12.0,21.0499992370605,21.3,0.0,-0.5,49.3,13.0,-17.6,23.5032,0.0954172,-0.989524,-15.162,-8.05038,-13.0993,46.1349,7.86631,-21.5366,0.0947801,0.0452246999999999,-0.8616,255.2,8.6,52.1701,4.42718,-6.5,1.26663,386.442,4.47766,180.997,18.6237,153.42600000000002,0.700546,0.132196,238.004,1.2665,1.61905,18.3462524414062,21.9994239807129,6.96662473678589,22.0,425340.0,3291.8,pp-ro,1,1,-1,-1
1570539964.7,2019-10-08,15:06:04.700,15.0,11.0,21.1800003051758,20.8,-0.9,-1.8,49.5,16.7,-21.0,23.1511,-0.445611,-1.80317,-11.0451,-5.17614,-7.24633,46.272,10.2756,-23.3209,0.302409,0.100926,-1.04079,255.2,8.6,52.1701,4.42718,-6.5,1.27494,384.871,4.4776,181.084,20.9038,153.42600000000002,0.699641,0.119864,238.26,1.18813,1.55072,16.2445755004883,21.9994239807129,5.619441032409671,22.0,425820.0,6152.9,pp-ro,1,1,-1,-1
1570539964.8,2019-10-08,15:06:04.800,15.0,10.0,21.2999992370605,20.4,-1.9,-3.0,49.9,19.5,-24.2,22.3825,-1.62341,-3.05872,1.07455,-7.09373,-7.718739999999999,45.9411,14.4421,-26.7597,0.188959,-0.0310779,-0.782293,255.2,8.6,52.1701,4.42718,-6.5,1.27882,395.354,4.477530000000001,181.055,23.1839,153.526,0.6992970000000001,0.107498,238.513,1.12422,1.48112,14.1463012695312,21.9994239807129,4.22483110427856,22.0,426395.0,2430.39,pp-ro,1,1,-1,-1
1570539964.9,2019-10-08,15:06:04.900,15.0,10.0,21.2600002288818,20.0,-2.9,-3.8,50.2,22.1,-27.0,22.0752,-2.11234,-3.65813,0.3306739999999999,-11.4667,-12.6936,45.9792,16.1812,-28.3538,-0.035591,0.0290942,-0.767419,255.2,8.6,52.1701,4.42719,-6.4,1.30597,410.876,4.477469999999999,180.938,25.4639,153.626,0.6991109999999999,0.0951011,238.721,1.06784,1.4252200000000002,12.0309982299805,21.9994239807129,3.10059309005737,22.0,426793.0,4307.03,pp-ro,1,1,-1,-1
1570539965.0,2019-10-08,15:06:05.000,15.0,11.0,21.0100002288818,19.8,-3.8,-4.6,50.5,24.1,-29.8,21.308000000000003,-3.09714,-4.80741,-9.04453,-8.91033,-8.7943,46.2031,19.8967,-30.7565,0.4276939999999999,0.100328,-0.5159699999999999,255.2,8.6,52.1701,4.42719,-6.4,1.32703,424.341,4.47741,180.675,27.7439,153.826,0.699559,0.0826111,238.905,1.0195299999999998,1.37467,9.92931365966797,21.9994239807129,2.05506134033203,22.0,427155.0,3261.04,pp-ro,1,1,-1,-1
1570539965.1,2019-10-08,15:06:05.100,15.0,11.0,20.840000152587898,19.4,-5.0,-5.5,50.5,25.5,-32.5,20.5799,-4.68847,-6.10959,-7.87211,-15.9156,-11.386,46.1402,23.6722,-34.7108,0.1046609999999999,0.136071,-0.645215,255.2,8.6,52.1701,4.42719,-6.4,1.3525200000000002,431.768,4.47735,180.324,29.644,154.126,0.7006479999999999,0.0721049999999999,239.062,0.97881,1.30855,7.8651123046875,21.9994239807129,0.6683669090270999,22.0,427605.0,5629.9,pp-ro,1,1,-1,-1
1570539965.2,2019-10-08,15:06:05.200,15.0,11.0,20.7600002288818,19.0,-5.9,-6.2,50.5,25.4,-34.9,19.8575,-5.6789,-6.91367,-9.54436,-8.65199,-5.9206900000000005,46.0796,25.0421,-36.9738,0.179191,0.0369994,-0.439018,255.2,8.6,52.1701,4.42719,-6.4,1.34864,432.621,4.47729,179.828,31.544,154.526,0.702389,0.061456,239.189,0.959848,1.25874,5.52159118652344,21.9994239807129,-0.427229136228561,22.0,427914.0,6122.13,pp-ro,1,1,-1,-1
1570539965.3,2019-10-08,15:06:05.300,15.0,12.0,20.7600002288818,18.6,-6.2,-6.6,51.1,26.2,-36.2,19.3715,-6.24085,-7.48188,-0.3930909999999999,-0.967475,-2.53038,46.5182,25.8324,-38.5529,0.20219,-0.1494319999999999,-0.425939,255.2,8.6,52.1701,4.42719,-6.4,1.35418,435.385,4.47722,179.273,33.444,154.92700000000002,0.704226,0.0507303,239.29,0.942441,1.2355,4.63935852050781,21.9994239807129,-0.99870628118515,22.0,428400.0,4706.97,pp-ro,1,1,-1,-1
1570539965.4,2019-10-08,15:06:05.400,15.0,10.0,20.7999992370605,18.6,-7.0,-6.7,51.2,26.3,-38.0,19.1582,-6.80006,-7.672860000000001,-5.99425,-7.87712,-2.73313,46.4193,26.5212,-40.168,0.17634,-0.0936087,-0.174479,256.4,9.5,52.1701,4.42719,-6.4,1.36803,444.485,4.477180000000001,178.63,35.7241,155.42700000000002,0.706353,0.0378226,239.463,0.929134,1.21963,2.58196258544922,21.9994239807129,-1.44261348247528,22.0,429138.0,4060.91,pp-ro,1,1,-1,-1
1570539965.5,2019-10-08,15:06:05.500,15.0,11.0,21.0100002288818,18.3,-7.2,-6.6,51.1,26.1,-39.4,18.8814,-7.293789999999999,-7.5668,-1.82931,-0.420516,0.596803,46.6807,27.0062,-41.9655,0.133323,-0.196693,-0.223478,256.4,9.5,52.1701,4.42719,-6.4,1.37579,442.065,4.47715,177.929,37.2441,155.92700000000002,0.7089770000000001,0.0288937,239.497,0.921213,1.21716,1.18878936767578,21.9994239807129,-1.64938318729401,22.0,429425.0,5383.79,pp-ro,1,1,-1,-1
1570539965.6,2019-10-08,15:06:05.600,15.0,9.0,21.3899993896484,17.9,-7.4,-6.7,50.9,25.9,-40.7,18.8814,-7.293789999999999,-7.5668,-1.82931,-0.420516,0.596803,46.6807,27.0062,-41.9655,0.133323,-0.196693,-0.223478,256.4,9.5,52.1701,4.42719,-6.4,1.32481,414.385,4.477130000000001,177.17,39.5241,156.42700000000002,0.7112689999999999,0.0157684,239.626,0.917136,1.2078799999999998,0.061317443847656,21.9994239807129,-1.9799296855926496,22.0,430560.0,7137.36,pp-ro,1,1,-1,-1
1570539965.7,2019-10-08,15:06:05.700,15.0,10.0,21.760000228881804,17.8,-7.6,-6.6,50.7,25.3,-41.6,18.557,-7.34606,-7.619969999999999,-6.9003,-3.38455,-5.1414,46.5912,26.9902,-42.7211,0.0863128999999999,-0.028941,-0.0350718,256.4,9.5,52.1701,4.42719,-6.4,1.31484,405.554,4.4771,176.43900000000002,41.0441,157.02700000000002,0.714184,0.0067277,239.735,0.91956,1.20987,-0.8602142333984379,21.9994239807129,-2.1267147064209,22.0,430890.0,6152.9,pp-ro,1,1,-1,-1
1570539965.8,2019-10-08,15:06:05.800,15.0,10.0,21.9599990844727,17.6,-7.3,-6.3,51.1,24.9,-42.0,18.3564,-7.425560000000001,-7.437760000000001,-1.53997,-2.44897,8.24802,46.7656,26.8807,-42.8768,-0.0570221,-0.0108381,-0.0929044,256.4,9.5,52.1701,4.42719,-6.4,1.28492,394.36300000000006,4.47708,175.68,42.9442,157.52700000000002,0.7165729999999999,-0.00443044,239.838,0.926963,1.23069,-1.70507049560547,21.9994239807129,-1.8717017173767097,22.0,431541.0,5999.08,pp-ro,1,1,-1,-1
1570539965.9,2019-10-08,15:06:05.900,15.0,10.0,22.1200008392334,17.8,-7.3,-6.0,51.3,25.2,-42.0,18.3564,-7.425560000000001,-7.437760000000001,-1.53997,-2.44897,8.24802,46.7656,26.8807,-42.8768,-0.0570221,-0.0108381,-0.0929044,256.4,9.5,52.1701,4.42719,-6.2,1.2804799999999998,394.465,4.47705,174.95,44.8442,158.02700000000002,0.71882,-0.0155839,239.981,0.930959,1.25331,-1.91500091552734,21.9994239807129,-1.57709562778473,22.0,432003.0,4122.44,pp-ro,1,1,-1,-1
1570539966.0,2019-10-08,15:06:06.000,15.0,11.0,22.1599998474121,17.8,-7.6,-5.9,51.5,25.2,-42.2,18.4376,-7.15769,-6.939939999999999,1.23611,3.89806,6.005269999999999,47.3448,26.5993,-42.9767,0.110197,-0.00898086,-0.127934,256.4,9.5,52.1701,4.42719,-6.2,1.29434,404.231,4.47702,174.16099999999997,46.7442,158.627,0.72147,-0.0268505,240.166,0.936149,1.25643,-2.08738708496094,21.9994239807129,-1.70671117305756,22.0,432389.0,3814.8,pp-ro,1,1,-1,-1
1570539966.1,2019-10-08,15:06:06.100,15.0,10.0,22.280000686645497,17.5,-7.8,-6.1,51.5,24.4,-41.8,18.5893,-7.22867,-6.72322,-2.4140200000000003,-5.65262,0.2475239999999999,47.4442,26.7491,-43.1283,0.0465096,0.123839,0.0264352,256.4,9.5,52.1701,4.42719,-6.2,1.31318,411.004,4.477,173.343,48.2642,159.127,0.7241,-0.0361609,240.206,0.956448,1.24332,-1.93377685546875,21.9994239807129,-2.16563844680786,22.0,432763.0,3445.62,pp-ro,1,1,-1,-1
1570539966.2,2019-10-08,15:06:06.200,15.0,11.0,22.440000534057603,17.5,-7.8,-5.8,52.4,23.8,-41.4,18.6514,-7.31717,-6.585489999999999,-5.89345,-2.69315,-0.860458,47.3777,26.5813,-43.3014,0.0700363,-0.0761694,0.0293452,256.4,9.5,52.1701,4.42719,-6.2,1.32038,424.7,4.47697,172.52599999999998,50.1642,159.627,0.726394,-0.0475434,240.338,0.975863,1.26152,-1.5378036499023402,21.9994239807129,-1.9847618341445905,22.0,433495.0,4030.15,pp-ro,1,1,-1,-1
1570539966.3,2019-10-08,15:06:06.300,15.0,9.0,22.6700000762939,17.8,-7.9,-4.9,51.6,22.9,-43.2,18.2836,-7.45765,-6.493119999999999,-1.90043,-1.03607,1.67272,47.2329,25.5822,-43.4069,0.00398345,-0.257453,0.102851,256.4,9.5,52.1701,4.42719,-6.2,1.33645,431.658,4.47694,171.678,52.0643,160.127,0.728697,-0.0590049999999999,240.468,0.972835,1.30556,-1.54975128173828,21.9994239807129,-1.29620051383972,22.0,433610.0,2184.28,pp-ro,1,1,-1,-1
1570539966.4,2019-10-08,15:06:06.400,15.0,10.0,22.7900009155273,17.8,-7.3,-4.3,51.4,22.9,-43.9,18.8689,-7.790019999999999,-5.07758,6.598310000000001,4.265,12.8234,47.7155,22.2856,-45.112,0.147372,-0.244171,-0.282932,251.2,10.2,52.1701,4.42719,-6.2,1.35861,429.778,4.47693,170.861,53.9643,160.42700000000002,0.7302350000000001,-0.0704636999999999,240.505,0.972267,1.35161,-1.74603271484375,21.9994239807129,-0.5147749185562129,22.0,434127.0,7075.83,pp-ro,1,1,-1,-1
1570539966.5,2019-10-08,15:06:06.500,15.0,10.0,22.7099990844727,17.8,-7.3,-4.1,51.1,22.3,-43.9,18.9301,-7.52981,-4.81335,-3.6524,7.14962,8.18063,48.0256,22.0006,-45.4075,0.0797421,-0.0855416,-0.0466879,251.2,10.2,52.1701,4.42719,-6.2,1.30265,398.228,4.47693,170.101,55.4843,160.827,0.732191,-0.0798411999999999,240.579,0.985649,1.36532,-1.6692276000976598,21.9994239807129,-0.416607052087784,22.0,435250.0,7568.06,pp-ro,1,1,-1,-1
1570539966.6,2019-10-08,15:06:06.600,15.0,12.0,22.2399997711182,17.6,-7.7,-3.8,51.3,21.2,-43.8,18.8202,-7.275810000000001,-4.41651,0.0792402,-3.62109,0.367533,48.013000000000005,21.5812,-46.0557,0.0598733,0.0435949,0.0882685,251.2,10.2,52.1701,4.42719,-6.2,1.27439,399.359,4.47693,169.283,57.3843,161.127,0.7336090000000001,-0.0913647,240.649,1.00764,1.36869,-1.20327758789062,21.9994239807129,-0.490663081407547,22.0,435771.0,3261.04,pp-ro,1,1,-1,-1
1570539966.7,2019-10-08,15:06:06.700,15.0,13.0,21.719999313354503,17.1,-7.4,-3.6,51.7,20.9,-43.5,18.7031,-7.67282,-4.05473,-4.4015,-0.110857,1.49374,48.5345,20.7357,-45.7396,-0.1198859999999999,0.00613199,-0.00768762,251.2,10.2,52.1701,4.42719,-6.2,1.29101,401.517,4.47692,168.43599999999998,58.9043,161.428,0.735386,-0.100954,240.623,1.0213299999999998,1.38107,-0.640037536621094,21.9994239807129,-0.418788313865662,22.0,435853.0,1630.52,pp-ro,1,1,-1,-1
1570539966.8,2019-10-08,15:06:06.800,15.0,12.0,21.4400005340576,17.3,-7.5,-3.6,52.0,20.6,-43.1,18.7031,-7.67282,-4.05473,-4.4015,-0.110857,1.49374,48.5345,20.7357,-45.7396,-0.1198859999999999,0.00613199,-0.00768762,251.2,10.2,52.1701,4.42719,-6.2,1.26719,380.704,4.47692,167.648,60.8043,161.72799999999998,0.736604,-0.11247,240.746,1.03755,1.38998,-0.414749145507812,21.9994239807129,-0.376105397939682,22.0,436911.0,8829.41,pp-ro,1,1,-1,-1
1570539966.9,2019-10-08,15:06:06.900,15.0,12.0,21.1499996185303,17.3,-7.9,-3.2,51.3,19.9,-44.0,18.2753,-7.56233,-3.85541,-12.3401,3.76419,1.03289,48.7723,20.2344,-45.5521,0.0603627,0.00438021,0.373032,251.2,10.2,52.1701,4.4272,-6.2,1.24669,377.43,4.47692,166.771,62.7044,162.028,0.737984,-0.12417,240.827,1.0430700000000002,1.40135,-0.450592041015625,21.9994239807129,-0.3060328364372249,22.0,437330.0,2707.27,pp-ro,1,1,-1,-1
1570539967.0,2019-10-08,15:06:07.000,15.0,12.0,20.8500003814697,16.8,-7.7,-3.1,51.4,19.4,-44.2,18.2311,-7.53068,-3.73665,0.398094,2.46256,-2.59302,48.8329,19.6587,-45.7102,0.0869289,0.0421083,0.0646735,251.2,10.2,52.1701,4.4272,-6.2,1.26497,384.207,4.47692,165.954,64.6044,162.328,0.739142,-0.135772,240.966,1.05457,1.40858,-0.42498779296875,21.9994239807129,-0.302998781204224,22.0,437681.0,3999.38,pp-ro,1,1,-1,-1
1570539967.1,2019-10-08,15:06:07.100,15.0,12.0,20.6000003814697,16.7,-8.1,-3.1,51.0,18.5,-44.4,18.4051,-7.9502,-3.37791,-4.24005,6.42394,2.19375,49.0129,18.9051,-45.9199,-0.0125975,-0.287235,0.0336634,251.2,10.2,52.1701,4.4272,-6.2,1.26608,384.46,4.47692,165.136,66.1244,162.628,0.740628,-0.145401,241.019,1.06949,1.40107,-0.319168090820312,21.9994239807129,-0.632292628288269,22.0,437911.0,4153.21,pp-ro,1,1,-1,-1
1570539967.2,2019-10-08,15:06:07.200,15.0,12.0,20.4300003051758,16.5,-8.1,-2.7,50.9,17.6,-45.2,17.7812,-8.159980000000001,-3.02929,-5.68526,-3.7122,-0.300325,48.2886,17.6835,-46.3788,-0.227198,0.0365152,0.0515339,251.2,10.2,52.1701,4.4272,-6.2,1.26608,380.635,4.47692,164.28900000000002,67.6444,162.928,0.742143,-0.155113,241.064,1.0771700000000002,1.41897,-0.314048767089844,21.9994239807129,-0.466441929340363,22.0,438368.0,5199.2,pp-ro,1,1,-1,-1
1570539967.3,2019-10-08,15:06:07.300,15.0,11.0,20.3799991607666,16.3,-7.8,-2.2,49.9,16.7,-46.4,17.7812,-8.159980000000001,-3.02929,-5.68526,-3.7122,-0.300325,48.2886,17.6835,-46.3788,-0.227198,0.0365152,0.0515339,251.2,10.2,52.1701,4.4272,-6.2,1.23671,361.804,4.47691,163.442,69.1644,163.128,0.743305,-0.164849,241.055,1.07991,1.4505,-0.450592041015625,21.9994239807129,0.002103470265865,22.0,439127.0,4768.5,pp-ro,1,1,-1,-1
1570539967.4,2019-10-08,15:06:07.400,15.0,11.0,20.2999992370605,16.0,-7.4,-2.1,49.8,17.3,-46.2,17.7812,-8.159980000000001,-3.02929,-5.68526,-3.7122,-0.300325,48.2886,17.6835,-46.3788,-0.227198,0.0365152,0.0515339,251.1,10.6,52.1701,4.4272,-6.2,1.20402,337.16900000000004,4.4769,162.653,71.0645,163.328,0.743842,-0.176422,241.21,1.08335,1.46905,-0.605903625488281,21.9994239807129,0.273460060358047,22.0,439733.0,6491.31,pp-ro,1,1,-1,-1
1570539967.5,2019-10-08,15:06:07.500,15.0,13.0,20.0400009155273,15.7,-7.3,-2.0,49.9,17.5,-46.0,17.7812,-8.159980000000001,-3.02929,-5.68526,-3.7122,-0.300325,48.2886,17.6835,-46.3788,-0.227198,0.0365152,0.0515339,251.1,10.6,52.1701,4.4272,-6.2,1.17465,318.844,4.47687,161.894,72.5845,163.528,0.744675,-0.1859559999999999,241.287,1.09005,1.47681,-0.339645385742188,21.9994239807129,-35.0,22.0,440090.0,6645.13,pp-ro,1,1,-1,-1
1570539967.6,2019-10-08,15:06:07.600,15.0,13.0,19.8700008392334,15.5,-7.6,-2.1,50.0,17.0,-45.6,17.6195,-8.22512,-2.68888,4.080419999999999,0.835731,5.64501,48.4332,16.7391,-47.2739,0.108602,-0.279618,0.137715,251.1,10.6,52.1701,4.4272,-6.2,1.11758,299.083,4.47684,161.105,73.7245,163.72799999999998,0.745981,-0.193618,241.241,1.10619,1.46371,0.1771240234375,21.9994239807129,-35.0,22.0,440644.0,4706.97,pp-ro,1,1,-1,-1
1570539967.7,2019-10-08,15:06:07.700,15.0,13.0,19.6000003814697,15.1,-7.9,-2.1,49.8,16.5,-45.8,16.2437,-7.84868,-2.04181,-6.3818,-0.1564849999999999,2.32491,48.0575,16.6253,-47.7855,0.22896,-0.0928725,0.0515956,251.1,10.6,52.1701,4.4272,-6.2,1.13642,313.696,4.4768,160.287,75.6245,163.928,0.746424,-0.205255,241.42,1.11788,1.4528299999999998,0.270805358886719,21.9994239807129,-35.0,22.0,440941.0,1169.05,pp-ro,1,1,-1,-1
1570539967.8,2019-10-08,15:06:07.800,15.0,13.0,19.5100002288818,15.0,-7.8,-1.9,49.9,15.9,-46.2,16.2437,-7.84868,-2.04181,-6.3818,-0.1564849999999999,2.32491,48.0575,16.6253,-47.7855,0.22896,-0.0928725,0.0515956,251.1,10.6,52.1701,4.4272,-6.2,1.14861,316.013,4.47677,159.469,77.1445,164.128,0.747264,-0.214954,241.495,1.12697,1.469,0.025543212890625,21.9994239807129,-35.0,22.0,441058.0,2215.04,pp-ro,1,1,-1,-1
1570539967.9,2019-10-08,15:06:07.900,15.0,13.0,19.3700008392334,14.8,-7.6,-1.5,49.4,14.6,-47.1,16.2437,-7.84868,-2.04181,-6.3818,-0.1564849999999999,2.32491,48.0575,16.6253,-47.7855,0.22896,-0.0928725,0.0515956,251.1,10.6,52.1701,4.4272,-6.4,1.14473,304.459,4.47674,158.651,78.6645,164.328,0.748057,-0.224661,241.583,1.13839,1.49526,-0.583717346191406,21.9994239807129,-35.0,22.0,441481.0,5199.2,pp-ro,1,1,-1,-1
1570539968.0,2019-10-08,15:06:08.000,15.0,12.0,19.090000152587898,14.6,-7.2,-1.2,49.4,13.3,-47.0,16.2437,-7.84868,-2.04181,-6.3818,-0.1564849999999999,2.32491,48.0575,16.6253,-47.7855,0.22896,-0.0928725,0.0515956,251.1,10.6,52.1701,4.4272,-6.4,1.1031799999999998,293.213,4.47671,157.892,80.1845,164.528,0.7486550000000001,-0.234226,241.721,1.16204,1.52482,-1.5787658691406203,21.9994239807129,-35.0,22.0,441952.0,3691.74,pp-ro,1,1,-1,-1
1570539968.1,2019-10-08,15:06:08.100,15.0,11.0,18.8199996948242,14.5,-7.0,-0.9,50.5,13.1,-45.6,15.6583,-7.949330000000001,-1.6812200000000002,-1.37093,-0.393689,8.181519999999999,48.4218,15.114,-48.3051,-0.0322657,-0.243546,0.0485503,251.1,10.6,52.1701,4.4272,-6.4,1.1031799999999998,279.716,4.47668,157.162,81.7046,164.62900000000002,0.748831,-0.243713,241.822,1.18832,1.55004,-2.93565368652344,21.9994239807129,-35.0,22.0,442392.0,4091.68,pp-ro,1,1,-1,-1
1570539968.2,2019-10-08,15:06:08.200,15.0,12.0,18.5799999237061,14.8,-6.7,-0.6,50.9,12.0,-45.4,15.3349,-7.46815,-1.1503,-1.78427,3.77305,3.85531,48.5603,13.5049,-48.5601,0.0866486,0.247831,0.26098,251.1,10.6,52.1701,4.4272,-6.4,1.07935,264.831,4.47665,156.782,82.4646,164.829,0.749393,-0.248477,241.97,1.20753,1.5840299999999998,-4.645843505859379,21.9994239807129,-35.0,22.0,442659.0,5445.31,pp-ro,1,1,-1,-1
1570539968.3,2019-10-08,15:06:08.300,15.0,13.0,18.25,15.1,-6.7,-0.4,51.7,11.0,-44.6,14.9948,-7.0545800000000005,-0.724418,-1.86408,5.75632,2.80707,49.3689,13.8172,-47.1458,0.259625,0.235593,0.1839579999999999,251.1,10.6,52.1701,4.4272,-6.4,1.0245,247.305,4.47662,155.76,84.3646,164.929,0.7497159999999999,-0.260626,242.033,1.23809,1.6068,-6.69055938720703,21.9994239807129,-35.0,22.0,443152.0,3968.62,pp-ro,1,1,-1,-1
1570539968.4,2019-10-08,15:06:08.400,15.0,12.0,18.1499996185303,15.5,-6.6,0.2,52.2,8.9,-44.1,15.6403,-6.74557,0.182561,1.7472900000000002,-1.66048,10.0726,51.0835,12.0163,-44.4965,0.0584317,0.151165,0.266996,249.0,10.4,52.1701,4.4272,-6.4,1.06218,272.54,4.47657,155.03,86.2646,164.929,0.7489439999999999,-0.271959,242.234,1.27818,1.65127,-8.79672241210938,21.9994239807129,-35.0,22.0,443230.0,-246.116,pp-ro,1,1,-1,-1
1570539968.5,2019-10-08,15:06:08.500,15.0,15.0,18.1000003814697,15.7,-6.6,0.6,52.9,7.8,-43.7,15.6403,-6.74557,0.182561,1.7472900000000002,-1.66048,10.0726,51.0835,12.0163,-44.4965,0.0584317,0.151165,0.266996,249.0,10.4,52.1701,4.4272,-6.4,1.08046,279.395,4.47653,154.679,86.6446,164.929,0.7492840000000001,-0.274746,242.145,1.2987,1.67345,-10.9028854370117,21.9994239807129,-35.0,22.0,443291.0,1138.29,pp-ro,1,1,-1,-1
1570539968.6,2019-10-08,15:06:08.600,15.0,14.0,18.340000152587898,16.5,-6.1,1.9,53.9,5.6,-43.0,15.7268,-6.69169,0.546633,4.56395,0.711044,0.924129,51.481,11.1753,-43.9197,0.0652546,0.0572755999999999,0.4114739999999999,249.0,10.4,52.1701,4.4272,-6.4,1.09597,287.98400000000004,4.4764800000000005,154.007,88.1646,164.929,0.748822,-0.28402,242.266,1.34134,1.76256,-12.997100830078098,21.9994239807129,-35.0,22.0,443534.0,2645.75,pp-ro,1,1,-1,-1
1570539968.7,2019-10-08,15:06:08.700,15.0,13.0,18.590000152587898,17.3,-5.8,2.6,55.3,3.1,-42.1,16.9065,-5.84251,2.31611,8.4015,5.63693,13.0422,53.9677,7.34046,-41.8131,0.2330809999999999,-0.0999742,0.250864,249.0,10.4,52.1701,4.4272,-6.4,1.11204,297.72700000000003,4.476430000000001,153.365,90.0647,164.729,0.747102,-0.295036,242.421,1.39174,1.81568,-15.1083831787109,21.9994239807129,-35.0,22.0,443853.0,1968.93,pp-ro,1,1,-1,-1
1570539968.8,2019-10-08,15:06:08.800,15.0,12.0,18.770000457763697,17.8,-5.3,3.9,56.1,-0.4,-40.8,17.1528,-5.713419999999999,2.94736,1.63947,3.5167900000000003,12.019,54.5192,6.13069,-41.0863,0.385798,-0.0269200999999999,0.616252,249.0,10.4,52.1701,4.4272,-6.4,1.11703,297.138,4.476380000000001,152.81,91.5847,164.429,0.745359,-0.3039199999999999,242.436,1.45854,1.89212,-17.2179565429688,21.9994239807129,-35.0,22.0,443993.0,2676.51,pp-ro,1,1,-1,-1
1570539968.9,2019-10-08,15:06:08.900,15.0,14.0,18.9599990844727,18.3,-4.3,5.0,57.4,-4.7,-38.6,17.4267,-5.03105,4.2891,0.94001,10.6088,12.684,55.7617,2.8097,-38.7295,0.106924,0.0491971,0.956148,249.0,10.4,52.1701,4.4272,-6.7,1.08379,272.466,4.47633,152.284,93.4847,163.929,0.742345,-0.314503,242.492,1.54818,1.97717,-19.3411865234375,21.9994239807129,-35.0,22.0,444655.0,5260.73,pp-ro,1,1,-1,-1
1570539969.0,2019-10-08,15:06:09.000,15.0,13.0,19.1900005340576,18.6,-3.4,6.6,58.8,-9.9,-36.3,17.7113,-3.35454,6.05802,2.06026,9.1836,9.93939,57.661,-3.64727,-33.6044,0.29066,0.00943555,1.13496,249.0,10.4,52.1701,4.4272,-6.7,1.05165,268.23900000000003,4.47628,151.875,95.3847,163.429,0.739002,-0.324675,242.638,1.65087,2.07121,-21.4575881958008,21.9994239807129,-35.0,22.0,444970.0,1722.81,pp-ro,1,1,-1,-1
1570539969.1,2019-10-08,15:06:09.100,15.0,10.0,19.3700008392334,18.5,-2.1,8.3,60.3,-15.2,-33.0,17.7862,-2.90204,6.80162,-1.21779,6.86225,13.1698,58.5189,-5.70681,-31.6534,0.540928,0.186846,0.8926430000000001,249.0,10.4,52.1701,4.4272,-6.7,1.07547,267.711,4.47623,151.583,97.2848,162.72899999999998,0.734729,-0.334421,242.739,1.76627,2.18072,-22.5157852172852,21.9994239807129,-35.0,22.0,445092.0,1907.4,pp-ro,1,1,-1,-1
1570539969.2,2019-10-08,15:06:09.200,15.0,11.0,19.5499992370605,18.5,-0.2,9.8,61.9,-20.0,-29.2,17.7862,-2.90204,6.80162,-1.21779,6.86225,13.1698,58.5189,-5.70681,-31.6534,0.540928,0.186846,0.8926430000000001,249.0,10.4,52.1701,4.4272,-6.7,1.06661,258.54900000000004,4.47618,151.407,98.8048,161.829,0.730102,-0.34197,242.642,1.87834,2.29975,-24.6253662109375,21.9994239807129,-35.0,22.0,445324.0,4337.79,pp-ro,1,1,-1,-1
1570539969.3,2019-10-08,15:06:09.300,15.0,11.0,19.6800003051758,18.4,1.2,11.4,62.6,-25.1,-24.6,17.2929,0.259004,9.8233,-2.46591,16.9364,19.7059,60.9778,-15.5787,-23.551,0.0794208999999999,0.0767909,0.955052,249.0,10.4,52.1701,4.4272,-6.7,1.0278200000000002,260.257,4.47612,151.407,100.705,160.929,0.7244689999999999,-0.35067,242.825,2.00235,2.39852,-26.7383499145508,21.9994239807129,-35.0,22.0,445798.0,799.877,pp-ro,1,1,-1,-1
1570539969.4,2019-10-08,15:06:09.400,15.0,10.0,19.8700008392334,18.3,2.6,13.3,63.5,-30.8,-19.8,17.1625,1.82779,11.3571,-1.49278,9.6287,15.6373,60.2864,-20.7628,-17.748,0.0615641,0.5496310000000001,1.41677,250.0,9.7,52.1701,4.4272,-6.7,1.08212,279.24,4.47609,151.583,102.605,159.829,0.717795,-0.3587579999999999,243.003,2.13366,2.49594,-28.8513336181641,21.9994239807129,-35.0,22.0,445766.0,246.116,pp-ro,1,1,-1,-1
1570539969.5,2019-10-08,15:06:09.500,15.0,11.0,20.1200008392334,17.6,4.4,15.1,62.8,-36.9,-14.8,16.6427,3.0791,13.1493,-11.8229,17.024,20.8394,58.9707,-26.1411,-10.925999999999998,0.141361,0.2732489999999999,1.12196,250.0,9.7,52.1701,4.4272,-6.7,1.08656,278.676,4.47606,151.875,104.505,158.529,0.710218,-0.3663679999999999,243.143,2.26867,2.60791,-30.756103515625,21.9994239807129,-35.0,22.0,446095.0,3937.85,pp-ro,1,1,-1,-1
1570539969.6,2019-10-08,15:06:09.600,15.0,12.0,20.3799991607666,16.4,6.3,16.4,61.7,-44.0,-9.1,15.1978,5.67224,15.1785,-9.23813,15.3811,10.0305,55.3692,-35.1471,-1.02671,0.00281386,0.321913,1.35231,250.0,9.7,52.1701,4.4272,-6.7,1.08046,278.327,4.476030000000001,152.371,106.025,157.129,0.702441,-0.371565,243.203,2.41697,2.7186,-32.3092651367188,21.9994239807129,-35.0,22.0,446261.0,3168.74,pp-ro,1,1,-1,-1
1570539969.7,2019-10-08,15:06:09.700,15.0,12.0,20.729999542236303,14.8,8.2,17.7,58.5,-49.9,-1.5,13.8869,7.42438,16.3782,-14.7887,19.968,16.9041,51.1584,-41.3514,6.86584,0.339657,0.288844,1.46211,250.0,9.7,52.1701,4.4272,-6.7,1.08656,287.121,4.476,153.043,107.925,155.629,0.693386,-0.377831,243.496,2.56084,2.83585,-33.4971923828125,21.9994239807129,-35.0,22.0,446459.0,1507.46,pp-ro,1,1,-1,-1
1570539969.8,2019-10-08,15:06:09.800,15.0,11.0,20.979999542236303,13.2,10.0,18.8,53.1,-55.8,7.9,12.0941,8.97621,17.274,-17.1043,21.5245,7.21738,44.8663,-46.51,17.6082,0.1696119999999999,0.297082,1.42993,250.0,9.7,52.1701,4.4272,-6.7,1.10983,290.657,4.475969999999999,153.91899999999998,109.065,154.029,0.684729,-0.380051,243.539,2.7077400000000003,2.94111,-34.34716796875,21.9994239807129,-35.0,22.0,446637.0,2245.81,pp-ro,1,1,-1,-1
