time,date,time_of_day,airspeed_temperature,airspeed_angle_of_attack,airspeed_apparent_windspeed,kite_0_vx,kite_0_vy,kite_0_vz,kite_0_roll,kite_0_pitch,kite_0_yaw,kite_1_vx,kite_1_vy,kite_1_vz,kite_1_ax,kite_1_ay,kite_1_az,kite_1_roll,kite_1_pitch,kite_1_yaw,kite_1_roll_rate,kite_1_pitch_rate,kite_1_yaw_rate,ground_upwind_direction,ground_wind_velocity,ground_pos_latitude,ground_pos_longitude,ground_pos_altitude,ground_tether_reelout_speed,ground_tether_force,est_upwind_direction,kite_pos_east,kite_pos_north,kite_height,kite_elevation,kite_azimuth,kite_distance,kite_heading,kite_course,kite_actual_steering,kite_actual_depower,kite_set_steering,kite_set_depower,ground_mech_energy,ground_mech_power,flight_phase,flight_phase_index,phase,pattern,pattern_section
1570531719.1,2019-10-08,12:48:39.100,15.0,8.0,14.6599998474121,12.2,0.8,3.3,22.1,-5.6,-40.1,11.0175,1.31761,3.72522,5.5037,10.8527,5.88619,27.7073,8.50562,-39.8299,0.0596052,0.201511,0.916757,262.3,4.8,52.1701,4.427219999999999,3.3,-2.54601,102.074,4.67227,59.4958,1.1404,231.182,1.31886,0.0209982,238.718,0.925491,1.7193900000000002,-34.980377197265604,22.0009689331055,-35.0,22.0,-309610.0,-4214.73,pp-riro,4,0,-1,-1
1570531719.2,2019-10-08,12:48:39.200,15.0,8.0,14.4799995422363,12.7,2.0,3.7,23.6,-7.7,-35.0,11.5753,2.39111,4.10224,2.3372,11.8922,3.60872,29.3616,6.64023,-34.2056,0.208573,0.171615,1.00205,262.3,4.8,52.1701,4.427219999999999,3.3,-2.5377,97.6323,4.67235,59.5542,2.66045,230.982,1.3182200000000002,-0.00456256,238.551,1.04863,1.83499,-34.982086181640604,22.0009689331055,-35.0,22.0,-310053.0,-3168.74,pp-riro,4,0,-1,-1
1570531719.3,2019-10-08,12:48:39.300,15.0,9.0,14.2299995422363,13.1,3.1,4.0,24.9,-9.5,-30.4,11.9461,3.53672,4.47288,5.1355900000000005,13.1094,3.01041,30.7903,4.64585,-28.7727,0.327076,0.157213,0.942797,262.3,4.8,52.1701,4.427219999999999,3.3,-2.55044,90.9044,4.67243,59.6711,3.8005,230.682,1.31718,-0.0236072999999999,238.305,1.15544,1.92791,-34.9854888916016,22.0009689331055,-35.0,22.0,-311004.0,-10060.0,pp-riro,4,0,-1,-1
1570531719.4,2019-10-08,12:48:39.400,15.0,8.0,14.1599998474121,13.5,4.3,4.3,26.2,-11.1,-25.3,11.9461,3.53672,4.47288,5.1355900000000005,13.1094,3.01041,30.7903,4.64585,-28.7727,0.327076,0.157213,0.942797,262.3,4.8,52.1701,4.427219999999999,3.2,-2.62469,89.9933,4.67252,59.9631,4.94054,230.382,1.31534,-0.0422926999999999,238.109,1.26971,2.01936,-34.9871978759766,22.0009689331055,-35.0,22.0,-312914.0,-13690.2,pp-riro,4,0,-1,-1
1570531719.5,2019-10-08,12:48:39.500,15.0,8.0,14.1599998474121,13.8,5.5,4.7,27.2,-12.8,-20.2,12.3824,5.3028900000000005,4.971030000000001,4.07164,13.6427,5.42142,32.5545,1.6694,-20.6355,0.0427895,0.220775,0.948484,262.3,4.8,52.1701,4.427219999999999,3.2,-2.6446400000000003,91.8215,4.6726,60.372,6.4606,230.082,1.31279,-0.0667763,237.959,1.38984,2.11261,-34.9871978759766,22.0009689331055,-35.0,22.0,-313565.0,-13105.7,pp-riro,4,0,-1,-1
1570531719.6,2019-10-08,12:48:39.600,15.0,8.0,14.2299995422363,13.9,6.8,5.2,27.8,-14.8,-15.3,12.6296,6.39995,5.394480000000001,4.16453,13.3519,5.43898,33.454,-0.304394,-15.0476,0.29461,0.222605,0.993194,262.3,4.8,52.1701,4.427219999999999,3.2,-2.68453,93.0162,4.672680000000001,60.9269,7.98066,229.682,1.30939,-0.0904977,237.76,1.50684,2.21066,-35.0059814453125,22.0009689331055,-35.0,22.0,-314556.0,-7721.89,pp-riro,4,0,-1,-1
1570531719.7,2019-10-08,12:48:39.700,15.0,8.0,14.1000003814697,14.0,7.9,5.7,28.3,-16.9,-10.2,12.6296,6.39995,5.394480000000001,4.16453,13.3519,5.43898,33.454,-0.304394,-15.0476,0.29461,0.222605,0.993194,262.3,4.8,52.1701,4.427219999999999,3.2,-2.71777,89.5222,4.67277,61.5403,9.50072,229.282,1.30561,-0.113508,237.587,1.62641,2.29133,-35.0059814453125,22.0009689331055,-35.0,22.0,-315756.0,-11844.3,pp-riro,4,0,-1,-1
1570531719.8,2019-10-08,12:48:39.800,15.0,9.0,14.1000003814697,13.8,9.2,6.0,28.6,-19.0,-5.0,12.5149,9.42825,6.38206,-1.827,10.6094,4.4242,33.9273,-5.60842,-1.18448,-0.17683,0.275859,0.8867079999999999,271.4,5.4,52.1701,4.427219999999999,3.2,-2.76764,85.9431,4.67286,62.3288,10.6408,228.782,1.30115,-0.129565,237.359,1.74023,2.37742,-35.0059814453125,22.0009689331055,-35.0,22.0,-317163.0,-15413.0,pp-riro,4,0,-1,-1
1570531719.9,2019-10-08,12:48:39.900,15.0,8.0,14.1599998474121,13.6,10.4,6.6,28.8,-21.5,3.2,12.2703,10.4898,6.7020100000000005,-2.98893,10.2554,2.78577,33.9567,-7.598619999999999,4.31977,0.0157727999999999,0.239736,0.926729,271.4,5.4,52.1701,4.427219999999999,3.2,-2.86682,90.1131,4.67289,63.7016,12.9209,228.082,1.29318,-0.160625,237.163,1.91926,2.47149,-35.0042724609375,22.0009689331055,-35.0,22.0,-319304.0,-14090.1,pp-riro,4,0,-1,-1
1570531720.0,2019-10-08,12:48:40.000,15.0,8.0,14.289999961853,13.4,11.6,6.8,28.6,-22.4,5.9,12.105,11.5796,7.0813,-2.82568,11.9736,4.07987,33.6759,-9.37397,10.1488,0.146596,0.368405,0.984889,271.4,5.4,52.1701,4.427219999999999,3.2,-2.884,93.593,4.6729400000000005,64.2273,13.6809,227.782,1.29011,-0.170399,237.05900000000003,1.97758,2.53688,-35.0042724609375,22.0009689331055,-35.0,22.0,-320002.0,-13413.3,pp-riro,4,0,-1,-1
1570531720.1,2019-10-08,12:48:40.100,15.0,8.0,14.4099998474121,13.1,12.8,7.3,28.3,-24.2,11.7,12.105,11.5796,7.0813,-2.82568,11.9736,4.07987,33.6759,-9.37397,10.1488,0.146596,0.368405,0.984889,271.4,5.4,52.1701,4.427219999999999,3.2,-2.9094900000000004,99.1226,4.67299,65.3663,14.821,227.182,1.28391,-0.183541,236.863,2.09363,2.60753,-35.0042724609375,22.0009689331055,-35.0,22.0,-321102.0,-9875.4,pp-riro,4,0,-1,-1
1570531720.2,2019-10-08,12:48:40.200,15.0,9.0,14.4099998474121,12.7,14.0,7.8,27.8,-25.9,17.5,11.8287,12.6481,7.552519999999999,-5.11855,10.7852,3.41765,33.022,-11.0079,16.3042,-0.032472,0.316185,1.07197,271.4,5.4,52.1701,4.427219999999999,3.2,-2.91226,100.16,4.673030000000001,66.6222,16.721,226.482,1.27633,-0.206523,236.669,2.2168,2.6867,-35.0042724609375,22.0009689331055,-35.0,22.0,-321933.0,-7783.42,pp-riro,4,0,-1,-1
1570531720.3,2019-10-08,12:48:40.300,15.0,10.0,14.4700002670288,12.1,15.3,8.2,26.9,-27.6,23.8,11.3125,13.7023,7.94844,-6.94885,9.54082,5.732069999999999,32.1252,-12.6464,22.325,0.165751,0.2601449999999999,0.976821,271.4,5.4,52.1701,4.427219999999999,3.2,-2.9033900000000004,105.264,4.673080000000001,68.0534,17.8611,225.782,1.26871,-0.217334,236.491,2.33492,2.76024,-35.0042724609375,22.0009689331055,-35.0,22.0,-322505.0,-3507.15,pp-riro,4,0,-1,-1
1570531720.4,2019-10-08,12:48:40.400,15.0,10.0,14.710000038147,11.5,16.5,8.6,26.1,-29.0,30.1,11.0531,14.2469,8.14465,-5.47095,8.30219,4.31099,31.4725,-13.5356,25.3975,-0.0193014,0.310308,1.04116,271.4,5.4,52.1701,4.427219999999999,3.1,-2.88899,109.348,4.67314,69.5721,19.0012,224.982,1.26059,-0.2273369999999999,236.259,2.44919,2.82607,-35.0042724609375,22.0009689331055,-23.0044822692871,22.0,-322755.0,-4676.2,pp-riro,4,0,-1,-1
1570531720.5,2019-10-08,12:48:40.500,15.0,10.0,14.9499998092651,10.8,17.7,9.2,25.1,-30.3,36.7,9.84995,16.4777,8.93298,-4.23839,12.5524,4.51511,29.0581,-16.1566,38.3322,0.0200879999999999,0.364843,1.04137,271.4,5.4,52.1701,4.427219999999999,3.1,-2.83967,121.717,4.67317,71.2077,20.5212,224.182,1.25154,-0.2413429999999999,236.113,2.5695,2.8963,-35.0042724609375,22.0009689331055,-23.0044822692871,22.0,-322736.0,2768.8,pp-riro,4,0,-1,-1
1570531720.6,2019-10-08,12:48:40.600,15.0,10.0,15.25,9.9,18.9,9.8,23.6,-31.6,43.2,9.51436,16.9696,9.20644,-7.9924,10.7498,3.8159,28.1992,-16.6573,41.6056,0.0555461,0.3200409999999999,1.02834,271.4,5.4,52.1701,4.427219999999999,3.1,-2.65904,135.859,4.67322,73.0478,21.2813,223.182,1.24224,-0.2443139999999999,235.795,2.67667,2.95988,-34.792633056640604,22.0009689331055,-23.0044822692871,22.0,-321065.0,12305.8,pp-riro,4,0,-1,-1
1570531720.7,2019-10-08,12:48:40.700,15.0,11.0,15.4200000762939,8.9,20.1,10.3,22.3,-32.8,50.3,8.20411,18.5269,9.90858,-8.06507,11.1747,6.6267,25.7114,-18.5911,51.4708,0.0297285,0.2621469999999999,1.01149,271.4,5.4,52.1701,4.427219999999999,3.1,-2.4756400000000003,143.18200000000002,4.67326,75.0046,22.4213,222.182,1.23204,-0.251327,235.57,2.7943,3.02663,-34.2020874023438,22.0009689331055,-23.0044822692871,22.0,-319407.0,18397.2,pp-riro,4,0,-1,-1
1570531720.8,2019-10-08,12:48:40.800,15.0,10.0,15.7600002288818,7.7,21.1,10.7,20.6,-33.6,57.1,8.20411,18.5269,9.90858,-8.06507,11.1747,6.6267,25.7114,-18.5911,51.4708,0.0297285,0.2621469999999999,1.01149,270.6,4.9,52.1701,4.427219999999999,3.1,-2.37646,146.575,4.67331,76.9615,23.1814,221.182,1.22224,-0.253459,235.334,2.90037,3.08958,-33.2531127929688,22.0009689331055,-23.0044822692871,22.0,-318386.0,19289.3,pp-riro,4,0,-1,-1
1570531720.9,2019-10-08,12:48:40.900,15.0,10.0,16.1499996185303,6.6,22.0,11.0,18.7,-34.3,64.1,7.19407,19.5871,10.2302,-11.9398,8.199760000000001,1.32079,23.919,-19.6737,58.124,0.0124902,0.323577,1.01771,270.6,4.9,52.1701,4.427219999999999,3.1,-2.1576,153.07399999999998,4.6733400000000005,79.152,24.3215,220.082,1.21094,-0.259049,235.144,3.01075,3.14762,-31.9525451660156,22.0009689331055,-23.0044822692871,22.0,-316492.0,19227.8,pp-riro,4,0,-1,-1
1570531721.0,2019-10-08,12:48:41.000,15.0,10.0,16.4699993133545,5.2,22.8,11.3,16.9,-34.5,70.9,5.52803,20.8617,10.7791,-12.3198,6.48971,2.7575,20.999,-21.2039,67.8081,0.0165605999999999,0.246605,1.0630700000000002,270.6,4.9,52.1701,4.427219999999999,3.1,-1.89164,159.317,4.67336,81.3426,24.7015,218.982,1.2005,-0.255784,234.904,3.10896,3.20535,-30.2918548583984,22.0009689331055,-22.9746150970459,22.0,-314548.0,19812.3,pp-riro,4,0,-1,-1
1570531721.1,2019-10-08,12:48:41.100,15.0,10.0,16.7900009155273,3.8,23.4,11.5,14.7,-34.7,77.5,4.2832300000000005,21.534,10.9926,-14.172,5.17274,3.27949,19.1396,-22.1396,74.1648,0.00311567,0.183335,0.96315,270.6,4.9,52.1701,4.427219999999999,3.1,-1.62014,161.922,4.67338,83.6207,25.4616,217.882,1.18927,-0.256555,234.763,3.20686,3.26294,-28.3256530761719,22.0009689331055,-22.3756637573242,22.0,-312562.0,18520.2,pp-riro,4,0,-1,-1
1570531721.2,2019-10-08,12:48:41.200,15.0,10.0,17.0,2.4,23.8,11.6,12.3,-34.8,84.1,3.0181,22.0651,11.1404,-18.8628,4.47535,-0.261902,17.2919,-22.8977,80.2755,0.299178,0.165118,1.02295,270.6,4.9,52.1701,4.427219999999999,3.1,-1.17133,160.19299999999998,4.67341,86.0449,25.8416,216.682,1.17775,-0.252764,234.569,3.30016,3.3138400000000003,-26.5557250976562,22.0009689331055,-21.8235816955566,22.0,-310298.0,13874.8,pp-riro,4,0,-1,-1
1570531721.3,2019-10-08,12:48:41.300,15.0,10.0,17.2099990844727,1.0,24.1,11.5,10.4,-34.5,90.1,1.71155,22.4376,11.1936,-11.6017,3.3854900000000003,2.59389,15.3265,-23.5638,86.1906,-0.00661895,0.194603,0.713087,270.6,4.9,52.1701,4.427219999999999,3.1,-0.8771120000000001,158.735,4.67344,88.3815,25.8417,215.582,1.1671200000000002,-0.245495,234.425,3.38188,3.36082,-25.0503540039062,22.0009689331055,-21.2345294952393,22.0,-309226.0,9875.4,pp-riro,4,0,-1,-1
1570531721.4,2019-10-08,12:48:41.400,15.0,9.0,17.4599990844727,-0.3,24.2,11.4,8.3,-33.8,95.8,-0.271958,22.707,10.9671,-12.8395,-0.299385,1.32304,12.5391,-23.4796,94.5201,0.0389251,0.185052,0.77789,270.6,4.9,52.1701,4.427219999999999,3.0,-0.609491,157.369,4.67346,90.7765,26.2217,214.482,1.15584,-0.242263,234.373,3.46351,3.4067199999999995,-23.454513549804695,22.0009689331055,-20.8110637664795,22.0,-308486.0,6552.84,pp-riro,4,0,-1,-1
1570531721.5,2019-10-08,12:48:41.500,15.0,9.0,17.5599994659424,-1.7,24.2,11.3,6.3,-33.2,101.4,-0.906488,22.7826,10.9625,-6.05461,2.05125,-2.61952,11.6512,-23.4293,97.1116,0.139957,0.1507369999999999,0.8976540000000001,270.6,4.9,52.1701,4.427219999999999,3.0,-0.478727,157.028,4.6734800000000005,93.2883,26.2217,213.282,1.14434,-0.2351079999999999,234.264,3.54036,3.45257,-22.3997268676758,22.0009689331055,-20.3200435638428,22.0,-308243.0,4830.02,pp-riro,4,0,-1,-1
1570531721.6,2019-10-08,12:48:41.600,15.0,8.0,17.659999847412102,-3.1,23.9,11.1,4.6,-32.6,106.2,-2.17481,22.6363,10.7737,-6.15935,-2.83263,-2.01002,9.73204,-23.1304,102.151,0.0684331,0.122555,0.629847,270.6,4.9,52.1701,4.427219999999999,3.0,-0.201132,155.319,4.67351,95.6249,25.8418,212.282,1.13421,-0.2250579999999999,234.256,3.603380000000001,3.4969,-21.5309753417969,22.0009689331055,-19.7345142364502,22.0,-307977.0,2030.46,pp-riro,4,0,-1,-1
1570531721.7,2019-10-08,12:48:41.700,15.0,8.0,17.7099990844727,-4.2,23.7,10.7,2.7,-31.5,111.0,-2.80439,22.5063,10.6374,-7.303960000000001,-2.26093,-5.31211,9.03903,-22.8826,104.648,0.00694884,0.249175,0.701781,270.6,4.9,52.1701,4.427219999999999,3.0,0.0415561999999999,148.85,4.67353,98.0199,25.4618,211.282,1.12383,-0.215278,234.3,3.66903,3.53199,-20.7390365600586,22.0009689331055,-19.369068145752,22.0,-307981.0,-646.054,pp-riro,4,0,-1,-1
1570531721.8,2019-10-08,12:48:41.800,15.0,8.0,17.659999847412102,-5.3,23.3,10.4,1.3,-30.2,115.5,-3.36731,22.3914,10.4644,-13.4895,-0.777939,-0.991508,8.26709,-22.6726,106.933,0.0944117,0.2126719999999999,0.6519149999999999,270.7,4.8,52.1701,4.427219999999999,3.0,0.258756,142.48,4.67356,100.473,25.0818,210.182,1.11301,-0.205809,234.30900000000003,3.73213,3.5683,-20.0836334228516,22.0009689331055,-19.0271301269531,22.0,-308170.0,-2122.75,pp-riro,4,0,-1,-1
1570531721.9,2019-10-08,12:48:41.900,15.0,8.0,17.5499992370605,-6.4,22.8,10.2,0.1,-29.4,119.6,-4.92065,22.0031,9.94024,-8.97188,-4.73292,-0.8504299999999999,5.888730000000001,-21.3235,113.491,0.2172349999999999,0.174792,0.6323949999999999,270.7,4.8,52.1701,4.427219999999999,3.0,0.259311,142.838,4.67362,102.781,24.7019,209.182,1.10289,-0.197098,234.374,3.78806,3.60611,-19.4828491210938,22.0009689331055,-18.6497917175293,22.0,-308019.0,2215.04,pp-riro,4,0,-1,-1
1570531722.0,2019-10-08,12:48:42.000,15.0,8.0,17.4500007629395,-7.4,22.5,10.2,-1.4,-28.1,123.7,-6.3843,21.3719,9.74816,-1.72835,-2.42213,2.80445,3.76758,-20.3124,119.478,-0.2732449999999999,0.247844,0.525784,270.7,4.8,52.1701,4.427219999999999,3.0,0.24158,157.666,4.673690000000001,105.146,24.3219,208.182,1.09253,-0.188616,234.49400000000003,3.84736,3.63794,-19.0493240356445,22.0009689331055,-18.4273471832275,22.0,-308074.0,-1507.46,pp-riro,4,0,-1,-1
1570531722.1,2019-10-08,12:48:42.100,15.0,8.0,17.3500003814697,-8.3,22.2,10.2,-2.9,-26.6,127.3,-7.33743,21.137,9.63373,-11.1018,-2.76328,-0.155567,2.33199,-19.0675,123.385,-0.0727678,0.29151,0.642476,270.7,4.8,52.1701,4.427219999999999,3.0,0.319706,173.398,4.67375,107.454,23.1819,207.182,1.08299,-0.173813,234.538,3.89603,3.66049,-18.6499404907227,22.0009689331055,-18.2227954864502,22.0,-308075.0,953.699,pp-riro,4,0,-1,-1
1570531722.2,2019-10-08,12:48:42.200,15.0,8.0,17.2999992370605,-9.3,21.8,10.2,-4.5,-25.9,131.1,-7.762410000000001,20.9941,9.55408,-9.66934,-6.63299,-1.52552,1.58214,-18.357,125.279,0.0289985,0.2504619999999999,0.578372,270.7,4.8,52.1701,4.427219999999999,3.0,0.287569,172.87900000000002,4.67382,109.674,22.4219,206.182,1.0734,-0.163091,234.611,3.94634,3.69125,-18.4604873657227,22.0009689331055,-17.964822769165,22.0,-308008.0,61.529,pp-riro,4,0,-1,-1
1570531722.3,2019-10-08,12:48:42.300,15.0,9.0,17.3999996185303,-10.2,21.4,10.0,-6.2,-24.8,134.9,-8.19626,20.7665,9.56376,-7.02199,-1.00966,-2.05028,0.613432,-17.9852,127.134,-0.0662956,0.138004,0.754981,270.7,4.8,52.1701,4.427219999999999,3.0,0.312502,179.886,4.6739,111.893,21.662,205.082,1.06356,-0.152689,234.623,3.99984,3.72085,-18.2710342407227,22.0009689331055,-17.7718601226807,22.0,-307986.0,430.703,pp-riro,4,0,-1,-1
1570531722.4,2019-10-08,12:48:42.400,15.0,10.0,17.3500003814697,-10.7,21.1,10.0,-8.0,-23.8,138.5,-9.13265,20.4386,9.40506,-6.15585,-0.430513,-0.8511139999999999,-1.2679200000000002,-17.5096,130.71200000000002,0.0810675,0.2189559999999999,0.71307,270.7,4.8,52.1701,4.427219999999999,2.7,0.3174889999999999,188.968,4.67397,114.055,20.522,203.982,1.05415,-0.139605,234.603,4.04771,3.73074,-18.0320892333984,22.0009689331055,-17.91259765625,22.0,-307959.0,61.529,pp-riro,4,0,-1,-1
1570531722.5,2019-10-08,12:48:42.500,15.0,10.0,17.4500007629395,-12.0,20.4,9.9,-9.6,-22.8,141.9,-10.4666,19.85,9.26948,-8.842189999999999,-5.831980000000001,-3.44199,-4.18852,-16.3258,135.808,-0.0631222,0.0339552,0.6632170000000001,270.7,4.8,52.1701,4.427219999999999,2.7,0.340761,196.594,4.67401,116.128,19.002,202.982,1.04542,-0.1238109999999999,234.625,4.09077,3.77284,-17.767532348632802,22.0009689331055,-17.3332405090332,22.0,-307934.0,430.703,pp-riro,4,0,-1,-1
1570531722.6,2019-10-08,12:48:42.600,15.0,11.0,17.5499992370605,-12.9,19.7,9.8,-11.4,-21.5,145.1,-11.4151,19.2815,9.14742,-12.8661,-8.93023,-3.24973,-6.322019999999999,-15.4601,138.996,-0.352331,0.151981,0.331107,270.7,4.8,52.1701,4.427219999999999,2.7,0.346301,204.614,4.67407,118.115,18.242,201.882,1.03628,-0.114892,234.607,4.13923,3.80759,-17.55078125,22.0009689331055,-17.0875091552734,22.0,-307877.0,492.232,pp-riro,4,0,-1,-1
1570531722.7,2019-10-08,12:48:42.700,15.0,10.0,17.7000007629395,-13.7,19.1,9.7,-13.4,-20.5,148.4,-12.1866,18.6266,9.03374,-9.33383,-5.98289,-3.94109,-8.557269999999999,-14.5423,142.134,-0.245612,0.0387445,0.4894489999999999,270.7,4.8,52.1701,4.427219999999999,2.7,0.369019,213.11,4.67414,120.13,16.722,200.782,1.02738,-0.100058,234.573,4.18204,3.8326,-17.270866394043,22.0009689331055,-16.931049346923803,22.0,-307814.0,676.819,pp-riro,4,0,-1,-1
1570531722.8,2019-10-08,12:48:42.800,15.0,10.0,17.840000152587898,-14.6,18.4,9.5,-15.3,-19.4,151.4,-13.0308,18.044,8.94948,-11.5479,-5.8692,0.0900855,-10.656,-13.7077,145.239,-0.368648,0.0487390999999999,0.452087,275.3,5.1,52.1701,4.427219999999999,2.7,0.369573,215.91,4.6742,122.028,15.202,199.782,1.01904,-0.085719,234.595,4.22204,3.86472,-17.0285034179688,22.0009689331055,-16.630914688110398,22.0,-307779.0,646.054,pp-riro,4,0,-1,-1
1570531722.9,2019-10-08,12:48:42.900,15.0,11.0,17.9400005340576,-15.4,17.7,9.4,-16.5,-18.1,154.0,-13.9087,17.4683,8.7727,-9.99405,-2.76587,-2.62184,-12.6602,-13.0639,148.127,-0.218826,0.1038549999999999,0.35634,275.3,5.1,52.1701,4.427219999999999,2.7,0.381209,224.465,4.67425,123.839,14.062,199.182,1.01167,-0.0749224,234.963,4.26121,3.89555,-16.9158554077148,22.0009689331055,-16.3720169067383,22.0,-307744.0,307.645,pp-riro,4,0,-1,-1
1570531723.0,2019-10-08,12:48:43.000,15.0,11.0,18.0400009155273,-16.1,16.9,9.3,-17.9,-17.2,156.8,-14.3202,17.1036,8.73213,-4.37242,-3.07399,1.2201,-13.7577,-12.497,149.436,-0.186242,0.165697,0.563973,275.3,5.1,52.1701,4.427219999999999,2.7,0.402264,234.024,4.67429,125.65,12.162,197.682,1.00249,-0.0583949,234.551,4.295059999999999,3.92074,-16.6769104003906,22.0009689331055,-16.2954959869385,22.0,-307695.0,615.29,pp-riro,4,0,-1,-1
1570531723.1,2019-10-08,12:48:43.100,15.0,11.0,18.1399993896484,-16.5,16.1,9.0,-18.5,-16.9,158.1,-14.3202,17.1036,8.73213,-4.37242,-3.07399,1.2201,-13.7577,-12.497,149.436,-0.186242,0.165697,0.563973,275.3,5.1,52.1701,4.427219999999999,2.7,0.4127909999999999,239.518,4.67434,126.468,11.402,197.182,0.998667,-0.0518608,234.532,4.31069,3.94901,-16.5198822021484,22.0009689331055,-15.9255380630493,22.0,-307625.0,676.819,pp-riro,4,0,-1,-1
1570531723.2,2019-10-08,12:48:43.200,15.0,11.0,18.229999542236303,-17.2,15.6,8.7,-19.4,-15.8,160.6,-15.6664,15.441,8.427389999999999,-3.34292,-7.810810000000001,-3.76419,-16.7751,-10.8389,154.828,-0.203721,-0.1156079999999999,0.564046,275.3,5.1,52.1701,4.427219999999999,2.7,0.4211029999999999,244.806,4.67438,128.10399999999998,9.88196,196.183,0.990969,-0.0389802,234.512,4.34534,3.97485,-16.2945861816406,22.0009689331055,-15.829357147216802,22.0,-307553.0,707.5830000000001,pp-riro,4,0,-1,-1
1570531723.3,2019-10-08,12:48:43.300,15.0,11.0,18.3299999237061,-17.8,14.8,8.6,-20.1,-14.7,162.8,-16.4407,14.5672,8.20457,-9.56382,-12.8961,-5.117290000000001,-18.0824,-10.43,157.123,-0.158644,-0.0329212,0.387876,275.3,5.1,52.1701,4.427219999999999,2.7,0.429968,249.64,4.67443,129.622,7.98194,195.182,0.983694,-0.0235159,234.439,4.3738,3.99935,-15.9549407958984,22.0009689331055,-15.7224798202515,22.0,-307481.0,707.5830000000001,pp-riro,4,0,-1,-1
1570531723.4,2019-10-08,12:48:43.400,15.0,11.0,18.4699993133545,-18.6,13.4,8.1,-21.0,-13.7,166.6,-17.0647,13.7039,7.98843,-2.85685,-6.95396,-0.4624649999999999,-19.1532,-9.39334,159.704,-0.25981,0.0310596,0.461345,275.3,5.1,52.1701,4.42721,2.1,0.4393869999999999,255.303,4.67447,131.784,5.701919999999999,193.782,0.973144,-0.00530124,234.417,4.42164,4.04951,-15.8627777099609,22.0009689331055,-15.3922300338745,22.0,-307346.0,922.935,pp-riro,4,0,-1,-1
1570531723.5,2019-10-08,12:48:43.500,15.0,11.0,18.6100006103516,-18.9,13.0,8.0,-21.0,-13.2,167.8,-17.7648,12.3308,7.59818,-1.7709,-10.9135,-4.2236400000000005,-19.9126,-8.20278,163.359,-0.0645755,-0.0440424,0.423099,275.3,5.1,52.1701,4.42721,2.1,0.442712,257.211,4.674519999999999,133.04,3.4218900000000003,193.383,0.968041,0.0121786,234.751,4.42886,4.05507,-15.731353759765598,22.0009689331055,35.0,22.0,-307305.0,799.877,pp-riro,4,0,-1,-1
1570531723.6,2019-10-08,12:48:43.600,15.0,10.0,18.7999992370605,-19.2,12.0,7.6,-21.0,-11.7,171.2,-18.0953,11.3561,7.303319999999999,-2.95811,-0.400013,-3.21274,-20.4164,-7.65213,165.905,0.11972,-0.020993,0.64359,275.3,5.1,52.1701,4.42721,2.1,0.4499149999999999,258.665,4.67456,134.266,1.90187,192.483,0.961669,0.0236635,234.693,4.48182,4.08765,-15.4309616088867,22.0009689331055,35.0,22.0,-307214.0,1045.99,pp-riro,4,0,-1,-1
1570531723.7,2019-10-08,12:48:43.700,15.0,10.0,18.9400005340576,-19.6,11.1,7.3,-21.4,-10.9,173.5,-18.4426,10.4668,6.95413,-2.78042,-6.06971,-3.96056,-20.6289,-6.8696,168.261,-0.0197264999999999,0.0388745,0.708475,275.3,5.1,52.1701,4.42721,2.1,0.8433129999999999,254.936,4.67461,135.347,-0.378166,191.283,0.955001,0.0405981999999999,234.325,4.50798,4.114669999999999,-14.9991455078125,22.0009689331055,35.0,22.0,-309115.0,-20889.1,pp-riro,4,0,-1,-1
1570531723.8,2019-10-08,12:48:43.800,15.0,10.0,18.9899997711182,-19.6,10.5,6.6,-21.6,-10.5,174.9,-18.4426,10.4668,6.95413,-2.78042,-6.06971,-3.96056,-20.6289,-6.8696,168.261,-0.0197264999999999,0.0388745,0.708475,271.8,5.6,52.1701,4.42721,2.1,1.13698,230.592,4.67465,136.369,-1.13816,190.983,0.950692,0.0461048,234.675,4.52685,4.14214,-14.2089080810547,22.0009689331055,35.0,22.0,-309418.0,18581.8,pp-riro,4,0,-1,-1
1570531723.9,2019-10-08,12:48:43.900,15.0,9.0,18.979999542236303,-19.3,10.0,6.0,-21.3,-8.3,177.8,-18.3935,9.90549,6.39025,2.31353,-3.10086,-6.09962,-20.523000000000003,-6.38437,170.891,0.0769833,-0.104999,0.25288,271.8,5.6,52.1701,4.42721,2.1,0.933075,205.103,4.67467,137.363,-4.17822,189.983,0.944563,0.0681345,234.477,4.57178,4.14536,-13.0551300048828,22.0009689331055,35.0,22.0,-308738.0,-9014.0,pp-riro,4,0,-1,-1
1570531724.0,2019-10-08,12:48:44.000,15.0,8.0,18.979999542236303,-19.3,9.1,5.9,-21.2,-7.4,179.5,-18.1846,9.35173,5.76668,0.363275,-5.97505,-1.41641,-20.5805,-5.46384,172.804,0.0290874,-0.0784511,0.368137,271.8,5.6,52.1701,4.42721,2.1,1.004,226.473,4.67469,138.239,-6.07825,189.383,0.939795,0.0816486999999999,234.548,4.59366,4.165109999999999,-11.5548706054688,22.0009689331055,35.0,22.0,-308606.0,4614.67,pp-riro,4,0,-1,-1
1570531724.1,2019-10-08,12:48:44.100,15.0,9.0,18.9400005340576,-19.1,8.3,5.7,-21.6,-6.4,-178.6,-18.3167,8.19036,5.8074,4.802969999999999,-2.27153,-1.41495,-20.4366,-4.45556,176.171,0.0375094,0.01658,0.32993,271.8,5.6,52.1701,4.42721,2.1,0.980172,225.666,4.67471,139.02700000000002,-7.978289999999999,188.783,0.935244,0.0949998999999999,234.587,4.61956,4.18084,-9.69619750976562,22.0009689331055,35.0,22.0,-308421.0,3445.62,pp-riro,4,0,-1,-1
1570531724.2,2019-10-08,12:48:44.200,15.0,10.0,18.840000152587898,-19.0,8.2,5.5,-21.5,-5.9,-177.9,-18.0873,7.85176,5.50277,-1.7838,-1.51852,-9.36875,-20.5995,-4.06374,178.03099999999998,0.091529,-0.0607718,0.388468,271.8,5.6,52.1701,4.42721,2.1,0.985713,212.191,4.67473,139.407,-8.7383,188.483,0.933029,0.100266,234.598,4.63017,4.1826,-7.59686279296875,22.0009689331055,35.0,22.0,-308310.0,1753.58,pp-riro,4,0,-1,-1
1570531724.3,2019-10-08,12:48:44.300,15.0,9.0,18.7000007629395,-19.0,7.9,5.4,-21.6,-4.8,-176.8,-18.1198,7.76519,5.3352,-0.628817,-2.05721,-0.955715,-20.6591,-3.73095,178.81900000000002,0.100211,-0.0047601,0.350315,271.8,5.6,52.1701,4.42721,2.1,0.947481,209.344,4.67475,140.225,-11.0183,187.883,0.928164,0.1160609999999999,234.701,4.64409,4.182519999999999,-5.48387145996094,22.0009689331055,35.0,22.0,-307928.0,3230.27,pp-riro,4,0,-1,-1
1570531724.4,2019-10-08,12:48:44.400,15.0,9.0,18.5599994659424,-19.1,7.6,5.6,-22.0,-4.3,-175.8,-18.3494,7.550619999999999,5.32611,-0.437851,0.485955,3.02498,-21.1508,-3.23835,-179.995,-0.0687238999999999,0.0305776,0.214718,271.8,5.6,52.1701,4.4272,1.6,0.992916,222.967,4.67477,140.955,-12.5384,187.283,0.923718,0.126346,234.735,4.65482,4.18184,-3.3845367431640603,22.0009689331055,35.0,22.0,-307929.0,1261.34,pp-riro,4,0,-1,-1
1570531724.5,2019-10-08,12:48:44.500,15.0,10.0,18.5100002288818,-19.1,7.5,5.8,-22.8,-4.1,-175.2,-18.4469,7.40685,5.45564,-1.68005,-5.71636,0.177465,-21.3203,-3.23121,-179.34400000000002,-0.0296741,-0.0974846,0.0713554999999999,271.8,5.6,52.1701,4.4272,1.6,0.992362,224.11,4.67479,141.656,-14.4384,186.683,0.919192,0.139181,234.788,4.65482,4.17014,-1.26813507080078,22.0009689331055,35.0,22.0,-307767.0,2922.63,pp-riro,4,0,-1,-1
1570531724.6,2019-10-08,12:48:44.600,15.0,10.0,18.409999847412102,-18.9,7.6,5.9,-23.7,-4.0,-175.2,-18.5938,7.39416,5.68959,-1.75265,0.974383,1.61516,-22.9693,-4.39098,-177.727,-0.345737,-0.100629,-0.0424321,271.8,5.6,52.1701,4.4272,1.6,0.976847,217.652,4.67481,142.386,-16.7184,185.983,0.914085,0.154477,234.825,4.64355,4.147869999999999,-0.216758728027344,22.0009689331055,35.0,22.0,-307573.0,1507.46,pp-riro,4,0,-1,-1
1570531724.7,2019-10-08,12:48:44.700,15.0,10.0,18.3199996948242,-19.0,7.9,6.3,-24.8,-3.8,-175.6,-18.5938,7.39416,5.68959,-1.75265,0.974383,1.61516,-22.9693,-4.39098,-177.727,-0.345737,-0.100629,-0.0424321,271.8,5.6,52.1701,4.4272,1.6,0.974631,216.296,4.67483,143.11700000000002,-18.2385,185.383,0.909459,0.164321,234.908,4.63226,4.12245,1.8887863159179696,22.0009689331055,35.0,22.0,-307377.0,2122.75,pp-riro,4,0,-1,-1
1570531724.8,2019-10-08,12:48:44.800,15.0,10.0,18.3199996948242,-18.9,8.0,6.9,-25.8,-5.0,-175.9,-18.5938,7.39416,5.68959,-1.75265,0.974383,1.61516,-22.9693,-4.39098,-177.727,-0.345737,-0.100629,-0.0424321,272.5,6.5,52.1701,4.4272,1.6,0.977401,223.194,4.67485,143.847,-20.5185,184.583,0.903911,0.179232,234.912,4.6033800000000005,4.091,3.99046325683594,22.0009689331055,35.0,22.0,-307245.0,861.4060000000001,pp-riro,4,0,-1,-1
1570531724.9,2019-10-08,12:48:44.900,15.0,10.0,18.2199993133545,-18.7,8.4,7.5,-27.5,-6.2,-176.8,-18.9179,7.740769999999999,6.28814,-3.34981,-3.19941,2.48083,-24.6812,-5.52111,-177.83900000000003,-0.216989,-0.192529,-0.148169,272.5,6.5,52.1701,4.4272,1.6,0.994578,228.284,4.67488,144.636,-22.0385,183.783,0.8984530000000001,0.1887319999999999,234.907,4.57055,4.05216,6.09895324707031,22.0009689331055,35.0,22.0,-307144.0,1353.64,pp-riro,4,0,-1,-1
1570531725.0,2019-10-08,12:48:45.000,15.0,11.0,18.1200008392334,-18.4,9.0,8.1,-28.6,-7.6,-178.7,-18.9149,8.62031,7.52623,0.625707,10.7285,9.67428,-27.4644,-9.01627,-179.033,-0.261971,-0.132,-0.34906,272.5,6.5,52.1701,4.4272,1.6,0.995132,227.074,4.67491,145.483,-24.3186,182.983,0.892352,0.2031069999999999,235.031,4.51822,4.00126,8.21255493164062,22.0009689331055,35.0,22.0,-306933.0,2215.04,pp-riro,4,0,-1,-1
1570531725.1,2019-10-08,12:48:45.100,15.0,10.0,18.020000457763697,-18.3,9.4,8.9,-30.0,-9.3,178.8,-18.9285,9.11278,8.340910000000001,-0.33127,4.10902,8.62165,-28.8375,-11.1223,179.025,-0.398968,-0.15341,-0.369363,272.5,6.5,52.1701,4.4272,1.6,0.988483,227.574,4.67495,146.33,-25.8386,182.083,0.88633,0.212243,235.02,4.45881,3.96244,10.3159332275391,22.0009689331055,35.0,22.0,-306725.0,1784.34,pp-riro,4,0,-1,-1
1570531725.2,2019-10-08,12:48:45.200,15.0,11.0,17.9699993133545,-17.8,10.1,9.9,-31.0,-11.7,176.2,-18.9285,9.11278,8.340910000000001,-0.33127,4.10902,8.62165,-28.8375,-11.1223,179.025,-0.398968,-0.15341,-0.369363,272.5,6.5,52.1701,4.4272,1.6,1.00289,232.352,4.67496,147.29399999999998,-27.7386,181.083,0.879391,0.223581,235.066,4.38905,3.89982,12.4244232177734,22.0009689331055,35.0,22.0,-306526.0,1599.75,pp-riro,4,0,-1,-1
1570531725.3,2019-10-08,12:48:45.300,15.0,10.0,17.9200000762939,-17.1,11.0,10.9,-32.0,-15.0,173.3,-18.9285,9.11278,8.340910000000001,-0.33127,4.10902,8.62165,-28.8375,-11.1223,179.025,-0.398968,-0.15341,-0.369363,272.5,6.5,52.1701,4.4272,1.6,0.997902,229.618,4.67499,148.287,-29.2586,179.983,0.872267,0.2322199999999999,235.03,4.30813,3.82988,14.529510498046902,22.0009689331055,35.0,22.0,-306293.0,2707.27,pp-riro,4,0,-1,-1
1570531725.4,2019-10-08,12:48:45.400,15.0,10.0,17.8700008392334,-16.2,11.9,11.6,-32.2,-18.1,169.3,-17.5456,11.6636,11.4936,4.31619,16.9118,16.047,-32.0169,-21.3587,172.092,-0.4356239999999999,-0.245477,-0.764417,272.5,6.5,52.1701,4.4272,1.1,0.990699,227.871,4.67502,149.36700000000002,-30.7786,178.88299999999998,0.864828,0.2406,235.068,4.21568,3.76104,16.641403198242198,22.0009689331055,35.0,22.0,-306111.0,1630.52,pp-riro,4,0,-1,-1
1570531725.5,2019-10-08,12:48:45.500,15.0,10.0,17.9200000762939,-15.3,12.7,12.7,-32.1,-21.3,165.1,-17.1492,12.1788,12.0555,11.5791,14.4832,9.23424,-32.203,-23.1643,170.085,-0.338517,-0.189975,-0.814133,272.5,6.5,52.1701,4.4272,1.1,0.994024,228.924,4.67505,150.536,-32.6786,177.783,0.856824,0.251109,235.235,4.11901,3.68812,18.756706237793,22.0009689331055,35.0,22.0,-306037.0,1415.17,pp-riro,4,0,-1,-1
1570531725.6,2019-10-08,12:48:45.600,15.0,10.0,17.9200000762939,-14.0,13.8,13.6,-31.3,-25.2,159.7,-16.1606,13.1536,13.2921,8.52358,12.2501,11.2963,-32.3116,-27.5555,166.421,-0.392059,-0.401782,-0.838816,272.5,6.5,52.1701,4.4272,1.1,0.999011,232.116,4.67507,151.85,-34.1986,176.483,0.84803,0.258846,235.317,4.00327,3.60247,20.8686065673828,22.0009689331055,35.0,22.0,-305880.0,1753.58,pp-riro,4,0,-1,-1
1570531725.7,2019-10-08,12:48:45.700,15.0,10.0,17.8700008392334,-12.6,14.6,14.5,-29.9,-28.5,154.2,-15.6703,13.7477,13.7707,15.1234,15.172,6.32161,-32.2521,-29.8187,164.69,-0.536578,-0.192888,-0.763475,272.5,6.5,52.1701,4.4272,1.1,1.0006700000000002,232.5,4.6751,153.22299999999998,-35.7186,175.183,0.8390350000000001,0.266327,235.462,3.894530000000001,3.5220300000000004,22.9839019775391,22.0009689331055,35.0,22.0,-305709.0,1722.81,pp-riro,4,0,-1,-1
1570531725.8,2019-10-08,12:48:45.800,15.0,10.0,17.9200000762939,-11.0,15.7,15.4,-27.7,-31.7,147.8,-13.4277,15.5304,15.4052,24.3854,16.4822,12.8897,-30.766,-35.8927,157.094,-0.00852948,-0.107513,-0.8929799999999999,270.2,7.0,52.1701,4.4272,1.1,1.00289,233.722,4.67515,154.683,-36.4786,173.683,0.829736,0.26887,235.422,3.78111,3.43472,25.0906982421875,22.0009689331055,35.0,22.0,-305511.0,1938.16,pp-riro,4,0,-1,-1
1570531725.9,2019-10-08,12:48:45.900,15.0,11.0,17.9699993133545,-9.1,16.5,16.1,-24.3,-35.0,140.2,-11.6767,16.6076,16.3791,15.3976,9.66621,6.563610000000001,-28.6311,-40.3541,150.717,-0.246207,-0.1240059999999999,-1.1735,270.2,7.0,52.1701,4.4272,1.1,1.00954,240.659,4.67518,156.29,-37.6185,172.183,0.819715,0.273438,235.56,3.65296,3.3442199999999995,27.18896484375,22.0009689331055,35.0,22.0,-305268.0,1507.46,pp-riro,4,0,-1,-1
1570531726.0,2019-10-08,12:48:46.000,15.0,11.0,18.020000457763697,-7.1,17.4,16.8,-20.0,-38.1,131.7,-11.6767,16.6076,16.3791,15.3976,9.66621,6.563610000000001,-28.6311,-40.3541,150.717,-0.246207,-0.1240059999999999,-1.1735,270.2,7.0,52.1701,4.4272,1.1,1.01619,244.776,4.67523,157.954,-38.7585,170.683,0.809523,0.277806,235.764,3.5190900000000003,3.2509,29.2991638183594,22.0009689331055,35.0,22.0,-305205.0,1230.58,pp-riro,4,0,-1,-1
1570531726.1,2019-10-08,12:48:46.100,15.0,11.0,18.0100002288818,-4.9,18.0,17.4,-14.4,-40.5,122.0,-7.398110000000001,18.676,18.1504,23.1267,3.2554,7.150189999999999,-21.1622,-48.5906,134.375,-0.138059,-0.192637,-1.16157,270.2,7.0,52.1701,4.4272,1.1,1.03447,252.871,4.67528,159.648,-39.1385,168.983,0.799218,0.277543,235.743,3.3818900000000003,3.16015,31.121520996093803,22.0009689331055,35.0,22.0,-305077.0,1507.46,pp-riro,4,0,-1,-1
1570531726.2,2019-10-08,12:48:46.200,15.0,12.0,18.0599994659424,-2.4,18.4,17.6,-7.7,-42.1,111.7,-6.17595,19.1216,18.4114,17.7033,3.87174,5.55317,-18.4282,-50.5921,129.3,-0.524879,-0.312575,-1.49753,270.2,7.0,52.1701,4.4272,1.1,1.04223,258.04200000000003,4.67534,161.43,-39.5184,167.38299999999998,0.7889550000000001,0.277134,235.878,3.24441,3.06157,32.603240966796896,22.0009689331055,23.0044822692871,22.0,-304893.0,1845.87,pp-riro,4,0,-1,-1
1570531726.3,2019-10-08,12:48:46.300,15.0,12.0,18.1100006103516,0.0,18.6,17.7,0.0,-43.0,100.2,-6.17595,19.1216,18.4114,17.7033,3.87174,5.55317,-18.4282,-50.5921,129.3,-0.524879,-0.312575,-1.49753,270.2,7.0,52.1701,4.4272,1.1,1.05608,264.256,4.67539,163.241,-39.8983,165.683,0.7783180000000001,0.276715,235.988,3.09645,2.96871,33.723922729492195,22.0009689331055,23.0044822692871,22.0,-304624.0,1815.1,pp-ro,1,1,-1,-1
1570531726.4,2019-10-08,12:48:46.400,15.0,12.0,18.1100006103516,2.3,18.5,17.5,7.6,-42.7,88.4,-0.693278,20.1564,19.0661,22.6179,-0.499666,-0.906356,-2.20617,-55.1488,103.0,-0.724037,-0.298587,-1.51191,270.2,7.0,52.1701,4.42721,1.0,1.0583,266.435,4.67544,165.05200000000002,-39.8983,163.983,0.767957,0.274157,236.06,2.94768,2.88119,34.4852294921875,22.0009689331055,23.0044822692871,22.0,-304514.0,2122.75,pp-ro,1,1,-1,-1
1570531726.5,2019-10-08,12:48:46.500,15.0,12.0,18.1499996185303,5.0,18.4,17.2,15.0,-41.3,76.3,3.62888,20.3818,18.8584,26.5586,9.66404,0.8981809999999999,12.9303,-55.2074,80.3134,-0.648497,0.173639,-1.4345,270.2,7.0,52.1701,4.42721,1.0,1.06218,270.811,4.6755,166.95,-39.5182,162.283,0.7576069999999999,0.269352,236.156,2.79313,2.77915,34.8939819335938,22.0009689331055,23.0044822692871,22.0,-304332.0,1568.99,pp-ro,1,1,-1,-1
1570531726.6,2019-10-08,12:48:46.600,15.0,13.0,18.2000007629395,7.4,17.8,16.6,21.6,-38.9,65.8,3.62888,20.3818,18.8584,26.5586,9.66404,0.8981809999999999,12.9303,-55.2074,80.3134,-0.648497,0.173639,-1.4345,270.2,7.0,52.1701,4.42721,1.0,1.07714,274.692,4.67556,168.732,-38.7581,160.683,0.748141,0.262639,236.203,2.65228,2.68581,34.9655151367188,22.0009689331055,23.0044822692871,22.0,-304007.0,2830.33,pp-ro,1,1,-1,-1
1570531726.7,2019-10-08,12:48:46.700,15.0,13.0,18.2999992370605,9.6,17.1,15.5,27.5,-35.8,55.9,3.62888,20.3818,18.8584,26.5586,9.66404,0.8981809999999999,12.9303,-55.2074,80.3134,-0.648497,0.173639,-1.4345,270.2,7.0,52.1701,4.42721,1.0,1.07326,274.241,4.675590000000001,170.513,-37.998000000000005,159.083,0.738657,0.256082,236.275,2.51053,2.59039,34.684494018554695,22.0009689331055,23.0044822692871,22.0,-303856.0,2861.1,pp-ro,1,1,-1,-1
1570531726.8,2019-10-08,12:48:46.800,15.0,13.0,18.4400005340576,11.7,16.1,14.6,31.7,-32.1,47.5,10.7921,18.9076,16.6218,22.4022,-12.2839,-12.7475,32.236999999999995,-47.178,48.9043,0.180873,-0.0262159,-1.4804,268.2,7.2,52.1701,4.42721,1.0,1.0716,273.255,4.67565,172.207,-36.8579,157.683,0.7302569999999999,0.247619,236.385,2.37956,2.49805,34.02197265625,22.0009689331055,23.0044822692871,22.0,-303644.0,1999.69,pp-ro,1,1,-1,-1
1570531726.9,2019-10-08,12:48:46.900,15.0,13.0,18.5799999237061,13.6,15.2,13.3,35.1,-27.4,39.6,10.7921,18.9076,16.6218,22.4022,-12.2839,-12.7475,32.236999999999995,-47.178,48.9043,0.180873,-0.0262159,-1.4804,268.2,7.2,52.1701,4.42721,1.0,1.07104,267.982,4.6757,173.843,-35.7178,156.38299999999998,0.722309,0.239366,236.543,2.24051,2.4036,33.003494262695305,22.0009689331055,23.0044822692871,22.0,-303351.0,3261.04,pp-ro,1,1,-1,-1
1570531727.0,2019-10-08,12:48:47.000,15.0,13.0,18.5799999237061,15.0,14.1,11.7,37.8,-23.0,33.2,11.9247,18.3959,16.0809,16.9257,-13.465,-3.3091,34.4897,-44.602,43.8375,-0.4303109999999999,-0.0286574,-1.78079,268.2,7.2,52.1701,4.42721,1.0,1.05054,261.768,4.67571,175.332,-34.1977,155.183,0.7152569999999999,0.229303,236.628,2.12083,2.31447,31.617126464843803,22.0009689331055,23.0044822692871,22.0,-303050.0,2645.75,pp-ro,1,1,-1,-1
1570531727.1,2019-10-08,12:48:47.100,15.0,13.0,18.6700000762939,16.2,13.0,10.5,39.6,-18.7,27.5,17.5224,14.8309,11.4447,10.9939,-9.92956,-19.5191,42.0225,-28.9036,22.0494,-0.583612,0.0570503,-1.32552,268.2,7.2,52.1701,4.42721,1.0,1.05386,265.975,4.67575,176.734,-32.6776,154.283,0.709361,0.219491,236.867,2.00855,2.2368200000000003,29.8799285888672,22.0009689331055,23.0044822692871,22.0,-302873.0,1568.99,pp-ro,1,1,-1,-1
1570531727.2,2019-10-08,12:48:47.200,15.0,13.0,18.6700000762939,17.3,12.0,9.0,41.3,-14.1,22.1,18.2224,14.0907,10.6373,13.1187,-16.9537,-12.14,42.7572,-26.3105,19.2568,-0.308141,0.178023,-1.20929,268.2,7.2,52.1701,4.42721,1.0,1.06716,269.868,4.6757800000000005,178.048,-30.7775,153.38299999999998,0.7038439999999999,0.207794,237.013,1.89584,2.1544,27.9144973754883,22.0009689331055,21.7844066619873,22.0,-302666.0,2461.16,pp-ro,1,1,-1,-1
1570531727.3,2019-10-08,12:48:47.300,15.0,12.0,18.6700000762939,17.9,10.9,7.6,42.5,-9.5,17.0,19.671,12.124,8.20859,4.05743,-12.0723,-13.4706,43.8424,-18.2084,11.6496,0.194287,0.037037,-1.00957,268.2,7.2,52.1701,4.42721,1.0,1.0655,267.325,4.67581,179.275,-29.2575,152.683,0.698983,0.198347,237.293,1.78413,2.08161,26.221580505371104,22.0009689331055,20.5325012207031,22.0,-302328.0,2276.57,pp-ro,1,1,-1,-1
1570531727.4,2019-10-08,12:48:47.400,15.0,12.0,18.6700000762939,18.5,10.0,6.2,43.6,-5.3,12.7,20.3861,10.9421,6.594589999999999,11.1041,-12.0993,-22.3931,43.9801,-13.2109,7.05829,-0.114621,0.239653,-1.13592,268.2,7.2,52.1701,4.42721,1.0,1.0583,266.443,4.67585,180.385,-27.7374,152.083,0.694725,0.189114,237.566,1.68602,2.00942,24.7057800292969,22.0009689331055,19.2759227752686,22.0,-302056.0,2645.75,pp-ro,1,1,-1,-1
1570531727.5,2019-10-08,12:48:47.500,15.0,12.0,18.5699996948242,18.8,8.8,4.8,44.5,-1.3,8.7,20.3861,10.9421,6.594589999999999,11.1041,-12.0993,-22.3931,43.9801,-13.2109,7.05829,-0.114621,0.239653,-1.13592,268.2,7.2,52.1701,4.42721,1.0,1.05941,267.586,4.67588,181.407,-25.8373,151.584,0.691138,0.177983,237.81,1.59489,1.93473,23.235969543457,22.0009689331055,17.958444595336896,22.0,-301872.0,1384.4,pp-ro,1,1,-1,-1
1570531727.6,2019-10-08,12:48:47.600,15.0,12.0,18.5699996948242,19.2,7.8,3.6,45.0,2.7,4.9,20.7198,9.67396,5.09467,2.37378,-3.45055,-6.80921,44.4832,-8.050460000000001,3.2827300000000004,-0.054573,0.196957,-1.04533,268.2,7.2,52.1701,4.42721,1.0,1.06716,268.834,4.67591,182.283,-23.9372,151.184,0.688208,0.167046,238.026,1.50579,1.86633,21.7048492431641,22.0009689331055,16.7491149902344,22.0,-301636.0,2676.51,pp-ro,1,1,-1,-1
1570531727.7,2019-10-08,12:48:47.700,15.0,11.0,18.520000457763697,19.2,7.3,2.9,45.9,6.4,1.2,21.0267,8.31599,3.63731,-0.538837,-14.7641,-13.3163,44.3551,-3.47562,-0.432843,0.0226854999999999,0.0328186999999999,-0.804433,268.2,7.2,52.1701,4.42721,1.0,1.06328,268.80400000000003,4.67595,183.13,-21.6571,150.784,0.685423,0.154172,238.204,1.42319,1.83577,20.2009735107422,22.0009689331055,16.3092250823975,22.0,-301500.0,2584.22,pp-ro,1,1,-1,-1
1570531727.8,2019-10-08,12:48:47.800,15.0,11.0,18.4699993133545,19.3,5.9,1.1,46.8,9.8,-2.0,21.0267,8.31599,3.63731,-0.538837,-14.7641,-13.3163,44.3551,-3.47562,-0.432843,0.0226854999999999,0.0328186999999999,-0.804433,264.2,6.8,52.1701,4.42721,1.0,1.06328,271.002,4.67598,183.831,-19.7571,150.584,0.683491,0.1434869999999999,238.453,1.34896,1.73357,18.4518432617188,22.0009689331055,14.4005718231201,22.0,-301307.0,1753.58,pp-ro,1,1,-1,-1
1570531727.9,2019-10-08,12:48:47.900,15.0,11.0,18.3700008392334,19.3,4.9,0.3,47.1,12.8,-4.8,20.9364,5.63772,0.379404,-3.2997,-19.1145,-15.1153,45.0462,6.63777,-8.59575,0.283778,0.1036349999999999,-0.739536,264.2,6.8,52.1701,4.42721,1.0,1.07824,279.331,4.676019999999999,184.415,-17.857,150.384,0.681815,0.132899,238.627,1.2846799999999998,1.67881,17.8591461181641,22.0009689331055,13.4369506835938,22.0,-301116.0,1907.4,pp-ro,1,1,-1,-1
1570531728.0,2019-10-08,12:48:48.000,15.0,11.0,18.3299999237061,19.4,3.8,-0.6,47.7,15.2,-7.8,20.9364,5.63772,0.379404,-3.2997,-19.1145,-15.1153,45.0462,6.63777,-8.59575,0.283778,0.1036349999999999,-0.739536,264.2,6.8,52.1701,4.42721,1.0,1.09265,290.588,4.67606,184.882,-15.5769,150.284,0.680804,0.1203859999999999,238.766,1.2277,1.61616,16.6941986083984,22.0009689331055,12.309834480285598,22.0,-300935.0,1476.7,pp-ro,1,1,-1,-1
1570531728.1,2019-10-08,12:48:48.100,15.0,11.0,18.2800006866455,19.4,3.4,-1.1,47.9,16.5,-9.1,20.9388,4.65545,-0.5951810000000001,-1.43559,-17.3521,-11.8245,45.4968,9.87062,-11.5601,-0.0147157,0.0568914,-0.622185,264.2,6.8,52.1701,4.42721,1.0,1.1259,303.698,4.6761,185.291,-14.0569,150.284,0.68005,0.1120119999999999,238.989,1.2015,1.58884,15.1102752685547,22.0009689331055,11.8559246063232,22.0,-300679.0,2430.39,pp-ro,1,1,-1,-1
1570531728.2,2019-10-08,12:48:48.200,15.0,12.0,18.2800006866455,19.4,2.4,-1.9,48.4,18.7,-11.6,20.8157,3.12868,-2.12047,-1.04873,-13.9696,-17.4079,45.8275,14.2956,-15.2053,-0.0876294,0.0775314,-0.564067,264.2,6.8,52.1701,4.42721,1.0,1.127,307.32,4.676130000000001,185.437,-12.5368,150.284,0.679954,0.1037599999999999,239.017,1.15037,1.5301,13.9180755615234,22.0009689331055,10.750004768371598,22.0,-300529.0,2861.1,pp-ro,1,1,-1,-1
1570531728.3,2019-10-08,12:48:48.300,15.0,12.0,18.2800006866455,19.1,0.9,-3.1,49.0,20.9,-15.6,20.8157,3.12868,-2.12047,-1.04873,-13.9696,-17.4079,45.8275,14.2956,-15.2053,-0.0876294,0.0775314,-0.564067,264.2,6.8,52.1701,4.42721,1.0,1.13809,316.975,4.67617,185.729,-9.87676,150.484,0.6802590000000001,0.0893453999999999,239.245,1.08694,1.44168,12.7871932983398,22.0009689331055,9.09061145782471,22.0,-300360.0,1138.29,pp-ro,1,1,-1,-1
1570531728.4,2019-10-08,12:48:48.400,15.0,12.0,18.4200000762939,19.0,0.0,-3.8,48.9,22.0,-18.3,20.5494,0.995712,-3.86403,2.76488,-10.4661,0.153548,46.5353,18.8796,-19.9868,0.180616,0.0450708,-0.912374,264.2,6.8,52.1701,4.4272,0.9,1.16413,327.65,4.67621,185.817,-7.976710000000001,150.684,0.6809189999999999,0.0790996,239.368,1.04947,1.39022,11.4417114257812,22.0009689331055,8.1267147064209,22.0,-300141.0,2861.1,pp-ro,1,1,-1,-1
1570531728.5,2019-10-08,12:48:48.500,15.0,12.0,18.4699993133545,18.7,-0.8,-4.3,49.0,23.3,-20.8,20.3971,0.5241939999999999,-4.19655,1.28735,-1.7646099999999998,-0.25167,46.6827,19.913,-21.1756,0.423013,-0.0837501,-0.584572,264.2,6.8,52.1701,4.4272,0.9,1.17022,332.105,4.67625,185.817,-6.83668,150.884,0.681687,0.0729365,239.459,1.00911,1.34551,10.2426986694336,22.0009689331055,7.25822639465332,22.0,-299878.0,2307.34,pp-ro,1,1,-1,-1
1570531728.6,2019-10-08,12:48:48.600,15.0,12.0,18.5699996948242,18.3,-1.5,-4.9,48.4,24.3,-23.1,20.2754,-0.0141754999999999,-4.51802,-2.72778,-13.1371,-4.39516,46.5507,20.6594,-22.3321,0.0144859,-0.0249095999999999,-0.5036930000000001,264.2,6.8,52.1701,4.4272,0.9,1.17299,328.25,4.67629,185.67,-4.17663,151.384,0.6839,0.0585942999999999,239.6,0.979991,1.30326,9.19356536865234,22.0009689331055,6.4603152275085405,22.0,-299332.0,4183.97,pp-ro,1,1,-1,-1
1570531728.7,2019-10-08,12:48:48.700,15.0,12.0,18.6100006103516,17.8,-2.2,-5.3,48.3,25.3,-25.1,19.4641,-1.65028,-5.5277400000000005,-6.925210000000001,-9.10566,-1.32169,45.8351,23.8081,-26.8717,-0.0646751,-0.0533495,-0.2631699999999999,264.2,6.8,52.1701,4.4272,0.9,1.15526,322.088,4.67632,185.524,-2.27659,151.784,0.685665,0.0483551,239.71400000000003,0.951716,1.26383,8.21595764160156,22.0009689331055,5.701428413391111,22.0,-298959.0,3261.04,pp-ro,1,1,-1,-1
1570531728.8,2019-10-08,12:48:48.800,15.0,11.0,18.7099990844727,17.3,-2.7,-5.7,47.3,25.9,-27.1,19.2834,-2.02478,-5.77347,0.5096069999999999,-3.56065,-3.29446,45.6438,24.3371,-28.0601,0.102557,-0.0429282,-0.316811,263.5,7.1,52.1701,4.4272,0.9,1.15526,319.756,4.67636,185.291,-0.37655,152.184,0.68761,0.0380601,239.777,0.92834,1.22961,7.71864318847656,22.0009689331055,5.043067932128911,22.0,-298807.0,3014.92,pp-ro,1,1,-1,-1
1570531728.9,2019-10-08,12:48:48.900,15.0,11.0,18.8500003814697,16.9,-3.3,-6.2,47.0,26.8,-28.8,18.7202,-2.53743,-6.17804,-9.8817,-7.620439999999999,-8.773489999999999,45.0498,25.5237,-29.8263,0.0272352,-0.00124287,-0.285442,263.5,7.1,52.1701,4.4272,0.9,1.14806,313.814,4.67637,184.999,1.14347,152.684,0.6899850000000001,0.0298355,239.871,0.903471,1.18786,6.80916595458984,22.0009689331055,4.19254875183105,22.0,-298416.0,4122.44,pp-ro,1,1,-1,-1
1570531729.0,2019-10-08,12:48:49.000,15.0,10.0,18.8999996185303,16.4,-3.6,-6.2,46.1,27.4,-30.5,18.3274,-3.23583,-6.584039999999999,-1.00351,-4.15285,2.53228,44.3536,26.2977,-31.6408,0.0395658,0.102433,-0.253469,263.5,7.1,52.1701,4.4272,0.9,1.13864,310.967,4.67638,184.677,3.04351,153.184,0.692388,0.0195268,239.959,0.8835780000000001,1.17391,5.92353057861328,22.0009689331055,3.92345523834229,22.0,-297988.0,2184.28,pp-ro,1,1,-1,-1
1570531729.1,2019-10-08,12:48:49.100,15.0,10.0,18.9400005340576,16.2,-3.8,-6.4,45.6,27.6,-31.4,17.7467,-3.60075,-6.79772,-4.86537,-7.99345,1.51835,43.9603,27.6436,-32.7726,0.0112064,-0.0225958,-0.412182,263.5,7.1,52.1701,4.4272,0.9,1.13642,311.263,4.67641,184.473,3.80352,153.484,0.693856,0.0153599999999999,240.004,0.8735459999999999,1.15756,5.06513977050781,22.0009689331055,3.57688760757446,22.0,-297653.0,3414.86,pp-ro,1,1,-1,-1
1570531729.2,2019-10-08,12:48:49.200,15.0,10.0,18.9899997711182,15.9,-4.1,-6.5,45.2,28.3,-32.9,17.3817,-4.02508,-6.90733,-5.23056,1.69646,-1.12648,42.8379,28.241,-34.5139,-0.182052,-0.135749,-0.277348,263.5,7.1,52.1701,4.4272,0.9,1.1331,309.503,4.676419999999999,184.064,5.70355,154.085,0.696736,0.0049933,240.113,0.854865,1.14327,4.37367248535156,22.0009689331055,3.2814106941223105,22.0,-297515.0,2614.98,pp-ro,1,1,-1,-1
1570531729.3,2019-10-08,12:48:49.300,15.0,10.0,18.9899997711182,15.6,-4.4,-6.6,44.1,28.7,-34.4,17.3817,-4.02508,-6.90733,-5.23056,1.69646,-1.12648,42.8379,28.241,-34.5139,-0.182052,-0.135749,-0.277348,263.5,7.1,52.1701,4.4272,0.9,1.13144,301.288,4.676419999999999,183.655,7.22357,154.685,0.699601,-0.00335282,240.226,0.838311,1.1273799999999998,3.87294006347656,22.0009689331055,2.92894196510315,22.0,-297199.0,3784.03,pp-ro,1,1,-1,-1
1570531729.4,2019-10-08,12:48:49.400,15.0,10.0,19.0400009155273,15.3,-4.7,-6.7,43.5,29.6,-35.8,16.905,-4.58334,-7.03085,0.549658,-2.27623,0.266336,42.0543,29.4896,-36.3136,-0.113751,-0.161195,-0.0779865,263.5,7.1,52.1701,4.4272,0.9,1.1065,296.282,4.67643,183.158,8.36358,155.285,0.702712,-0.00967077,240.271,0.815964,1.1099,3.32794189453125,22.0009689331055,2.50349521636963,22.0,-296810.0,3445.62,pp-ro,1,1,-1,-1
1570531729.5,2019-10-08,12:48:49.500,15.0,10.0,19.0400009155273,14.9,-4.8,-6.8,42.8,29.8,-37.2,16.1626,-5.15926,-7.11636,-0.336753,0.0157158,0.0848714,40.1976,30.7033,-39.6652,0.104495,-0.138777,-0.372435,263.5,7.1,52.1701,4.4272,0.9,1.11648,295.953,4.67644,182.662,10.2636,155.885,0.7056899999999999,-0.0201804,240.355,0.804289,1.09826,2.97708892822266,22.0009689331055,2.2601683139801003,22.0,-296492.0,2984.16,pp-ro,1,1,-1,-1
1570531729.6,2019-10-08,12:48:49.600,15.0,10.0,19.0400009155273,14.7,-5.1,-6.9,42.6,30.5,-38.1,15.9356,-5.43738,-7.13975,-4.1493400000000005,-4.28895,1.86143,39.6741,31.4014,-40.7249,-0.113679,0.0299464999999999,-0.235909,263.5,7.1,52.1701,4.4272,0.9,1.1126,295.16200000000003,4.67647,182.165,11.7836,156.585,0.7089949999999999,-0.0286711,240.503,0.791621,1.08429,2.56663513183594,22.0009689331055,1.92354547977448,22.0,-296301.0,3568.68,pp-ro,1,1,-1,-1
1570531729.7,2019-10-08,12:48:49.700,15.0,10.0,19.090000152587898,14.4,-5.3,-6.9,41.7,30.7,-39.6,15.9356,-5.43738,-7.13975,-4.1493400000000005,-4.28895,1.86143,39.6741,31.4014,-40.7249,-0.113679,0.0299464999999999,-0.235909,263.5,7.1,52.1701,4.4272,0.9,1.10041,288.682,4.67646,181.61,13.3036,157.185,0.712104,-0.0371902,240.554,0.777451,1.07433,2.19705200195312,22.0009689331055,1.67793142795563,22.0,-296026.0,2584.22,pp-ro,1,1,-1,-1
1570531729.8,2019-10-08,12:48:49.800,15.0,10.0,19.1299991607666,14.1,-5.4,-7.0,41.6,30.9,-40.6,15.6094,-5.71572,-7.07468,-2.7507900000000003,1.03359,1.09512,39.2674,31.6963,-41.8166,0.0592689,-0.139216,-0.145331,267.3,7.3,52.1701,4.4272,0.9,1.08545,278.966,4.67647,181.055,14.8237,157.885,0.715489,-0.0457733,240.683,0.769175,1.06332,1.90240478515625,22.0009689331055,1.39535188674927,22.0,-295541.0,3322.56,pp-ro,1,1,-1,-1
1570531729.9,2019-10-08,12:48:49.900,15.0,10.0,19.090000152587898,13.8,-5.5,-7.0,41.3,30.9,-41.5,15.6094,-5.71572,-7.07468,-2.7507900000000003,1.03359,1.09512,39.2674,31.6963,-41.8166,0.0592689,-0.139216,-0.145331,267.3,7.3,52.1701,4.4272,0.9,1.07769,277.032,4.67645,180.471,15.9637,158.585,0.719006,-0.0523005999999999,240.778,0.762817,1.0546799999999998,1.7712631225585902,22.0009689331055,1.1168555021286,22.0,-295365.0,3322.56,pp-ro,1,1,-1,-1
1570531730.0,2019-10-08,12:48:50.000,15.0,10.0,19.090000152587898,13.7,-5.7,-6.9,41.2,30.9,-42.6,14.8566,-6.05876,-7.0101,-6.18886,-2.10221,-1.76587,38.4254,32.1592,-44.5816,0.189222,-0.0579466,-0.114638,267.3,7.3,52.1701,4.4272,0.9,1.08046,277.124,4.67644,179.858,17.4837,159.185,0.722167,-0.0609596,240.82,0.755504,1.0546,1.50898742675781,22.0009689331055,1.0638473033905,22.0,-295060.0,2153.51,pp-ro,1,1,-1,-1
1570531730.1,2019-10-08,12:48:50.100,15.0,10.0,18.9500007629395,13.5,-5.7,-6.8,41.1,30.8,-43.5,14.7259,-6.15269,-6.93071,-3.75708,0.53995,3.99671,38.3858,32.2684,-45.1611,0.0477805,0.00603851,-0.135592,267.3,7.3,52.1701,4.4272,0.9,1.07437,273.928,4.67641,179.24400000000003,18.6237,159.885,0.725709,-0.0675552,240.912,0.75016,1.0563,1.16324615478516,22.0009689331055,0.985026836395264,22.0,-294763.0,3199.51,pp-ro,1,1,-1,-1
1570531730.2,2019-10-08,12:48:50.200,15.0,10.0,18.8600006103516,13.3,-5.8,-6.8,40.9,30.6,-44.1,14.3552,-6.24625,-6.76796,-8.78565,-0.0983194,-0.4378439999999999,38.3576,32.2101,-46.1842,0.00348802,-0.0185192,0.00298066,267.3,7.3,52.1701,4.4272,0.9,1.06772,271.106,4.6764,178.63099999999997,20.5237,160.485,0.7286819999999999,-0.0784013,241.01,0.752398,1.05325,1.07298278808594,22.0009689331055,0.9212676286697392,22.0,-294629.0,2738.04,pp-ro,1,1,-1,-1
1570531730.3,2019-10-08,12:48:50.300,15.0,10.0,18.770000457763697,13.1,-5.9,-6.7,41.0,30.7,-44.7,14.2076,-6.32722,-6.70045,0.750801,-2.2023,4.321680000000001,38.4487,32.2039,-46.5549,0.0779309,-0.128804,-0.0647518,267.3,7.3,52.1701,4.4272,0.9,1.06218,267.495,4.67637,177.988,21.6637,161.185,0.732241,-0.0851002,241.101,0.748637,1.05155,1.06957244873047,22.0009689331055,0.7689418792724609,22.0,-294254.0,2676.51,pp-ro,1,1,-1,-1
1570531730.4,2019-10-08,12:48:50.400,15.0,11.0,18.7199993133545,12.8,-6.0,-6.6,41.0,30.4,-45.1,14.0229,-6.41885,-6.70552,0.669388,-0.455583,1.74917,38.3024,31.9052,-47.2852,0.116744,-0.0497713,-0.152863,267.3,7.3,52.1701,4.4272,1.0,1.0583,267.247,4.67636,177.34599999999998,22.8037,161.785,0.735467,-0.0918525,241.135,0.751454,1.04609,0.8038787841796879,22.0009689331055,0.5610496401786801,22.0,-294050.0,1784.34,pp-ro,1,1,-1,-1
1570531730.5,2019-10-08,12:48:50.500,15.0,10.0,18.770000457763697,12.8,-6.2,-6.6,41.0,30.1,-45.5,13.758,-6.49511,-6.55462,3.50659,-2.94196,1.82969,38.3781,31.8216,-47.7097,0.147037,-0.061774,-0.0919975,267.3,7.3,52.1701,4.4272,1.0,1.0610700000000002,266.605,4.67634,176.703,24.3238,162.385,0.738525,-0.100755,241.215,0.755771,1.04548,0.6812591552734379,22.0009689331055,0.501309216022491,22.0,-293960.0,1722.81,pp-ro,1,1,-1,-1
1570531730.6,2019-10-08,12:48:50.600,15.0,11.0,18.770000457763697,12.7,-6.2,-6.5,40.8,29.7,-46.0,13.6437,-6.637060000000001,-6.4810300000000005,-1.46422,-0.348572,2.0724400000000003,38.4403,31.6554,-47.9427,-0.0518545999999999,-0.0110547,0.0107562999999999,267.3,7.3,52.1701,4.4272,1.0,1.05941,263.522,4.67632,176.06099999999998,25.4638,163.086,0.742001,-0.1075769999999999,241.335,0.758401,1.05054,0.585884094238281,22.0009689331055,0.480190485715866,22.0,-293683.0,3076.45,pp-ro,1,1,-1,-1
1570531730.7,2019-10-08,12:48:50.700,15.0,10.0,18.770000457763697,12.6,-6.2,-6.4,40.9,29.4,-46.4,13.4893,-6.725210000000001,-6.38328,-7.157030000000001,-0.8596229999999999,0.6595449999999999,38.2539,31.1823,-48.4459,0.161456,-0.115221,-0.0887381,267.3,7.3,52.1701,4.4272,1.0,1.04611,260.762,4.6763,175.389,26.6038,163.686,0.745226,-0.114461,241.375,0.7612720000000001,1.05565,0.458145141601562,22.0009689331055,0.4755052328109739,22.0,-293427.0,2245.81,pp-ro,1,1,-1,-1
1570531730.8,2019-10-08,12:48:50.800,15.0,10.0,18.7199993133545,12.4,-6.3,-6.2,40.9,29.0,-46.5,13.3882,-6.71345,-6.22463,1.26588,0.199464,-3.49425,38.2821,30.8634,-48.8732,-0.0595838,-0.00440542,-0.109294,269.3,7.3,52.1701,4.4272,1.0,1.05054,259.136,4.67628,174.74599999999998,28.1238,164.28599999999997,0.7481760000000001,-0.123477,241.489,0.770407,1.05922,0.407051086425781,22.0009689331055,0.504083335399628,22.0,-293228.0,2276.57,pp-ro,1,1,-1,-1
1570531730.9,2019-10-08,12:48:50.900,15.0,10.0,18.6800003051758,12.3,-6.3,-6.1,40.8,28.8,-46.6,13.1596,-6.76975,-6.03916,-4.11196,-2.24925,-1.01419,38.4619,30.7565,-48.8314,-0.00880428,-0.068225,0.0589509,269.3,7.3,52.1701,4.4272,1.0,1.03447,251.627,4.67629,174.016,28.8838,164.886,0.751682,-0.128382,241.46,0.774558,1.0630700000000002,0.454742431640625,22.0009689331055,0.399423480033875,22.0,-292837.0,2522.69,pp-ro,1,1,-1,-1
1570531731.0,2019-10-08,12:48:51.000,15.0,10.0,18.6700000762939,12.2,-6.4,-6.0,40.9,28.4,-46.8,13.0043,-6.8088,-5.86843,-2.82856,-0.0531424,-4.17636,38.4874,30.1848,-49.2181,-0.0273207,-0.0696711,0.0575255999999999,269.3,7.3,52.1701,4.4272,1.0,1.0283799999999998,246.568,4.67629,173.373,30.0238,165.486,0.754749,-0.135376,241.548,0.7810090000000001,1.0648799999999998,0.505836486816406,22.0009689331055,0.330389261245728,22.0,-292626.0,2215.04,pp-ro,1,1,-1,-1
1570531731.1,2019-10-08,12:48:51.100,15.0,10.0,18.6299991607666,12.1,-6.3,-5.9,40.8,27.8,-46.9,12.9213,-6.79315,-5.81025,2.76322,2.499,-0.625401,38.5641,29.9708,-49.272,0.0399191,-0.212904,-0.0518568,269.3,7.3,52.1701,4.4272,1.0,1.02561,245.557,4.6763,172.731,31.5438,166.08599999999998,0.7575970000000001,-0.144537,241.693,0.792327,1.07492,0.4564437866210939,22.0009689331055,0.492081493139267,22.0,-292497.0,2553.45,pp-ro,1,1,-1,-1
1570531731.2,2019-10-08,12:48:51.200,15.0,10.0,18.5799999237061,12.1,-6.3,-5.7,40.6,27.4,-47.3,12.9023,-6.7732,-5.715669999999999,1.31261,-0.2777159999999999,5.399430000000001,38.4974,29.7785,-49.4108,0.042222,-0.0515124,0.0353751,269.3,7.3,52.1701,4.4272,1.0,1.01951,245.085,4.67631,172.03,32.6838,166.58599999999998,0.760465,-0.151666,241.689,0.796385,1.0885,0.379798889160156,22.0009689331055,0.6727968454360961,22.0,-292294.0,1692.05,pp-ro,1,1,-1,-1
1570531731.3,2019-10-08,12:48:51.300,15.0,10.0,18.4899997711182,12.0,-6.4,-5.6,40.8,27.3,-47.5,12.8217,-6.776660000000001,-5.6329,-0.0177922,0.0459231,-1.04022,38.5842,29.3573,-49.4278,0.0477381999999999,-0.093196,0.0833954,269.3,7.3,52.1701,4.4272,1.0,1.02616,248.89,4.67631,171.387,33.8238,167.18599999999998,0.763444,-0.158769,241.803,0.799875,1.09041,0.550117492675781,22.0009689331055,0.605213105678558,22.0,-292127.0,1599.75,pp-ro,1,1,-1,-1
1570531731.4,2019-10-08,12:48:51.400,15.0,10.0,18.3999996185303,11.9,-6.4,-5.5,40.7,27.2,-47.7,12.7368,-6.82372,-5.52565,1.05394,-0.00664783,0.211044,38.4076,28.9775,-49.912,0.00669714,-0.0769957,-0.0480942,269.3,7.3,52.1701,4.4272,1.1,1.03669,253.393,4.67632,170.715,34.9638,167.78599999999997,0.766476,-0.165941,241.906,0.8034180000000001,1.09586,0.642082214355469,22.0009689331055,0.5998971462249761,22.0,-291957.0,1692.05,pp-ro,1,1,-1,-1
1570531731.5,2019-10-08,12:48:51.500,15.0,10.0,18.3999996185303,11.8,-6.4,-5.4,40.5,26.7,-48.1,12.6299,-6.9013100000000005,-5.33979,3.5333900000000003,1.41214,3.0945400000000003,38.383,28.7276,-50.2911,0.0165602,-0.0761423,-0.0250732,269.3,7.3,52.1701,4.4272,1.1,1.03503,251.058,4.67632,170.044,36.1039,168.28599999999997,0.769183,-0.173144,241.947,0.808545,1.10135,0.619941711425781,22.0009689331055,0.624081015586853,22.0,-291749.0,2215.04,pp-ro,1,1,-1,-1
1570531731.6,2019-10-08,12:48:51.600,15.0,10.0,18.25,11.8,-6.4,-5.3,40.4,26.5,-48.3,12.4569,-6.93652,-5.23722,-0.8232299999999999,-0.524254,0.553037,38.29,28.2813,-50.5644,0.1008039999999999,-0.136488,0.00415989,269.3,7.3,52.1701,4.4272,1.1,1.02228,241.745,4.67633,169.372,37.2439,168.78599999999997,0.771863,-0.180387,241.997,0.813182,1.11084,0.638671875,22.0009689331055,0.728930234909058,22.0,-291385.0,2738.04,pp-ro,1,1,-1,-1
1570531731.7,2019-10-08,12:48:51.700,15.0,10.0,18.159999847412102,11.6,-6.4,-5.2,40.5,26.3,-48.4,12.3267,-6.901660000000001,-5.11747,-0.475641,2.5698,2.16171,38.2966,28.0976,-50.7966,-0.0263690999999999,-0.112666,-0.0120787,269.3,7.3,52.1701,4.4272,1.1,1.01397,239.376,4.67633,168.7,38.3839,169.386,0.77481,-0.187659,242.126,0.819112,1.11247,0.7051010131835941,22.0009689331055,-35.0,22.0,-291241.0,2707.27,pp-ro,1,1,-1,-1
1570531731.8,2019-10-08,12:48:51.800,15.0,10.0,18.0599994659424,11.5,-6.4,-5.0,40.5,25.9,-48.6,12.2872,-6.91523,-5.04081,1.01594,-0.618521,-2.7862,38.2076,28.0019,-50.9874,-0.0459198,-0.014353,0.0422279999999999,268.1,7.9,52.1701,4.4272,1.1,1.00788,237.158,4.67634,168.058,39.5239,169.886,0.777352,-0.194931,242.212,0.8258280000000001,1.1226200000000002,0.660820007324219,22.0009689331055,-35.0,22.0,-291068.0,1353.64,pp-ro,1,1,-1,-1
1570531731.9,2019-10-08,12:48:51.900,15.0,10.0,18.0599994659424,11.5,-6.4,-4.9,40.3,25.9,-48.8,12.2872,-6.91523,-5.04081,1.01594,-0.618521,-2.7862,38.2076,28.0019,-50.9874,-0.0459198,-0.014353,0.0422279999999999,268.1,7.9,52.1701,4.4272,1.1,1.01009,235.32,4.67633,167.386,40.6639,170.386,0.7799470000000001,-0.202262,242.287,0.8285239999999999,1.13236,0.609725952148438,22.0009689331055,-35.0,22.0,-290869.0,2307.34,pp-ro,1,1,-1,-1
1570531732.0,2019-10-08,12:48:52.000,15.0,10.0,17.9599990844727,11.4,-6.4,-4.7,40.1,25.2,-49.4,12.109000000000002,-6.91574,-4.7909,-1.0820299999999998,1.90475,1.2032,38.2185,27.6663,-51.3387,-0.0154382,-0.152644,0.00391231,268.1,7.9,52.1701,4.4272,1.1,0.998456,231.365,4.67632,166.71400000000003,41.8039,170.887,0.782514,-0.209621,242.37,0.833232,1.14278,0.1907501220703119,22.0009689331055,-35.0,22.0,-290632.0,2245.81,pp-ro,1,1,-1,-1
1570531732.1,2019-10-08,12:48:52.100,15.0,10.0,17.909999847412102,11.4,-6.3,-4.6,40.2,24.8,-49.6,12.0143,-6.91931,-4.66255,-2.22505,0.119294,-0.491235,38.1472,27.248,-51.7912,0.133249,-0.0962123999999999,0.0704381999999999,268.1,7.9,52.1701,4.4272,1.1,0.995686,227.39,4.67631,166.071,42.9439,171.287,0.7846770000000001,-0.216969,242.411,0.840039,1.1564299999999998,-0.365249633789062,22.0009689331055,-35.0,22.0,-290370.0,1907.4,pp-ro,1,1,-1,-1
1570531732.2,2019-10-08,12:48:52.200,15.0,10.0,17.8099994659424,11.5,-6.2,-4.4,40.3,24.5,-49.7,12.0054,-6.876580000000001,-4.57897,1.30306,-0.0434983,1.80045,38.1021,27.2075,-51.9466,0.0480159,-0.0749298,0.0440261,268.1,7.9,52.1701,4.4272,1.1,0.992362,225.846,4.6763,165.429,43.7039,171.787,0.787388,-0.2222,242.461,0.845532,1.17745,-1.73749542236328,22.0009689331055,-35.0,22.0,-290244.0,2368.87,pp-ro,1,1,-1,-1
1570531732.3,2019-10-08,12:48:52.300,15.0,10.0,17.770000457763697,11.6,-6.3,-4.2,40.3,24.0,-49.7,12.028,-6.77786,-4.3232800000000005,-2.25065,-0.451152,3.07277,38.228,27.2598,-51.8718,-0.107777,-0.0061873999999999,-0.0629602,268.1,7.9,52.1701,4.4272,1.1,0.982942,223.929,4.67629,164.757,44.8439,172.287,0.789876,-0.229651,242.567,0.856028,1.19221,-3.23263549804688,22.0009689331055,-35.0,22.0,-290068.0,1476.7,pp-ro,1,1,-1,-1
1570531732.4,2019-10-08,12:48:52.400,15.0,10.0,17.7099990844727,11.9,-6.1,-3.9,40.5,23.0,-49.7,12.2064,-6.64892,-3.90552,1.22993,5.16951,3.54616,38.7572,26.8589,-51.5227,-0.0163984,-0.0057583,0.12918,268.1,7.9,52.1701,4.4272,1.1,0.986821,223.22,4.67628,164.144,46.364,172.687,0.7915770000000001,-0.2391849999999999,242.721,0.8732719999999999,1.23227,-4.591224670410161,22.0009689331055,-35.0,22.0,-289928.0,1507.46,pp-ro,1,1,-1,-1
1570531732.5,2019-10-08,12:48:52.500,15.0,10.0,17.7099990844727,12.2,-6.0,-3.7,41.1,22.0,-49.4,12.2064,-6.64892,-3.90552,1.22993,5.16951,3.54616,38.7572,26.8589,-51.5227,-0.0163984,-0.0057583,0.12918,268.1,7.9,52.1701,4.4272,1.1,0.982388,221.101,4.67627,163.53,47.504,173.08700000000002,0.793543,-0.246587,242.812,0.892928,1.26167,-6.65983581542969,22.0009689331055,-35.0,22.0,-289711.0,2338.1,pp-ro,1,1,-1,-1
1570531732.6,2019-10-08,12:48:52.600,15.0,10.0,17.6700000762939,12.5,-5.9,-3.3,41.8,20.7,-48.8,12.4389,-6.474530000000001,-3.63362,6.19007,0.1199339999999999,3.23958,39.2718,26.3898,-50.8764,0.180704,0.0403178,0.117954,268.1,7.9,52.1701,4.4272,1.1,0.976847,217.515,4.67626,162.917,48.264,173.487,0.795798,-0.251884,242.835,0.918141,1.29855,-8.7745361328125,22.0009689331055,-35.0,22.0,-289475.0,1538.22,pp-ro,1,1,-1,-1
