time,date,time_of_day,airspeed_temperature,airspeed_angle_of_attack,airspeed_apparent_windspeed,kite_0_vx,kite_0_vy,kite_0_vz,kite_0_roll,kite_0_pitch,kite_0_yaw,kite_1_vx,kite_1_vy,kite_1_vz,kite_1_ax,kite_1_ay,kite_1_az,kite_1_roll,kite_1_pitch,kite_1_yaw,kite_1_roll_rate,kite_1_pitch_rate,kite_1_yaw_rate,ground_upwind_direction,ground_wind_velocity,ground_pos_latitude,ground_pos_longitude,ground_pos_altitude,ground_tether_reelout_speed,ground_tether_force,est_upwind_direction,kite_pos_east,kite_pos_north,kite_height,kite_elevation,kite_azimuth,kite_distance,kite_heading,kite_course,kite_actual_steering,kite_actual_depower,kite_set_steering,kite_set_depower,ground_mech_energy,ground_mech_power,flight_phase,flight_phase_index,phase,pattern,pattern_section
1570539828.5,2019-10-08,15:03:48.500,15.0,7.0,14.1700000762939,11.7,-2.9,2.7,16.0,-4.1,-61.7,10.3684,-2.74905,2.73456,8.683539999999999,8.52563,2.67999,17.4407,10.6196,-67.6604,0.0793784,0.116069,0.8672059999999999,256.5,6.6,52.1701,4.42721,5.2,-2.86239,93.9497,4.47559,51.0549,0.000262589,239.799,1.36102,0.2367969999999999,245.174,0.510664,1.3788200000000002,-34.843826293945305,22.004056930542003,-35.0,22.0,359870.0,-11167.5,pp-riro,4,0,-1,-1
1570539828.6,2019-10-08,15:03:48.600,15.0,8.0,13.9799995422363,12.4,-1.9,2.9,17.2,-5.2,-56.7,11.3429,-1.4075,3.31656,4.50555,8.50122,3.50615,20.0631,9.62804,-59.381,0.0627744,0.2049099999999999,0.920416,256.5,6.6,52.1701,4.42721,5.2,-2.90228,84.3445,4.475569999999999,50.792,1.1403,239.599,1.36185,0.214364,244.926,0.62517,1.49183,-34.970123291015604,22.0009689331055,-35.0,22.0,358630.0,-13198.0,pp-riro,4,0,-1,-1
1570539828.7,2019-10-08,15:03:48.700,15.0,9.0,13.7299995422363,13.3,-0.9,3.0,19.1,-6.0,-51.8,11.3429,-1.4075,3.31656,4.50555,8.50122,3.50615,20.0631,9.62804,-59.381,0.0627744,0.2049099999999999,0.920416,256.5,6.6,52.1701,4.42721,5.2,-2.98041,75.2259,4.47555,50.646,2.66036,239.399,1.36204,0.184357,244.712,0.745042,1.60267,-34.971832275390604,21.9983940124512,-35.0,22.0,356618.0,-22458.1,pp-riro,4,0,-1,-1
1570539828.8,2019-10-08,15:03:48.800,15.0,8.0,13.3999996185303,14.3,-0.1,3.3,20.7,-6.6,-46.8,12.8738,0.615898,3.76983,10.6868,7.52943,5.15653,23.426,7.48913,-48.699,0.1166619999999999,0.140592,0.8475219999999999,256.5,6.6,52.1701,4.42721,5.2,-3.13721,95.3584,4.47553,50.5291,4.18041,239.199,1.36192,0.15431,244.514,0.865898,1.69223,-34.971832275390604,21.9994239807129,-35.0,22.0,353468.0,-16274.4,pp-riro,4,0,-1,-1
1570539828.9,2019-10-08,15:03:48.900,15.0,6.0,13.5299997329712,15.1,0.5,3.8,22.1,-8.3,-42.3,13.7598,1.18056,4.09872,7.990810000000001,5.9213,2.78475,25.2323,6.3977900000000005,-43.1887,0.22484,0.176816,1.00392,256.5,6.6,52.1701,4.4272,5.3,-3.15217,102.501,4.47552,50.5291,5.70047,238.899,1.3610799999999998,0.1245319999999999,244.251,0.980773,1.76452,-34.971832275390604,21.9994239807129,-35.0,22.0,352860.0,-11905.9,pp-riro,4,0,-1,-1
1570539829.0,2019-10-08,15:03:49.000,15.0,8.0,13.6599998474121,15.9,1.4,4.3,23.4,-9.9,-37.6,14.5451,1.88633,4.63439,6.715269999999999,7.23663,4.51462,26.547,5.08285,-37.2988,0.1688,0.199811,0.98512,256.5,6.6,52.1701,4.4272,5.3,-3.14719,109.401,4.4755,50.5875,7.22052,238.599,1.35982,0.0951141,244.01,1.09861,1.8498,-34.9991455078125,21.9994239807129,-35.0,22.0,352449.0,-2861.1,pp-riro,4,0,-1,-1
1570539829.1,2019-10-08,15:03:49.100,15.0,11.0,13.7200002670288,16.5,2.8,4.6,24.6,-11.5,-32.5,14.9131,2.40492,4.85553,6.54095,10.6289,5.456840000000001,27.1487,4.24155,-34.3573,0.0560639999999999,0.179626,0.962313,256.5,6.6,52.1701,4.4272,5.3,-3.11561,101.233,4.47548,50.792,8.36057,238.299,1.35805,0.0737661999999999,243.795,1.21531,1.94917,-34.9991455078125,21.9994239807129,-35.0,22.0,352337.0,-1507.46,pp-riro,4,0,-1,-1
1570539829.2,2019-10-08,15:03:49.200,15.0,12.0,13.5900001525879,16.9,4.2,4.9,26.0,-13.3,-28.0,15.6617,4.288119999999999,5.33845,4.38767,14.5858,4.44639,28.9914,1.27498,-26.9434,0.34183,0.13727,0.859886,256.5,6.6,52.1701,4.4272,5.3,-3.11727,90.6223,4.47546,51.084,10.2606,237.899,1.3551799999999998,0.0387045,243.538,1.33599,2.05709,-34.9991455078125,21.9994239807129,-35.0,22.0,351437.0,-11475.2,pp-riro,4,0,-1,-1
1570539829.3,2019-10-08,15:03:49.300,15.0,10.0,13.6599998474121,17.4,5.2,5.2,26.9,-14.6,-23.3,15.8449,4.89797,5.53717,4.25899,14.2911,4.83855,29.6021,0.340602,-24.5948,0.25103,0.175974,0.79527,256.5,6.6,52.1701,4.4272,5.3,-3.15882,92.9919,4.47545,51.5221,11.7807,237.499,1.35183,0.0121532999999999,243.30900000000003,1.44941,2.12878,-35.0008544921875,21.9994239807129,-35.0,22.0,350048.0,-13074.9,pp-riro,4,0,-1,-1
1570539829.4,2019-10-08,15:03:49.400,15.0,9.0,13.9200000762939,17.9,6.1,5.6,27.0,-16.3,-18.2,16.3389,6.01246,5.79472,5.19792,9.4796,3.53935,30.4631,-1.30153,-19.8425,0.2555469999999999,0.226855,0.828624,258.9,6.9,52.1701,4.4272,5.3,-3.19151,97.3435,4.47548,52.077,14.0608,236.999,1.34701,-0.0267785,243.06,1.58314,2.2047,-35.0008544921875,21.9994239807129,-35.0,22.0,348842.0,-9383.17,pp-riro,4,0,-1,-1
1570539829.5,2019-10-08,15:03:49.500,15.0,9.0,14.039999961853,18.3,7.1,5.8,27.8,-18.0,-12.7,16.6086,6.8118,6.09098,4.08094,8.80458,1.00989,30.8477,-3.05734,-14.6105,0.0986996,0.2482489999999999,0.94539,258.9,6.9,52.1701,4.4272,5.3,-3.20481,100.852,4.4755,52.6612,15.5809,236.599,1.34272,-0.0507784,242.889,1.70795,2.26766,-35.0042724609375,21.9994239807129,-35.0,22.0,348054.0,-7383.48,pp-riro,4,0,-1,-1
1570539829.6,2019-10-08,15:03:49.600,15.0,9.0,14.1700000762939,18.4,8.5,6.3,27.8,-19.9,-6.7,16.8959,8.4075,6.43265,-1.89886,12.9196,5.4546,30.6895,-5.9908,-5.4284300000000005,0.159501,0.224158,1.08109,258.9,6.9,52.1701,4.4272,5.3,-3.17378,126.492,4.4755400000000005,53.3621,17.4809,236.099,1.3373,-0.0797201,242.685,1.84593,2.35785,-35.0076751708984,21.9994239807129,-35.0,22.0,347810.0,6275.96,pp-riro,4,0,-1,-1
1570539829.7,2019-10-08,15:03:49.700,15.0,9.0,14.6599998474121,18.6,9.9,6.8,27.2,-22.2,-0.3,16.8959,8.4075,6.43265,-1.89886,12.9196,5.4546,30.6895,-5.9908,-5.4284300000000005,0.159501,0.224158,1.08109,258.9,6.9,52.1701,4.4272,5.3,-3.03914,134.343,4.475569999999999,54.2967,19.381,235.499,1.33071,-0.106029,242.453,1.98851,2.43867,-35.0076751708984,21.9994239807129,-35.0,22.0,349163.0,17289.6,pp-riro,4,0,-1,-1
1570539829.8,2019-10-08,15:03:49.800,15.0,11.0,15.3100004196167,18.4,11.6,7.1,26.9,-24.5,6.2,17.1517,10.2765,7.06127,-1.6518400000000002,14.9965,3.79427,29.4814,-9.16305,4.5433900000000005,-0.0119432999999999,0.313641,1.13859,258.9,6.9,52.1701,4.4272,5.3,-2.96877,131.31799999999998,4.4756,55.3482,21.2811,234.899,1.32352,-0.130281,242.268,2.12898,2.53215,-35.0059814453125,21.9994239807129,-35.0,22.0,350051.0,16674.4,pp-riro,4,0,-1,-1
1570539829.9,2019-10-08,15:03:49.900,15.0,10.0,15.880000114440902,18.0,13.3,7.4,26.3,-25.6,12.9,16.704,12.6263,7.535539999999999,-6.66728,15.5882,1.52967,28.136,-11.9527,14.3414,-0.0566391,0.252979,1.08799,258.9,6.9,52.1701,4.4272,5.6,-2.74326,134.135,4.475630000000001,56.5164,22.8011,234.299,1.31633,-0.146714,242.095,2.25847,2.6185,-35.0059814453125,21.9994239807129,-35.0,22.0,351839.0,12490.4,pp-riro,4,0,-1,-1
1570539830.0,2019-10-08,15:03:50.000,15.0,10.0,16.270000457763697,17.4,15.1,7.9,25.8,-26.7,19.8,16.704,12.6263,7.535539999999999,-6.66728,15.5882,1.52967,28.136,-11.9527,14.3414,-0.0566391,0.252979,1.08799,258.9,6.9,52.1701,4.4272,5.6,-2.674,141.965,4.47567,57.86,25.0812,233.599,1.30712,-0.17231,241.961,2.39816,2.71848,-35.0059814453125,21.9994239807129,-23.0,22.0,352650.0,15905.2,pp-riro,4,0,-1,-1
1570539830.1,2019-10-08,15:03:50.100,15.0,11.0,16.6399993896484,16.5,16.5,8.7,24.9,-28.0,26.1,16.1905,14.1849,8.030660000000001,-5.56984,17.9438,6.52911,27.4018,-13.434,21.1253,0.217859,0.295095,1.17248,258.9,6.9,52.1701,4.4272,5.6,-2.33601,153.11700000000002,4.4757,59.3787,26.6013,232.799,1.29826,-0.184493,241.721,2.51487,2.79948,-35.0059814453125,21.9994239807129,-23.0,22.0,355916.0,23842.5,pp-riro,4,0,-1,-1
1570539830.2,2019-10-08,15:03:50.200,15.0,10.0,16.75,15.6,18.0,8.9,24.0,-29.3,32.4,15.0793,16.378,9.04252,-11.5194,17.2984,4.17456,25.9789,-14.6923,31.5114,0.0328398,0.3261469999999999,1.00545,258.9,6.9,52.1701,4.4272,5.6,-2.10773,139.498,4.47573,61.0143,28.5014,231.999,1.28829,-0.200346,241.575,2.63321,2.8814900000000003,-34.714111328125,21.9994239807129,-23.0,22.0,357922.0,17412.7,pp-riro,4,0,-1,-1
1570539830.3,2019-10-08,15:03:50.300,15.0,10.0,16.75,14.9,19.4,8.9,23.6,-29.9,39.2,14.6759,17.0496,9.15675,-6.998069999999999,13.6694,0.595755,25.3163,-15.3028,34.8842,0.153418,0.322111,1.18718,258.9,6.9,52.1701,4.4272,5.6,-2.0068900000000003,138.54399999999998,4.47576,62.7375,29.6415,231.199,1.27923,-0.204754,241.387,2.74545,2.94067,-34.589523315429695,21.9994239807129,-23.0,22.0,358668.0,13874.8,pp-riro,4,0,-1,-1
1570539830.4,2019-10-08,15:03:50.400,15.0,8.0,16.6399993896484,13.9,20.7,9.5,23.1,-29.9,45.9,13.3428,18.8683,9.35304,-7.564360000000001,14.799,5.12777,23.9483,-16.9529,44.6055,0.294617,0.217379,1.03538,258.9,6.7,52.1701,4.4272,5.6,-1.80575,155.289,4.47579,64.6652,31.5415,230.399,1.26812,-0.217215,241.371,2.8612,3.01287,-33.614959716796896,21.9994239807129,-22.849542617797898,22.0,359953.0,14213.2,pp-riro,4,0,-1,-1
1570539830.5,2019-10-08,15:03:50.500,15.0,10.0,16.9099998474121,12.9,21.9,10.4,22.1,-31.1,52.5,12.5761,20.2346,10.0235,-8.132710000000001,10.5085,9.13488,22.6453,-17.69,51.6118,-0.0261406,0.2595139999999999,1.19718,258.9,6.7,52.1701,4.4272,5.6,-1.33811,193.192,4.47582,66.6805,32.6816,229.499,1.25786,-0.219144,241.21400000000003,2.96682,3.07049,-32.7649841308594,21.9994239807129,-22.1690063476562,22.0,362991.0,22611.9,pp-riro,4,0,-1,-1
1570539830.6,2019-10-08,15:03:50.600,15.0,9.0,17.2199993133545,11.5,22.8,10.7,20.6,-32.1,59.1,12.0472,20.8356,10.4298,-13.6264,16.1893,5.0174,21.98,-18.4135,55.1981,0.0835034,0.20394,1.11526,258.9,6.7,52.1701,4.4272,5.6,-1.1297700000000002,196.029,4.47585,68.7834,33.8217,228.499,1.24715,-0.220453,241.012,3.06987,3.1322,-30.8994750976562,21.9994239807129,-21.4214687347412,22.0,364057.0,21381.3,pp-riro,4,0,-1,-1
1570539830.7,2019-10-08,15:03:50.700,15.0,10.0,17.5699996948242,9.9,23.6,10.2,18.4,-32.9,66.6,11.3979,21.2463,10.6631,-12.236,11.014,2.36259,21.1446,-19.1237,58.7251,0.176851,0.151269,1.13337,258.9,6.7,52.1701,4.4272,5.6,-0.708117,178.77,4.47588,71.0907,35.3418,227.499,1.23504,-0.224846,240.954,3.1873400000000003,3.2012400000000003,-29.0134887695312,21.9994239807129,-20.6828231811523,22.0,365600.0,12305.8,pp-riro,4,0,-1,-1
1570539830.8,2019-10-08,15:03:50.800,15.0,8.0,17.6200008392334,8.4,24.1,10.1,16.2,-32.8,74.0,9.14424,22.3255,10.213,-12.4924,9.67324,-5.97279,18.5748,-21.4186,68.9926,0.0462615,0.134376,1.10355,258.9,6.7,52.1701,4.4272,5.6,-0.331895,152.303,4.4759,73.3689,36.1018,226.499,1.22434,-0.2207889999999999,240.807,3.29509,3.25496,-26.924392700195305,21.9994239807129,-19.9793071746826,22.0,366162.0,3968.62,pp-riro,4,0,-1,-1
1570539830.9,2019-10-08,15:03:50.900,15.0,6.0,17.8199996948242,7.0,24.3,10.0,14.0,-33.0,80.9,7.819189999999999,22.8185,10.061,-13.3704,5.15712,-1.06498,16.7738,-22.218000000000004,75.4743,0.112354,0.210912,1.0802,258.9,6.7,52.1701,4.4272,5.8,-0.0969643999999999,141.5,4.47593,75.8223,36.8619,225.599,1.21316,-0.216058,240.837,3.3936800000000003,3.30152,-25.0281677246094,21.9994239807129,-19.4365844726562,22.0,366286.0,553.761,pp-riro,4,0,-1,-1
1570539831.0,2019-10-08,15:03:51.000,15.0,7.0,17.770000457763697,5.6,24.1,9.8,11.5,-32.5,87.4,6.56735,23.0743,9.95401,-15.8896,0.0838829,-0.6253029999999999,14.936,-22.6071,82.1079,0.238559,0.198987,0.895862,258.9,6.7,52.1701,4.4272,5.8,0.0947481,142.003,4.47596,78.188,37.6219,224.699,1.20228,-0.2120429999999999,240.87,3.48775,3.34608,-23.3299179077148,21.9994239807129,-18.952806472778303,22.0,366247.0,-707.5830000000001,pp-riro,4,0,-1,-1
1570539831.1,2019-10-08,15:03:51.100,15.0,6.0,17.5699996948242,4.9,24.0,9.6,10.0,-31.5,93.6,5.25403,22.8521,9.73798,-9.97316,-2.47408,-3.04258,12.9804,-22.8334,88.5216,0.16344,0.2021079999999999,0.997839,258.9,6.7,52.1701,4.4272,5.8,0.262635,143.436,4.47599,80.5538,38.382,223.799,1.1914,-0.208251,240.931,3.5791800000000005,3.36777,-21.868919372558604,21.9994239807129,-18.946445465087898,22.0,366064.0,-2153.51,pp-riro,4,0,-1,-1
1570539831.2,2019-10-08,15:03:51.200,15.0,6.0,17.520000457763697,3.7,23.9,9.4,8.0,-30.3,99.3,4.07205,22.8099,9.47564,-9.64944,1.28816,-3.46992,11.1147,-22.3327,94.4156,0.326911,0.370347,0.932421,258.9,6.7,52.1701,4.4272,5.8,0.242688,135.645,4.47602,83.0364,38.762,222.899,1.18074,-0.200369,241.001,3.66106,3.40504,-20.3874359130859,21.9994239807129,-18.5252628326416,22.0,366212.0,2091.99,pp-riro,4,0,-1,-1
1570539831.3,2019-10-08,15:03:51.300,15.0,8.0,17.4599990844727,2.3,23.9,9.4,7.5,-29.8,101.4,2.1521,22.881,9.31822,-11.4486,0.532287,-1.53932,8.59719,-21.1069,101.715,-0.174772,0.260449,0.653309,258.9,6.7,52.1701,4.4272,5.8,0.259311,150.299,4.47604,84.1755,39.1421,222.399,1.17537,-0.198917,240.995,3.69275,3.4567300000000003,-19.4521255493164,21.9994239807129,-17.7259845733643,22.0,366174.0,-584.525,pp-riro,4,0,-1,-1
1570539831.4,2019-10-08,15:03:51.400,15.0,8.0,17.6700000762939,0.9,24.0,9.4,6.4,-28.2,105.9,1.47675,23.0232,9.30309,-17.535,2.58783,-2.26702,8.05551,-20.5638,103.994,0.00361717,0.2334389999999999,0.531669,250.3,6.9,52.1701,4.4272,5.8,0.279258,172.265,4.47606,86.6873,39.1421,221.499,1.16519,-0.187801,241.057,3.756780000000001,3.5003900000000003,-18.6857833862305,21.9994239807129,-17.089937210083,22.0,366192.0,61.529,pp-riro,4,0,-1,-1
1570539831.5,2019-10-08,15:03:51.500,15.0,8.0,17.7600002288818,-0.1,24.1,9.5,4.5,-27.6,110.1,0.815944,23.1387,9.28321,-9.55811,3.84445,-1.84498,7.23463,-19.9698,106.22,-0.00734881,0.255291,0.625019,250.3,6.9,52.1701,4.4272,5.8,0.321368,182.216,4.47606,89.1407,39.5222,220.599,1.1546,-0.180992,241.188,3.81596,3.53205,-18.0030746459961,21.9994239807129,-16.8436393737793,22.0,366181.0,92.2935,pp-riro,4,0,-1,-1
1570539831.6,2019-10-08,15:03:51.600,15.0,10.0,17.7099990844727,-1.1,24.2,9.6,2.3,-27.0,114.2,-0.282963,23.1729,9.33266,-10.5032,0.2909219999999999,3.3797,5.43163,-19.2504,110.448,-0.145782,0.132213,0.680909,250.3,6.9,52.1701,4.4272,5.8,0.320814,185.193,4.47605,91.5941,39.5222,219.598,1.1444,-0.171018,241.195,3.87099,3.56045,-17.3459625244141,21.9994239807129,-16.575372695922898,22.0,366220.0,769.112,pp-riro,4,0,-1,-1
1570539831.7,2019-10-08,15:03:51.700,15.0,8.0,17.7600002288818,-1.7,24.2,9.5,0.0,-25.5,118.7,-1.38598,23.2509,9.13448,-4.44583,-2.14209,-1.91666,1.83384,-18.6949,116.657,-0.191673,0.193992,0.66883,250.3,6.9,52.1701,4.4272,5.8,0.330233,189.643,4.47604,94.0475,39.1422,218.598,1.13471,-0.158045,241.169,3.93484,3.572,-17.1001892089844,21.9994239807129,-16.5539035797119,22.0,366265.0,215.351,pp-riro,4,0,-1,-1
1570539831.8,2019-10-08,15:03:51.800,15.0,9.0,17.8099994659424,-2.7,24.1,9.5,-2.4,-24.3,123.0,-1.61702,23.1613,9.07753,-4.22581,0.766301,-1.13644,0.480546,-18.0344,118.884,-0.0791483,0.186151,0.668441,250.3,6.9,52.1701,4.4272,5.8,0.332449,190.655,4.47604,96.5009,39.1423,217.598,1.12444,-0.1489859999999999,241.233,3.99783,3.60165,-16.7076263427734,21.9994239807129,-16.3236293792725,22.0,366299.0,615.29,pp-riro,4,0,-1,-1
1570539831.9,2019-10-08,15:03:51.900,15.0,10.0,18.0599994659424,-3.8,23.7,9.6,-5.1,-23.2,127.0,-3.21227,23.0655,9.14741,-9.59863,-6.43577,1.94448,-3.21407,-16.0863,125.088,-0.2460719999999999,0.0376493,0.627358,250.3,6.9,52.1701,4.4272,5.9,0.329125,194.398,4.476030000000001,99.0127,38.7623,216.498,1.11427,-0.136788,241.2,4.053380000000001,3.63222,-16.5301208496094,21.9994239807129,-16.0071430206299,22.0,366345.0,338.409,pp-riro,4,0,-1,-1
1570539832.0,2019-10-08,15:03:52.000,15.0,10.0,18.0599994659424,-4.9,23.4,9.5,-7.3,-21.7,130.1,-4.36733,22.7051,9.09497,-8.14684,-1.11205,-4.117780000000001,-5.89702,-15.3405,128.418,-0.308104,0.204265,0.519614,250.3,6.9,52.1701,4.4272,5.9,0.34741,203.492,4.47602,101.408,38.3823,215.498,1.10463,-0.125466,241.239,4.09936,3.66547,-16.4396667480469,21.9994239807129,-15.647289276123,22.0,366378.0,399.9380000000001,pp-riro,4,0,-1,-1
1570539832.1,2019-10-08,15:03:52.100,15.0,10.0,18.0599994659424,-6.1,23.1,9.4,-9.4,-20.2,133.3,-4.36733,22.7051,9.09497,-8.14684,-1.11205,-4.117780000000001,-5.89702,-15.3405,128.418,-0.308104,0.204265,0.519614,250.3,6.9,52.1701,4.4272,5.9,0.375114,217.037,4.47602,103.744,37.6223,214.398,1.09544,-0.111524,241.133,4.14515,3.70049,-16.1068420410156,21.9994239807129,-15.1774482727051,22.0,366429.0,369.174,pp-riro,4,0,-1,-1
1570539832.2,2019-10-08,15:03:52.200,15.0,11.0,17.909999847412102,-7.3,22.9,9.5,-11.5,-18.8,136.2,-4.36733,22.7051,9.09497,-8.14684,-1.11205,-4.117780000000001,-5.89702,-15.3405,128.418,-0.308104,0.204265,0.519614,250.3,6.9,52.1701,4.4272,5.9,0.381209,222.419,4.476030000000001,106.198,36.8624,213.298,1.08576,-0.0977356,241.108,4.18624,3.733,-15.7211151123047,21.9994239807129,-14.8156471252441,22.0,366463.0,676.819,pp-riro,4,0,-1,-1
1570539832.3,2019-10-08,15:03:52.300,15.0,13.0,17.909999847412102,-8.6,22.7,9.6,-13.0,-17.8,138.8,-7.3427,22.0116,9.07175,-8.6876,0.2379119999999999,-2.8273,-12.0857,-12.4012,135.415,-0.358921,-0.00306702,0.454197,250.3,6.9,52.1701,4.4272,5.9,0.427752,251.267,4.476,108.505,36.1024,212.198,1.07652,-0.0848188,241.049,4.22098,3.76924,-15.2739410400391,21.9994239807129,-14.3966827392578,22.0,366500.0,0.0,pp-riro,4,0,-1,-1
1570539832.4,2019-10-08,15:03:52.400,15.0,13.0,17.8999996185303,-10.0,22.4,9.7,-14.3,-17.4,141.3,-7.3427,22.0116,9.07175,-8.6876,0.2379119999999999,-2.8273,-12.0857,-12.4012,135.415,-0.358921,-0.00306702,0.454197,251.4,6.6,52.1701,4.4272,5.9,0.459888,272.512,4.476030000000001,110.754,35.3424,211.098,1.0674,-0.0725341,240.99400000000003,4.25017,3.8095,-14.8199310302734,21.9994239807129,-13.9290895462036,22.0,366553.0,553.761,pp-riro,4,0,-1,-1
1570539832.5,2019-10-08,15:03:52.500,15.0,12.0,17.8999996185303,-11.2,21.8,9.6,-15.4,-16.7,143.2,-10.0903,21.3329,9.21607,-13.3242,-7.881889999999999,-0.0299859,-16.1198,-11.3162,140.58100000000002,-0.228888,-0.112839,0.309189,251.4,6.6,52.1701,4.4272,5.9,0.4759569999999999,280.948,4.47602,113.003,34.5824,209.898,1.05801,-0.0606119,240.879,4.27314,3.84821,-14.362518310546902,21.9994239807129,-13.5477876663208,22.0,366573.0,369.174,pp-riro,4,0,-1,-1
1570539832.6,2019-10-08,15:03:52.600,15.0,13.0,18.0,-12.2,21.4,9.5,-16.2,-15.9,145.4,-10.0903,21.3329,9.21607,-13.3242,-7.881889999999999,-0.0299859,-16.1198,-11.3162,140.58100000000002,-0.228888,-0.112839,0.309189,251.4,6.6,52.1701,4.4272,5.9,0.514188,302.86400000000003,4.476030000000001,115.135,33.0624,208.798,1.04994,-0.0432783,240.719,4.29697,3.87299,-13.9102249145508,21.9994239807129,-13.2443389892578,22.0,366710.0,1107.52,pp-riro,4,0,-1,-1
1570539832.7,2019-10-08,15:03:52.700,15.0,12.0,18.1000003814697,-13.5,20.5,9.4,-17.0,-15.1,147.5,-11.7251,20.3643,9.10264,-11.1798,-5.9251,-4.74454,-18.2585,-11.2836,143.961,-0.0351384,-0.0584033,0.4135319999999999,251.4,6.6,52.1701,4.4272,5.9,0.528595,310.60900000000004,4.47604,117.326,31.9224,207.698,1.0411700000000002,-0.0293029999999999,240.672,4.32226,3.9175,-13.5091323852539,21.9994239807129,-12.7114944458008,22.0,366742.0,615.29,pp-riro,4,0,-1,-1
1570539832.8,2019-10-08,15:03:52.800,15.0,10.0,18.3899993896484,-14.3,19.9,9.3,-17.6,-15.1,149.8,-12.4029,20.0306,9.005519999999999,-16.4614,-4.26072,-2.20934,-18.9113,-11.0625,145.079,-0.0463060999999999,0.0489819,0.458793,251.4,6.6,52.1701,4.4272,5.9,0.552974,315.825,4.47605,119.37,30.0224,206.598,1.03348,-0.0100556,240.486,4.33931,3.93721,-13.1455841064453,21.9994239807129,-12.494196891784698,22.0,366963.0,2153.51,pp-riro,4,0,-1,-1
1570539832.9,2019-10-08,15:03:52.900,15.0,10.0,18.8600006103516,-14.8,19.1,8.9,-18.0,-14.4,151.7,-13.8837,18.8472,9.03857,-7.634419999999999,-11.0737,-0.2681699999999999,-20.0996,-10.3457,148.334,-0.135968,0.0348675,0.208398,251.4,6.6,52.1701,4.4272,6.0,0.54023,310.88,4.47606,121.298,28.8824,205.498,1.02542,0.00257307,240.368,4.36205,3.96134,-12.9117584228516,21.9994239807129,35.0,22.0,367146.0,1692.05,pp-riro,4,0,-1,-1
1570539833.0,2019-10-08,15:03:53.000,15.0,8.0,19.5499992370605,-15.2,18.5,8.9,-18.3,-13.6,153.5,-14.2771,18.0707,8.56506,-6.28907,-11.0175,-5.60882,-20.6598,-10.196,150.477,0.123359,-0.101287,0.36029,251.4,6.6,52.1701,4.4272,6.0,0.536352,306.266,4.47607,123.255,27.3624,204.398,1.01747,0.0178660999999999,240.248,4.38207,3.97153,-12.553337097168,21.9994239807129,35.0,22.0,367317.0,1722.81,pp-riro,4,0,-1,-1
1570539833.1,2019-10-08,15:03:53.100,15.0,8.0,20.090000152587898,-15.3,17.8,8.9,-18.6,-12.6,155.4,-14.2771,18.0707,8.56506,-6.28907,-11.0175,-5.60882,-20.6598,-10.196,150.477,0.123359,-0.101287,0.36029,251.4,6.6,52.1701,4.4272,6.0,0.647722,301.91700000000003,4.4760800000000005,125.036,25.8424,203.398,1.01024,0.0325037,240.151,4.40608,3.97527,-12.334869384765598,21.9994239807129,35.0,22.0,366463.0,-16397.5,pp-riro,4,0,-1,-1
1570539833.2,2019-10-08,15:03:53.200,15.0,8.0,20.6499996185303,-15.1,17.2,8.2,-18.8,-11.4,157.2,-14.5425,16.5241,8.24113,3.64741,-2.69533,-6.589169999999999,-21.2683,-8.19337,155.465,-0.1449079999999999,0.18479,0.359243,251.4,6.6,52.1701,4.4272,6.0,1.16856,272.528,4.47609,126.818,24.3224,202.398,1.0029,0.0468148,240.082,4.4309,3.97985,-11.7955322265625,21.9994239807129,35.0,22.0,364193.0,-24642.4,pp-riro,4,0,-1,-1
1570539833.3,2019-10-08,15:03:53.300,15.0,8.0,20.9500007629395,-14.9,16.7,7.4,-18.8,-9.3,158.5,-14.4131,16.3026,7.7904,1.81385,-1.33413,-10.5632,-21.2638,-7.387289999999999,156.31,-0.125306,0.159164,0.319524,251.4,6.6,52.1701,4.4272,6.0,0.86049,203.432,4.47609,128.483,22.4224,201.598,0.996564,0.0635179999999999,240.109,4.45506,3.983130000000001,-10.8977661132812,21.9994239807129,35.0,22.0,366528.0,5876.02,pp-riro,4,0,-1,-1
1570539833.4,2019-10-08,15:03:53.400,15.0,7.0,20.8999996185303,-15.2,15.9,7.6,-18.7,-8.6,160.1,-14.2042,15.7964,7.1242600000000005,-3.84811,-5.88633,-5.13583,-21.3307,-5.79202,157.485,-0.0683643999999999,-0.0183702,0.224265,254.4,7.0,52.1701,4.4272,6.0,1.02505,234.99400000000003,4.4761,130.06,21.2824,200.798,0.989983,0.0740937,240.18400000000003,4.47591,3.99796,-9.98464202880859,21.9994239807129,35.0,22.0,365798.0,-4091.68,pp-riro,4,0,-1,-1
1570539833.5,2019-10-08,15:03:53.500,15.0,7.0,20.6499996185303,-15.4,15.4,7.6,-18.9,-8.5,161.9,-14.6291,15.0615,7.418989999999999,-3.56129,-4.64728,5.077319999999999,-21.3195,-5.51521,159.326,0.287942,0.0272365,0.187721,254.4,7.0,52.1701,4.4272,6.0,1.05054,255.927,4.47613,131.608,19.3823,199.998,0.983847,0.0900342,240.199,4.48952,4.00231,-8.03038024902344,21.9994239807129,35.0,22.0,366050.0,4860.79,pp-riro,4,0,-1,-1
1570539833.6,2019-10-08,15:03:53.600,15.0,10.0,20.4300003051758,-15.5,15.2,7.3,-19.2,-7.1,162.8,-14.7031,14.7428,7.42745,3.37916,-6.6654800000000005,-2.43497,-21.4032,-5.33907,160.33,0.118057,-0.0258105,0.392662,254.4,7.0,52.1701,4.4272,6.0,1.04666,266.847,4.47616,133.069,17.8623,199.198,0.977724,0.102796,240.221,4.50523,4.00505,-6.07099914550781,21.9994239807129,35.0,22.0,366185.0,-1045.99,pp-riro,4,0,-1,-1
1570539833.7,2019-10-08,15:03:53.700,15.0,11.0,20.2999992370605,-16.0,14.9,7.5,-19.2,-6.2,163.4,-14.8273,14.5655,7.04553,-1.6962099999999998,3.71921,0.336657,-21.531,-4.801,161.618,-0.0167192,0.0999798,0.279273,254.4,7.0,52.1701,4.4272,6.0,1.05774,273.113,4.47618,134.61700000000002,16.7223,198.398,0.971071,0.11262,240.33900000000003,4.51443,4.016030000000001,-3.95630645751953,21.9994239807129,35.0,22.0,366663.0,4768.5,pp-riro,4,0,-1,-1
1570539833.8,2019-10-08,15:03:53.800,15.0,10.0,20.0400009155273,-16.5,14.9,7.8,-20.2,-6.9,163.9,-15.0441,14.5275,7.049639999999999,-2.88919,-0.526804,1.63857,-21.86,-4.28321,161.908,-0.091379,0.0740028,0.0973858,254.4,7.0,52.1701,4.4272,6.0,1.0932,287.172,4.4762,136.048,14.8223,197.598,0.965065,0.127664,240.361,4.5023800000000005,4.01325,-1.85868072509766,21.9994239807129,35.0,22.0,366664.0,-246.116,pp-riro,4,0,-1,-1
1570539833.9,2019-10-08,15:03:53.900,15.0,11.0,19.8600006103516,-16.4,15.0,8.3,-21.1,-7.7,164.3,-16.1495,14.4576,7.729839999999999,0.153852,6.42402,4.87489,-23.3452,-6.24453,163.93200000000002,-0.147138,-0.389228,0.038693,254.4,7.0,52.1701,4.4272,6.2,1.11149,292.962,4.47624,137.47899999999998,13.3023,196.698,0.958595,0.1396859999999999,240.348,4.49032,3.98884,0.246955871582031,21.9994239807129,35.0,22.0,366785.0,2368.87,pp-riro,4,0,-1,-1
1570539834.0,2019-10-08,15:03:54.000,15.0,13.0,19.590000152587898,-16.2,15.2,8.8,-22.5,-8.6,164.2,-16.1495,14.4576,7.729839999999999,0.153852,6.42402,4.87489,-23.3452,-6.24453,163.93200000000002,-0.147138,-0.389228,0.038693,254.4,7.0,52.1701,4.4272,6.2,1.10706,293.11,4.47625,138.998,11.4023,195.698,0.951628,0.15429,240.308,4.468,3.95729,2.3452301025390603,21.9994239807129,35.0,22.0,367116.0,3199.51,pp-riro,4,0,-1,-1
1570539834.1,2019-10-08,15:03:54.100,15.0,11.0,19.5,-15.9,15.5,9.7,-23.8,-9.6,163.5,-16.1527,14.579,7.89625,3.13158,3.09526,6.85393,-23.7952,-6.76974,164.25599999999997,-0.222083,-0.20942,0.12936,254.4,7.0,52.1701,4.4272,6.2,1.08656,275.694,4.47627,140.517,9.88229,194.697,0.944472,0.165903,240.312,4.438619999999999,3.91646,4.44349670410156,21.9994239807129,35.0,22.0,367710.0,5045.38,pp-riro,4,0,-1,-1
1570539834.2,2019-10-08,15:03:54.200,15.0,10.0,19.3999996185303,-15.4,15.9,10.3,-25.3,-11.2,162.3,-16.1527,14.579,7.89625,3.13158,3.09526,6.85393,-23.7952,-6.76974,164.25599999999997,-0.222083,-0.20942,0.12936,254.4,7.0,52.1701,4.4272,6.2,1.06882,269.311,4.4763,142.006,7.98227,193.697,0.937425,0.179941,240.30900000000003,4.39433,3.87113,6.55879974365234,21.9994239807129,35.0,22.0,367930.0,3937.85,pp-riro,4,0,-1,-1
1570539834.3,2019-10-08,15:03:54.300,15.0,10.0,19.3999996185303,-14.6,16.1,11.0,-26.4,-13.2,160.9,-16.1538,14.7179,8.153260000000001,2.01165,5.91613,6.86631,-24.453000000000003,-7.486169999999999,164.457,-0.3134909999999999,-0.135478,0.0473779,254.4,7.0,52.1701,4.4272,6.2,1.04722,253.419,4.476319999999999,143.554,6.842280000000001,192.597,0.929728,0.188442,240.30900000000003,4.34781,3.82344,8.67070007324219,21.9994239807129,35.0,22.0,368359.0,3322.56,pp-riro,4,0,-1,-1
1570539834.4,2019-10-08,15:03:54.400,15.0,9.0,19.5400009155273,-13.5,16.5,11.6,-27.8,-15.3,158.8,-15.6785,15.7134,9.95772,6.85084,8.70509,9.00578,-28.0696,-11.4012,162.795,-0.423417,-0.347215,-0.230515,255.4,7.5,52.1701,4.4272,6.2,1.03669,248.852,4.476369999999999,145.131,4.94227,191.397,0.921742,0.201983,240.251,4.28676,3.75927,10.7791900634766,21.9994239807129,35.0,22.0,368541.0,3507.15,pp-riro,4,0,-1,-1
1570539834.5,2019-10-08,15:03:54.500,15.0,8.0,19.4500007629395,-12.5,17.0,12.3,-28.3,-17.4,156.1,-14.1689,16.7413,11.432,3.62013,5.13632,3.94699,-30.037,-16.3397,159.619,-0.318977,-0.1604,-0.719603,255.4,7.5,52.1701,4.4272,6.2,1.0184,242.466,4.47641,146.65,3.80228,190.297,0.914055,0.210053,240.279,4.22219,3.69989,12.8808670043945,21.9994239807129,35.0,22.0,368815.0,2276.57,pp-riro,4,0,-1,-1
1570539834.6,2019-10-08,15:03:54.600,15.0,9.0,19.3999996185303,-11.4,17.5,13.0,-28.5,-20.3,152.4,-13.2955,17.3455,12.3369,2.92928,1.10788,11.4083,-30.7002,-18.949,156.841,-0.389575,-0.167824,-0.775536,255.4,7.5,52.1701,4.4272,6.2,1.01951,239.753,4.47649,148.344,2.66229,188.997,0.905252,0.217954,240.277,4.13686,3.63788,14.9927597045898,21.9994239807129,35.0,22.0,369037.0,2368.87,pp-riro,4,0,-1,-1
1570539834.7,2019-10-08,15:03:54.700,15.0,10.0,19.2600002288818,-10.3,18.0,13.7,-28.1,-23.3,147.5,-13.2955,17.3455,12.3369,2.92928,1.10788,11.4083,-30.7002,-18.949,156.841,-0.389575,-0.167824,-0.775536,255.4,7.5,52.1701,4.4272,6.2,1.02173,249.647,4.47651,150.03799999999998,1.90232,187.797,0.8966639999999999,0.2232,240.381,4.03758,3.5790300000000004,17.1046524047852,21.9994239807129,35.0,22.0,369332.0,953.699,pp-riro,4,0,-1,-1
1570539834.8,2019-10-08,15:03:54.800,15.0,10.0,19.0799999237061,-9.0,18.7,14.6,-26.9,-26.9,142.4,-11.1328,18.7519,14.1702,19.8112,6.40488,10.664,-31.2278,-26.7606,149.933,-0.122897,-0.251994,-0.834455,255.4,7.5,52.1701,4.4272,6.2,1.03613,255.063,4.47656,151.791,0.382332,186.397,0.8873709999999999,0.233311,240.384,3.92819,3.5062300000000004,19.2216644287109,21.9994239807129,35.0,22.0,369374.0,799.877,pp-riro,4,0,-1,-1
1570539834.9,2019-10-08,15:03:54.900,15.0,11.0,19.0799999237061,-7.4,19.3,15.6,-24.7,-30.3,135.7,-9.12291,20.0788,15.9503,24.7362,9.1834,15.357,-29.6946,-33.3555,142.566,-0.190604,-0.371356,-0.997258,255.4,7.5,52.1701,4.4272,6.2,1.05885,268.13,4.47661,153.66,-0.377632,184.997,0.877667,0.238238,240.49,3.80581,3.4295,21.3250427246094,21.9994239807129,35.0,22.0,369551.0,2030.46,pp-riro,4,0,-1,-1
1570539835.0,2019-10-08,15:03:55.000,15.0,13.0,19.2999992370605,-5.7,20.0,16.5,-21.4,-34.2,128.6,-8.28565,20.5445,16.5019,16.6965,11.791,7.867089999999999,-28.6155,-35.7537,139.638,0.0584432,-0.303608,-1.14088,255.4,7.5,52.1701,4.4272,6.2,1.09875,294.705,4.47666,155.588,-0.757583,183.497,0.8675149999999999,0.240602,240.581,3.68011,3.35426,23.438644409179695,21.9994239807129,35.0,22.0,369719.0,522.996,pp-riro,4,0,-1,-1
1570539835.1,2019-10-08,15:03:55.100,15.0,14.0,19.4400005340576,-3.6,20.5,17.4,-17.1,-37.1,120.0,-7.403639999999999,20.9686,17.0523,18.6216,10.3423,10.7114,-27.4196,-37.9258,136.13,-0.382225,-0.222773,-1.04576,255.4,7.5,52.1701,4.4272,6.2,1.11925,302.266,4.47671,157.515,-1.51754,181.897,0.857087,0.2453179999999999,240.624,3.5445300000000004,3.26735,25.5488433837891,21.9994239807129,35.0,22.0,369784.0,1230.58,pp-riro,4,0,-1,-1
1570539835.2,2019-10-08,15:03:55.200,15.0,14.0,19.479999542236303,-1.1,20.8,18.2,-11.5,-40.5,110.3,-5.38518,21.8574,18.266,19.8343,5.67887,13.1715,-23.8985,-42.2761,128.291,-0.293487,-0.2969239999999999,-1.33511,255.4,7.5,52.1701,4.4272,6.2,1.13753,318.524,4.47675,159.589,-1.51748,180.197,0.845951,0.245144,240.711,3.40155,3.17422,27.6368942260742,21.9994239807129,35.0,22.0,370196.0,2553.45,pp-riro,4,0,-1,-1
1570539835.3,2019-10-08,15:03:55.300,15.0,13.0,19.4400005340576,0.0,20.8,18.4,-8.4,-41.6,105.3,-2.69745,22.3481,19.3331,25.7383,1.88881,12.2619,-18.7931,-46.6898,118.689,-0.00464503,-0.4781569999999999,-1.53728,255.4,7.5,52.1701,4.4272,6.2,1.15083,324.553,4.4768,161.63299999999998,-1.51741,179.39700000000002,0.837417,0.2449989999999999,241.477,3.33332,3.13456,29.7147216796875,21.9994239807129,35.0,22.0,370256.0,1107.52,pp-riro,4,0,-1,-1
1570539835.4,2019-10-08,15:03:55.400,15.0,13.0,19.5300006866455,2.8,20.6,18.7,3.0,-43.5,87.8,1.79512,22.7131,20.0525,31.2628,1.55618,4.35151,-7.31352,-51.8928,100.9,-0.475046,-0.274008,-1.59913,250.7,7.3,52.1701,4.4272,6.2,1.18075,333.408,4.4768300000000005,163.649,-1.51734,176.697,0.8236959999999999,0.244834,240.842,3.10702,3.03442,31.4638519287109,21.9994239807129,23.0,22.0,370528.0,4122.44,pp-riro,4,0,-1,-1
1570539835.5,2019-10-08,15:03:55.500,15.0,14.0,19.7000007629395,7.3,19.6,18.5,10.3,-43.2,76.2,1.79512,22.7131,20.0525,31.2628,1.55618,4.35151,-7.31352,-51.8928,100.9,-0.475046,-0.274008,-1.59913,250.7,7.3,52.1701,4.4272,6.2,1.17632,336.397,4.47684,165.576,-1.13727,174.997,0.81304,0.242421,240.916,2.96187,2.8721,32.8672485351562,21.9994239807129,23.0,22.0,370872.0,2707.28,pp-ro,1,1,-1,-1
1570539835.6,2019-10-08,15:03:55.600,15.0,14.0,19.9200000762939,8.6,19.0,18.4,14.0,-42.5,70.4,8.681280000000001,21.4637,19.9942,35.4677,-14.4212,-0.0239655,11.5999,-53.5748,72.4192,-0.27151,-0.0867736,-1.15198,250.7,7.3,52.1701,4.4272,6.2,1.18297,332.805,4.47685,166.482,-0.757228,174.197,0.8080350000000001,0.24009,240.959,2.88841,2.82395,33.9112548828125,21.9994239807129,23.0,22.0,371441.0,5014.61,pp-ro,1,1,-1,-1
1570539835.7,2019-10-08,15:03:55.700,15.0,14.0,19.8299999237061,11.3,17.8,17.5,20.9,-40.7,59.0,10.2996,20.9878,19.6224,35.0299,0.185637,-8.74496,16.0524,-53.4591,65.3854,0.0624860999999999,-0.168656,-1.54394,250.7,7.3,52.1701,4.4272,6.2,1.17188,329.309,4.47686,168.322,0.00285421,172.597,0.797937,0.235515,241.085,2.74043,2.71651,34.6061401367188,21.9994239807129,23.0,22.0,371684.0,4583.91,pp-ro,1,1,-1,-1
1570539835.8,2019-10-08,15:03:55.800,15.0,13.0,19.4699993133545,14.9,15.3,16.1,29.5,-35.4,42.9,10.2996,20.9878,19.6224,35.0299,0.185637,-8.74496,16.0524,-53.4591,65.3854,0.0624860999999999,-0.168656,-1.54394,250.7,7.3,52.1701,4.4272,6.2,1.1669,327.827,4.47687,170.833,2.283,170.39700000000002,0.7840729999999999,0.222158,241.297,2.51093,2.55986,34.936553955078104,21.9994239807129,22.6540927886963,22.0,372014.0,3014.92,pp-ro,1,1,-1,-1
1570539835.9,2019-10-08,15:03:55.900,15.0,14.0,19.1000003814697,16.0,14.5,15.6,31.4,-33.6,38.4,16.3745,17.9697,17.6794,30.0339,-21.5566,-6.07674,30.8312,-47.3754,39.2562,-0.372354,-0.307235,-1.3326,250.7,7.3,52.1701,4.42721,6.2,1.17299,330.88,4.47688,171.53400000000002,2.66303,169.697,0.7799520000000001,0.219987,241.305,2.44095,2.50779,34.9655151367188,21.9994239807129,21.7650184631348,22.0,372361.0,3568.68,pp-ro,1,1,-1,-1
1570539836.0,2019-10-08,15:03:56.000,15.0,12.0,18.8199996948242,17.7,12.6,14.1,35.1,-29.5,29.3,17.6955,17.0104,17.1837,30.368,-23.2052,-13.8977,32.8314,-45.2697,33.8994,-0.886534,-0.0699791999999999,-1.25418,250.7,7.3,52.1701,4.42721,6.2,1.16634,316.559,4.47689,173.55,4.94316,168.396,0.770127,0.2070239999999999,241.87,2.29843,2.40829,34.652130126953104,21.9994239807129,20.0732250213623,22.0,372919.0,4676.2,pp-ro,1,1,-1,-1
1570539836.1,2019-10-08,15:03:56.100,15.0,13.0,18.8700008392334,19.0,10.8,12.4,39.1,-22.1,18.1,17.6955,17.0104,17.1837,30.368,-23.2052,-13.8977,32.8314,-45.2697,33.8994,-0.886534,-0.0699791999999999,-1.25418,250.7,7.3,52.1701,4.42721,6.2,1.14972,308.80400000000003,4.4769,174.68900000000002,6.84325,166.59599999999998,0.761309,0.1963349999999999,241.49,2.08834,2.3103700000000003,33.950439453125,21.9994239807129,18.4047985076904,22.0,373258.0,6029.84,pp-ro,1,1,-1,-1
1570539836.2,2019-10-08,15:03:56.200,15.0,13.0,18.8700008392334,19.9,9.2,10.9,40.9,-17.3,11.1,17.6955,17.0104,17.1837,30.368,-23.2052,-13.8977,32.8314,-45.2697,33.8994,-0.886534,-0.0699791999999999,-1.25418,250.7,7.3,52.1701,4.42721,6.2,1.11371,299.003,4.47691,175.71099999999998,9.12334,165.696,0.755402,0.183603,241.687,1.95613,2.22718,32.891082763671896,21.9994239807129,16.900438308715803,22.0,373622.0,2522.69,pp-ro,1,1,-1,-1
1570539836.3,2019-10-08,15:03:56.300,15.0,12.0,18.909999847412102,20.9,6.8,8.4,41.9,-12.1,4.7,17.6955,17.0104,17.1837,30.368,-23.2052,-13.8977,32.8314,-45.2697,33.8994,-0.886534,-0.0699791999999999,-1.25418,250.7,7.3,52.1701,4.42721,6.2,1.12091,295.165,4.47692,176.616,10.6434,164.896,0.7501899999999999,0.175278,241.862,1.82147,2.08782,31.480880737304695,21.9994239807129,14.2841863632202,22.0,373912.0,3537.92,pp-ro,1,1,-1,-1
1570539836.4,2019-10-08,15:03:56.400,15.0,13.0,19.0,21.3,6.1,7.6,42.1,-9.9,1.8,22.7225,10.9359,11.7604,0.597781,-14.4496,-18.0936,41.3865,-28.8369,8.42614,-0.735977,0.0160354999999999,-1.38637,250.1,7.6,52.1701,4.42721,6.2,1.08489,274.262,4.47692,176.96599999999998,11.7835,164.59599999999998,0.748095,0.168977,241.967,1.7637200000000002,2.04398,29.7062072753906,21.9994239807129,13.4578113555908,22.0,374506.0,3722.5,pp-ro,1,1,-1,-1
1570539836.5,2019-10-08,15:03:56.500,15.0,14.0,19.090000152587898,21.8,4.7,5.6,42.8,-5.3,-3.0,24.5366,5.22352,5.74132,1.62591,-24.8668,-15.7833,42.1807,-12.4821,-8.638069999999999,0.104346,0.0525131999999999,-0.93241,250.1,7.6,52.1701,4.42721,6.2,1.07215,269.058,4.47693,177.667,14.0635,164.09599999999998,0.744154,0.156469,242.262,1.6569,1.94783,27.6351852416992,21.9994239807129,11.6313285827637,22.0,374720.0,4153.21,pp-ro,1,1,-1,-1
1570539836.6,2019-10-08,15:03:56.600,15.0,14.0,19.2800006866455,22.3,3.2,4.0,42.6,-1.8,-7.1,24.813,4.32334,4.89423,5.0253,-24.9338,-13.8765,41.7848,-9.98454,-10.7624,-0.1905329999999999,0.180873,-0.999676,250.1,7.6,52.1701,4.42721,6.2,1.06218,274.85,4.47693,178.19299999999998,15.9636,163.796,0.7413350000000001,0.14611,242.563,1.57064,1.85674,25.5369110107422,21.9994239807129,9.87558555603027,22.0,375015.0,2030.46,pp-ro,1,1,-1,-1
1570539836.7,2019-10-08,15:03:56.700,15.0,13.0,19.6399993896484,22.4,1.9,2.4,43.2,1.3,-10.5,24.7936,3.29839,4.033119999999999,2.89371,-20.4932,-25.7712,41.4259,-8.07146,-12.9228,-0.092092,-0.0413994,-0.8210850000000001,250.1,7.6,52.1701,4.42721,6.2,1.09431,288.801,4.47693,178.543,18.2437,163.496,0.738848,0.133628,242.779,1.49913,1.77525,23.4318313598633,21.9994239807129,8.28909587860107,22.0,375067.0,522.996,pp-ro,1,1,-1,-1
1570539836.8,2019-10-08,15:03:56.800,15.0,12.0,20.1299991607666,21.8,1.2,1.1,43.9,4.6,-13.8,24.7009,1.98981,2.40751,-1.19219,-8.97613,-10.7892,42.0644,-4.1490800000000005,-16.3234,-0.138784,0.2893409999999999,-0.8233459999999999,250.1,7.6,52.1701,4.42721,6.2,1.0932,276.603,4.47694,178.835,20.9037,163.39600000000002,0.736938,0.119092,243.141,1.42764,1.72375,20.7953720092773,21.9994239807129,7.26946306228638,22.0,375622.0,5291.49,pp-ro,1,1,-1,-1
1570539836.9,2019-10-08,15:03:56.900,15.0,10.0,20.4699993133545,21.5,0.8,0.0,44.9,8.3,-16.8,24.2004,0.993007,1.06657,-3.3260300000000003,-9.10894,-15.6293,41.8651,0.174567,-19.2559,-0.194443,0.438249,-0.8215120000000001,250.1,7.6,52.1701,4.42721,6.2,1.0699299999999998,269.156,4.47694,179.06900000000002,22.8038,163.296,0.7353569999999999,0.1087839999999999,243.416,1.35188,1.6812599999999998,18.686882019043,21.9994239807129,6.44286298751831,22.0,375872.0,4706.97,pp-ro,1,1,-1,-1
1570539837.0,2019-10-08,15:03:57.000,15.0,8.0,20.3899993896484,21.1,0.2,-0.8,45.9,11.2,-20.0,24.2004,0.993007,1.06657,-3.3260300000000003,-9.10894,-15.6293,41.8651,0.174567,-19.2559,-0.194443,0.438249,-0.8215120000000001,250.1,7.6,52.1701,4.42721,6.2,1.05331,262.48,4.47694,179.24400000000003,25.0839,163.296,0.7340479999999999,0.0964068999999999,243.769,1.28567,1.64244,16.5681686401367,21.9994239807129,5.66919708251953,22.0,376116.0,1938.16,pp-ro,1,1,-1,-1
1570539837.1,2019-10-08,15:03:57.100,15.0,8.0,20.1700000762939,20.7,-0.5,-1.5,46.4,14.5,-23.5,23.4496,-0.0687046,-0.527079,-4.07002,-11.1171,-11.4359,42.9025,6.653460000000001,-23.9799,0.238456,0.259073,-0.844726,250.1,7.6,52.1701,4.42721,6.2,1.08545,291.059,4.47695,179.332,27.3639,163.296,0.732905,0.0840226999999999,244.078,1.21124,1.60212,14.4664916992188,21.9994239807129,4.86170244216919,22.0,376343.0,215.351,pp-ro,1,1,-1,-1
1570539837.2,2019-10-08,15:03:57.200,15.0,9.0,19.8999996185303,20.5,-1.5,-2.4,47.2,17.3,-26.4,22.7926,-0.989767,-1.38566,-8.63128,-9.52157,-5.31608,43.315,10.4599,-27.1499,0.29457,0.226802,-0.789801,250.1,7.6,52.1701,4.42721,6.2,1.13421,311.61,4.47697,179.273,29.264,163.39600000000002,0.732556,0.0736106,244.323,1.14925,1.5431700000000002,13.407135009765598,21.9994239807129,3.6522405147552495,22.0,376405.0,1230.58,pp-ro,1,1,-1,-1
1570539837.3,2019-10-08,15:03:57.300,15.0,12.0,19.6800003051758,20.2,-2.5,-3.5,48.2,19.5,-28.3,22.7926,-0.989767,-1.38566,-8.63128,-9.52157,-5.31608,43.315,10.4599,-27.1499,0.29457,0.226802,-0.789801,250.1,7.6,52.1701,4.42721,6.2,1.1513799999999998,320.745,4.47695,179.127,31.544,163.496,0.732211,0.0611259,244.566,1.10822,1.47726,11.2952423095703,21.9994239807129,2.2957923412323,22.0,376537.0,2522.69,pp-ro,1,1,-1,-1
1570539837.4,2019-10-08,15:03:57.400,15.0,12.0,19.6800003051758,20.2,-3.7,-4.2,49.2,21.0,-29.9,21.791,-2.96794,-3.38562,-6.75598,-9.72373,-17.1804,44.5049,17.0495,-31.6313,-0.0312844,0.0506315,-0.556963,248.0,7.0,52.1701,4.42721,6.2,1.17909,347.47,4.47694,178.835,33.4441,163.696,0.732676,0.0505759,244.738,1.07823,1.42234,9.21400451660156,21.9994239807129,1.12365567684174,22.0,376769.0,2215.04,pp-ro,1,1,-1,-1
1570539837.5,2019-10-08,15:03:57.500,15.0,12.0,19.6399993896484,20.3,-5.0,-4.9,49.8,21.5,-32.1,21.5552,-4.005809999999999,-4.2159,5.64741,-12.8691,-4.59645,45.5576,19.2617,-33.0953,0.104215,-0.0185222,-0.4695539999999999,248.0,7.0,52.1701,4.42721,6.2,1.28769,398.003,4.47692,178.455,35.7241,163.99599999999998,0.733422,0.037897,244.984,1.05499,1.36984,7.24005889892578,21.9994239807129,-0.026317331939936,22.0,376808.0,1445.93,pp-ro,1,1,-1,-1
1570539837.6,2019-10-08,15:03:57.600,15.0,13.0,19.4599990844727,20.3,-5.9,-5.3,50.2,21.7,-34.2,21.6741,-5.41295,-4.9459,3.5411900000000003,-11.1555,-6.39737,46.4033,20.5142,-34.5139,0.161343,-0.0545304999999999,-0.255702,248.0,7.0,52.1701,4.42721,6.2,1.3093,416.26,4.4769,177.929,37.6241,164.296,0.734691,0.0270949999999999,245.087,1.0352,1.3385,4.96636199951172,21.9994239807129,-0.7779154181480409,22.0,377224.0,3722.5,pp-ro,1,1,-1,-1
1570539837.7,2019-10-08,15:03:57.700,15.0,10.0,19.4599990844727,20.1,-6.6,-5.5,50.9,22.1,-36.0,21.333,-6.685110000000001,-5.53878,-4.70553,-5.33082,3.13241,47.2078,21.7362,-37.4519,0.194016,0.010031,-0.315738,248.0,7.0,52.1701,4.42721,6.2,1.33922,420.773,4.47688,177.31599999999997,39.9042,164.59599999999998,0.735909,0.014153,245.204,1.0179200000000002,1.31815,3.31090545654297,22.0019989013672,-1.31930863857269,22.0,377586.0,4153.21,pp-ro,1,1,-1,-1
1570539837.8,2019-10-08,15:03:57.800,15.0,12.0,19.6800003051758,20.0,-7.4,-5.6,51.3,21.9,-37.9,21.333,-6.685110000000001,-5.53878,-4.70553,-5.33082,3.13241,47.2078,21.7362,-37.4519,0.194016,0.010031,-0.315738,248.0,7.0,52.1701,4.42721,6.2,1.33534,419.391,4.47686,176.615,42.1842,164.896,0.737274,0.00107442,245.282,1.00656,1.30074,1.42893981933594,22.0019989013672,-1.81546151638031,22.0,377951.0,7075.83,pp-ro,1,1,-1,-1
1570539837.9,2019-10-08,15:03:57.900,15.0,10.0,19.9500007629395,19.7,-7.8,-5.7,51.3,22.3,-39.2,21.209,-7.01651,-5.62863,-2.66318,-7.235060000000001,-2.66731,47.4408,22.3232,-38.1941,-0.118671,-0.0831354,-0.478735,248.0,7.0,52.1701,4.42721,6.3,1.31262,409.805,4.47681,175.885,44.0842,165.296,0.739187,-0.0100084,245.36,0.993877,1.28892,0.7766342163085941,22.0019989013672,-2.2322664260864302,22.0,378496.0,4676.2,pp-ro,1,1,-1,-1
1570539838.0,2019-10-08,15:03:58.000,15.0,11.0,20.4699993133545,19.3,-8.0,-5.7,51.3,21.6,-40.2,20.3054,-8.17019,-5.8236,-8.23804,1.39897,1.93954,48.106,23.1578,-41.1361,0.00451445,0.0490933,0.0264154,248.0,7.0,52.1701,4.42721,6.3,1.29544,389.797,4.47682,175.067,46.3643,165.696,0.741003,-0.023324,245.465,0.999128,1.28472,-0.3857345581054689,22.0009689331055,-2.50809264183044,22.0,379140.0,7629.59,pp-ro,1,1,-1,-1
1570539838.1,2019-10-08,15:03:58.100,15.0,10.0,20.979999542236303,19.0,-8.1,-5.9,51.4,21.4,-39.9,20.3054,-8.17019,-5.8236,-8.23804,1.39897,1.93954,48.106,23.1578,-41.1361,0.00451445,0.0490933,0.0264154,248.0,7.0,52.1701,4.42721,6.3,1.23062,361.342,4.4768,174.24900000000002,48.2643,166.09599999999998,0.7430100000000001,-0.0346209,245.52,1.01285,1.2769700000000002,-1.321044921875,22.0009689331055,-2.86638689041138,22.0,380063.0,4676.2,pp-ro,1,1,-1,-1
1570539838.2,2019-10-08,15:03:58.200,15.0,10.0,21.5200004577637,18.9,-8.3,-5.5,51.5,20.9,-39.9,19.7886,-8.261280000000001,-5.91452,-4.34161,-2.37002,4.11987,48.3033,23.2785,-40.7488,0.0822128999999999,0.227971,0.108083,248.0,7.0,52.1701,4.42721,6.3,1.2261799999999998,356.349,4.476780000000001,173.43099999999998,50.1643,166.49599999999998,0.744951,-0.0459520999999999,245.593,1.0265,1.2906,-2.0191192626953103,22.0009689331055,-2.80133390426636,22.0,380338.0,4922.32,pp-ro,1,1,-1,-1
1570539838.3,2019-10-08,15:03:58.300,15.0,9.0,21.7299995422363,19.0,-8.3,-5.4,51.2,19.7,-40.1,19.7465,-8.3805,-5.6788,1.6866599999999998,-1.72902,1.26334,48.2146,22.53,-40.7945,0.0653399,-0.0275787,0.104342,248.0,7.0,52.1701,4.42721,6.3,1.20956,358.496,4.47677,172.584,52.0643,166.896,0.746904,-0.0573754,245.663,1.04607,1.3037299999999998,-2.64550018310547,22.0009689331055,-2.75737166404724,22.0,380783.0,4030.15,pp-ro,1,1,-1,-1
1570539838.4,2019-10-08,15:03:58.400,15.0,11.0,21.8899993896484,19.4,-8.3,-5.2,51.7,19.5,-39.5,19.6951,-8.4348,-5.50541,1.0913,-1.1775,1.76083,48.1846,22.1112,-40.6621,-0.0781602,-0.0322490999999999,0.0758528,248.2,6.9,52.1701,4.42721,6.3,1.24447,370.822,4.476780000000001,171.737,53.9644,167.296,0.748791,-0.068852,245.751,1.06359,1.3262,-2.82471466064453,22.0009689331055,-2.53194403648376,22.0,381221.0,4368.56,pp-ro,1,1,-1,-1
1570539838.5,2019-10-08,15:03:58.500,15.0,11.0,21.8899993896484,19.8,-8.5,-4.7,51.9,18.9,-39.3,20.4072,-8.68639,-4.76494,4.81712,1.12309,7.324260000000001,48.5692,20.8302,-39.9885,-0.021851,-0.140279,0.1827609999999999,248.2,6.9,52.1701,4.42721,6.3,1.24225,374.332,4.47681,170.89,55.8644,167.696,0.75061,-0.0803714,245.858,1.08105,1.35292,-2.7359619140625,22.0009689331055,-2.22761392593384,22.0,381466.0,4553.14,pp-ro,1,1,-1,-1
1570539838.6,2019-10-08,15:03:58.600,15.0,11.0,21.8899993896484,20.2,-8.6,-4.5,52.2,18.1,-39.5,20.4072,-8.68639,-4.76494,4.81712,1.12309,7.324260000000001,48.5692,20.8302,-39.9885,-0.021851,-0.140279,0.1827609999999999,248.2,6.9,52.1701,4.42721,6.3,1.26386,387.867,4.4768300000000005,170.014,58.1444,167.99599999999998,0.751801,-0.0939731999999999,245.984,1.09755,1.37336,-2.4150848388671897,22.0009689331055,-2.02018570899963,22.0,381750.0,2676.51,pp-ro,1,1,-1,-1
1570539838.7,2019-10-08,15:03:58.700,15.0,11.0,21.8899993896484,20.6,-8.7,-4.2,52.5,17.4,-39.5,20.6163,-8.835410000000001,-4.52923,3.5015300000000003,1.05803,1.23139,48.4705,20.1688,-40.2401,0.161886,-0.160885,0.216375,248.2,6.9,52.1701,4.42721,6.3,1.2921200000000002,403.942,4.47686,169.079,60.0444,168.296,0.753406,-0.1057039999999999,246.001,1.114,1.39541,-2.27513122558594,22.0009689331055,-1.81539881229401,22.0,382062.0,3076.45,pp-ro,1,1,-1,-1
1570539838.8,2019-10-08,15:03:58.800,15.0,11.0,22.010000228881804,21.1,-8.9,-3.6,53.1,16.6,-40.0,20.79,-8.85065,-4.36613,1.96046,-0.477088,3.36594,48.4564,19.5883,-40.5341,0.0462309,-0.130039,0.126797,248.2,6.9,52.1701,4.42721,6.3,1.31872,416.291,4.47688,168.144,61.9445,168.59599999999998,0.754942,-0.117466,246.037,1.12563,1.42554,-2.0395965576171897,22.0009689331055,-1.45659077167511,22.0,382459.0,4153.21,pp-ro,1,1,-1,-1
1570539838.9,2019-10-08,15:03:58.900,15.0,10.0,22.1299991607666,21.1,-8.7,-3.0,53.2,16.0,-41.0,21.8792,-9.50228,-3.21902,-0.451364,-3.42985,10.6689,49.3853,16.2293,-42.2548,0.383738,-0.251529,0.211509,248.2,6.9,52.1701,4.42721,6.2,1.34143,433.4980000000001,4.47691,167.239,64.2245,168.796,0.7556579999999999,-0.131182,246.142,1.13015,1.45882,-1.81430053710938,22.0025119781494,-0.9830679893493648,22.0,383117.0,4214.73,pp-ro,1,1,-1,-1
1570539839.0,2019-10-08,15:03:59.000,15.0,10.0,22.25,21.1,-8.8,-2.6,52.9,15.4,-41.9,21.8792,-9.50228,-3.21902,-0.451364,-3.42985,10.6689,49.3853,16.2293,-42.2548,0.383738,-0.251529,0.211509,248.2,6.9,52.1701,4.42721,6.2,1.35639,437.405,4.47693,166.304,66.1245,168.896,0.7564529999999999,-0.14299,246.08,1.1345299999999998,1.4769,-1.5412216186523402,22.0019989013672,-0.814801514148712,22.0,383295.0,3537.92,pp-ro,1,1,-1,-1
1570539839.1,2019-10-08,15:03:59.100,15.0,9.0,22.25,20.7,-8.9,-2.3,53.2,14.4,-42.1,21.8792,-9.50228,-3.21902,-0.451364,-3.42985,10.6689,49.3853,16.2293,-42.2548,0.383738,-0.251529,0.211509,248.2,6.9,52.1701,4.42721,6.2,1.35916,429.827,4.47696,165.34,68.4045,168.99599999999998,0.756849,-0.156846,246.122,1.15378,1.48731,-1.17767333984375,22.0025119781494,-0.7862588167190551,22.0,383940.0,7383.48,pp-ro,1,1,-1,-1
1570539839.2,2019-10-08,15:03:59.200,15.0,9.0,22.3700008392334,20.5,-8.8,-2.2,53.1,13.6,-41.5,21.8306,-9.334,-2.63088,0.9001620000000001,-1.47946,7.0400100000000005,49.6045,14.9357,-43.8911,0.0268428,-0.336818,-0.0165869,248.2,6.9,52.1701,4.42721,6.2,1.32315,412.535,4.47698,164.40599999999998,70.3046,169.09599999999998,0.7574930000000001,-0.168688,246.1,1.17909,1.49832,-0.8533859252929691,22.0019989013672,-0.764904618263245,22.0,384614.0,6183.66,pp-ro,1,1,-1,-1
1570539839.3,2019-10-08,15:03:59.300,15.0,10.0,22.2900009155273,20.4,-8.8,-1.7,53.1,12.0,-41.2,21.8306,-9.334,-2.63088,0.9001620000000001,-1.47946,7.0400100000000005,49.6045,14.9357,-43.8911,0.0268428,-0.336818,-0.0165869,248.2,6.9,52.1701,4.42721,6.2,1.28436,401.735,4.47701,163.471,72.5846,169.09599999999998,0.757342,-0.182489,246.14,1.21189,1.52252,-0.7817001342773441,22.0025119781494,-0.4128003418445589,22.0,385574.0,5722.19,pp-ro,1,1,-1,-1
1570539839.4,2019-10-08,15:03:59.400,15.0,11.0,22.25,20.5,-8.7,-1.2,53.3,11.5,-40.2,21.0755,-9.21928,-2.0588,-2.69679,3.0471,-2.48198,50.47,12.0725,-44.1574,0.2123179999999999,-0.0709511,0.368888,252.0,6.5,52.1701,4.42721,6.2,1.29434,407.232,4.4771,162.536,74.8646,169.09599999999998,0.757096,-0.196272,246.203,1.23992,1.55242,-0.7578048706054691,22.003026962280305,-35.0,22.0,385703.0,2430.39,pp-ro,1,1,-1,-1
1570539839.5,2019-10-08,15:03:59.500,15.0,11.0,22.1800003051758,20.5,-8.8,-0.7,53.2,10.6,-40.1,20.9568,-9.19748,-0.797912,-2.82986,5.82286,6.24797,51.3045,10.6647,-42.6266,0.3084159999999999,-0.0536871,0.296538,252.0,6.5,52.1701,4.42721,6.2,1.32315,413.05,4.47711,161.631,76.7646,169.09599999999998,0.757138,-0.2081219999999999,246.192,1.26042,1.5740299999999998,-0.546165466308594,22.003026962280305,-35.0,22.0,386098.0,5076.14,pp-ro,1,1,-1,-1
1570539839.6,2019-10-08,15:03:59.600,15.0,12.0,22.0599994659424,20.6,-8.8,-0.3,52.8,9.4,-40.5,20.9568,-9.19748,-0.797912,-2.82986,5.82286,6.24797,51.3045,10.6647,-42.6266,0.3084159999999999,-0.0536871,0.296538,252.0,6.5,52.1701,4.42721,6.2,1.30265,399.771,4.47721,160.667,79.0447,169.09599999999998,0.756791,-0.2220349999999999,246.283,1.28001,1.5978,-0.419868469238281,22.0035419464111,-35.0,22.0,386719.0,6245.19,pp-ro,1,1,-1,-1
1570539839.7,2019-10-08,15:03:59.700,15.0,13.0,21.899999618530305,20.7,-8.7,0.0,53.5,8.9,-40.2,20.9568,-9.19748,-0.797912,-2.82986,5.82286,6.24797,51.3045,10.6647,-42.6266,0.3084159999999999,-0.0536871,0.296538,252.0,6.5,52.1701,4.42721,6.2,1.27993,392.164,4.4772300000000005,159.761,80.5647,168.99599999999998,0.756866,-0.23192,246.118,1.29674,1.61835,-0.636627197265625,22.003026962280305,-35.0,22.0,387345.0,6306.72,pp-ro,1,1,-1,-1
1570539839.8,2019-10-08,15:03:59.800,15.0,13.0,21.690000534057603,20.9,-8.9,0.4,53.6,8.5,-40.4,20.9568,-9.19748,-0.797912,-2.82986,5.82286,6.24797,51.3045,10.6647,-42.6266,0.3084159999999999,-0.0536871,0.296538,252.0,6.5,52.1701,4.42721,6.2,1.27882,396.017,4.47729,158.885,82.8447,168.896,0.755844,-0.24553,246.239,1.30879,1.6372,-1.21863555908203,22.003026962280305,-35.0,22.0,387712.0,2768.8,pp-ro,1,1,-1,-1
1570539839.9,2019-10-08,15:03:59.900,15.0,13.0,21.2399997711182,20.6,-9.0,1.1,53.5,7.0,-41.2,21.2705,-9.22278,-0.184199,0.276138,3.52702,2.51853,51.7484,8.8787,-42.1087,-0.0422332,0.0519313,-0.0662641,252.0,6.5,52.1701,4.427219999999999,6.1,1.2982200000000002,398.398,4.47735,157.921,84.7447,168.796,0.755447,-0.257475,246.197,1.3260299999999998,1.66167,-2.14712524414062,22.0025119781494,-35.0,22.0,388142.0,5291.49,pp-ro,1,1,-1,-1
1570539840.0,2019-10-08,15:04:00.000,15.0,12.0,20.7800006866455,20.2,-8.4,1.6,53.3,5.7,-41.2,21.439,-9.57907,0.616019,-3.16878,0.705914,5.02896,51.4859,8.21443,-42.6531,0.398263,-0.283301,0.375103,252.0,6.5,52.1701,4.427219999999999,6.1,1.27605,374.48,4.47745,157.016,87.0247,168.59599999999998,0.754029,-0.271153,246.276,1.35187,1.70071,-3.4749984741210898,22.0025119781494,-35.0,22.0,388907.0,4922.32,pp-ro,1,1,-1,-1
1570539840.1,2019-10-08,15:04:00.100,15.0,13.0,20.3999996185303,20.0,-7.9,2.3,53.6,4.4,-41.4,20.7674,-9.11048,1.59146,-3.24342,3.79016,5.62029,51.8733,7.12523,-42.0416,0.268471,0.0906806,0.246911,252.0,6.5,52.1701,4.427219999999999,6.1,1.255,349.44199999999995,4.47746,156.16899999999998,89.3048,168.296,0.752084,-0.284537,246.348,1.37526,1.7464400000000002,-5.14080810546875,22.0019989013672,-35.0,22.0,389370.0,8890.94,pp-ro,1,1,-1,-1
1570539840.2,2019-10-08,15:04:00.200,15.0,13.0,20.1299991607666,19.9,-7.3,2.5,53.4,2.6,-40.6,20.5855,-8.56803,2.24597,-1.35415,1.71269,8.17515,52.4577,6.1677,-42.5528,-0.0557885,-0.258362,0.2332699999999999,252.0,6.5,52.1701,4.427219999999999,6.1,1.13365,305.802,4.477519999999999,155.38,90.8248,168.09599999999998,0.751275,-0.294101,246.269,1.41441,1.77772,-7.15821838378906,22.0019989013672,-35.0,22.0,390323.0,7445.01,pp-ro,1,1,-1,-1
1570539840.3,2019-10-08,15:04:00.300,15.0,14.0,20.0499992370605,20.6,-7.2,2.8,54.0,0.7,-38.7,20.5855,-8.56803,2.24597,-1.35415,1.71269,8.17515,52.4577,6.1677,-42.5528,-0.0557885,-0.258362,0.2332699999999999,252.0,6.5,52.1701,4.427219999999999,6.1,1.12312,302.061,4.477580000000001,154.591,93.1048,167.896,0.7493380000000001,-0.307273,246.487,1.47073,1.80463,-9.27803039550781,22.0009689331055,-35.0,22.0,390742.0,2430.39,pp-ro,1,1,-1,-1
1570539840.4,2019-10-08,15:04:00.400,15.0,13.0,20.1399993896484,21.8,-6.8,3.7,56.4,-1.0,-36.9,20.2718,-7.35663,2.7951,3.70516,-2.02962,4.51705,53.5072,3.41442,-39.0902,0.2330809999999999,0.299086,0.5016,252.5,6.2,52.1701,4.427219999999999,6.1,1.13088,318.261,4.47763,153.89,95.0048,167.59599999999998,0.747368,-0.318328,246.569,1.52171,1.85928,-11.3807830810547,22.0009689331055,-35.0,22.0,391022.0,2584.22,pp-ro,1,1,-1,-1
1570539840.5,2019-10-08,15:04:00.500,15.0,12.0,20.6499996185303,22.9,-6.5,5.3,57.1,-3.7,-36.2,21.4152,-7.15985,3.68256,12.6192,4.38301,12.407,54.4604,1.7769099999999998,-36.9591,-0.0693805,-0.176822,0.486235,252.5,6.2,52.1701,4.427219999999999,6.1,1.21843,381.852,4.47769,153.16,97.2849,167.196,0.74455,-0.331191,246.732,1.57372,1.92742,-13.469879150390598,22.003026962280305,-35.0,22.0,390894.0,-2830.33,pp-ro,1,1,-1,-1
1570539840.6,2019-10-08,15:04:00.600,15.0,12.0,20.6499996185303,23.5,-5.9,7.5,58.4,-7.9,-35.8,22.6095,-6.727110000000001,5.1017,6.29821,2.91914,15.8983,54.9733,-0.977273,-35.3093,0.151158,0.0416988,0.670288,252.5,6.2,52.1701,4.427219999999999,6.1,1.28436,420.434,4.47775,152.809,98.4249,166.59599999999998,0.741883,-0.337575,246.561,1.63755,2.00975,-15.5555572509766,22.0035419464111,-35.0,22.0,390724.0,-3199.51,pp-ro,1,1,-1,-1
1570539840.7,2019-10-08,15:04:00.700,15.0,10.0,20.909999847412102,23.8,-4.5,9.6,59.9,-12.4,-34.0,22.6095,-6.727110000000001,5.1017,6.29821,2.91914,15.8983,54.9733,-0.977273,-35.3093,0.151158,0.0416988,0.670288,252.5,6.2,52.1701,4.427219999999999,6.1,1.40959,474.17,4.47779,151.933,101.845,165.796,0.736358,-0.355935,246.86900000000003,1.7304,2.11574,-17.6617202758789,22.004056930542003,-35.0,22.0,390512.0,-1169.05,pp-ro,1,1,-1,-1
1570539840.8,2019-10-08,15:04:00.800,15.0,12.0,21.5699996948242,24.0,-3.6,10.8,61.4,-14.2,-33.3,23.1424,-5.66098,8.35573,3.17224,14.4921,26.4629,57.3906,-6.95213,-33.142,0.0631388,-0.125688,0.743907,252.5,6.2,52.1701,4.427219999999999,6.1,1.44006,465.69,4.47786,151.69899999999998,102.985,165.296,0.73365,-0.361876,246.863,1.7664099999999998,2.17345,-19.7747039794922,22.003026962280305,-35.0,22.0,391239.0,11782.8,pp-ro,1,1,-1,-1
1570539840.9,2019-10-08,15:04:00.900,15.0,10.0,21.9300003051758,23.6,-0.6,13.7,63.2,-21.6,-29.3,23.0017,-2.69025,11.5422,0.340643,25.9565,20.3156,60.2116,-13.187,-30.0686,0.282194,-0.143448,0.730179,252.5,6.2,52.1701,4.427219999999999,5.8,1.35529,432.343,4.47796,151.378,106.405,163.496,0.723681,-0.378242,246.917,1.92124,2.33741,-21.9081726074219,22.003026962280305,-35.0,22.0,392338.0,9167.82,pp-ro,1,1,-1,-1
1570539841.0,2019-10-08,15:04:01.000,15.0,10.0,22.3299999237061,23.3,0.0,14.7,63.6,-24.8,-28.1,23.0017,-2.69025,11.5422,0.340643,25.9565,20.3156,60.2116,-13.187,-30.0686,0.282194,-0.143448,0.730179,252.5,6.2,52.1701,4.427219999999999,5.8,1.33755,422.268,4.47797,151.349,107.925,162.796,0.719268,-0.385038,247.096,1.98194,2.38188,-24.0552978515625,22.003026962280305,-35.0,22.0,393106.0,4645.44,pp-ro,1,1,-1,-1
1570539841.1,2019-10-08,15:04:01.100,15.0,11.0,22.6399993896484,22.4,1.9,16.6,64.7,-33.7,-21.4,22.1533,-0.0201229,14.2239,-6.55066,16.9755,15.2506,60.9533,-21.1593,-22.6648,0.686088,0.300769,1.54174,252.5,6.2,52.1701,4.427219999999999,5.8,1.31705,403.471,4.47803,151.465,111.345,160.596,0.7069770000000001,-0.399548,247.246,2.18007,2.491,-26.164871215820305,22.003026962280305,-35.0,22.0,393790.0,7660.36,pp-ro,1,1,-1,-1
1570539841.2,2019-10-08,15:04:01.200,15.0,11.0,23.1100006103516,20.7,5.4,18.9,63.9,-40.4,-16.1,21.1997,1.80343,15.9575,-10.3321,22.7427,15.0578,61.2358,-26.844,-17.7113,0.365531,0.136018,1.38264,252.5,6.2,52.1701,4.427219999999999,5.8,1.29434,394.97,4.47808,151.874,113.245,158.995,0.698226,-0.406406,247.325,2.3243400000000003,2.65414,-28.2539672851562,22.0035419464111,-35.0,22.0,394205.0,7937.24,pp-ro,1,1,-1,-1
1570539841.3,2019-10-08,15:04:01.300,15.0,12.0,23.4099998474121,20.0,6.3,19.7,61.9,-47.4,-8.4,19.9748,4.240069999999999,17.2818,-19.7003,21.238000000000003,19.2263,60.2882,-32.5577,-11.5671,0.151324,0.351802,1.35297,252.5,6.2,52.1701,4.427219999999999,5.8,1.29988,409.769,4.47814,152.458,115.525,157.195,0.687887,-0.414193,247.588,2.48838,2.70602,-30.250900268554695,22.0035419464111,-35.0,22.0,394776.0,1322.87,pp-ro,1,1,-1,-1
1570539841.4,2019-10-08,15:04:01.400,15.0,12.0,23.5900001525879,18.2,8.5,21.5,57.6,-54.4,0.4,17.5758,7.27251,19.4951,-15.0118,22.049,15.1192,54.6939,-41.9702,1.5167,0.28945,0.487068,1.50507,253.2,6.6,52.1701,4.427219999999999,5.8,1.32758,413.467,4.47821,153.276,117.045,155.295,0.67793,-0.417983,247.608,2.6487700000000003,2.81976,-31.9150085449219,22.0035419464111,-35.0,22.0,395166.0,5045.38,pp-ro,1,1,-1,-1
1570539841.5,2019-10-08,15:04:01.500,15.0,14.0,23.5499992370605,16.1,10.9,22.6,54.8,-57.8,5.6,15.8008,9.31577,20.9097,-23.8561,20.7061,9.90797,47.8306,-47.5362,12.7318,0.128779,0.249961,1.47245,253.2,6.6,52.1701,4.427219999999999,5.8,1.30043,400.874,4.478280000000001,153.714,118.185,154.395,0.672467,-0.421356,247.858,2.72938,2.9348400000000003,-33.2138671875,22.003026962280305,-35.0,22.0,395879.0,7014.3,pp-ro,1,1,-1,-1
1570539841.6,2019-10-08,15:04:01.600,15.0,14.0,23.4799995422363,13.7,12.9,23.2,44.4,-63.1,20.2,13.6367,11.4984,21.6124,-19.1669,19.077,3.2017,39.3233,-52.2262,25.5632,0.338502,0.644185,1.64926,253.2,6.6,52.1701,4.427219999999999,5.8,1.29101,398.731,4.47835,154.85299999999998,119.325,152.395,0.662139,-0.4224989999999999,247.876,2.89032,3.04172,-34.1594085693359,22.003026962280305,-35.0,22.0,396172.0,5783.72,pp-ro,1,1,-1,-1
1570539841.7,2019-10-08,15:04:01.700,15.0,11.0,23.469999313354503,11.5,14.6,23.7,28.1,-65.7,40.1,12.4562,12.3041,21.6832,-18.7185,25.2664,1.6791200000000002,33.4959,-54.007,32.8934,-0.0634858,0.345553,1.38144,253.2,6.6,52.1701,4.427219999999999,5.8,1.28935,399.741,4.47842,156.226,120.845,150.295,0.650473,-0.4244239999999999,248.191,3.0522400000000003,3.13617,-34.753372192382805,22.003026962280305,-23.0139999389648,22.0,396603.0,3937.85,pp-ro,1,1,-1,-1
1570539841.8,2019-10-08,15:04:01.800,15.0,13.0,23.8099994659424,9.2,16.2,23.6,8.3,-65.4,64.1,10.5813,13.6025,21.8642,-24.2615,7.783010000000001,3.99892,20.326,-55.2464,48.915,-0.0995072999999999,0.390303,1.59764,253.2,6.6,52.1701,4.427219999999999,5.8,1.2827,394.228,4.47849,157.715,121.985,148.195,0.639174,-0.4244479999999999,248.428,3.22903,3.22933,-34.961593627929695,22.003026962280305,-23.0139999389648,22.0,397463.0,7106.6,pp-ro,1,1,-1,-1
1570539841.9,2019-10-08,15:04:01.900,15.0,12.0,24.100000381469695,6.4,17.5,22.9,-9.8,-63.5,86.7,8.319339999999999,15.0311,21.656,-22.3492,7.00766,-3.66086,5.125859999999999,-55.2366,67.5126,0.0147277,0.672248,1.7531,253.2,6.6,52.1701,4.427219999999999,5.4,1.29157,404.346,4.47856,159.292,122.745,146.195,0.628608,-0.42271,248.623,3.4029199999999995,3.33294,-34.883087158203104,22.003026962280305,-23.0139999389648,22.0,397771.0,1753.58,pp-ro,1,1,-1,-1
1570539842.0,2019-10-08,15:04:02.000,15.0,12.0,24.4899997711182,3.1,18.9,21.7,-22.5,-57.9,103.3,5.54386,16.048,20.9768,-25.3162,14.038,-8.06746,-8.580589999999999,-52.3785,84.8563,-0.0522143,0.474788,1.77867,253.2,6.6,52.1701,4.427219999999999,5.4,1.3237,421.39,4.47863,161.10299999999998,123.125,144.195,0.618164,-0.4188149999999999,248.81,3.57631,3.45856,-34.6731567382812,22.004571914672898,-23.0211448669434,22.0,398202.0,5445.31,pp-ro,1,1,-1,-1
1570539842.1,2019-10-08,15:04:02.100,15.0,13.0,24.4500007629395,-0.4,19.3,20.5,-29.6,-51.5,114.5,2.51123,17.3801,20.0347,-30.9935,7.92275,-14.923,-18.5232,-47.2703,97.9796,0.196206,0.638959,1.61642,253.2,6.6,52.1701,4.427219999999999,5.4,1.32924,434.028,4.47871,162.914,123.505,142.395,0.6083890000000001,-0.414985,249.14,3.73575,3.5811300000000004,-33.992156982421896,22.004571914672898,-23.0211448669434,22.0,398396.0,3876.33,pp-ro,1,1,-1,-1
1570539842.2,2019-10-08,15:04:02.200,15.0,14.0,24.3400001525879,-3.5,19.5,18.6,-34.0,-45.0,123.1,-0.810616,17.4946,18.905,-28.8691,7.707669999999999,-7.70143,-25.4007,-41.7461,108.39,-0.0958005,0.197159,1.50378,253.2,6.6,52.1701,4.427219999999999,5.4,1.38687,447.793,4.47878,164.783,123.505,140.695,0.599374,-0.409572,249.403,3.886330000000001,3.70443,-32.956130981445305,22.004571914672898,-23.0211448669434,22.0,398576.0,2891.86,pp-ro,1,1,-1,-1
