time,date,time_of_day,airspeed_temperature,airspeed_angle_of_attack,airspeed_apparent_windspeed,kite_0_vx,kite_0_vy,kite_0_vz,kite_0_roll,kite_0_pitch,kite_0_yaw,kite_1_vx,kite_1_vy,kite_1_vz,kite_1_ax,kite_1_ay,kite_1_az,kite_1_roll,kite_1_pitch,kite_1_yaw,kite_1_roll_rate,kite_1_pitch_rate,kite_1_yaw_rate,ground_upwind_direction,ground_wind_velocity,ground_pos_latitude,ground_pos_longitude,ground_pos_altitude,ground_tether_reelout_speed,ground_tether_force,est_upwind_direction,kite_pos_east,kite_pos_north,kite_height,kite_elevation,kite_azimuth,kite_distance,kite_heading,kite_course,kite_actual_steering,kite_actual_depower,kite_set_steering,kite_set_depower,ground_mech_energy,ground_mech_power,flight_phase,flight_phase_index,phase,pattern,pattern_section
1570535522.1,2019-10-08,13:52:02.100,14.0,6.0,17.3999996185303,13.6,-2.0,2.9,16.3,-7.4,-47.5,12.5101,-2.30629,3.59316,6.153630000000001,21.0071,0.76793,19.8665,7.26819,-51.3474,0.284113,0.148489,1.00739,246.4,4.7,52.1701,4.42724,2.7,-3.22254,99.131,4.55532,36.2467,-10.6403,233.096,1.41013,0.442597,236.137,0.470908,1.17538,-34.2515869140625,22.0359840393066,-35.0,22.0,-1037470.0,2953.39,pp-riro,4,0,-1,-1
1570535522.2,2019-10-08,13:52:02.200,14.0,5.0,17.1499996185303,14.1,-0.6,2.8,18.8,-7.2,-41.7,12.787,-1.38999,3.70253,7.15234,16.4882,1.03518,20.9915,6.69601,-48.4227,0.279304,0.146641,0.8452280000000001,246.4,4.7,52.1701,4.42724,2.7,-3.23362,78.9875,4.5552,36.0714,-9.50021,232.996,1.41205,0.41471,235.963,0.602733,1.3046,-34.7977447509766,22.0122966766357,-35.0,22.0,-1038670.0,-16151.4,pp-riro,4,0,-1,-1
1570535522.3,2019-10-08,13:52:02.300,14.0,5.0,17.2000007629395,14.6,0.7,3.3,20.9,-8.1,-36.0,13.3912,0.735524,3.784,0.696444,13.6907,7.638839999999999,24.4892,6.07717,-39.0656,0.555527,0.480493,1.02991,246.4,4.7,52.1701,4.42724,2.7,-3.32616,79.389,4.55508,35.9838,-7.980160000000001,232.796,1.41377,0.3755429999999999,235.696,0.745591,1.43753,-34.975250244140604,22.0019989013672,-35.0,22.0,-1041000.0,-25811.4,pp-riro,4,0,-1,-1
1570535522.4,2019-10-08,13:52:02.400,14.0,5.0,17.1000003814697,15.1,2.0,4.0,22.8,-10.2,-30.6,13.3912,0.735524,3.784,0.696444,13.6907,7.638839999999999,24.4892,6.07717,-39.0656,0.555527,0.480493,1.02991,246.4,4.7,52.1701,4.42724,2.7,-3.43919,103.096,4.55497,36.0714,-6.4601,232.596,1.4145299999999998,0.334636,235.465,0.8873979999999999,1.5667,-34.975250244140604,22.0009689331055,-35.0,22.0,-1043780.0,-12336.6,pp-riro,4,0,-1,-1
1570535522.5,2019-10-08,13:52:02.500,14.0,8.0,16.4099998474121,15.6,3.7,4.6,24.6,-11.9,-25.7,13.8138,2.00977,4.392469999999999,7.297839999999999,8.93978,7.44079,26.7984,4.97065,-32.5359,0.595659,0.24469,1.07459,246.4,4.7,52.1701,4.42724,2.7,-3.44362,105.449,4.55485,36.2174,-4.94005,232.396,1.41479,0.293104,235.253,1.0203,1.7111,-34.983795166015604,22.0009689331055,-35.0,22.0,-1043980.0,-3722.5,pp-riro,4,0,-1,-1
1570535522.6,2019-10-08,13:52:02.600,14.0,5.0,15.5799999237061,15.9,5.5,4.8,26.7,-13.5,-20.7,14.549,4.07394,5.33696,5.95071,18.4243,4.03315,29.493,2.67611,-23.0447,0.340827,0.2412969999999999,0.989783,246.4,4.7,52.1701,4.42724,3.0,-3.4253400000000003,97.2917,4.55469,36.6263,-3.4199900000000003,232.096,1.41361,0.250807,234.993,1.15576,1.85084,-34.9871978759766,22.0009689331055,-35.0,22.0,-1044490.0,-7691.12,pp-riro,4,0,-1,-1
1570535522.7,2019-10-08,13:52:02.700,14.0,7.0,14.8199996948242,16.2,7.0,5.1,28.0,-15.1,-15.9,14.9584,5.85334,5.6599900000000005,2.69709,15.2001,2.66533,31.2142,0.917397,-17.1078,0.212083,0.232201,0.961505,246.4,4.7,52.1701,4.42724,3.0,-3.43974,90.4283,4.55461,37.1521,-1.5199200000000002,231.696,1.41167,0.198666,234.661,1.29739,1.97571,-34.9940185546875,22.0009689331055,-35.0,22.0,-1045650.0,-14613.1,pp-riro,4,0,-1,-1
1570535522.8,2019-10-08,13:52:02.800,14.0,9.0,14.8199996948242,16.6,8.3,5.4,29.4,-16.9,-11.0,15.2312,7.35718,5.98197,1.07017,15.191,4.25213,32.8293,-0.93911,-11.7972,0.326034,0.250006,0.902854,246.4,4.7,52.1701,4.42724,3.0,-3.48573,94.1618,4.55449,37.8238,-0.37987,231.396,1.40876,0.167939,234.468,1.41985,2.06076,-35.0042724609375,22.0009689331055,-35.0,22.0,-1047210.0,-14367.0,pp-riro,4,0,-1,-1
1570535522.9,2019-10-08,13:52:02.900,14.0,9.0,14.9399995803833,16.6,9.7,5.8,29.9,-18.7,-5.5,15.3442,8.05741,6.0994,0.502656,14.8048,3.72889,33.2723,-1.8787,-9.16962,0.120965,0.29401,0.983826,246.4,4.7,52.1701,4.42724,3.0,-3.50402,105.204,4.55437,38.6124,1.14019,230.996,1.4051,0.128494,234.204,1.56109,2.16438,-35.0059814453125,22.0009689331055,-35.0,22.0,-1048250.0,-6214.43,pp-riro,4,0,-1,-1
1570535523.0,2019-10-08,13:52:03.000,14.0,9.0,14.880000114440902,16.3,11.1,6.3,30.0,-21.0,-0.1,15.3738,9.97948,6.601389999999999,-4.09187,13.1182,5.81215,34.3567,-5.210430000000001,-0.309449,0.196871,0.357595,1.02728,246.4,4.7,52.1701,4.42724,3.0,-3.48573,106.454,4.55426,39.547,3.04027,230.496,1.40039,0.08139,233.884,1.7092200000000002,2.27964,-35.0059814453125,22.0009689331055,-35.0,22.0,-1048570.0,-3168.74,pp-riro,4,0,-1,-1
1570535523.1,2019-10-08,13:52:03.100,14.0,10.0,14.880000114440902,15.8,12.5,6.5,29.9,-23.4,5.6,14.9692,11.9594,6.98539,-6.507969999999999,14.0226,2.60401,34.2349,-8.90983,8.63429,0.13759,0.304859,1.16184,245.9,4.6,52.1701,4.42724,3.0,-3.47798,83.5991,4.55414,40.5985,4.56033,229.996,1.395,0.046386,233.597,1.85012,2.38331,-35.0042724609375,22.0009689331055,-35.0,22.0,-1049820.0,-14797.7,pp-riro,4,0,-1,-1
1570535523.2,2019-10-08,13:52:03.200,14.0,9.0,14.9399995803833,15.3,13.7,6.6,29.3,-25.4,11.7,14.3929,13.1604,7.0532,-7.286869999999999,12.4125,0.507864,33.4816,-11.2908,14.6883,0.0599199,0.216529,1.02103,245.9,4.6,52.1701,4.42724,3.0,-3.5123300000000004,80.7869,4.5540400000000005,41.79600000000001,6.46041,229.496,1.38856,0.00499266,233.361,2.00136,2.48227,-35.0042724609375,22.0009689331055,-35.0,22.0,-1050920.0,-21750.5,pp-riro,4,0,-1,-1
1570535523.3,2019-10-08,13:52:03.300,14.0,8.0,15.0600004196167,14.8,14.8,6.9,28.7,-26.7,18.0,14.0578,13.6932,7.139010000000001,-4.56268,10.707,2.95763,33.0827,-12.3268,17.8159,0.141948,0.293811,1.07823,245.9,4.6,52.1701,4.42724,3.0,-3.59156,86.39299999999999,4.55394,43.0811,7.600460000000001,228.896,1.38195,-0.0161717,233.039,2.13249,2.55694,-35.0042724609375,22.0009689331055,-35.0,22.0,-1053240.0,-23042.6,pp-riro,4,0,-1,-1
1570535523.4,2019-10-08,13:52:03.400,14.0,8.0,15.119999885559098,14.0,16.1,7.3,27.7,-28.0,25.1,13.7986,14.2109,7.25172,-6.2003900000000005,9.54881,3.71829,32.4927,-13.1495,21.056,0.224527,0.367323,1.09646,245.9,4.6,52.1701,4.42724,3.0,-3.67467,94.2305,4.5538300000000005,44.5999,9.50054,228.296,1.37365,-0.0513232,232.806,2.28846,2.65897,-35.0042724609375,22.0009689331055,-35.0,22.0,-1055760.0,-13167.2,pp-riro,4,0,-1,-1
1570535523.5,2019-10-08,13:52:03.500,14.0,8.0,15.109999656677198,13.1,17.1,7.7,26.2,-28.7,31.6,13.5052,14.8058,7.409110000000001,-4.480580000000001,9.69592,3.61376,32.0325,-13.9168,24.4935,0.0789846,0.5268229999999999,1.07241,245.9,4.6,52.1701,4.42724,3.0,-3.7118,94.1656,4.553719999999999,46.1479,11.0206,227.696,1.36536,-0.0757503,232.587,2.42068,2.7431400000000004,-35.0059814453125,22.0009689331055,-21.1617050170898,22.0,-1056980.0,-12121.2,pp-riro,4,0,-1,-1
1570535523.6,2019-10-08,13:52:03.600,14.0,9.0,15.1700000762939,12.3,18.2,8.0,25.2,-29.6,38.2,12.8947,15.7933,7.79787,-8.642619999999999,11.8979,2.57056,30.7182,-14.9447,31.4263,0.1136809999999999,0.419206,1.0572700000000002,245.9,4.6,52.1701,4.427230000000001,3.3,-3.71734,95.4496,4.55362,47.8419,12.1607,226.996,1.35667,-0.0901473,232.302,2.5441700000000003,2.8141700000000003,-35.0042724609375,22.0009689331055,-20.3584079742432,22.0,-1057670.0,-12828.8,pp-riro,4,0,-1,-1
1570535523.7,2019-10-08,13:52:03.700,14.0,9.0,15.289999961853,11.5,19.3,8.4,23.7,-29.8,44.9,11.2478,17.7293,8.407969999999999,-8.06568,7.427789999999999,4.51132,27.5315,-16.2933,44.9585,-0.0898525,0.470326,1.00332,245.9,4.6,52.1701,4.427230000000001,3.3,-3.7395,105.935,4.55352,49.6235,13.6807,226.196,1.34704,-0.110138,231.979,2.67125,2.88802,-34.8301696777344,22.0009689331055,-19.6900100708008,22.0,-1058680.0,-7291.18,pp-riro,4,0,-1,-1
1570535523.8,2019-10-08,13:52:03.800,14.0,9.0,15.5699996948242,11.1,19.9,8.6,23.3,-29.8,48.2,10.472,18.7193,8.737219999999999,-8.97072,10.9977,4.64267,25.9329,-16.7034,51.5759,0.12622,0.40003,0.976787,245.9,4.6,52.1701,4.427230000000001,3.3,-3.65584,132.058,4.55341,50.5581,14.0608,225.796,1.34244,-0.1122819999999999,231.814,2.72623,2.91743,-34.2737731933594,22.0009689331055,-19.2955379486084,22.0,-1058150.0,12890.3,pp-riro,4,0,-1,-1
1570535523.9,2019-10-08,13:52:03.900,14.0,10.0,15.9099998474121,9.8,21.5,9.3,20.9,-29.9,58.7,9.78839,19.7224,9.1658,-7.58078,9.28407,3.15778,24.1502,-17.0105,58.383,0.00846733,0.467079,1.0994700000000002,245.9,4.6,52.1701,4.427230000000001,3.3,-3.58325,139.31799999999998,4.55331,53.6249,15.5808,224.496,1.327,-0.123688,231.337,2.90402,3.0056,-33.3538208007812,22.0009689331055,-18.3185024261475,22.0,-1057150.0,18889.4,pp-riro,4,0,-1,-1
1570535524.0,2019-10-08,13:52:04.000,14.0,11.0,16.2900009155273,9.3,22.0,9.5,20.0,-30.0,62.4,9.3414,20.2003,9.36339,-10.2532,10.3951,6.14441,23.0749,-17.1088,61.7295,-0.174666,0.3804659999999999,0.981472,245.9,4.6,52.1701,4.427230000000001,3.3,-3.39209,150.344,4.55321,54.7348,16.7209,223.996,1.32064,-0.137302,231.192,2.975,3.04467,-32.437286376953104,22.0009689331055,-18.1140308380127,22.0,-1054670.0,27349.6,pp-riro,4,0,-1,-1
1570535524.1,2019-10-08,13:52:04.100,14.0,11.0,16.5100002288818,8.1,23.1,9.8,18.2,-30.4,69.1,8.90348,20.6739,9.50363,-10.7504,9.17895,1.54334,21.9587,-17.2234,65.0797,0.0978827,0.423376,0.977688,248.4,4.3,52.1701,4.427230000000001,3.3,-3.00368,160.702,4.5531,56.9253,17.4809,223.096,1.30996,-0.1386599999999999,230.907,3.0817900000000003,3.1048400000000003,-30.8994750976562,22.0009689331055,-17.307964324951197,22.0,-1049940.0,32118.1,pp-riro,4,0,-1,-1
1570535524.2,2019-10-08,13:52:04.200,14.0,12.0,16.8299999237061,6.1,24.5,10.1,15.6,-29.8,79.0,7.848,21.5934,9.75917,-13.1832,7.51444,1.98971,20.0449,-17.8676,71.7531,-0.0745498999999999,0.264446,1.0329700000000002,248.4,4.3,52.1701,4.427230000000001,3.3,-2.86461,165.62099999999998,4.553,60.4594,18.621,221.496,1.29259,-0.139388,230.353,3.23703,3.1927,-29.0151977539062,22.0009689331055,-16.1856822967529,22.0,-1048210.0,32825.7,pp-riro,4,0,-1,-1
1570535524.3,2019-10-08,13:52:04.300,14.0,11.0,16.979999542236303,5.4,24.8,10.3,14.9,-29.7,82.2,7.32147,22.0968,9.84968,-13.6634,13.3328,1.38144,19.0437,-18.1501,74.9065,0.1819609999999999,0.296059,0.997275,248.4,4.3,52.1701,4.427230000000001,3.3,-2.55931,178.418,4.55291,61.7445,19.001,220.996,1.2864,-0.1390549999999999,230.245,3.2866,3.21996,-26.8970794677734,22.0009689331055,-15.8594245910645,22.0,-1044800.0,35409.9,pp-riro,4,0,-1,-1
1570535524.4,2019-10-08,13:52:04.400,14.0,11.0,17.2900009155273,3.9,25.3,10.4,13.0,-29.3,88.0,4.78135,23.5516,10.2188,-13.85,2.36936,0.224355,14.7555,-18.8217,87.1519,0.0638203,0.212165,0.928984,248.4,4.3,52.1701,4.427230000000001,3.3,-1.96201,190.176,4.55281,64.1979,19.3811,219.896,1.27479,-0.1336119999999999,229.894,3.37209,3.27203,-24.7977447509766,22.0009689331055,-15.1047964096069,22.0,-1039370.0,35379.2,pp-riro,4,0,-1,-1
1570535524.5,2019-10-08,13:52:04.500,14.0,11.0,17.5900001525879,2.6,25.7,10.3,10.7,-28.7,93.7,4.12441,23.8455,10.2014,-10.4996,2.27286,0.383687,13.6346,-19.0558,89.9978,-0.00676841,0.319942,1.02456,248.4,4.3,52.1701,4.427230000000001,3.3,-1.52096,186.523,4.55271,66.7097,20.1411,218.896,1.2626,-0.1335859999999999,229.72,3.4610800000000004,3.3206800000000003,-22.6813430786133,22.0009689331055,-14.6121101379395,22.0,-1036380.0,27134.3,pp-riro,4,0,-1,-1
1570535524.6,2019-10-08,13:52:04.600,14.0,9.0,17.9400005340576,1.2,26.1,10.0,8.9,-27.8,99.4,2.15518,24.5455,9.92256,-16.088,4.03877,-5.16691,10.473,-19.1218,97.9807,-0.131116,0.102624,0.779176,248.4,4.3,52.1701,4.427230000000001,3.5,-1.3192700000000002,187.874,4.552569999999999,69.3676,20.5212,217.796,1.25012,-0.1278099999999999,229.495,3.54593,3.36735,-20.5922546386719,22.0009689331055,-14.0253591537476,22.0,-1035220.0,22888.8,pp-riro,4,0,-1,-1
1570535524.7,2019-10-08,13:52:04.700,14.0,8.0,18.3799991607666,-0.1,26.1,9.9,7.7,-26.6,103.5,0.822673,24.8475,9.73929,-10.5544,1.29305,0.100728,8.38415,-19.1151,102.819,0.00711569,0.1010669999999999,0.789673,248.4,4.3,52.1701,4.427230000000001,3.5,-0.909249,201.32,4.55251,71.9378,20.5212,216.796,1.23853,-0.118001,229.34,3.60351,3.40479,-18.2812805175781,22.0009689331055,-13.4856824874878,22.0,-1033430.0,16489.8,pp-riro,4,0,-1,-1
1570535524.8,2019-10-08,13:52:04.800,14.0,9.0,18.7999992370605,-1.4,25.9,9.8,5.8,-25.8,107.7,-0.5644140000000001,24.8449,9.54689,-7.67382,-4.95336,-0.196319,6.75214,-18.6941,107.201,-0.132125,0.281263,0.757903,248.4,4.3,52.1701,4.427230000000001,3.5,-0.408359,207.183,4.55241,74.5373,20.5212,215.796,1.22678,-0.108679,229.227,3.66244,3.4429199999999995,-16.6837310791016,22.0009689331055,-12.967903137207,22.0,-1032300.0,8644.82,pp-riro,4,0,-1,-1
1570535524.9,2019-10-08,13:52:04.900,14.0,8.0,19.1299991607666,-2.5,25.4,9.3,4.3,-24.8,111.5,-0.5644140000000001,24.8449,9.54689,-7.67382,-4.95336,-0.196319,6.75214,-18.6941,107.201,-0.132125,0.281263,0.757903,248.4,4.3,52.1701,4.427230000000001,3.5,0.074247,191.822,4.552309999999999,77.1951,20.1413,214.796,1.21517,-0.0951438,229.133,3.71241,3.47276,-15.304656982421902,22.0009689331055,-12.499532699584998,22.0,-1032310.0,-2707.28,pp-riro,4,0,-1,-1
1570535525.0,2019-10-08,13:52:05.000,14.0,8.0,19.3099994659424,-3.5,25.1,8.6,2.7,-23.7,115.1,-2.22371,24.1741,8.894630000000001,-13.3977,0.578543,-4.597169999999999,4.44341,-18.0612,112.585,-0.396108,0.0317941,0.257743,248.4,4.3,52.1701,4.427230000000001,3.5,0.3086239999999999,161.60399999999998,4.55221,79.707,20.1413,213.896,1.20385,-0.0873311,229.152,3.76526,3.5062300000000004,-14.1440505981445,22.0009689331055,-12.1335000991821,22.0,-1032360.0,4245.5,pp-riro,4,0,-1,-1
1570535525.1,2019-10-08,13:52:05.100,14.0,7.0,19.3099994659424,-4.5,24.9,8.3,1.7,-21.7,117.7,-3.05591,23.9964,8.28861,-11.1941,0.746409,-3.27993,3.0893200000000003,-17.4658,115.704,-0.0328165,0.222039,0.621919,239.5,4.5,52.1701,4.427230000000001,3.5,0.238255,169.09099999999998,4.55208,82.1896,19.3813,213.096,1.19351,-0.0712776,229.218,3.79943,3.53059,-13.2019119262695,22.0009689331055,-11.6624050140381,22.0,-1032290.0,1199.82,pp-riro,4,0,-1,-1
1570535525.2,2019-10-08,13:52:05.200,14.0,7.0,19.0799999237061,-5.4,24.7,9.1,0.4,-21.4,120.3,-4.54563,23.752,8.33479,-8.77016,0.954437,6.0778,0.782439,-15.9648,119.928,-0.146272,0.0925908,0.4933909999999999,239.5,4.5,52.1701,4.427230000000001,3.5,0.351288,217.377,4.55194,84.8182,19.0014,212.196,1.18202,-0.0599323,229.308,3.83104,3.5499,-12.4577560424805,22.0009689331055,-11.5111560821533,22.0,-1032510.0,-2614.98,pp-riro,4,0,-1,-1
1570535525.3,2019-10-08,13:52:05.300,14.0,8.0,18.979999542236303,-6.2,24.6,9.1,-0.9,-21.1,122.6,-5.40344,23.65,8.845839999999999,-4.49055,-1.46927,0.0492902,-0.8734620000000001,-15.7352,122.733,-0.351379,-0.0544716,0.383577,239.5,4.5,52.1701,4.427230000000001,3.5,0.4399409999999999,250.437,4.55179,87.2425,18.6214,211.296,1.17131,-0.0496854,229.356,3.85898,3.57015,-11.860382080078098,22.0009689331055,-11.3544025421143,22.0,-1032480.0,1353.64,pp-riro,4,0,-1,-1
1570535525.4,2019-10-08,13:52:05.400,14.0,11.0,18.9400005340576,-7.2,24.5,9.1,-1.9,-20.2,125.2,-5.77036,23.5559,8.610339999999999,-3.06083,-4.0361400000000005,-4.6195900000000005,-1.84185,-15.6745,123.859,-0.351707,0.0355450999999999,0.499477,239.5,4.5,52.1701,4.427230000000001,3.5,0.460997,273.981,4.55164,89.6959,17.8614,210.296,1.16057,-0.0358088,229.323,3.89142,3.59398,-11.6572799682617,22.0009689331055,-11.0275497436523,22.0,-1032390.0,123.058,pp-riro,4,0,-1,-1
1570535525.5,2019-10-08,13:52:05.500,14.0,9.0,19.1200008392334,-8.8,24.6,9.8,-2.6,-19.9,126.4,-7.0240800000000005,23.7695,8.60117,-14.380999999999998,6.52091,4.94183,-3.57177,-15.3751,125.776,-0.213034,0.127264,0.4552199999999999,239.5,4.5,52.1701,4.427230000000001,3.5,0.51308,303.508,4.55149,92.2661,17.1014,209.196,1.14914,-0.0224418,229.278,3.89943,3.63176,-11.3961410522461,22.0009689331055,-10.498727798461902,22.0,-1032370.0,153.822,pp-riro,4,0,-1,-1
1570535525.6,2019-10-08,13:52:05.600,14.0,11.0,19.2199993133545,-9.7,23.9,10.4,-4.0,-20.7,127.8,-7.0240800000000005,23.7695,8.60117,-14.380999999999998,6.52091,4.94183,-3.57177,-15.3751,125.776,-0.213034,0.127264,0.4552199999999999,239.5,4.5,52.1701,4.427230000000001,3.6,0.5352439999999999,313.056,4.55134,94.7195,15.9614,207.996,1.13816,-0.00589273,229.105,3.90204,3.64996,-11.2152252197266,22.0009689331055,-10.2483530044556,22.0,-1032340.0,522.996,pp-riro,4,0,-1,-1
1570535525.7,2019-10-08,13:52:05.700,14.0,12.0,19.2600002288818,-10.3,23.4,10.3,-6.0,-20.9,129.6,-7.0240800000000005,23.7695,8.60117,-14.380999999999998,6.52091,4.94183,-3.57177,-15.3751,125.776,-0.213034,0.127264,0.4552199999999999,239.5,4.5,52.1701,4.427230000000001,3.6,0.554636,311.733,4.55119,97.0853,15.2014,206.796,1.12719,0.005884,228.957,3.91809,3.66579,-10.7663421630859,22.0009689331055,35.0,22.0,-1032190.0,1999.69,pp-riro,4,0,-1,-1
1570535525.8,2019-10-08,13:52:05.800,14.0,11.0,19.2600002288818,-11.1,23.3,10.6,-7.9,-19.9,131.3,-10.0522,22.6797,9.61143,-3.7178,-1.1932,1.19474,-9.3866,-16.9701,130.542,-0.2385969999999999,0.135765,0.133048,239.5,4.5,52.1701,4.427230000000001,3.6,0.929196,286.951,4.55104,99.5096,14.0614,205.596,1.11614,0.0209722,228.844,3.93651,3.67767,-10.3635406494141,22.0009689331055,35.0,22.0,-1033950.0,-21812.0,pp-riro,4,0,-1,-1
1570535525.9,2019-10-08,13:52:05.900,14.0,10.0,19.479999542236303,-11.4,22.8,10.7,-9.4,-20.2,133.2,-10.0522,22.6797,9.61143,-3.7178,-1.1932,1.19474,-9.3866,-16.9701,130.542,-0.2385969999999999,0.135765,0.133048,239.5,4.5,52.1701,4.427230000000001,3.6,1.16579,274.257,4.55089,101.875,12.9215,204.296,1.10502,0.0353376999999999,228.653,3.95117,3.6801,-9.91124725341797,22.0009689331055,35.0,22.0,-1035170.0,-25073.1,pp-riro,4,0,-1,-1
1570535526.0,2019-10-08,13:52:06.000,14.0,9.0,19.659999847412102,-11.5,22.3,10.1,-11.3,-20.7,134.8,-10.8111,22.2649,9.954,-2.02876,-4.87522,-5.5917,-12.2334,-16.6566,133.179,0.00856244,-0.173704,0.268967,239.5,4.5,52.1701,4.427230000000001,3.6,1.04611,230.508,4.55074,104.124,11.7815,203.196,1.09467,0.0489808,228.625,3.96044,3.68296,-9.09540557861328,22.0009689331055,35.0,22.0,-1033070.0,23627.1,pp-riro,4,0,-1,-1
1570535526.1,2019-10-08,13:52:06.100,14.0,8.0,19.8799991607666,-11.8,22.1,10.1,-12.1,-19.8,135.3,-11.0582,21.5591,9.53143,0.44155,1.7312,-1.92324,-14.2487,-17.5444,135.284,-0.294087,-0.0731721,0.225267,248.7,4.4,52.1701,4.427230000000001,3.6,0.918115,217.045,4.55061,106.432,10.6415,201.996,1.08381,0.0621250999999999,228.568,3.96209,3.68412,-7.91773223876953,22.0009689331055,35.0,22.0,-1032930.0,-4860.79,pp-riro,4,0,-1,-1
1570535526.2,2019-10-08,13:52:06.200,14.0,8.0,19.7900009155273,-12.1,21.5,10.7,-13.0,-20.2,136.5,-11.4306,21.354,9.71567,-7.03397,-4.470680000000001,4.20414,-15.3373,-17.2579,136.155,-0.0905025,0.0899452999999999,0.178223,248.7,4.4,52.1701,4.427230000000001,3.6,1.03613,239.033,4.55049,108.593,9.50148,200.896,1.07365,0.0746294,228.565,3.96682,3.68606,-6.39528656005859,22.0009689331055,35.0,22.0,-1033040.0,3814.8,pp-riro,4,0,-1,-1
1570535526.3,2019-10-08,13:52:06.300,14.0,9.0,19.7000007629395,-12.0,21.1,10.7,-13.9,-20.7,137.5,-11.5939,21.0629,10.0402,-6.29263,-3.87314,5.34517,-15.5913,-17.3233,136.734,0.0290068,-0.141584,0.0499528,248.7,4.4,52.1701,4.427230000000001,3.6,1.00234,243.997,4.5504,110.638,7.98148,199.796,1.06398,0.0899761,228.523,3.96525,3.675030000000001,-4.511009216308589,22.0009689331055,35.0,22.0,-1032720.0,1045.99,pp-riro,4,0,-1,-1
1570535526.4,2019-10-08,13:52:06.400,14.0,8.0,19.7000007629395,-12.0,21.1,10.5,-13.7,-20.0,137.1,-11.5939,21.0629,10.0402,-6.29263,-3.87314,5.34517,-15.5913,-17.3233,136.734,0.0290068,-0.141584,0.0499528,248.7,4.4,52.1701,4.427230000000001,3.6,1.03946,245.248,4.55029,112.711,7.2215,198.696,1.05392,0.0980622,228.552,3.95679,3.66994,-2.40484619140625,22.0009689331055,35.0,22.0,-1032640.0,2399.63,pp-riro,4,0,-1,-1
1570535526.5,2019-10-08,13:52:06.500,14.0,8.0,19.659999847412102,-12.2,21.1,11.4,-13.3,-20.0,136.2,-11.8275,20.7784,10.2303,-5.50178,2.31984,2.97946,-16.3906,-18.6708,137.791,0.0527879,0.0598053,0.00436783,248.7,4.4,52.1701,4.427230000000001,3.6,1.01785,243.739,4.55018,114.785,6.08151,197.596,1.0439200000000002,0.109274,228.597,3.93358,3.65864,-0.305511474609375,22.0009689331055,35.0,22.0,-1032220.0,1138.29,pp-riro,4,0,-1,-1
1570535526.6,2019-10-08,13:52:06.600,14.0,7.0,19.6100006103516,-11.8,21.2,11.9,-13.6,-21.4,135.9,-12.0206,20.9127,11.0419,1.1261,6.754810000000001,10.2179,-16.6252,-19.4255,137.35,0.0809932,-0.464284,0.0187493,248.7,4.4,52.1701,4.427230000000001,3.7,1.02949,250.967,4.55008,116.917,4.56152,196.396,1.03349,0.123318,228.608,3.90775,3.62743,1.7900085449218797,22.0009689331055,35.0,22.0,-1032030.0,2091.99,pp-riro,4,0,-1,-1
1570535526.7,2019-10-08,13:52:06.700,14.0,9.0,19.3799991607666,-11.1,21.6,12.1,-13.3,-21.7,135.0,-11.5928,21.1036,11.6557,3.08772,0.716446,3.1974400000000003,-16.6017,-21.1805,137.154,0.0177775999999999,-0.364223,-0.238826,248.7,4.4,52.1701,4.427230000000001,3.7,1.03558,255.86,4.54997,118.991,3.42153,195.096,1.02294,0.133674,228.545,3.88351,3.58828,3.88827514648438,22.0009689331055,35.0,22.0,-1031950.0,1538.22,pp-riro,4,0,-1,-1
1570535526.8,2019-10-08,13:52:06.800,14.0,10.0,19.2399997711182,-10.7,22.0,13.1,-13.0,-21.8,133.5,-11.5928,21.1036,11.6557,3.08772,0.716446,3.1974400000000003,-16.6017,-21.1805,137.154,0.0177775999999999,-0.364223,-0.238826,248.7,4.4,52.1701,4.427230000000001,3.7,1.06273,271.749,4.54986,121.24,2.28155,193.796,1.01168,0.1437109999999999,228.607,3.85196,3.5536300000000005,6.00357818603516,22.0009689331055,35.0,22.0,-1031680.0,2153.51,pp-riro,4,0,-1,-1
1570535526.9,2019-10-08,13:52:06.900,14.0,8.0,19.1499996185303,-9.9,22.3,14.1,-13.4,-23.3,132.4,-11.2215,21.2742,11.7093,7.766430000000001,2.08846,2.18348,-16.4554,-22.0674,136.86700000000002,-0.122845,-0.0208179,-0.297928,248.7,4.4,52.1701,4.427230000000001,3.7,1.07104,278.296,4.54975,123.401,1.14157,192.396,1.00048,0.153384,228.572,3.8178,3.5083800000000003,8.10865783691406,22.0009689331055,35.0,22.0,-1031610.0,1415.17,pp-riro,4,0,-1,-1
1570535527.0,2019-10-08,13:52:07.000,14.0,9.0,19.3299999237061,-8.8,22.5,14.6,-13.4,-25.2,130.9,-10.7554,22.2092,12.9519,4.90301,1.31149,11.2232,-16.7391,-23.0527,134.72899999999998,-0.160147,-0.083629,-0.306206,248.7,4.4,52.1701,4.427230000000001,3.7,1.09653,283.774,4.54965,125.621,0.381601,190.896,0.988773,0.1597039999999999,228.521,3.77838,3.46117,10.2137451171875,22.0009689331055,35.0,22.0,-1031430.0,2368.87,pp-riro,4,0,-1,-1
1570535527.1,2019-10-08,13:52:07.100,14.0,10.0,19.2900009155273,-7.7,22.9,15.0,-12.9,-26.4,127.8,-10.7554,22.2092,12.9519,4.90301,1.31149,11.2232,-16.7391,-23.0527,134.72899999999998,-0.160147,-0.083629,-0.306206,249.2,3.6,52.1701,4.427230000000001,3.7,1.08545,278.059,4.54954,127.841,-0.378365,189.396,0.977049,0.1658079999999999,228.504,3.7205,3.41333,12.3256378173828,22.0009689331055,35.0,22.0,-1031060.0,3999.38,pp-riro,4,0,-1,-1
1570535527.2,2019-10-08,13:52:07.200,14.0,8.0,19.3799991607666,-6.4,23.2,16.0,-12.3,-28.5,124.4,-7.75855,23.6606,15.2211,15.9798,3.00551,8.81583,-16.3348,-29.3979,128.838,-0.179061,-0.28444,-0.643121,249.2,3.6,52.1701,4.427230000000001,3.7,1.08711,286.418,4.54942,130.09,-1.1383299999999998,187.896,0.965204,0.171724,228.537,3.65399,3.3576900000000003,14.4341278076172,22.0009689331055,35.0,22.0,-1030700.0,1753.58,pp-riro,4,0,-1,-1
1570535527.3,2019-10-08,13:52:07.300,14.0,9.0,19.4200000762939,-4.6,23.1,16.5,-11.2,-31.0,119.8,-7.16127,23.8816,15.7618,7.19855,7.479839999999999,10.6984,-16.2931,-31.4519,127.34,-0.378638,-0.603901,-0.674246,249.2,3.6,52.1701,4.427230000000001,3.7,1.0993,295.813,4.54933,132.514,-2.2783,186.196,0.952196,0.180251,228.547,3.56755,3.28824,16.5358047485352,22.0009689331055,35.0,22.0,-1030620.0,1538.22,pp-riro,4,0,-1,-1
1570535527.4,2019-10-08,13:52:07.400,14.0,10.0,19.4699993133545,-2.8,23.1,17.0,-9.5,-32.8,114.3,-4.58739,24.2484,16.9475,20.6783,-1.2576200000000002,3.743230000000001,-14.9132,-35.7863,121.088,-0.169518,-0.235656,-0.738754,249.2,3.6,52.1701,4.427230000000001,3.7,1.13254,299.29900000000004,4.549169999999999,134.763,-2.65825,184.495,0.939839,0.182942,228.488,3.47873,3.22302,18.6545181274414,22.0009689331055,35.0,22.0,-1030300.0,3753.27,pp-riro,4,0,-1,-1
1570535527.5,2019-10-08,13:52:07.500,14.0,10.0,19.6000003814697,-0.9,23.0,17.3,-6.8,-34.7,107.8,-4.58739,24.2484,16.9475,20.6783,-1.2576200000000002,3.743230000000001,-14.9132,-35.7863,121.088,-0.169518,-0.235656,-0.738754,249.2,3.6,52.1701,4.427230000000001,3.7,1.10373,296.775,4.549119999999999,137.012,-2.65818,182.895,0.927764,0.182671,228.539,3.37997,3.15735,20.761306762695305,22.0009689331055,35.0,22.0,-1029830.0,4460.85,pp-riro,4,0,-1,-1
1570535527.6,2019-10-08,13:52:07.600,14.0,10.0,19.6000003814697,1.0,22.6,17.9,-3.1,-36.1,99.5,-2.66244,24.5251,17.5019,17.0225,-1.8121,3.03554,-12.5228,-38.2345,115.505,0.0453241,-0.25992,-0.8727959999999999,249.2,3.6,52.1701,4.427230000000001,3.8,1.12811,313.36400000000003,4.54901,139.319,-2.6581200000000003,181.195,0.915227,0.182455,228.58,3.26002,3.09196,22.8783111572266,22.0009689331055,23.0044822692871,22.0,-1029760.0,92.2935,pp-riro,4,0,-1,-1
1570535527.7,2019-10-08,13:52:07.700,14.0,9.0,19.5499992370605,3.2,21.9,17.9,0.9,-37.2,90.6,0.548148,24.4303,18.4208,18.8008,-10.0734,6.61977,-7.82512,-42.08,104.188,-0.237786,-0.153385,-1.14881,249.2,3.6,52.1701,4.427230000000001,3.8,1.15194,317.017,4.5489,141.51,-2.65806,179.595,0.903369,0.182265,228.663,3.13497,3.01438,23.9308547973633,22.0009689331055,23.0044822692871,22.0,-1029710.0,892.17,pp-ro,1,1,-1,-1
1570535527.8,2019-10-08,13:52:07.800,14.0,10.0,19.3700008392334,5.7,21.1,17.4,5.4,-37.8,81.3,1.74183,24.2621,18.6957,17.1176,-12.0717,1.46541,-5.49105,-43.4683,99.7609,-0.27121,-0.28864,-1.33552,249.2,3.6,52.1701,4.427230000000001,3.8,1.13919,299.813,4.5488,143.642,-2.27798,177.895,0.891467,0.179447,228.659,3.00931,2.92388,25.9746246337891,22.0009689331055,23.0044822692871,22.0,-1029200.0,6737.42,pp-ro,1,1,-1,-1
1570535527.9,2019-10-08,13:52:07.900,14.0,11.0,19.090000152587898,7.9,20.2,17.3,10.6,-37.0,71.6,5.76031,23.2368,18.39,30.1049,-7.87245,-3.28199,2.13737,-46.0046,84.5192,-0.197358,-0.110071,-1.21123,249.2,3.6,52.1701,4.427230000000001,3.8,1.08656,284.329,4.548690000000001,145.745,-1.13789,176.295,0.879966,0.171503,228.742,2.8806,2.84688,27.681175231933604,22.0009689331055,23.0044822692871,22.0,-1028710.0,3384.09,pp-ro,1,1,-1,-1
1570535528.0,2019-10-08,13:52:08.000,14.0,11.0,19.0,10.0,19.1,16.9,15.8,-36.1,62.0,6.99085,22.9104,18.2721,24.6045,-11.9191,0.313988,5.45691,-46.1591,79.0345,-0.433134,-0.220304,-1.24614,249.2,3.6,52.1701,4.427230000000001,3.8,1.0970799999999998,288.23,4.54859,147.672,-0.7578239999999999,174.795,0.8693049999999999,0.168934,228.825,2.74855,2.76397,29.0453948974609,22.0009689331055,22.1879005432129,22.0,-1028350.0,3045.68,pp-ro,1,1,-1,-1
1570535528.1,2019-10-08,13:52:08.100,14.0,11.0,18.8600006103516,12.1,17.5,16.3,20.3,-34.4,52.7,10.9423,21.4424,17.8379,19.6017,-17.1281,-2.5836,14.2245,-45.6583,62.8524,-0.14379,-0.1119069999999999,-1.39093,254.8,3.4,52.1701,4.427230000000001,3.8,1.09653,286.867,4.54849,149.541,0.382263,173.295,0.858842,0.161342,228.897,2.61992,2.67479,30.0468444824219,22.0009689331055,20.766677856445305,22.0,-1028210.0,2645.75,pp-ro,1,1,-1,-1
1570535528.2,2019-10-08,13:52:08.200,14.0,11.0,18.8500003814697,13.1,16.8,15.8,22.6,-33.3,48.1,13.5138,19.8544,17.1407,31.6264,-21.4766,-9.19392,19.7216,-44.3268,52.0652,-0.0177868,-0.298853,-1.16251,254.8,3.4,52.1701,4.427230000000001,3.8,1.08933,274.728,4.54841,150.418,0.7623,172.495,0.853656,0.158916,228.868,2.5532,2.6284400000000003,30.697433471679695,22.0009689331055,20.0469150543213,22.0,-1027890.0,3907.09,pp-ro,1,1,-1,-1
1570535528.3,2019-10-08,13:52:08.300,14.0,11.0,18.6700000762939,14.7,15.3,14.4,26.5,-30.6,39.7,16.5745,17.677,15.227,16.2343,-14.9126,-6.84122,27.4863,-40.4597,36.8092,-0.460217,0.310998,-1.19367,254.8,3.4,52.1701,4.427230000000001,3.8,1.05774,266.581,4.54832,152.082,2.2823900000000004,171.095,0.8441049999999999,0.149063,228.928,2.42879,2.54196,30.9852600097656,22.0009689331055,18.6178379058838,22.0,-1027480.0,3537.92,pp-ro,1,1,-1,-1
1570535528.4,2019-10-08,13:52:08.400,14.0,12.0,18.479999542236303,16.1,13.9,13.6,30.0,-27.1,32.0,18.4484,15.9515,14.1983,14.8789,-4.01647,-9.88382,31.142,-36.3174,28.1347,-0.514084,-0.0263592,-1.45882,254.8,3.4,52.1701,4.427230000000001,3.8,1.06827,268.653,4.54823,153.572,3.80248,169.795,0.8353729999999999,0.1393569999999999,228.974,2.30395,2.46773,30.9529113769531,22.0009689331055,17.4102954864502,22.0,-1027200.0,2091.99,pp-ro,1,1,-1,-1
1570535528.5,2019-10-08,13:52:08.500,14.0,13.0,18.2800006866455,17.2,12.4,12.6,33.1,-23.5,24.6,19.8241,14.3255,13.0394,3.7838,-7.509530000000001,-5.55895,34.3365,-32.6113,20.363,-0.901482,-0.0586616,-1.53415,254.8,3.4,52.1701,4.427230000000001,3.8,1.06273,267.082,4.54815,154.974,5.70257,168.595,0.827133,0.12746,229.071,2.18139,2.39587,30.479431152343803,22.0009689331055,16.2061729431152,22.0,-1026880.0,3414.86,pp-ro,1,1,-1,-1
1570535528.6,2019-10-08,13:52:08.600,14.0,15.0,18.229999542236303,17.9,10.8,11.1,35.5,-19.6,17.3,19.8241,14.3255,13.0394,3.7838,-7.509530000000001,-5.55895,34.3365,-32.6113,20.363,-0.901482,-0.0586616,-1.53415,254.8,3.4,52.17,4.427230000000001,4.0,1.05664,263.85900000000004,4.54806,156.259,7.22265,167.495,0.819558,0.1181369999999999,229.18,2.05329,2.31683,29.392822265625,22.0009689331055,14.8778247833252,22.0,-1026750.0,2614.98,pp-ro,1,1,-1,-1
1570535528.7,2019-10-08,13:52:08.700,14.0,14.0,18.090000152587898,18.3,9.4,9.7,37.6,-15.6,9.3,20.7252,12.3757,11.2642,9.12857,-14.6959,-15.1888,36.4325,-27.9404,13.3305,-0.373103,0.176415,-1.23045,254.8,3.4,52.17,4.427230000000001,4.0,1.04057,252.29,4.54798,157.369,9.12273,166.595,0.813033,0.1065059999999999,229.351,1.91568,2.24802,28.115478515625,22.0009689331055,13.6780204772949,22.0,-1026300.0,3445.62,pp-ro,1,1,-1,-1
1570535528.8,2019-10-08,13:52:08.800,14.0,14.0,17.9400005340576,18.7,7.4,7.9,39.8,-9.5,4.1,21.2991,10.4963,9.61079,3.84947,-14.6022,-15.1476,37.7305,-22.381,7.54338,0.3548739999999999,0.16969,-1.07381,254.8,3.4,52.17,4.427230000000001,4.0,1.02616,244.84,4.54789,158.741,11.4028,165.395,0.8046369999999999,0.0927877,229.531,1.78847,2.14649,26.4838638305664,22.0009689331055,11.9114980697632,22.0,-1026020.0,2676.51,pp-ro,1,1,-1,-1
1570535528.9,2019-10-08,13:52:08.900,14.0,12.0,17.5900001525879,18.9,6.9,7.2,40.3,-7.2,1.4,21.8612,8.24268,7.4133,8.59152,-13.7892,-18.5019,39.0484,-15.0921,-0.363516,0.0286471999999999,0.100501,-1.07114,254.8,3.4,52.17,4.427230000000001,4.0,1.02007,245.091,4.54781,159.179,12.1629,164.995,0.801882,0.0883216,229.585,1.73033,2.11098,24.5048141479492,22.0009689331055,11.2932138442993,22.0,-1025800.0,1938.16,pp-ro,1,1,-1,-1
1570535529.0,2019-10-08,13:52:09.000,14.0,14.0,17.3899993896484,19.3,5.6,6.2,41.0,-3.2,-3.1,22.046,7.50316,6.701689999999999,3.3166,-12.6537,-11.0,39.3124,-12.6798,-2.76052,0.0741947,-0.129863,-1.09526,254.8,3.4,52.17,4.427230000000001,4.0,1.03558,257.254,4.54772,159.939,14.4429,164.395,0.797108,0.0746102,229.814,1.63553,2.04315,22.396316528320305,22.0009689331055,10.023737907409698,22.0,-1025650.0,1353.64,pp-ro,1,1,-1,-1
1570535529.1,2019-10-08,13:52:09.100,14.0,13.0,17.1800003051758,19.6,4.3,5.0,41.7,0.3,-7.4,22.4948,5.91343,5.46059,3.73502,-12.9635,-9.58541,40.1325,-8.6124,-7.417860000000001,0.356123,0.1284809999999999,-1.37505,253.7,4.3,52.17,4.427230000000001,4.0,1.04832,264.461,4.547630000000001,160.58100000000002,15.963,163.795,0.792848,0.0656803,229.935,1.5457,1.96509,20.2912368774414,22.0009689331055,8.59299468994141,22.0,-1025600.0,922.935,pp-ro,1,1,-1,-1
1570535529.2,2019-10-08,13:52:09.200,14.0,14.0,17.0799999237061,20.0,3.0,3.8,42.3,3.4,-11.0,22.6627,3.70336,3.5671699999999995,2.34619,-21.4045,-15.635,40.2955,-2.45998,-13.4615,-0.0213414,0.197423,-0.640292,253.7,4.3,52.17,4.427230000000001,4.0,1.0727,273.378,4.54753,161.078,18.2431,163.395,0.789354,0.0520876,230.167,1.47279,1.88694,19.238693237304695,22.0009689331055,7.06433916091919,22.0,-1025460.0,1815.1,pp-ro,1,1,-1,-1
1570535529.3,2019-10-08,13:52:09.300,14.0,15.0,16.9699993133545,20.4,2.0,2.9,43.0,5.6,-14.4,22.6627,3.70336,3.5671699999999995,2.34619,-21.4045,-15.635,40.2955,-2.45998,-13.4615,-0.0213414,0.197423,-0.640292,253.7,4.3,52.17,4.427230000000001,4.0,1.07492,271.159,4.54742,161.516,20.5231,162.995,0.785953,0.0385764,230.382,1.41341,1.8287400000000005,17.1336135864258,22.0009689331055,5.9391593933105495,22.0,-1025150.0,3384.09,pp-ro,1,1,-1,-1
1570535529.4,2019-10-08,13:52:09.400,14.0,14.0,17.020000457763697,20.6,1.1,2.0,43.7,7.6,-17.6,22.7706,2.40163,2.49968,3.22274,-14.9837,-10.4837,40.9675,0.5341560000000001,-16.7057,0.183539,-0.0522800999999999,-0.5775319999999999,253.7,4.3,52.17,4.427230000000001,4.0,1.0727,277.564,4.54732,161.778,22.4232,162.695,0.783466,0.0272887,230.531,1.35744,1.7744099999999998,14.5039596557617,22.0009689331055,4.86965656280518,22.0,-1024820.0,1199.82,pp-ro,1,1,-1,-1
1570535529.5,2019-10-08,13:52:09.500,14.0,12.0,17.3299999237061,20.5,0.4,1.4,44.5,9.2,-20.5,22.8081,0.948638,1.23141,-0.712471,-10.2949,-4.08036,42.0637,4.72265,-20.9333,-0.0005979469999999,0.210011,-0.638361,253.7,4.3,52.17,4.427230000000001,4.0,1.086,280.457,4.547219999999999,161.983,24.7033,162.395,0.780921,0.0138282999999999,230.696,1.31178,1.73983,12.3903579711914,22.0009689331055,4.17849397659302,22.0,-1024750.0,1476.7,pp-ro,1,1,-1,-1
1570535529.6,2019-10-08,13:52:09.600,14.0,10.0,17.6800003051758,20.3,-0.3,0.9,45.7,10.7,-22.9,22.4665,0.120642,0.652184,-3.51663,-11.6724,-6.10006,42.88,7.19,-23.5618,0.156779,0.00907436,-0.559933,253.7,4.3,52.17,4.427219999999999,4.1,1.08545,278.454,4.54712,162.129,26.6033,162.195,0.778961,0.00263104,230.86900000000003,1.27196,1.70649,10.3091201782227,22.0009689331055,3.5069587230682404,22.0,-1024430.0,3630.21,pp-ro,1,1,-1,-1
1570535529.7,2019-10-08,13:52:09.700,14.0,12.0,17.8799991607666,20.3,-1.2,0.3,46.4,11.8,-25.0,22.2457,-0.840284,0.0401859,-3.91111,-10.9195,-7.39677,43.4641,9.48189,-25.5233,0.134732,0.1137599999999999,-0.419368,253.7,4.3,52.17,4.427219999999999,4.1,1.0716,270.197,4.54702,162.158,28.8834,161.995,0.777088,-0.0108998,231.023,1.24242,1.6637,8.42714691162109,22.0009689331055,2.61664843559265,22.0,-1024130.0,2738.04,pp-ro,1,1,-1,-1
1570535529.8,2019-10-08,13:52:09.800,14.0,12.0,17.7800006866455,19.9,-2.0,-0.5,47.1,12.1,-26.8,21.8112,-1.74124,-0.622961,-7.17917,-7.691510000000001,-13.2925,44.7175,10.9973,-27.1585,0.0397885999999999,-0.0622717,-0.311266,253.7,4.3,52.17,4.427219999999999,4.1,1.06051,263.29200000000003,4.54692,162.07,31.1634,161.895,0.775782,-0.024493,231.188,1.22628,1.6159,6.29140472412109,22.0009689331055,1.58923184871674,22.0,-1023790.0,3599.45,pp-ro,1,1,-1,-1
1570535529.9,2019-10-08,13:52:09.900,14.0,10.0,17.6299991607666,19.6,-2.7,-1.1,48.1,12.1,-27.2,21.5556,-2.1575,-1.09299,-0.98901,-0.086226,-6.51804,44.9616,11.3727,-27.8617,0.0753559999999999,-0.0658441,-0.334729,253.7,4.3,52.17,4.427219999999999,4.1,1.05386,274.357,4.5468,161.924,33.0635,161.895,0.775097,-0.0358292,231.349,1.22949,1.5762200000000002,4.78242492675781,22.0009689331055,0.707125544548035,22.0,-1023560.0,1507.46,pp-ro,1,1,-1,-1
1570535530.0,2019-10-08,13:52:10.000,14.0,10.0,17.7800006866455,19.7,-3.4,-1.0,49.4,12.3,-28.1,21.5556,-2.1575,-1.09299,-0.98901,-0.086226,-6.51804,44.9616,11.3727,-27.8617,0.0753559999999999,-0.0658441,-0.334729,253.7,4.3,52.17,4.427219999999999,4.1,1.12534,299.487,4.54671,161.661,34.9635,161.895,0.7746930000000001,-0.0473213,231.445,1.22416,1.56448,3.3585968017578103,22.0009689331055,0.3597192466259,22.0,-1023500.0,1845.87,pp-ro,1,1,-1,-1
1570535530.1,2019-10-08,13:52:10.100,14.0,11.0,17.979999542236303,19.8,-3.7,-1.0,49.6,12.3,-29.5,21.024,-3.1999,-1.80848,-1.89638,-7.08925,-0.659852,46.1823,12.6724,-28.4715,0.292606,0.2349099999999999,-0.0875248999999999,255.5,5.0,52.17,4.427219999999999,4.1,1.12534,294.017,4.54662,161.398,36.8635,161.895,0.774223,-0.0587822999999999,231.556,1.2150299999999998,1.56312,2.7114028930664102,22.0009689331055,0.223836153745651,22.0,-1023300.0,3937.85,pp-ro,1,1,-1,-1
1570535530.2,2019-10-08,13:52:10.200,14.0,12.0,18.2199993133545,19.5,-3.7,-1.0,50.3,12.6,-30.8,21.0942,-4.09225,-1.56271,-1.03331,0.5931069999999999,-1.43403,47.4043,13.1182,-29.8756,0.177835,-0.283975,-0.107371,255.5,5.0,52.17,4.427219999999999,4.1,1.08489,279.822,4.54654,161.077,39.1436,161.895,0.773588,-0.0725398999999999,231.707,1.20516,1.57028,1.6316146850585902,22.0009689331055,0.240004345774651,22.0,-1022840.0,3876.33,pp-ro,1,1,-1,-1
1570535530.3,2019-10-08,13:52:10.300,14.0,11.0,18.3199996948242,19.6,-4.3,-1.3,50.9,12.1,-31.0,20.6435,-4.11448,-1.60119,-4.01764,0.477218,-2.77854,47.7901,13.211,-31.098000000000003,0.0409116,0.043544,-0.0999704,255.5,5.0,52.17,4.427219999999999,4.1,1.08046,277.385,4.54643,160.726,41.0436,161.995,0.773537,-0.0840581,231.862,1.21695,1.5482200000000002,0.8175048828125,22.0009689331055,-0.3515466451644899,22.0,-1022580.0,2491.92,pp-ro,1,1,-1,-1
1570535530.4,2019-10-08,13:52:10.400,14.0,11.0,18.5100002288818,19.7,-4.7,-1.4,51.7,11.7,-30.5,20.6435,-4.11448,-1.60119,-4.01764,0.477218,-2.77854,47.7901,13.211,-31.098000000000003,0.0409116,0.043544,-0.0999704,255.5,5.0,52.17,4.427219999999999,4.1,1.08157,284.197,4.54637,160.317,43.3237,162.095,0.773292,-0.0979281,232.063,1.23786,1.54209,0.272499084472656,22.0009689331055,-0.6453527212142939,22.0,-1022340.0,2122.75,pp-ro,1,1,-1,-1
1570535530.5,2019-10-08,13:52:10.500,14.0,11.0,18.7000007629395,20.0,-5.0,-1.2,51.7,10.5,-30.5,20.6435,-4.11448,-1.60119,-4.01764,0.477218,-2.77854,47.7901,13.211,-31.098000000000003,0.0409116,0.043544,-0.0999704,255.5,5.0,52.17,4.427219999999999,4.1,1.12811,305.097,4.54629,159.879,45.6037,162.095,0.772726,-0.111757,232.198,1.2622799999999998,1.55206,-0.04608154296875,22.0009689331055,-0.5925211906433111,22.0,-1022160.0,1692.05,pp-ro,1,1,-1,-1
1570535530.6,2019-10-08,13:52:10.600,14.0,11.0,18.979999542236303,20.1,-5.0,-0.9,52.4,9.9,-30.6,20.6264,-4.46871,-1.73905,-5.354830000000001,-6.700639999999999,-4.06589,48.3733,13.4678,-30.6973,0.0108361,0.190761,0.13824,255.5,5.0,52.17,4.427219999999999,4.2,1.13199,308.101,4.5462,159.38299999999998,47.1237,162.195,0.7731939999999999,-0.121288,232.23,1.27512,1.57019,-0.484725952148438,22.0009689331055,-0.419497609138489,22.0,-1022010.0,2953.39,pp-ro,1,1,-1,-1
1570535530.7,2019-10-08,13:52:10.700,14.0,11.0,19.25,20.3,-5.1,-0.6,52.5,9.4,-30.4,21.1056,-5.53321,-0.8353219999999999,-0.686214,-2.74535,1.7791400000000002,49.4178,11.2534,-30.1737,-0.0602986,-0.0361982,0.0546327999999999,255.5,5.0,52.17,4.427219999999999,4.2,1.12811,298.625,4.546119999999999,158.886,49.4038,162.095,0.772325,-0.135191,232.293,1.29362,1.58887,-0.657112121582031,22.0009689331055,-0.17477935552597,22.0,-1021520.0,3907.09,pp-ro,1,1,-1,-1
1570535530.8,2019-10-08,13:52:10.800,14.0,10.0,19.5699996948242,20.5,-5.2,-0.4,53.1,8.8,-30.2,21.1056,-5.53321,-0.8353219999999999,-0.686214,-2.74535,1.7791400000000002,49.4178,11.2534,-30.1737,-0.0602986,-0.0361982,0.0546327999999999,255.5,5.0,52.17,4.427219999999999,4.2,1.11648,295.009,4.54603,158.36,51.3038,162.095,0.772103,-0.146945,232.346,1.31179,1.60253,-0.506912231445312,22.0009689331055,-0.0699260607361789,22.0,-1021280.0,4737.73,pp-ro,1,1,-1,-1
1570535530.9,2019-10-08,13:52:10.900,14.0,8.0,19.7900009155273,20.6,-5.3,-0.1,53.0,7.7,-30.4,21.3669,-5.68987,-0.54987,5.73611,-2.46045,1.96377,49.5205,10.377,-30.4815,0.088503,-0.147481,0.191418,255.5,5.0,52.17,4.427219999999999,4.2,1.10207,297.10200000000003,4.54595,157.864,53.5839,162.095,0.771364,-0.16079,232.523,1.33268,1.62004,-0.100700378417969,22.0009689331055,0.127159759402275,22.0,-1020990.0,2030.46,pp-ro,1,1,-1,-1
1570535531.0,2019-10-08,13:52:11.000,14.0,10.0,20.0100002288818,20.7,-5.3,0.1,53.3,7.1,-30.5,21.3669,-5.68987,-0.54987,5.73611,-2.46045,1.96377,49.5205,10.377,-30.4815,0.088503,-0.147481,0.191418,255.5,5.0,52.17,4.427219999999999,4.2,1.13254,306.74,4.54587,157.25,55.4839,161.995,0.77093,-0.172679,232.483,1.34729,1.63594,-0.063148498535156,22.0009689331055,0.283252030611038,22.0,-1020660.0,3230.27,pp-ro,1,1,-1,-1
1570535531.1,2019-10-08,13:52:11.100,14.0,9.0,20.229999542236303,20.5,-5.4,0.2,53.5,6.9,-30.4,21.5111,-5.88141,0.0488913,2.27679,-1.89832,3.6291,49.8678,8.528319999999999,-30.5309,-0.152316,-0.144789,0.124799,251.3,4.5,52.17,4.427219999999999,4.2,1.1303299999999998,307.737,4.545780000000001,156.695,57.7639,161.895,0.769868,-0.186618,232.594,1.36087,1.64423,0.0953750610351559,22.0009689331055,-35.0,22.0,-1020490.0,3291.8,pp-ro,1,1,-1,-1
1570535531.2,2019-10-08,13:52:11.200,14.0,9.0,20.5799999237061,20.5,-5.7,0.2,53.5,6.6,-30.4,21.4736,-5.92026,0.128678,-3.80221,-2.43818,-0.249096,49.8099,8.482999999999999,-30.5168,-0.174277,0.0400246,-0.00353292,251.3,4.5,52.17,4.427219999999999,4.2,1.13698,312.545,4.54568,156.14,60.044,161.795,0.76871,-0.200459,232.729,1.37441,1.64434,0.189048767089844,22.0009689331055,-35.0,22.0,-1020240.0,2245.81,pp-ro,1,1,-1,-1
1570535531.3,2019-10-08,13:52:11.300,14.0,10.0,20.9599990844727,20.5,-5.8,0.4,53.4,5.8,-30.8,21.426,-6.00068,0.184624,-0.562214,-2.19156,1.62806,49.867,8.365739999999999,-30.6873,0.0176238,-0.0395818,-0.0526361999999999,251.3,4.5,52.17,4.427219999999999,4.2,1.1513799999999998,320.116,4.54559,155.52700000000002,61.944,161.595,0.76773,-0.212225,232.677,1.38782,1.65617,0.286125183105469,22.0009689331055,-35.0,22.0,-1019970.0,2676.51,pp-ro,1,1,-1,-1
1570535531.4,2019-10-08,13:52:11.400,14.0,10.0,21.25,20.8,-5.8,0.5,53.5,5.7,-31.1,21.3563,-6.50416,0.35675,-5.367380000000001,1.7463400000000002,-4.10433,49.8103,7.29484,-31.0009,0.0793303,0.132038,0.178348,251.3,4.5,52.17,4.427219999999999,4.2,1.15914,326.058,4.54549,154.91299999999998,64.22399999999999,161.495,0.766555,-0.226115,232.816,1.39523,1.67165,0.051094055175781,22.0009689331055,-35.0,22.0,-1019680.0,3045.68,pp-ro,1,1,-1,-1
1570535531.5,2019-10-08,13:52:11.500,14.0,10.0,21.5,21.2,-5.9,0.7,54.3,5.4,-32.1,21.3563,-6.50416,0.35675,-5.367380000000001,1.7463400000000002,-4.10433,49.8103,7.29484,-31.0009,0.0793303,0.132038,0.178348,251.3,4.5,52.17,4.427219999999999,4.2,1.18186,344.862,4.5454,154.3,66.124,161.395,0.765731,-0.237876,232.872,1.39509,1.68645,-0.563232421875,22.0009689331055,-35.0,22.0,-1019450.0,1907.4,pp-ro,1,1,-1,-1
1570535531.6,2019-10-08,13:52:11.600,14.0,10.0,21.8199996948242,21.9,-6.3,1.0,54.4,5.1,-32.3,21.5014,-6.44808,0.3873769999999999,3.852030000000001,-0.135346,0.661877,49.8878,7.17948,-31.0875,-0.0367327,-0.0592028,-0.022143,251.3,4.5,52.17,4.427219999999999,4.3,1.2356,385.036,4.5453,153.687,68.4041,161.295,0.764379,-0.251675,233.055,1.40615,1.6986599999999998,-1.5360946655273402,22.0009689331055,-35.0,22.0,-1019340.0,707.5830000000001,pp-ro,1,1,-1,-1
1570535531.7,2019-10-08,13:52:11.700,14.0,10.0,22.1399993896484,21.9,-6.5,1.8,54.8,3.6,-33.2,21.5014,-6.44808,0.3873769999999999,3.852030000000001,-0.135346,0.661877,49.8878,7.17948,-31.0875,-0.0367327,-0.0592028,-0.022143,251.3,4.5,52.17,4.427219999999999,4.3,1.36083,435.226,4.54521,152.985,70.3041,161.095,0.7633310000000001,-0.263584,233.021,1.42238,1.72606,-2.88103485107422,22.0025119781494,-35.0,22.0,-1019320.0,2553.45,pp-ro,1,1,-1,-1
1570535531.8,2019-10-08,13:52:11.800,14.0,9.0,22.690000534057603,22.1,-6.2,2.2,55.3,3.2,-32.8,22.6534,-7.16412,1.68327,-7.29325,4.51909,8.71744,50.2472,6.11577,-32.4296,0.238304,-0.205696,0.27656,251.3,4.5,52.17,4.427219999999999,4.3,1.36083,436.505,4.54511,152.314,72.9641,160.795,0.7608550000000001,-0.279462,233.191,1.44352,1.75965,-4.58781433105469,22.0019989013672,-35.0,22.0,-1018960.0,6552.84,pp-ro,1,1,-1,-1
1570535531.9,2019-10-08,13:52:11.900,14.0,9.0,23.0699996948242,22.0,-5.9,3.0,56.5,2.4,-32.1,22.5696,-7.05207,2.20656,-2.6365,2.11791,0.975234,50.6544,5.66605,-32.4401,0.0137860999999999,0.1413,-0.0451444,251.3,4.5,52.17,4.427219999999999,4.3,1.3431,416.831,4.54502,151.671,75.2442,160.495,0.758677,-0.293152,233.29,1.47172,1.80245,-6.61546325683594,22.0025119781494,-35.0,22.0,-1018330.0,6768.19,pp-ro,1,1,-1,-1
1570535532.0,2019-10-08,13:52:12.000,14.0,8.0,23.4500007629395,22.3,-5.3,4.0,57.1,0.0,-32.1,22.484,-6.46389,3.41362,7.5123,2.0749,11.7827,51.7622,3.60732,-31.8809,0.1178,-0.167904,0.309259,251.3,4.5,52.17,4.427219999999999,4.3,1.2899,395.889,4.544919999999999,151.08700000000002,77.1442,159.995,0.7561399999999999,-0.304621,233.188,1.51022,1.8601,-8.72162628173828,22.0025119781494,-35.0,22.0,-1017500.0,7906.47,pp-ro,1,1,-1,-1
1570535532.1,2019-10-08,13:52:12.100,14.0,9.0,23.600000381469695,22.4,-4.5,5.0,57.8,-1.8,-30.7,22.484,-6.46389,3.41362,7.5123,2.0749,11.7827,51.7622,3.60732,-31.8809,0.1178,-0.167904,0.309259,249.9,4.8,52.17,4.427219999999999,4.3,1.27882,389.327,4.54482,150.561,79.4242,159.495,0.752864,-0.3178539999999999,233.271,1.5592700000000002,1.92381,-10.827789306640598,22.0025119781494,-35.0,22.0,-1016800.0,4368.56,pp-ro,1,1,-1,-1
1570535532.2,2019-10-08,13:52:12.200,14.0,9.0,23.6700000762939,22.7,-3.8,6.4,59.1,-4.6,-28.9,22.5411,-6.14125,3.87868,-1.4789,3.75728,10.054,52.2237,2.60935,-31.6114,0.217216,-0.174673,0.418529,249.9,4.8,52.17,4.427219999999999,4.3,1.27106,392.711,4.54471,150.123,82.0843,158.895,0.748434,-0.332694,233.5,1.62695,1.9955,-12.9271240234375,22.0025119781494,-35.0,22.0,-1016330.0,4091.68,pp-ro,1,1,-1,-1
1570535532.3,2019-10-08,13:52:12.300,14.0,10.0,23.530000686645497,23.1,-2.7,8.0,60.3,-8.0,-26.7,22.6147,-3.98025,6.98235,4.96397,7.510260000000001,15.3797,55.4119,-3.22698,-26.7746,0.2946809999999999,-0.0935473,0.5003529999999999,249.9,4.8,52.17,4.427219999999999,4.3,1.28381,398.852,4.54461,149.77200000000002,83.9843,158.195,0.744448,-0.3432739999999999,233.475,1.70402,2.0784700000000003,-15.026458740234402,22.0025119781494,-35.0,22.0,-1016180.0,2891.86,pp-ro,1,1,-1,-1
1570535532.4,2019-10-08,13:52:12.400,14.0,10.0,23.4500007629395,23.4,-1.6,10.0,61.4,-12.6,-25.3,22.6437,-3.3971,7.75517,-2.35739,13.098,17.9346,55.8531,-4.96403,-25.2623,0.350385,-0.026371,0.8716280000000001,249.9,4.8,52.17,4.427219999999999,4.3,1.31318,419.31,4.5445,149.509,86.2644,157.295,0.739006,-0.355434,233.53,1.78826,2.16825,-17.134323120117198,22.0025119781494,-35.0,22.0,-1015840.0,3414.86,pp-ro,1,1,-1,-1
1570535532.5,2019-10-08,13:52:12.500,14.0,10.0,23.2999992370605,23.2,-0.9,11.1,62.0,-18.4,-22.9,22.6437,-3.3971,7.75517,-2.35739,13.098,17.9346,55.8531,-4.96403,-25.2623,0.350385,-0.026371,0.8716280000000001,249.9,4.8,52.17,4.427219999999999,4.3,1.36027,437.501,4.54439,149.334,88.9244,156.195,0.732085,-0.369088,233.677,1.90051,2.22605,-19.24560546875,22.0035419464111,-35.0,22.0,-1015310.0,4830.02,pp-ro,1,1,-1,-1
1570535532.6,2019-10-08,13:52:12.600,14.0,9.0,23.260000228881804,22.4,1.6,14.2,62.3,-24.4,-19.0,22.6526,-1.46431,10.6725,-4.21623,11.4247,11.8502,58.5319,-12.5912,-21.554,0.0340654,-0.0243842,1.07236,249.9,4.8,52.17,4.427219999999999,4.2,1.36027,439.409,4.54426,149.392,90.8244,154.795,0.7246779999999999,-0.378201,233.514,2.02812,2.3812900000000004,-21.3688354492188,22.003026962280305,-35.0,22.0,-1014770.0,4491.62,pp-ro,1,1,-1,-1
1570535532.7,2019-10-08,13:52:12.700,14.0,10.0,23.4099998474121,21.3,3.8,16.3,62.1,-31.1,-14.7,21.5642,1.16027,13.5919,-0.946111,24.9599,23.7665,58.3994,-20.8468,-15.1954,0.418933,0.127385,1.29759,249.9,4.8,52.17,4.427219999999999,4.2,1.35307,422.514,4.54418,149.597,93.1045,153.395,0.7163069999999999,-0.388525,233.618,2.16762,2.50624,-23.4920654296875,22.0035419464111,-35.0,22.0,-1014130.0,7968.0,pp-ro,1,1,-1,-1
1570535532.8,2019-10-08,13:52:12.800,14.0,10.0,23.5900001525879,19.6,6.2,18.0,61.7,-38.1,-10.5,20.3743,3.31377,15.5183,-16.7315,19.7728,13.3238,57.62,-26.737,-9.24428,0.36876,0.097678,1.47232,249.9,4.8,52.17,4.427219999999999,4.2,1.32592,410.715,4.54407,150.093,95.0045,151.595,0.706471,-0.396046,233.527,2.30504,2.6354900000000003,-25.6221160888672,22.0035419464111,-35.0,22.0,-1013650.0,8952.47,pp-ro,1,1,-1,-1
1570535532.9,2019-10-08,13:52:12.900,14.0,8.0,23.780000686645497,17.7,8.5,19.4,59.5,-44.1,-4.0,18.6687,5.50964,17.0518,-18.1831,18.202,13.058,55.9708,-32.9424,-3.71631,0.0210027,0.146152,1.2856299999999998,249.9,4.8,52.17,4.427219999999999,4.2,1.28104,388.934,4.54396,150.735,97.2845,149.895,0.6960270000000001,-0.404709,233.782,2.44767,2.76061,-27.7282791137695,22.003026962280305,-35.0,22.0,-1013010.0,5660.67,pp-ro,1,1,-1,-1
1570535533.0,2019-10-08,13:52:13.000,14.0,9.0,23.7399997711182,16.5,9.7,20.0,55.9,-50.5,3.4,17.6878,6.5124,17.7005,-18.329,12.7972,7.33444,54.6474,-35.9782,-0.0292605,0.271894,0.118298,1.49087,249.9,4.8,52.17,4.427219999999999,4.2,1.2561,374.585,4.54386,151.641,98.8046,148.095,0.68577,-0.408946,233.857,2.59298,2.82832,-29.7900695800781,22.003026962280305,-35.0,22.0,-1012410.0,6460.54,pp-ro,1,1,-1,-1
1570535533.1,2019-10-08,13:52:13.100,14.0,11.0,23.6200008392334,14.1,11.5,21.1,53.8,-53.7,8.5,14.3668,9.57225,19.0733,-22.8339,10.9528,15.9219,48.1447,-44.0051,13.3734,0.665988,0.663512,1.3807,253.5,4.6,52.17,4.427219999999999,4.2,1.23671,369.207,4.5438,152.78,100.325,147.195,0.677984,-0.412451,234.676,2.67446,2.94383,-31.5258483886719,22.0035419464111,-35.0,22.0,-1011940.0,3845.56,pp-ro,1,1,-1,-1
1570535533.2,2019-10-08,13:52:13.200,14.0,12.0,23.440000534057603,11.6,13.6,21.7,46.4,-59.5,19.7,14.3668,9.57225,19.0733,-22.8339,10.9528,15.9219,48.1447,-44.0051,13.3734,0.665988,0.663512,1.3807,253.5,4.6,52.17,4.427219999999999,4.2,1.23173,364.61300000000006,4.54378,153.422,100.705,145.295,0.669664,-0.4122439999999999,234.073,2.8231900000000003,3.06201,-32.9134674072266,22.0035419464111,-35.0,22.0,-1011250.0,5322.26,pp-ro,1,1,-1,-1
1570535533.3,2019-10-08,13:52:13.300,14.0,14.0,23.3199996948242,8.9,15.5,22.2,33.1,-63.2,37.9,9.34155,13.1102,20.3571,-29.282,14.0861,7.644710000000001,32.3344,-52.1112,37.9739,0.4220359999999999,0.680871,1.54901,253.5,4.6,52.17,4.427219999999999,4.2,1.22452,364.757,4.54376,154.85299999999998,101.845,143.395,0.6584800000000001,-0.413134,234.337,2.9927200000000003,3.1795400000000003,-33.9511871337891,22.0035419464111,-23.0163822174072,22.0,-1011020.0,4337.79,pp-ro,1,1,-1,-1
1570535533.4,2019-10-08,13:52:13.400,14.0,14.0,23.1700000762939,5.8,16.8,22.4,18.7,-64.0,56.8,6.726710000000001,14.3767,20.8452,-30.8091,16.298,-3.18988,21.0931,-52.9612,53.4077,-0.04048,0.333256,1.61737,253.5,4.6,52.17,4.427219999999999,4.2,1.21676,347.028,4.54375,156.401,102.605,141.494,0.647609,-0.411967,234.542,3.14211,3.2948800000000005,-34.6304779052734,22.003026962280305,-23.0139999389648,22.0,-1010320.0,6829.72,pp-ro,1,1,-1,-1
1570535533.5,2019-10-08,13:52:13.500,14.0,14.0,23.0900001525879,1.7,18.7,21.6,-3.5,-63.1,85.7,3.84,15.7351,20.6278,-24.5042,7.544589999999999,-4.56021,9.41406,-52.7587,69.0648,-0.0565300999999999,0.140899,1.44589,253.5,4.6,52.17,4.427219999999999,4.2,1.17188,329.249,4.54373,158.91299999999998,102.985,138.79399999999998,0.632497,-0.406362,234.783,3.36514,3.45212,-34.9445190429688,22.003026962280305,-23.0139999389648,22.0,-1009770.0,4614.67,pp-ro,1,1,-1,-1
1570535533.6,2019-10-08,13:52:13.600,14.0,13.0,22.969999313354503,0.3,19.1,21.1,-10.0,-60.9,93.7,1.26458,16.5471,19.9035,-20.6843,3.0146900000000003,-8.05317,-1.42472,-51.3451,83.5349,0.113994,0.288785,1.61881,253.5,4.6,52.17,4.427219999999999,4.0,1.16745,324.565,4.54372,159.877,103.745,137.79399999999998,0.625995,-0.406936,235.183,3.44235,3.50619,-34.942825317382805,22.003026962280305,-23.0139999389648,22.0,-1009580.0,3691.74,pp-ro,1,1,-1,-1
1570535533.7,2019-10-08,13:52:13.700,14.0,13.0,22.780000686645497,-2.3,20.0,20.1,-20.4,-56.5,107.8,-1.1458700000000002,17.1078,18.8771,-18.6927,10.415,-16.8471,-11.7183,-48.0317,97.2111,0.1023159999999999,0.167352,1.6885,253.5,4.6,52.17,4.427219999999999,4.0,1.15249,316.597,4.5437,161.804,103.745,135.994,0.615769,-0.401461,235.453,3.59053,3.60598,-34.533203125,22.0025119781494,-23.0116176605225,22.0,-1009160.0,4399.32,pp-ro,1,1,-1,-1
1570535533.8,2019-10-08,13:52:13.800,14.0,12.0,22.5799999237061,-5.0,20.0,18.7,-28.7,-51.2,120.4,-2.39242,17.41,18.3611,-29.473000000000003,5.04332,-16.0956,-15.9557,-45.6025,103.503,-0.353153,0.1153579999999999,1.233,253.5,4.6,52.17,4.427219999999999,4.0,1.15526,327.267,4.54369,163.819,102.985,134.394,0.607052,-0.392518,235.594,3.7462,3.70599,-33.7617340087891,22.003026962280305,-23.0139999389648,22.0,-1008750.0,1599.75,pp-ro,1,1,-1,-1
1570535533.9,2019-10-08,13:52:13.900,14.0,12.0,22.3400001525879,-7.3,20.1,17.1,-33.4,-44.9,128.6,-4.80865,17.502,17.2774,-22.5572,-5.72706,-13.1182,-23.406,-40.1211,114.425,0.0779105,0.4138729999999999,1.37935,253.5,4.6,52.17,4.427219999999999,4.0,1.17078,331.285,4.54367,165.747,102.605,132.894,0.598362,-0.38559,235.925,3.89074,3.80244,-32.611358642578104,22.0035419464111,-23.0163822174072,22.0,-1008660.0,1692.05,pp-ro,1,1,-1,-1
1570535534.0,2019-10-08,13:52:14.000,14.0,13.0,22.1399993896484,-9.5,20.3,15.4,-36.2,-38.8,135.1,-6.90928,17.4545,15.7762,-19.8503,4.8815800000000005,-13.7449,-27.8981,-34.9,122.3,0.285913,0.387812,1.3627,253.5,4.6,52.17,4.427219999999999,4.0,1.17465,323.033,4.54366,167.704,101.845,131.494,0.590433,-0.377031,236.194,4.02423,3.89963,-31.1162261962891,22.0035419464111,-23.0163822174072,22.0,-1008260.0,5291.49,pp-ro,1,1,-1,-1
1570535534.1,2019-10-08,13:52:14.100,14.0,14.0,21.8600006103516,-11.4,20.0,13.6,-37.5,-32.3,139.6,-8.031089999999999,17.5832,15.0813,-23.6198,1.95425,-10.4446,-29.5629,-32.074,125.713,-0.16288,0.422878,1.07987,252.1,4.3,52.17,4.427219999999999,4.0,1.14806,325.188,4.54361,169.69,101.085,130.194,0.582785,-0.36848,236.566,4.1512,3.99145,-29.2592620849609,22.0035419464111,-23.0163822174072,22.0,-1007790.0,3568.68,pp-ro,1,1,-1,-1
1570535534.2,2019-10-08,13:52:14.200,14.0,13.0,21.7000007629395,-13.0,19.1,12.1,-39.3,-26.6,144.1,-10.8736,17.1332,12.952,-8.813260000000001,-2.82515,-14.3868,-34.0418,-24.4893,134.425,-0.2452889999999999,0.368054,1.30088,252.1,4.3,52.17,4.427219999999999,4.0,1.17909,334.69199999999995,4.54354,171.588,99.945,129.094,0.57645,-0.358583,236.848,4.26802,4.07076,-27.3425445556641,22.0035419464111,-23.0163822174072,22.0,-1007680.0,1045.99,pp-ro,1,1,-1,-1
1570535534.3,2019-10-08,13:52:14.300,14.0,14.0,21.4500007629395,-14.2,18.6,10.3,-40.0,-21.1,147.8,-12.8924,16.227999999999998,10.7189,-9.39289,-5.60601,-11.3862,-36.5835,-16.3739,141.56799999999998,-0.00171251,0.163321,1.12116,252.1,4.3,52.17,4.427219999999999,4.0,1.15083,313.512,4.54347,173.399,98.425,128.094,0.571045,-0.347354,236.987,4.37597,4.14835,-25.7808532714844,22.003026962280305,-21.6661071777344,22.0,-1006900.0,6583.6,pp-ro,1,1,-1,-1
1570535534.4,2019-10-08,13:52:14.400,14.0,14.0,21.3700008392334,-15.3,18.3,8.4,-40.1,-14.9,150.3,-13.5407,16.1297,9.84069,-9.44506,1.46505,-13.2297,-37.093,-14.2727,143.658,-0.347911,0.168169,0.8523440000000001,252.1,4.3,52.17,4.427219999999999,4.0,1.1297700000000002,315.422,4.5434,175.268,96.905,127.194,0.56583,-0.336074,237.251,4.48465,4.2279,-24.4632186889648,22.003026962280305,-20.2238464355469,22.0,-1006570.0,2276.57,pp-ro,1,1,-1,-1
1570535534.5,2019-10-08,13:52:14.500,14.0,14.0,21.1200008392334,-16.6,17.6,7.0,-40.4,-10.3,153.9,-14.0516,15.9907,8.840160000000001,-3.75591,-4.84735,-15.5299,-37.6542,-11.6501,145.363,-0.0777288,0.499755,1.09666,252.1,4.3,52.17,4.427219999999999,4.0,1.1464,323.473,4.54333,176.96200000000002,95.385,126.494,0.5616300000000001,-0.325308,237.518,4.57993,4.30237,-23.1421737670898,22.003026962280305,-18.862018585205103,22.0,-1006530.0,676.819,pp-ro,1,1,-1,-1
1570535534.6,2019-10-08,13:52:14.600,14.0,15.0,20.9899997711182,-17.7,16.9,5.6,-41.0,-5.9,156.6,-15.3652,15.5653,7.50483,-10.7403,-3.0861,-8.42239,-38.9198,-6.69619,148.747,0.0247627,0.269038,0.997079,252.1,4.3,52.17,4.427230000000001,3.7,1.18795,343.727,4.54325,178.627,93.865,125.794,0.557446,-0.314679,237.787,4.66445,4.37286,-22.4731140136719,22.003026962280305,-17.5843505859375,22.0,-1006320.0,3230.27,pp-ro,1,1,-1,-1
1570535534.7,2019-10-08,13:52:14.700,14.0,15.0,20.9500007629395,-18.3,15.9,4.1,-41.3,-1.7,159.7,-16.7504,14.4726,5.5109,-3.88445,-8.62682,-20.244,-40.2103,-0.543171,154.335,0.0268312,-0.000143364,0.812179,252.1,4.3,52.17,4.427230000000001,3.7,1.24004,368.787,4.543159999999999,180.204,91.965,125.294,0.554492,-0.302655,237.97,4.74916,4.44037,-21.1554870605469,22.004056930542003,-16.3435230255127,22.0,-1006040.0,1815.1,pp-ro,1,1,-1,-1
1570535534.8,2019-10-08,13:52:14.800,14.0,14.0,20.909999847412102,-18.9,14.8,2.9,-42.2,1.2,162.7,-17.2585,14.0596,4.71943,-13.2881,-8.91946,-12.409,-40.6184,1.18841,155.922,0.0130521,0.034556,0.878525,252.1,4.3,52.17,4.427230000000001,3.7,1.2489,374.417,4.5431,181.665,90.0651,124.794,0.55171,-0.290975,238.091,4.81379,4.50201,-19.8480987548828,22.0035419464111,-15.2203521728516,22.0,-1005820.0,4183.97,pp-ro,1,1,-1,-1
1570535534.9,2019-10-08,13:52:14.900,14.0,16.0,20.9899997711182,-19.1,13.9,1.6,-42.4,4.4,165.0,-18.2138,12.7313,2.89648,-9.30759,-2.32119,-15.1262,-41.8862,5.92746,160.77100000000002,-0.222155,0.324939,0.829484,252.1,4.3,52.17,4.427230000000001,3.7,1.24724,370.869,4.54304,183.008,88.1651,124.394,0.549459,-0.279597,238.2,4.87657,4.55976,-18.5441207885742,22.0035419464111,-14.1654777526855,22.0,-1005440.0,3660.97,pp-ro,1,1,-1,-1
1570535535.0,2019-10-08,13:52:15.000,14.0,15.0,20.9899997711182,-19.5,13.2,0.4,-42.6,8.1,167.1,-18.2833,11.883,1.60179,0.5868720000000001,-3.83693,-10.1022,-42.5517,9.0121,163.233,-0.215129,0.122377,0.569395,252.1,4.3,52.17,4.427230000000001,3.7,1.23283,361.275,4.54296,184.264,86.2651,123.994,0.5473279999999999,-0.268422,238.264,4.94484,4.61551,-16.9773025512695,22.0035419464111,-13.1515617370605,22.0,-1004880.0,6337.48,pp-ro,1,1,-1,-1
1570535535.1,2019-10-08,13:52:15.100,14.0,15.0,20.9500007629395,-19.7,11.8,-0.7,-42.4,10.6,168.2,-18.8596,10.8378,0.247493,-1.36634,-17.8467,-15.4142,-43.0285,12.0357,164.90400000000002,-0.267396,0.111413,0.384318,249.2,4.5,52.17,4.427230000000001,3.7,1.22231,370.712,4.54289,185.403,84.3651,123.794,0.546092,-0.257569,238.363,4.986000000000001,4.679869999999999,-15.7996215820312,22.003026962280305,-11.944681167602502,22.0,-1004470.0,2830.33,pp-ro,1,1,-1,-1
1570535535.2,2019-10-08,13:52:15.200,14.0,15.0,20.8600006103516,-20.1,10.7,-1.7,-42.6,11.8,170.1,-19.202,10.2308,-0.357774,-6.77606,-15.0761,-10.4734,-43.1294,13.0206,165.82299999999998,0.071846,-0.065966,0.448121,249.2,4.5,52.17,4.427230000000001,3.7,1.26331,373.949,4.54281,186.455,82.4651,123.694,0.545338,-0.246833,238.466,5.01571,4.738569999999999,-14.6663208007812,22.0035419464111,-10.8414125442505,22.0,-1003960.0,6337.48,pp-ro,1,1,-1,-1
1570535535.3,2019-10-08,13:52:15.300,14.0,14.0,20.5300006866455,-19.8,9.9,-2.5,-42.6,13.2,171.8,-19.202,10.2308,-0.357774,-6.77606,-15.0761,-10.4734,-43.1294,13.0206,165.82299999999998,0.071846,-0.065966,0.448121,249.2,4.5,52.17,4.427230000000001,3.7,1.24447,370.856,4.54272,187.419,80.1851,123.594,0.545035,-0.2346059999999999,238.393,5.045640000000001,4.77821,-13.5210800170898,22.0035419464111,-10.1184034347534,22.0,-1003620.0,6922.01,pp-ro,1,1,-1,-1
1570535535.4,2019-10-08,13:52:15.400,14.0,13.0,20.3099994659424,-19.7,9.1,-3.0,-42.8,14.5,172.8,-19.1357,8.34215,-2.23086,1.70068,-11.2869,-7.90016,-43.1105,15.1551,169.767,-0.149837,-0.272537,0.263602,249.2,4.5,52.17,4.427230000000001,3.7,1.23782,367.526,4.5426400000000005,188.295,78.6651,123.594,0.544567,-0.225984,238.577,5.06936,4.81122,-12.0890960693359,22.0035419464111,-9.51784515380859,22.0,-1003270.0,2461.16,pp-ro,1,1,-1,-1
1570535535.5,2019-10-08,13:52:15.500,14.0,14.0,20.0499992370605,-19.7,8.7,-3.2,-43.0,16.1,174.4,-18.9919,7.65586,-2.6893,0.8766510000000001,-1.62742,-2.64177,-43.3609,16.1814,171.69299999999998,-0.295934,-0.148327,0.300881,249.2,4.5,52.17,4.427230000000001,3.7,1.23727,362.506,4.54255,189.113,76.3851,123.594,0.544806,-0.214038,238.483,5.1013,4.8225,-11.5497512817383,22.003026962280305,-9.35364246368408,22.0,-1002730.0,6214.43,pp-ro,1,1,-1,-1
