time,date,time_of_day,airspeed_temperature,airspeed_angle_of_attack,airspeed_apparent_windspeed,kite_0_vx,kite_0_vy,kite_0_vz,kite_0_roll,kite_0_pitch,kite_0_yaw,kite_1_vx,kite_1_vy,kite_1_vz,kite_1_ax,kite_1_ay,kite_1_az,kite_1_roll,kite_1_pitch,kite_1_yaw,kite_1_roll_rate,kite_1_pitch_rate,kite_1_yaw_rate,ground_upwind_direction,ground_wind_velocity,ground_pos_latitude,ground_pos_longitude,ground_pos_altitude,ground_tether_reelout_speed,ground_tether_force,est_upwind_direction,kite_pos_east,kite_pos_north,kite_height,kite_elevation,kite_azimuth,kite_distance,kite_heading,kite_course,kite_actual_steering,kite_actual_depower,kite_set_steering,kite_set_depower,ground_mech_energy,ground_mech_power,flight_phase,flight_phase_index,phase,pattern,pattern_section
1570531845.7,2019-10-08,12:50:45.700,15.0,7.0,15.6999998092651,12.8,0.2,3.3,19.5,-9.1,-40.5,11.239,-0.8774709999999999,3.1238,7.86021,12.354,1.2085,22.462,5.31238,-49.3817,0.258401,0.264344,0.952281,262.8,6.6,52.1701,4.427230000000001,-0.8,-2.54268,104.476,4.68142,33.2674,4.56027,227.951,1.42454,-0.105269,230.411,1.02505,1.75798,-34.941116333007805,22.0009689331055,-35.0,22.0,-397351.0,-5937.55,pp-riro,4,0,-1,-1
1570531845.8,2019-10-08,12:50:45.800,15.0,7.0,15.4099998474121,13.3,1.5,3.7,20.4,-11.1,-35.5,12.1956,0.924815,3.77593,7.39542,11.2331,6.94375,24.5081,3.7968,-40.5847,0.115602,0.275844,1.00683,262.5,7.2,52.1701,4.427230000000001,-0.8,-2.52385,104.559,4.6814,33.2966,6.08033,227.651,1.4232,-0.149644,230.154,1.16255,1.89924,-34.971832275390604,21.9994239807129,-35.0,22.0,-397634.0,-1476.7,pp-riro,4,0,-1,-1
1570531845.9,2019-10-08,12:50:45.900,15.0,8.0,15.0,13.7,2.9,3.9,21.4,-12.9,-30.4,12.6577,2.21264,4.20354,2.09338,12.7031,4.18861,25.6884,2.34477,-34.4423,0.0924888999999999,0.1635309999999999,0.98794,262.5,7.2,52.1701,4.427230000000001,-0.8,-2.51886,84.5119,4.68136,33.4134,7.22037,227.451,1.42162,-0.1817869999999999,230.006,1.2890700000000002,2.02533,-34.973541259765604,21.9994239807129,-35.0,22.0,-398561.0,-9198.58,pp-riro,4,0,-1,-1
1570531846.0,2019-10-08,12:50:46.000,15.0,8.0,14.6499996185303,14.1,4.4,4.1,22.3,-14.3,-25.0,12.8041,2.88833,4.260280000000001,1.85166,12.0732,0.062048,26.1016,1.33819,-31.5557,0.191776,0.0689681,1.0053,262.5,7.2,52.1701,4.427230000000001,-0.8,-2.55487,80.9228,4.6813,33.7347,8.36041,227.151,1.41897,-0.211871,229.795,1.41769,2.14643,-34.9923248291016,21.9994239807129,-35.0,22.0,-399353.0,-15166.9,pp-riro,4,0,-1,-1
1570531846.1,2019-10-08,12:50:46.100,15.0,8.0,14.5200004577637,14.3,5.6,4.3,23.4,-15.5,-19.9,13.3502,5.44577,4.60511,2.06791,12.1287,1.86291,28.2409,-1.73396,-20.4513,0.27619,0.30421,0.943275,262.5,7.2,52.1701,4.427230000000001,-0.8,-2.63743,82.315,4.68126,34.1436,10.2605,226.851,1.41491,-0.260821,229.636,1.55914,2.26366,-34.9974365234375,21.9994239807129,-35.0,22.0,-401039.0,-18212.6,pp-riro,4,0,-1,-1
1570531846.2,2019-10-08,12:50:46.200,15.0,8.0,14.460000038147,14.5,6.8,4.9,24.0,-17.2,-14.9,13.3502,5.44577,4.60511,2.06791,12.1287,1.86291,28.2409,-1.73396,-20.4513,0.27619,0.30421,0.943275,262.5,7.2,52.1701,4.427230000000001,-0.8,-2.72221,88.9584,4.68122,34.6985,11.4005,226.551,1.41096,-0.2862989999999999,229.477,1.67648,2.35504,-34.9991455078125,21.9994239807129,-35.0,22.0,-402586.0,-15782.2,pp-riro,4,0,-1,-1
1570531846.3,2019-10-08,12:50:46.300,15.0,9.0,14.2799997329712,14.5,7.9,5.3,24.3,-19.3,-9.8,13.3502,5.44577,4.60511,2.06791,12.1287,1.86291,28.2409,-1.73396,-20.4513,0.27619,0.30421,0.943275,262.5,7.2,52.1701,4.427230000000001,-0.8,-2.77263,89.5694,4.68117,35.3411,13.3006,226.152,1.40535,-0.328734,229.282,1.81323,2.4565200000000003,-34.9974365234375,21.9994239807129,-35.0,22.0,-403947.0,-13259.5,pp-riro,4,0,-1,-1
1570531846.4,2019-10-08,12:50:46.400,15.0,9.0,14.0900001525879,14.4,9.2,5.5,24.3,-21.0,-4.3,13.5653,7.127260000000001,5.30071,0.0397454999999999,10.0463,2.30021,29.1277,-3.97021,-11.6044,0.155013,0.258698,1.03962,262.5,7.2,52.1701,4.427230000000001,-0.9,-2.82693,83.7298,4.68112,36.1004,14.4406,225.752,1.40024,-0.349274,229.075,1.93314,2.54394,-35.0042724609375,21.9994239807129,-35.0,22.0,-405437.0,-16335.9,pp-riro,4,0,-1,-1
1570531846.5,2019-10-08,12:50:46.500,15.0,10.0,13.8999996185303,14.1,10.4,5.6,24.5,-22.3,1.6,13.2779,8.88087,5.72233,-2.31712,11.880999999999998,1.88461,29.2016,-6.727180000000001,-2.99109,0.1867079999999999,0.221874,0.98984,262.5,7.2,52.1701,4.427230000000001,-0.9,-2.94827,77.3929,4.681080000000001,37.0059,15.2007,225.252,1.39502,-0.358438,228.777,2.0467,2.61744,-35.0059814453125,21.9994239807129,-35.0,22.0,-408411.0,-21596.7,pp-riro,4,0,-1,-1
1570531846.6,2019-10-08,12:50:46.600,15.0,9.0,13.960000038147,14.0,11.0,5.8,24.3,-23.0,4.6,13.0502,10.0477,5.88612,-2.53782,10.1011,3.51018,29.2859,-8.41049,2.80717,0.0755449,0.182521,1.0075,262.5,7.2,52.1701,4.427230000000001,-0.9,-3.00368,78.1515,4.681030000000001,37.5316,16.7207,224.952,1.39014,-0.387778,228.673,2.12833,2.67571,-35.0059814453125,21.9994239807129,-35.0,22.0,-409499.0,-21012.1,pp-riro,4,0,-1,-1
1570531846.7,2019-10-08,12:50:46.700,15.0,9.0,14.0200004577637,13.7,12.2,6.2,24.1,-24.1,10.4,12.6855,11.7131,6.25474,-2.62907,11.7741,3.057,28.8987,-10.3076,11.6975,0.0142222,0.338081,0.974248,262.5,7.2,52.1701,4.427230000000001,-0.9,-3.09677,83.6668,4.68098,38.6123,18.2408,224.452,1.38278,-0.409948,228.478,2.2507,2.75728,-35.0042724609375,21.9994239807129,-35.0,22.0,-411623.0,-19197.0,pp-riro,4,0,-1,-1
1570531846.8,2019-10-08,12:50:46.800,15.0,9.0,13.960000038147,13.4,13.5,6.6,23.5,-25.5,16.2,12.6855,11.7131,6.25474,-2.62907,11.7741,3.057,28.8987,-10.3076,11.6975,0.0142222,0.338081,0.974248,265.2,7.2,52.1701,4.427230000000001,-0.9,-3.1965,93.6364,4.68093,39.839,19.3808,223.952,1.37549,-0.421342,228.292,2.36242,2.82791,-35.0042724609375,21.9994239807129,-23.0,22.0,-414038.0,-11875.1,pp-riro,4,0,-1,-1
1570531846.9,2019-10-08,12:50:46.900,15.0,10.0,13.960000038147,12.9,14.8,6.9,22.8,-26.7,22.3,12.4514,12.2589,6.45673,-3.70291,8.95373,3.40325,28.5333,-10.9047,14.8487,0.0284882,0.296851,1.0024,265.2,7.2,52.1701,4.427230000000001,-0.9,-3.20481,94.8154,4.6809,41.2117,21.2809,223.252,1.36595,-0.445194,228.019,2.4891400000000004,2.91295,-35.0042724609375,21.9994239807129,-23.0,22.0,-414698.0,-12459.6,pp-riro,4,0,-1,-1
1570531847.0,2019-10-08,12:50:47.000,15.0,10.0,14.1499996185303,12.3,16.1,7.2,22.0,-27.6,28.2,12.1147,13.4719,6.880560000000001,-3.80726,9.83978,2.9138900000000003,27.6903,-12.1117,20.9665,0.00588498,0.377364,1.00418,265.2,7.2,52.1701,4.427230000000001,-0.9,-3.2303,97.0629,4.68086,42.7012,22.421,222.652,1.35748,-0.451992,227.816,2.59432,2.98115,-34.9564819335938,21.9994239807129,-23.0,22.0,-415901.0,-12121.2,pp-riro,4,0,-1,-1
1570531847.1,2019-10-08,12:50:47.100,15.0,10.0,14.5799999237061,11.8,17.4,7.5,20.9,-28.2,34.4,11.0432,15.8813,7.329239999999999,-4.57966,12.049,3.90519,25.7514,-13.9647,33.1235,0.170708,0.292276,0.93991,265.2,7.2,52.1701,4.427230000000001,-0.9,-3.2364,108.876,4.68083,44.3076,23.941,221.952,1.34767,-0.463843,227.594,2.70725,3.04624,-34.550262451171896,21.9994239807129,-23.0,22.0,-416781.0,-6152.9,pp-riro,4,0,-1,-1
1570531847.2,2019-10-08,12:50:47.200,15.0,10.0,15.119999885559098,11.2,18.7,8.0,20.0,-28.9,40.7,10.791,16.4935,7.463769999999999,-5.035080000000001,10.9306,2.76115,25.1079,-14.4123,36.1184,0.14284,0.294383,1.00394,265.2,7.2,52.1701,4.427230000000001,-0.9,-3.17988,127.111,4.68079,46.0893,25.0811,221.152,1.33784,-0.46679,227.292,2.8125400000000003,3.10258,-33.77880859375,21.9994239807129,-23.0,22.0,-416536.0,3599.45,pp-riro,4,0,-1,-1
1570531847.3,2019-10-08,12:50:47.300,15.0,11.0,15.460000038147,10.4,20.0,8.4,18.8,-29.4,47.1,10.2822,17.7206,7.88825,-6.42095,12.6398,3.3583300000000005,23.9225,-15.1467,42.3212,0.0400561,0.273366,1.00815,265.2,7.2,52.1701,4.427230000000001,-0.9,-3.04801,142.1,4.68076,48.0461,26.2211,220.352,1.32732,-0.4679529999999999,227.049,2.91637,3.16051,-32.659149169921896,21.9994239807129,-23.0,22.0,-414963.0,17597.3,pp-riro,4,0,-1,-1
1570531847.4,2019-10-08,12:50:47.400,15.0,10.0,15.859999656677198,9.4,21.1,8.8,17.5,-30.1,53.5,9.06655,19.4664,8.47327,-10.6689,10.9463,4.90325,21.5796,-16.3028,51.8962,0.0975813,0.31778,1.06492,265.2,7.2,52.1701,4.427219999999999,-0.7,-2.8357900000000003,144.474,4.68072,50.0614,27.3612,219.552,1.31657,-0.468545,226.843,3.01871,3.21782,-31.181091308593803,21.9994239807129,-23.0,22.0,-412859.0,21996.6,pp-riro,4,0,-1,-1
1570531847.5,2019-10-08,12:50:47.500,15.0,10.0,16.129999160766598,8.2,22.2,8.9,16.1,-30.5,60.2,8.10881,20.4876,8.66317,-9.2954,10.4565,0.549529,20.023,-17.2687,58.1279,0.0727044999999999,0.250637,1.07007,265.2,7.2,52.1701,4.427219999999999,-0.7,-2.5138700000000003,144.688,4.68069,52.252,28.1212,218.552,1.30568,-0.462045,226.465,3.11803,3.27311,-29.3480072021484,21.9994239807129,-22.1643714904785,22.0,-409768.0,18889.4,pp-riro,4,0,-1,-1
1570531847.6,2019-10-08,12:50:47.600,15.0,9.0,16.4599990844727,7.0,23.2,9.0,14.6,-29.9,66.5,7.564660000000001,20.9482,8.70193,-11.5105,7.8289,0.805854,19.1622,-17.6042,61.1684,0.0406816999999999,0.244524,0.895538,265.2,7.2,52.1701,4.427219999999999,-0.7,-2.4097,149.536,4.68065,54.4717,28.8813,217.752,1.29488,-0.455802,226.313,3.21074,3.3244300000000004,-27.3476715087891,21.9994239807129,-21.3973217010498,22.0,-408792.0,19012.5,pp-riro,4,0,-1,-1
1570531847.7,2019-10-08,12:50:47.700,15.0,8.0,16.7199993133545,5.8,23.9,9.2,13.2,-29.4,72.3,5.928999999999999,22.255,8.97432,-12.1562,7.12033,2.07116,17.0742,-18.2751,69.8205,0.0519396999999999,0.176025,0.880551,265.2,7.2,52.1701,4.427219999999999,-0.7,-2.17865,161.358,4.680619999999999,56.7499,29.6413,216.852,1.28371,-0.449587,226.106,3.29571,3.36987,-25.5692138671875,21.9994239807129,-20.7690830230713,22.0,-406590.0,22765.7,pp-riro,4,0,-1,-1
1570531847.8,2019-10-08,12:50:47.800,15.0,9.0,16.9899997711182,4.5,24.4,9.4,11.7,-28.9,78.2,5.35205,22.6855,9.12064,-10.4298,2.50271,0.0147437,16.2042,-18.2446,72.8184,-0.01325,0.230315,0.836882,271.9,6.5,52.1701,4.427219999999999,-0.7,-1.8728,165.99200000000002,4.68057,59.2325,30.0214,215.852,1.27234,-0.437308,225.836,3.37686,3.41002,-23.9921493530273,21.9994239807129,-20.1253414154053,22.0,-404302.0,23381.0,pp-riro,4,0,-1,-1
1570531847.9,2019-10-08,12:50:47.900,15.0,9.0,17.1399993896484,3.2,24.8,9.3,10.1,-28.5,83.6,4.14166,23.1455,9.24849,-14.5438,5.64917,-0.926842,14.686,-18.3328,78.3451,0.1218279999999999,0.195915,0.934437,271.9,6.5,52.1701,4.427219999999999,-0.7,-1.56916,163.64,4.68058,61.6275,31.1614,214.953,1.25994,-0.436343,225.773,3.46009,3.45995,-23.282127380371104,21.9994239807129,-19.5894947052002,22.0,-402164.0,19658.5,pp-riro,4,0,-1,-1
1570531848.0,2019-10-08,12:50:48.000,15.0,8.0,17.2900009155273,2.1,25.1,9.1,8.7,-27.7,88.8,2.96295,23.5381,9.15368,-9.78893,3.11468,1.02625,13.2997,-18.4816,83.4571,0.143057,0.243886,0.970789,271.9,6.5,52.1701,4.427219999999999,-0.7,-1.11648,160.004,4.68057,64.1101,31.1615,214.053,1.2493299999999998,-0.4206189999999999,225.61,3.52808,3.48802,-21.742614746093803,21.9994239807129,-19.0973529815674,22.0,-399945.0,12890.3,pp-riro,4,0,-1,-1
1570531848.1,2019-10-08,12:50:48.100,15.0,8.0,17.2900009155273,0.8,25.4,9.1,7.4,-26.9,93.8,2.96295,23.5381,9.15368,-9.78893,3.11468,1.02625,13.2997,-18.4816,83.4571,0.143057,0.243886,0.970789,271.9,6.5,52.1701,4.427219999999999,-0.7,-0.978509,160.377,4.68057,66.7387,31.5415,213.153,1.23741,-0.409679,225.573,3.5974800000000005,3.52656,-20.7117233276367,21.9994239807129,-18.5649433135986,22.0,-399382.0,10829.1,pp-riro,4,0,-1,-1
1570531848.2,2019-10-08,12:50:48.200,15.0,8.0,17.2900009155273,-0.2,25.4,9.0,6.3,-26.4,98.4,1.3229799999999998,24.1443,9.0393,-7.23533,2.19774,0.528055,11.3411,-18.0181,90.7502,-0.131513,0.248493,0.8694059999999999,271.9,6.5,52.1701,4.427219999999999,-0.7,-0.679859,162.327,4.68056,69.309,31.5415,212.253,1.22634,-0.395252,225.499,3.65694,3.55017,-19.8446807861328,21.9994239807129,-18.228136062622102,22.0,-398531.0,7906.47,pp-riro,4,0,-1,-1
1570531848.3,2019-10-08,12:50:48.300,15.0,9.0,17.2900009155273,-1.5,25.3,8.8,4.9,-25.8,102.5,-0.8546100000000001,24.2759,8.83796,-6.18002,-0.572763,-6.18613,8.83238,-17.4021,99.5611,0.198039,0.1862349999999999,0.692419,271.9,6.5,52.1701,4.427219999999999,-0.7,-0.24158,157.38,4.680540000000001,71.8208,31.5416,211.353,1.21541,-0.381969,225.44,3.71011,3.58656,-19.1244201660156,21.9994239807129,-17.664505004882802,22.0,-397866.0,2584.22,pp-riro,4,0,-1,-1
1570531848.4,2019-10-08,12:50:48.400,15.0,8.0,17.2399997711182,-2.4,25.3,8.5,3.8,-24.5,106.6,-1.99425,24.2799,8.50328,-10.3373,-0.594296,-0.8247209999999999,7.84285,-16.9812,103.378,-0.16539,0.1933099999999999,0.554344,271.9,6.5,52.1701,4.427219999999999,-0.4,-0.111371,155.968,4.68055,74.3618,31.5416,210.453,1.20432,-0.369328,225.422,3.76681,3.60961,-18.2915191650391,21.9994239807129,-17.3995666503906,22.0,-397808.0,1076.76,pp-riro,4,0,-1,-1
1570531848.5,2019-10-08,12:50:48.500,15.0,9.0,17.2399997711182,-3.5,25.1,8.4,2.7,-23.7,110.2,-1.99425,24.2799,8.50328,-10.3373,-0.594296,-0.8247209999999999,7.84285,-16.9812,103.378,-0.16539,0.1933099999999999,0.554344,271.9,6.5,52.1701,4.427219999999999,-0.4,0.13298,154.717,4.68053,76.8736,31.1616,209.553,1.1938799999999998,-0.353267,225.373,3.81118,3.6362,-17.735107421875,21.9994239807129,-16.9692878723145,22.0,-397901.0,-1630.52,pp-riro,4,0,-1,-1
1570531848.6,2019-10-08,12:50:48.600,15.0,8.0,17.2399997711182,-4.5,24.7,8.3,1.3,-23.4,113.8,-2.95486,24.1962,8.37025,-3.81826,2.13832,-1.4849,6.767189999999999,-16.4384,107.137,0.0727971,0.191292,0.769738,271.9,6.5,52.1701,4.427219999999999,-0.4,0.314165,154.806,4.680540000000001,79.3855,30.4016,208.753,1.18408,-0.333885,225.398,3.85054,3.65717,-17.5405349731445,21.9994239807129,-16.557960510253903,22.0,-398032.0,307.645,pp-riro,4,0,-1,-1
1570531848.7,2019-10-08,12:50:48.700,15.0,9.0,17.1900005340576,-5.2,24.5,8.2,0.0,-22.6,117.1,-2.95486,24.1962,8.37025,-3.81826,2.13832,-1.4849,6.767189999999999,-16.4384,107.137,0.0727971,0.191292,0.769738,271.9,6.5,52.1701,4.427219999999999,-0.4,0.248783,160.388,4.68052,81.8389,30.0216,207.853,1.17369,-0.319746,225.392,3.89232,3.67163,-17.1548004150391,21.9994239807129,-16.4330005645752,22.0,-397917.0,-738.3480000000001,pp-riro,4,0,-1,-1
1570531848.8,2019-10-08,12:50:48.800,15.0,9.0,17.1800003051758,-6.1,24.2,8.2,-1.1,-21.8,120.5,-5.07868,23.4068,8.09105,-3.69249,-1.64051,0.8446030000000001,3.2624,-15.4388,115.834,0.0393663,0.0695503999999999,0.600695,272.9,6.5,52.1701,4.427219999999999,-0.4,0.290339,168.86700000000002,4.68052,84.2923,29.6417,207.053,1.1634,-0.306278,225.51,3.93652,3.69414,-16.7793121337891,21.9994239807129,-16.1686592102051,22.0,-397952.0,-707.5830000000001,pp-riro,4,0,-1,-1
1570531848.9,2019-10-08,12:50:48.900,15.0,10.0,17.129999160766598,-7.1,23.9,8.5,-2.6,-21.1,123.9,-5.57892,23.3734,8.08637,-10.1859,-2.32443,2.5221400000000003,2.5624,-15.2084,117.476,-0.217877,0.198054,0.284978,272.9,6.5,52.1701,4.427219999999999,-0.4,0.307516,181.99400000000003,4.68053,86.8041,28.8817,206.153,1.15314,-0.289329,225.54,3.97728,3.71477,-16.5062255859375,21.9994239807129,-15.8750009536743,22.0,-397908.0,492.232,pp-riro,4,0,-1,-1
1570531849.0,2019-10-08,12:50:49.000,15.0,11.0,17.1800003051758,-8.0,23.6,8.6,-4.2,-20.7,127.1,-6.981260000000001,23.0754,8.29824,-13.6466,-5.74225,0.76248,0.0176062,-14.3927,122.422,-0.106995,0.0852418,0.306015,272.9,6.5,52.1701,4.427219999999999,-0.4,0.321922,186.98,4.68053,89.2283,28.5017,205.253,1.14266,-0.2773239999999999,225.617,4.01764,3.7379,-16.188766479492198,21.9994239807129,-15.666733741760302,22.0,-397896.0,123.058,pp-riro,4,0,-1,-1
1570531849.1,2019-10-08,12:50:49.100,15.0,10.0,17.1800003051758,-8.9,23.4,8.5,-5.8,-19.9,130.3,-7.426019999999999,22.8732,8.27459,-7.739,-2.20586,-1.28851,-0.8755219999999999,-14.2942,124.164,-0.120942,0.0255324,0.6073649999999999,272.9,6.5,52.1701,4.427219999999999,-0.4,0.328017,191.845,4.68052,91.5941,27.7417,204.253,1.1326200000000002,-0.262237,225.562,4.05778,3.75901,-15.9088592529297,21.9994239807129,-15.4224462509155,22.0,-397850.0,492.232,pp-riro,4,0,-1,-1
1570531849.2,2019-10-08,12:50:49.200,15.0,10.0,17.229999542236303,-9.9,23.1,8.7,-7.4,-19.4,133.2,-7.82138,22.7199,8.25197,-9.2502,-6.04211,-0.3926489999999999,-1.77755,-14.2141,125.63,-0.0903593,0.0396341,0.275207,272.9,6.5,52.1701,4.427219999999999,-0.4,0.33799,198.595,4.68053,93.9891,26.2217,203.253,1.12321,-0.2401989999999999,225.463,4.085459999999999,3.77529,-15.7040405273438,21.9994239807129,-15.1024389266968,22.0,-397820.0,246.116,pp-riro,4,0,-1,-1
1570531849.3,2019-10-08,12:50:49.300,15.0,11.0,17.379999160766598,-10.7,22.5,8.9,-8.8,-18.9,136.2,-9.28946,22.31,8.35407,-9.16087,-4.32327,1.34763,-4.90287,-13.4686,130.072,-0.301649,-0.00193533,0.465822,272.9,6.5,52.1701,4.427219999999999,-0.4,0.356275,211.012,4.68053,96.3257,25.4617,202.253,1.11307,-0.226564,225.462,4.12202,3.79566,-15.4889907836914,21.9994239807129,-14.9421472549438,22.0,-397789.0,246.116,pp-riro,4,0,-1,-1
1570531849.4,2019-10-08,12:50:49.400,15.0,11.0,17.5300006866455,-11.7,22.1,8.8,-10.2,-18.3,138.8,-9.73587,22.0969,8.439689999999999,-4.69032,-3.56122,-1.28233,-5.92278,-13.4071,131.503,-0.307087,-0.102616,0.6418229999999999,272.9,6.5,52.1701,4.427219999999999,0.0,0.381209,221.498,4.68053,98.5747,24.3217,201.253,1.10356,-0.210048,225.414,4.1507,3.82102,-15.1715316772461,21.9994239807129,-14.6008434295654,22.0,-397759.0,430.703,pp-riro,4,0,-1,-1
1570531849.5,2019-10-08,12:50:49.500,15.0,11.0,17.729999542236303,-12.6,21.4,8.9,-11.7,-17.5,141.5,-11.0489,21.3346,8.39259,-9.13378,-5.22598,0.350722,-8.70749,-13.0298,135.741,-0.193327,0.0602206,0.4327229999999999,272.9,6.5,52.1701,4.427219999999999,0.0,0.395061,229.457,4.68052,100.824,22.8017,200.153,1.09407,-0.190545,225.27,4.17985,3.84245,-14.929168701171902,21.9994239807129,-14.2892427444458,22.0,-397670.0,553.761,pp-riro,4,0,-1,-1
1570531849.6,2019-10-08,12:50:49.600,15.0,10.0,17.979999542236303,-13.4,20.8,8.9,-12.8,-17.2,144.2,-11.9689,20.6567,8.47908,-9.82797,-4.782369999999999,2.18363,-10.267,-12.6277,138.47799999999998,-0.120696,-0.0212708,0.532888,272.9,6.5,52.1701,4.427219999999999,0.0,0.399493,232.253,4.680540000000001,102.927,21.6617,199.153,1.08489,-0.175577,225.222,4.20934,3.86461,-14.6424331665039,21.9994239807129,-14.063910484314,22.0,-397634.0,676.819,pp-riro,4,0,-1,-1
1570531849.7,2019-10-08,12:50:49.700,15.0,10.0,18.1800003051758,-14.2,20.2,8.7,-13.8,-16.8,146.5,-12.8764,20.034,8.432830000000001,-3.13586,-1.9663,4.15963,-11.9252,-12.3405,141.07299999999998,-0.179196,-0.0181011,0.522555,272.9,6.5,52.1701,4.427219999999999,0.0,0.408359,238.082,4.680540000000001,104.971,20.5217,198.153,1.07584,-0.161211,225.177,4.23401,3.89001,-14.3488616943359,21.9994239807129,-13.7982997894287,22.0,-397572.0,615.29,pp-riro,4,0,-1,-1
1570531849.8,2019-10-08,12:50:49.800,15.0,10.0,18.3700008392334,-15.0,19.4,8.7,-14.6,-16.0,148.8,-13.6212,19.3201,8.34494,-2.6486,-5.68326,-1.5434,-12.9872,-12.1073,143.664,0.0656194,0.0304753,0.520015,272.3,6.5,52.1701,4.427219999999999,0.0,0.418886,243.116,4.680540000000001,106.986,18.6217,197.153,1.06733,-0.140478,225.083,4.256390000000001,3.9112,-14.0655364990234,21.9994239807129,-13.4664812088013,22.0,-397503.0,769.112,pp-riro,4,0,-1,-1
1570531849.9,2019-10-08,12:50:49.900,15.0,10.0,18.4599990844727,-15.6,18.7,8.6,-15.0,-15.4,151.2,-14.3012,18.542,8.28261,-3.89894,-9.05075,3.27842,-14.0259,-11.4304,145.861,0.00138264,0.0262483,0.369507,272.3,6.5,52.1701,4.427219999999999,0.0,0.424981,246.177,4.68052,108.885,17.4817,196.154,1.05863,-0.127326,225.028,4.2853,3.93284,-13.703704833984402,21.9994239807129,-13.3222465515137,22.0,-397426.0,707.5830000000001,pp-riro,4,0,-1,-1
1570531850.0,2019-10-08,12:50:50.000,15.0,10.0,18.6000003814697,-16.2,17.9,8.4,-15.5,-14.9,153.5,-14.9126,17.7369,8.20002,-4.3057,-7.203010000000001,-0.85501,-14.7243,-11.3476,148.408,-0.0104824,-0.0302870999999999,0.331737,272.3,6.5,52.1701,4.427219999999999,0.0,0.427197,248.467,4.68051,110.696,15.5817,195.154,1.0506,-0.107968,224.903,4.30665,3.95301,-13.4050140380859,21.9994239807129,-13.053524017334,22.0,-397293.0,922.935,pp-riro,4,0,-1,-1
1570531850.1,2019-10-08,12:50:50.100,15.0,10.0,18.7900009155273,-16.8,17.2,8.3,-15.9,-14.6,155.8,-14.9126,17.7369,8.20002,-4.3057,-7.203010000000001,-0.85501,-14.7243,-11.3476,148.408,-0.0104824,-0.0302870999999999,0.331737,272.3,6.5,52.1701,4.427219999999999,0.0,0.435509,252.259,4.68047,112.448,14.0617,194.254,1.04269,-0.0924871,224.893,4.32966,3.97374,-13.1985015869141,21.9994239807129,-12.8716077804565,22.0,-397224.0,676.819,pp-riro,4,0,-1,-1
1570531850.2,2019-10-08,12:50:50.200,15.0,10.0,18.9300003051758,-17.2,16.3,8.2,-16.2,-14.1,158.3,-15.7895,16.6009,7.95853,-3.27128,-6.3092,-1.27417,-15.5008,-10.4498,152.041,0.109819,-0.0776315,0.357109,272.3,6.5,52.1701,4.427219999999999,0.0,0.4393869999999999,254.037,4.68048,114.201,12.1617,193.354,1.03482,-0.0741888999999999,224.89,4.35486,3.99112,-12.9561386108398,21.9994239807129,-12.7199945449829,22.0,-397177.0,922.935,pp-riro,4,0,-1,-1
1570531850.3,2019-10-08,12:50:50.300,15.0,9.0,19.159999847412102,-17.6,15.6,8.0,-16.1,-13.4,160.2,-16.2217,15.7717,7.85878,2.4307,1.15007,-3.19716,-16.0134,-10.1434,154.524,-0.0395343,0.114023,0.593478,272.3,6.5,52.1701,4.427219999999999,0.0,0.441604,255.681,4.68046,115.749,10.6417,192.454,1.02746,-0.05976,224.832,4.37628,4.00965,-12.809356689453098,21.9994239807129,-12.6136045455933,22.0,-397079.0,922.935,pp-riro,4,0,-1,-1
1570531850.4,2019-10-08,12:50:50.400,15.0,9.0,19.2999992370605,-17.8,14.9,7.9,-16.4,-12.5,162.3,-16.8228,14.6163,7.67318,-4.77712,-8.02052,0.724696,-16.2096,-9.33115,157.756,-0.0936099,-0.0264212999999999,0.276991,272.3,6.5,52.1701,4.427230000000001,0.1,0.438833,251.628,4.68045,117.268,9.12166,191.554,1.02012,-0.045693,224.784,4.4028,4.02188,-12.7325439453125,21.9994239807129,-12.6650199890137,22.0,-396922.0,1169.05,pp-riro,4,0,-1,-1
1570531850.5,2019-10-08,12:50:50.500,15.0,9.0,19.479999542236303,-18.1,14.1,7.7,-16.6,-11.8,164.7,-17.0565,13.9336,7.50024,-2.52212,-8.3275,-2.30744,-16.3763,-8.5352,159.93,0.218954,0.13872,0.334059,272.3,6.5,52.1701,4.427230000000001,0.1,0.433846,249.06,4.68043,118.699,6.84162,190.754,1.01342,-0.0256244,224.774,4.42702,4.0366800000000005,-12.619903564453098,21.9994239807129,-12.5259389877319,22.0,-396861.0,1138.29,pp-riro,4,0,-1,-1
1570531850.6,2019-10-08,12:50:50.600,15.0,9.0,19.6100006103516,-18.4,13.5,7.5,-16.9,-11.2,167.0,-17.3304,13.197,7.28622,-0.0775444,-0.552279,-2.29029,-16.7824,-7.9696,162.312,-0.1760509999999999,-0.117401,0.282186,272.3,6.5,52.1701,4.427230000000001,0.1,0.427197,247.276,4.68042,120.072,4.9416,189.954,1.00672,-0.0091589,224.776,4.451919999999999,4.05008,-12.643798828125,21.9994239807129,-12.5168390274048,22.0,-396762.0,953.699,pp-riro,4,0,-1,-1
1570531850.7,2019-10-08,12:50:50.700,15.0,10.0,19.7900009155273,-18.7,12.8,7.3,-17.2,-10.3,169.1,-17.4676,12.8324,7.225689999999999,-2.29576,-6.1099,-2.04422,-16.843,-7.61649,163.445,-0.146073,-0.0427431,0.392673,272.3,6.5,52.1701,4.427230000000001,0.1,0.43163,251.526,4.68038,121.386,3.42159,189.154,1.00008,0.00380077,224.779,4.47962,4.06964,-12.5567474365234,21.9994239807129,35.0,22.0,-396680.0,738.3480000000001,pp-riro,4,0,-1,-1
1570531850.8,2019-10-08,12:50:50.800,15.0,10.0,19.840000152587898,-18.9,12.1,7.2,-17.4,-9.6,171.3,-17.570999999999998,12.5033,7.08517,-2.0601700000000003,-7.40971,-3.2922300000000004,-16.9878,-7.239660000000001,164.521,-0.185944,0.0148729999999999,0.395107,271.0,5.9,52.1701,4.427230000000001,0.1,0.4399409999999999,254.699,4.68039,122.583,1.14155,188.354,0.993829,0.0227035999999999,224.734,4.50207,4.080369999999999,-12.522613525390598,21.9994239807129,35.0,22.0,-396549.0,953.699,pp-riro,4,0,-1,-1
1570531850.9,2019-10-08,12:50:50.900,15.0,9.0,19.9300003051758,-19.1,11.5,6.9,-18.1,-8.9,173.5,-17.8629,11.8186,6.9318800000000005,-3.38565,-8.50485,-1.20098,-17.5486,-6.51162,166.864,-0.173368,-0.0823215,0.367204,271.0,5.9,52.1701,4.427230000000001,0.1,0.593422,255.645,4.6804,123.723,-0.378469,187.654,0.9879,0.0350575999999999,224.77,4.52995,4.09806,-12.4406890869141,21.9994239807129,35.0,22.0,-397343.0,-14920.8,pp-riro,4,0,-1,-1
1570531851.0,2019-10-08,12:50:51.000,15.0,9.0,19.9699993133545,-19.0,10.9,6.4,-18.5,-7.9,175.3,-18.0923,10.8242,6.55627,-1.76683,-6.59054,-3.15203,-18.2641,-5.45141,170.19,-0.133869,-0.0103252999999999,0.477995,271.0,5.9,52.1701,4.427230000000001,0.1,1.17521,229.326,4.68041,124.803,-2.65851,186.954,0.98207,0.053286,224.799,4.55012,4.108169999999999,-12.0447158813477,21.9994239807129,35.0,22.0,-398809.0,15659.1,pp-riro,4,0,-1,-1
1570531851.1,2019-10-08,12:50:51.100,15.0,8.0,19.8799991607666,-18.8,10.7,6.0,-18.9,-7.0,177.2,-18.066,10.4208,5.97159,2.57229,-2.51356,-6.803669999999999,-18.7213,-4.8282,172.222,0.15059,0.0479352,0.422649,271.0,5.9,52.1701,4.427230000000001,0.1,1.02062,212.54,4.68042,125.855,-4.17853,186.354,0.976549,0.0651665999999999,224.91,4.57612,4.10778,-11.2903213500977,21.9994239807129,35.0,22.0,-397633.0,22458.1,pp-riro,4,0,-1,-1
1570531851.2,2019-10-08,12:50:51.200,15.0,7.0,19.7900009155273,-18.5,9.7,5.8,-19.4,-6.1,178.6,-17.7552,9.83492,5.51602,-0.6513180000000001,-8.80131,-1.4321,-19.2377,-4.44855,174.028,-0.116352,-0.0380589,0.350149,271.0,5.9,52.1701,4.427230000000001,0.1,0.909249,211.215,4.68042,126.819,-6.45857,185.754,0.971157,0.0828531999999999,225.009,4.59022,4.12212,-10.1826248168945,21.9994239807129,35.0,22.0,-397806.0,-10490.7,pp-riro,4,0,-1,-1
1570531851.3,2019-10-08,12:50:51.300,15.0,9.0,19.520000457763697,-18.6,9.2,5.8,-20.0,-5.4,179.9,-17.7588,9.16104,5.64641,-2.38268,-6.14249,3.61414,-19.9484,-3.85319,175.565,-0.0726557,-0.0771241999999999,0.314871,271.0,5.9,52.1701,4.427230000000001,0.1,1.00178,239.928,4.68044,127.724,-7.97859,185.154,0.966021,0.0943425,225.076,4.6061,4.13167,-8.71650695800781,21.9994239807129,35.0,22.0,-397556.0,6798.95,pp-riro,4,0,-1,-1
1570531851.4,2019-10-08,12:50:51.400,15.0,10.0,19.340000152587898,-18.3,8.9,5.6,-20.4,-4.9,-179.0,-17.7329,8.70135,5.59018,-0.000488051,-1.86006,-0.960652,-20.3274,-3.48959,177.081,-0.1112819999999999,0.0393053,0.235307,271.0,5.9,52.1701,4.427230000000001,0.3,1.00455,226.175,4.68045,128.63,-10.2586,184.554,0.960616,0.1115309999999999,225.191,4.61252,4.1250800000000005,-6.90390777587891,21.9994239807129,35.0,22.0,-397542.0,0.0,pp-riro,4,0,-1,-1
1570531851.5,2019-10-08,12:50:51.500,15.0,10.0,19.1499996185303,-18.4,8.7,5.6,-21.1,-4.4,-178.7,-17.7122,8.47218,5.431369999999999,-4.49643,-2.95256,-1.7830700000000002,-20.8977,-3.63307,178.051,-0.101529,-0.13087,0.0810776,271.0,5.9,52.1701,4.427230000000001,0.3,1.0006700000000002,223.84,4.68046,129.418,-11.7786,184.054,0.956016,0.122697,225.308,4.61254,4.12519,-4.8096923828125,21.9994239807129,35.0,22.0,-397344.0,3814.8,pp-riro,4,0,-1,-1
1570531851.6,2019-10-08,12:50:51.600,15.0,10.0,19.0100002288818,-18.5,8.6,6.0,-21.9,-4.2,-178.5,-17.8896,8.38942,5.41781,-5.785080000000001,-3.82108,-2.6653,-21.3782,-3.88862,178.428,-0.339408,-0.156725,0.00821667,271.0,5.9,52.1701,4.427230000000001,0.3,0.981834,231.074,4.68047,130.29399999999998,-12.5386,183.454,0.951061,0.1278619999999999,225.365,4.61308,4.117780000000001,-2.7018280029296897,21.9994239807129,35.0,22.0,-397143.0,184.587,pp-riro,4,0,-1,-1
1570531851.7,2019-10-08,12:50:51.700,15.0,10.0,18.8700008392334,-18.4,8.6,6.4,-22.7,-4.9,-178.1,-18.0952,8.305069999999999,5.8155,0.0100871,6.37017,5.233969999999999,-22.2227,-4.28825,178.991,0.0521322,-0.217811,0.0476006999999999,271.0,5.9,52.1701,4.427230000000001,0.3,1.01785,239.301,4.68048,131.083,-15.5787,182.754,0.945253,0.1502089999999999,225.443,4.5934,4.08814,-0.604202270507812,21.9994239807129,35.0,22.0,-397120.0,1107.52,pp-riro,4,0,-1,-1
1570531851.8,2019-10-08,12:50:51.800,15.0,10.0,18.729999542236303,-18.3,8.7,6.5,-23.6,-5.4,-178.7,-18.1525,8.24356,5.96549,1.87094,-0.419252,2.87061,-22.4853,-4.83256,179.21400000000003,-0.0272466,-0.169107,0.0534996,269.5,6.4,52.1701,4.427230000000001,0.3,1.0006700000000002,229.262,4.68049,131.901,-17.4787,182.154,0.939928,0.16365,225.574,4.56888,4.06923,1.5021743774414098,21.9994239807129,35.0,22.0,-396708.0,2707.27,pp-riro,4,0,-1,-1
1570531851.9,2019-10-08,12:50:51.900,15.0,10.0,18.590000152587898,-18.2,9.0,6.9,-24.0,-5.7,-179.2,-18.2202,8.56809,6.43508,-2.90886,-0.247371,-0.8127909999999999,-23.9626,-6.088480000000001,179.017,-0.0999212,-0.1058809999999999,-0.22099,269.5,6.4,52.1701,4.427230000000001,0.3,0.986267,226.46400000000003,4.68047,132.806,-18.9988,181.754,0.934935,0.174,225.905,4.5504,4.039630000000001,3.59873962402344,21.9994239807129,35.0,22.0,-396481.0,1968.93,pp-riro,4,0,-1,-1
1570531852.0,2019-10-08,12:50:52.000,15.0,10.0,18.3999996185303,-18.0,9.2,7.6,-25.3,-6.9,179.6,-18.2202,8.56809,6.43508,-2.90886,-0.247371,-0.8127909999999999,-23.9626,-6.088480000000001,179.017,-0.0999212,-0.1058809999999999,-0.22099,269.5,6.4,52.1701,4.427230000000001,0.3,0.992916,225.58,4.68044,133.215,-19.7588,181.054,0.93126,0.179189,225.649,4.51708,4.00897,5.71745300292969,21.9994239807129,35.0,22.0,-396350.0,1353.64,pp-riro,4,0,-1,-1
1570531852.1,2019-10-08,12:50:52.100,15.0,10.0,18.2000007629395,-17.6,9.7,8.3,-26.3,-8.4,178.1,-18.2399,8.862589999999999,7.04269,-1.40142,7.25365,3.63406,-25.0436,-7.48448,178.37400000000002,-0.359299,-0.241123,-0.263692,269.5,6.4,52.1701,4.427230000000001,0.3,0.992362,221.892,4.68043,134.062,-22.0388,180.155,0.924651,0.19488,225.641,4.46811,3.95545,7.2945556640625,21.9994239807129,35.0,22.0,-396228.0,2276.57,pp-riro,4,0,-1,-1
1570531852.2,2019-10-08,12:50:52.200,15.0,10.0,18.0599994659424,-17.0,10.7,9.3,-27.8,-11.5,175.2,-17.914,9.58077,8.173010000000001,5.32837,9.50077,12.1211,-26.4201,-10.8371,176.998,-0.153391,-0.323778,-0.331705,269.5,6.4,52.1701,4.427230000000001,0.3,0.969644,213.49400000000003,4.68042,135.55200000000002,-24.6988,178.755,0.914116,0.212196,225.694,4.38218,3.87511,9.40645599365234,21.9994239807129,35.0,22.0,-395972.0,2338.1,pp-riro,4,0,-1,-1
1570531852.3,2019-10-08,12:50:52.300,15.0,9.0,18.0100002288818,-16.7,11.0,9.6,-28.1,-12.2,174.0,-17.579,10.2377,8.79813,2.47197,3.9364,3.98255,-27.3626,-13.3736,175.275,-0.389031,-0.2959449999999999,-0.59175,269.5,6.4,52.1701,4.427230000000001,0.3,0.963549,210.638,4.6804,136.049,-25.4588,178.355,0.910838,0.216973,225.76,4.35465,3.84834,11.5115432739258,21.9994239807129,35.0,22.0,-395733.0,1538.22,pp-riro,4,0,-1,-1
1570531852.4,2019-10-08,12:50:52.400,15.0,10.0,17.9599990844727,-16.0,11.7,10.5,-28.8,-14.7,170.9,-17.4041,10.6893,9.26565,4.20063,8.526489999999999,7.86517,-27.64,-14.459,174.202,-0.0670426,-0.159755,-0.465842,269.5,6.4,52.1701,4.427230000000001,0.5,0.964657,213.158,4.68037,137.158,-26.9788,177.355,0.903307,0.2262429999999999,225.821,4.27922,3.78457,14.1411895751953,21.9994239807129,35.0,22.0,-395568.0,1599.75,pp-riro,4,0,-1,-1
1570531852.5,2019-10-08,12:50:52.500,15.0,9.0,17.909999847412102,-15.1,12.5,11.2,-29.0,-17.4,167.5,-16.2809,12.2428,11.0238,11.6507,15.8997,13.3878,-29.136,-20.9718,169.735,-0.319532,-0.1665869999999999,-0.430691,269.5,6.4,52.1701,4.427230000000001,0.5,0.970198,215.935,4.68035,138.327,-28.8789,176.255,0.895,0.237837,225.907,4.19642,3.71435,16.2530899047852,21.9994239807129,35.0,22.0,-395458.0,1045.99,pp-riro,4,0,-1,-1
1570531852.6,2019-10-08,12:50:52.600,15.0,10.0,17.8600006103516,-14.2,13.4,12.1,-29.0,-20.0,163.5,-15.831,12.7157,11.4793,7.54957,4.63344,8.64475,-29.0594,-22.6291,168.021,-0.177472,-0.201599,-0.743594,269.5,6.4,52.1701,4.427230000000001,0.5,0.973523,216.295,4.68034,139.583,-30.0189,175.255,0.8871760000000001,0.243887,226.05,4.11161,3.644530000000001,18.3649826049805,21.9994239807129,35.0,22.0,-395396.0,1169.05,pp-riro,4,0,-1,-1
1570531852.7,2019-10-08,12:50:52.700,15.0,10.0,17.8600006103516,-13.1,14.3,12.9,-28.2,-23.0,159.0,-14.4313,14.2819,12.9404,6.95868,8.009889999999999,8.13712,-28.7748,-28.007,162.34799999999998,-0.186568,-0.160988,-0.8018390000000001,269.5,6.4,52.1701,4.427230000000001,0.5,0.974077,217.073,4.68032,140.89700000000002,-31.5389,174.055,0.8783059999999999,0.252271,226.145,4.01541,3.56952,20.4785842895508,21.9994239807129,35.0,22.0,-395205.0,1999.69,pp-riro,4,0,-1,-1
1570531852.8,2019-10-08,12:50:52.800,15.0,9.0,17.8099994659424,-11.8,15.4,13.7,-27.1,-26.0,153.9,-13.2412,15.4559,13.9819,7.60164,12.3009,4.75706,-28.1708,-31.5045,157.884,-0.250212,-0.329206,-0.948301,268.2,6.0,52.1701,4.427230000000001,0.5,0.976293,222.78,4.6803,142.299,-32.6788,172.855,0.8694120000000001,0.257811,226.265,3.91487,3.48782,22.5904846191406,21.9994239807129,35.0,22.0,-395068.0,1169.05,pp-riro,4,0,-1,-1
1570531852.9,2019-10-08,12:50:52.900,15.0,10.0,17.8600006103516,-10.2,16.2,14.5,-25.1,-29.1,147.7,-12.5668,16.0494,14.5206,12.9457,13.9849,9.0325,-27.7932,-33.444,155.422,-0.315317,-0.21638,-0.8696,268.2,6.0,52.1701,4.427230000000001,0.5,0.99624,232.466,4.68024,143.789,-33.8188,171.555,0.8599389999999999,0.263105,226.384,3.80081,3.40374,24.697265625,21.9994239807129,35.0,22.0,-394993.0,799.877,pp-riro,4,0,-1,-1
1570531853.0,2019-10-08,12:50:53.000,15.0,10.0,17.8999996185303,-8.5,17.1,15.3,-22.0,-32.5,140.7,-11.7622,16.5935,15.0321,18.64,13.9832,7.97452,-27.1406,-35.5574,152.724,-0.889709,-0.523556,-1.19626,268.2,6.0,52.1701,4.427230000000001,0.5,1.01397,242.753,4.68023,145.424,-34.9588,170.155,0.8497020000000001,0.268079,226.546,3.67692,3.31699,26.8057556152344,21.9994239807129,35.0,22.0,-394862.0,1538.22,pp-riro,4,0,-1,-1
1570531853.1,2019-10-08,12:50:53.100,15.0,10.0,18.0,-6.5,17.9,15.9,-18.1,-35.1,132.5,-10.8503,17.1421,15.5127,18.4176,8.96979,4.63605,-26.1787,-37.7283,149.77100000000002,-0.440863,-0.327428,-1.10265,268.2,6.0,52.1701,4.427230000000001,0.5,1.0278200000000002,252.743,4.6801900000000005,147.089,-35.7188,168.755,0.839671,0.270409,226.692,3.54797,3.22608,28.917663574218803,21.9994239807129,35.0,22.0,-394750.0,892.17,pp-riro,4,0,-1,-1
1570531853.2,2019-10-08,12:50:53.200,15.0,11.0,18.1000003814697,-4.3,18.5,16.4,-13.4,-37.6,123.8,-6.77382,19.1169,17.1466,27.4466,4.47599,13.4031,-19.3593,-45.7551,133.97,-0.457133,-0.13979,-1.11827,268.2,6.0,52.1701,4.427230000000001,0.5,1.04888,260.41200000000003,4.68015,148.841,-36.0987,167.255,0.8293709999999999,0.270157,226.784,3.41865,3.13435,30.8081359863281,21.9994239807129,35.0,22.0,-394610.0,1876.63,pp-riro,4,0,-1,-1
1570531853.3,2019-10-08,12:50:53.300,15.0,11.0,18.1900005340576,-1.9,19.0,16.9,-8.5,-39.4,114.5,-4.13347,19.959,17.8879,30.9095,0.421827,2.84441,-14.1193,-48.8517,123.666,-0.533888,-0.131922,-1.31135,268.2,6.0,52.1701,4.427230000000001,0.5,1.05497,266.152,4.68009,150.594,-36.4787,165.855,0.8193799999999999,0.269933,226.974,3.2882300000000004,3.03838,32.3477783203125,21.9994239807129,23.0,22.0,-394385.0,2122.75,pp-riro,4,0,-1,-1
1570531853.4,2019-10-08,12:50:53.400,15.0,12.0,18.3299999237061,0.5,19.0,17.1,-2.5,-40.4,104.3,-1.29241,20.4488,18.367,21.8457,-1.45035,4.72285,-7.90229,-51.4623,112.705,-0.464993,-0.258701,-1.5504,268.2,6.0,52.1701,4.427230000000001,0.7,1.07381,272.587,4.68007,152.434,-36.8586,164.255,0.8085289999999999,0.2695639999999999,227.1,3.151,2.94668,33.5399780273438,21.9994239807129,23.0,22.0,-394155.0,1507.46,pp-ro,1,1,-1,-1
1570531853.5,2019-10-08,12:50:53.500,15.0,13.0,18.3299999237061,3.1,18.9,16.9,4.5,-40.8,93.0,1.49599,20.698,18.4343,36.5633,0.961357,-2.89549,0.1101549999999999,-52.82899999999999,99.9282,-0.356143,-0.0744594,-1.29852,268.2,6.0,52.1701,4.427230000000001,0.7,1.0760299999999998,269.42400000000004,4.68003,154.362,-36.4785,162.655,0.797978,0.264398,227.189,3.00569,2.84914,34.3745269775391,21.9994239807129,23.0,22.0,-394015.0,2861.1,pp-ro,1,1,-1,-1
1570531853.6,2019-10-08,12:50:53.600,15.0,13.0,18.229999542236303,5.7,18.5,16.7,11.1,-40.0,82.0,2.96766,20.7823,18.3234,23.9381,3.8443,-3.73185,4.76874,-53.0154,92.5841,-0.393179,-0.0455929,-1.40278,268.2,6.0,52.1701,4.427230000000001,0.7,1.04112,253.614,4.67999,156.172,-36.0984,161.055,0.787778,0.25953,227.226,2.86296,2.7516,34.8479919433594,21.9994239807129,23.0,22.0,-393556.0,2091.99,pp-ro,1,1,-1,-1
1570531853.7,2019-10-08,12:50:53.700,15.0,13.0,17.9400005340576,7.8,17.8,15.9,16.9,-38.5,71.4,7.23835,19.8797,17.6605,27.82,-8.13641,-12.4001,16.9496,-52.0331,72.634,-0.785148,-0.1486549999999999,-1.3864299999999998,268.2,6.0,52.1701,4.427230000000001,0.7,1.03724,245.245,4.67996,157.954,-35.7184,159.455,0.77766,0.254805,227.269,2.722,2.66434,34.972320556640604,21.9994239807129,23.0,22.0,-393418.0,2738.04,pp-ro,1,1,-1,-1
1570531853.8,2019-10-08,12:50:53.800,15.0,10.0,17.8899993896484,9.9,17.3,14.7,22.1,-35.8,61.7,8.53181,19.6837,17.1432,13.0866,-9.53352,-5.99151,21.0465,-51.0736,66.3846,-0.0706281999999999,-0.118797,-1.38947,270.3,6.1,52.1701,4.427230000000001,0.7,0.991253,234.951,4.6799,159.67700000000002,-34.9583,158.055,0.768591,0.2479829999999999,227.377,2.58454,2.5712200000000003,34.7832641601562,21.9994239807129,23.0,22.0,-392943.0,1907.4,pp-ro,1,1,-1,-1
1570531853.9,2019-10-08,12:50:53.900,15.0,11.0,17.7900009155273,11.8,16.5,14.3,26.5,-32.4,53.2,10.9802,19.1587,15.859000000000002,16.7177,-12.6572,-12.4665,26.987,-47.1325,54.9198,-0.2822119999999999,-0.0182699,-1.52225,270.3,6.1,52.1701,4.427230000000001,0.7,0.999011,241.648,4.6799,161.371,-33.8182,156.655,0.759833,0.2390739999999999,227.432,2.45476,2.49596,34.1854858398438,21.9994239807129,23.0,22.0,-392945.0,-30.7645,pp-ro,1,1,-1,-1
1570531854.0,2019-10-08,12:50:54.000,15.0,13.0,17.6399993896484,13.6,15.4,13.3,30.5,-28.9,44.6,13.2117,17.9549,15.1198,18.531,-15.4051,-9.66747,31.4483,-43.1684,44.9573,-0.251722,-0.0332622,-1.17433,270.3,6.1,52.1701,4.427230000000001,0.7,1.03946,246.63,4.679880000000001,163.036,-32.6781,155.355,0.751449,0.230312,227.56,2.3201,2.4094,33.2214965820312,21.9994239807129,23.0,22.0,-392915.0,1599.75,pp-ro,1,1,-1,-1
1570531854.1,2019-10-08,12:50:54.100,15.0,14.0,17.4899997711182,14.8,14.4,11.7,33.5,-25.2,37.2,13.2117,17.9549,15.1198,18.531,-15.4051,-9.66747,31.4483,-43.1684,44.9573,-0.251722,-0.0332622,-1.17433,270.3,6.1,52.1701,4.427230000000001,0.7,0.98128,218.267,4.67986,164.584,-31.538,154.255,0.744024,0.2218429999999999,227.765,2.19604,2.32802,31.908370971679695,21.9994239807129,23.0,22.0,-392356.0,3291.8,pp-ro,1,1,-1,-1
1570531854.2,2019-10-08,12:50:54.200,15.0,13.0,17.3400001525879,15.9,13.6,10.5,35.8,-20.8,30.6,15.8229,16.1487,13.0189,14.9384,-9.65991,-18.5585,36.9888,-36.56,32.325,-0.244196,0.10482,-1.32876,270.3,6.1,52.1701,4.427230000000001,0.7,0.970198,214.083,4.67983,166.015,-29.6379,153.255,0.737641,0.2091969999999999,227.874,2.07459,2.26094,30.2341918945312,21.9994239807129,22.6338195800781,22.0,-392228.0,2430.39,pp-ro,1,1,-1,-1
1570531854.3,2019-10-08,12:50:54.300,15.0,13.0,17.229999542236303,16.9,12.5,9.5,37.7,-16.7,24.9,18.3751,13.8173,10.212,7.2642,-18.0157,-9.52094,40.1802,-25.9992,19.4893,-0.5225569999999999,0.132743,-1.19015,270.3,6.1,52.1701,4.427230000000001,0.7,0.972415,225.342,4.67983,167.329,-28.4979,152.355,0.73148,0.2012509999999999,228.086,1.96273,2.1912700000000003,28.755859375,21.9994239807129,21.4865875244141,22.0,-392115.0,615.29,pp-ro,1,1,-1,-1
1570531854.4,2019-10-08,12:50:54.400,15.0,13.0,17.229999542236303,17.8,11.4,8.2,39.4,-12.4,19.4,18.8533,13.1961,9.55574,11.4522,-7.99454,-12.4761,40.8917,-23.6155,16.5667,-0.1352269999999999,0.0428714,-1.27174,270.3,6.1,52.1701,4.427230000000001,0.8,1.01065,231.118,4.67981,168.643,-26.5978,151.555,0.725978,0.189004,228.292,1.85258,2.11697,26.861961364746104,21.9994239807129,20.2323875427246,22.0,-391983.0,2399.63,pp-ro,1,1,-1,-1
1570531854.5,2019-10-08,12:50:54.500,15.0,13.0,17.3299999237061,18.3,10.6,6.8,40.5,-8.5,14.7,18.8533,13.1961,9.55574,11.4522,-7.99454,-12.4761,40.8917,-23.6155,16.5667,-0.1352269999999999,0.0428714,-1.27174,270.3,6.1,52.1701,4.427230000000001,0.8,0.979064,219.114,4.679790000000001,169.812,-25.0777,150.955,0.721327,0.179205,228.588,1.7545099999999998,2.05218,24.719406127929695,21.9994239807129,19.140027999877898,22.0,-391647.0,3261.04,pp-ro,1,1,-1,-1
1570531854.6,2019-10-08,12:50:54.600,15.0,11.0,17.4300003051758,18.8,9.8,5.6,41.7,-4.5,10.5,18.8533,13.1961,9.55574,11.4522,-7.99454,-12.4761,40.8917,-23.6155,16.5667,-0.1352269999999999,0.0428714,-1.27174,270.3,6.1,52.1701,4.427230000000001,0.8,0.972415,219.871,4.67976,170.921,-22.7976,150.355,0.717101,0.165216,228.781,1.66325,1.99376,23.0435104370117,21.9994239807129,18.1773948669434,22.0,-391556.0,1784.34,pp-ro,1,1,-1,-1
1570531854.7,2019-10-08,12:50:54.700,15.0,11.0,17.5300006866455,19.2,9.0,4.7,42.8,-0.5,6.5,20.6323,9.76606,5.31899,2.76671,-17.1534,-12.2862,42.4752,-9.131,2.6169,0.0740636,0.2241949999999999,-0.947102,270.3,6.1,52.1701,4.427230000000001,0.8,0.991253,236.104,4.67976,171.94400000000002,-21.2775,149.855,0.713104,0.155742,229.072,1.57107,1.94235,21.5021743774414,21.9994239807129,17.3423919677734,22.0,-391515.0,-30.7645,pp-ro,1,1,-1,-1
1570531854.8,2019-10-08,12:50:54.800,15.0,11.0,17.5799999237061,19.4,8.0,3.7,43.6,3.2,2.5,20.6323,9.76606,5.31899,2.76671,-17.1534,-12.2862,42.4752,-9.131,2.6169,0.0740636,0.2241949999999999,-0.947102,274.2,6.2,52.1701,4.427230000000001,0.8,1.0317,246.657,4.67974,172.878,-18.9974,149.455,0.7098909999999999,0.142097,229.313,1.48555,1.88757,20.7783355712891,21.9994239807129,16.432317733764602,22.0,-391489.0,1045.99,pp-ro,1,1,-1,-1
1570531854.9,2019-10-08,12:50:54.900,15.0,11.0,17.6299991607666,19.6,7.0,2.4,44.3,6.5,-0.6,21.0609,8.63654,4.40717,8.65358,-9.02431,-8.03382,43.1152,-4.65618,-1.16717,0.0337392,-0.0825428,-1.06343,274.2,6.2,52.1701,4.427230000000001,0.8,1.01009,241.139,4.67975,173.696,-17.0974,149.055,0.706819,0.1307579999999999,229.521,1.41414,1.81831,19.4498825073242,21.9994239807129,15.2276477813721,22.0,-391060.0,2614.98,pp-ro,1,1,-1,-1
1570531855.0,2019-10-08,12:50:55.000,15.0,11.0,17.6299991607666,19.8,5.9,1.5,45.2,9.4,-3.4,21.0609,8.63654,4.40717,8.65358,-9.02431,-8.03382,43.1152,-4.65618,-1.16717,0.0337392,-0.0825428,-1.06343,274.2,6.2,52.1701,4.427230000000001,0.8,1.02505,250.93,4.67975,174.39700000000002,-15.1973,148.755,0.704349,0.1195599999999999,229.725,1.3514700000000002,1.75813,17.9681549072266,21.9994239807129,14.1875686645508,22.0,-390985.0,553.761,pp-ro,1,1,-1,-1
1570531855.1,2019-10-08,12:50:55.100,15.0,11.0,17.5799999237061,19.9,5.0,0.6,46.0,12.0,-5.9,21.0314,8.06015,3.87934,-0.00313025,-11.769,-6.34898,43.4044,-2.60198,-2.9588,0.0351757,-0.00772558,-0.707217,274.2,6.2,52.1701,4.427230000000001,0.8,1.03946,257.273,4.67975,174.981,-13.2972,148.455,0.70215,0.1084789999999999,229.857,1.29626,1.7037400000000005,16.820236206054698,21.9994239807129,13.2598476409912,22.0,-390925.0,1138.29,pp-ro,1,1,-1,-1
1570531855.2,2019-10-08,12:50:55.200,15.0,11.0,17.6299991607666,20.1,4.0,-0.2,46.8,14.3,-8.4,21.2685,4.80779,0.486336,-3.04857,-13.2498,-7.894480000000001,44.5359,7.879339999999999,-11.6534,-0.241148,0.1000409999999999,-0.747851,274.2,6.2,52.1701,4.427230000000001,0.8,1.05608,268.483,4.67975,175.477,-11.0172,148.356,0.700871,0.0953401,230.05,1.24652,1.6498700000000002,15.6757202148438,21.9994239807129,12.325662612915002,22.0,-390771.0,1753.58,pp-ro,1,1,-1,-1
1570531855.3,2019-10-08,12:50:55.300,15.0,11.0,17.6800003051758,20.2,3.0,-0.9,47.5,16.0,-10.9,21.2685,4.80779,0.486336,-3.04857,-13.2498,-7.894480000000001,44.5359,7.879339999999999,-11.6534,-0.241148,0.1000409999999999,-0.747851,274.2,6.2,52.1701,4.427230000000001,0.8,1.07769,281.358,4.67976,175.857,-8.73709,148.156,0.699504,0.0822778,230.113,1.20472,1.60007,14.5550537109375,21.9994239807129,11.487247467041,22.0,-390663.0,830.6410000000001,pp-ro,1,1,-1,-1
1570531855.4,2019-10-08,12:50:55.400,15.0,12.0,17.8799991607666,20.3,2.1,-1.8,48.3,17.6,-13.1,21.3673,2.71128,-1.28259,0.115381,-12.8607,-14.7534,45.5125,12.8594,-16.3588,0.183471,-0.1117099999999999,-0.602342,274.2,6.2,52.1701,4.42724,0.7,1.11315,305.26,4.67978,176.149,-6.83703,148.156,0.698923,0.0714091999999999,230.272,1.16632,1.54456,13.413948059082,21.9994239807129,10.4917783737183,22.0,-390418.0,1384.4,pp-ro,1,1,-1,-1
1570531855.5,2019-10-08,12:50:55.500,15.0,11.0,18.0699996948242,20.2,1.0,-2.2,48.7,19.0,-15.8,21.3673,2.71128,-1.28259,0.115381,-12.8607,-14.7534,45.5125,12.8594,-16.3588,0.183471,-0.1117099999999999,-0.602342,274.2,6.2,52.1701,4.42724,0.7,1.12867,313.955,4.67978,176.35299999999998,-4.55697,148.156,0.698558,0.0584432,230.372,1.12637,1.50278,12.429534912109402,21.9994239807129,9.78783226013184,22.0,-390384.0,646.054,pp-ro,1,1,-1,-1
1570531855.6,2019-10-08,12:50:55.600,15.0,11.0,18.2600002288818,20.1,0.1,-3.0,49.0,20.0,-18.4,21.3271,0.121099,-3.07639,-0.950695,-9.59239,0.937303,46.4927,17.6533,-22.1359,0.261009,-0.0509301,-0.477306,274.2,6.2,52.1701,4.42724,0.7,1.1669,329.84,4.679790000000001,176.412,-2.65693,148.256,0.698837,0.0476626,230.452,1.09128,1.45062,11.1760177612305,21.9994239807129,8.83501720428467,22.0,-390220.0,2645.75,pp-ro,1,1,-1,-1
1570531855.7,2019-10-08,12:50:55.700,15.0,11.0,18.5,19.8,-0.6,-3.6,49.4,21.3,-20.5,21.3271,0.121099,-3.07639,-0.950695,-9.59239,0.937303,46.4927,17.6533,-22.1359,0.261009,-0.0509301,-0.477306,274.2,6.2,52.1701,4.42724,0.7,1.17687,335.811,4.679790000000001,176.412,-0.7568819999999999,148.45600000000002,0.6995520000000001,0.0368875,230.566,1.0581200000000002,1.41077,10.2563171386719,21.9994239807129,8.114185333251951,22.0,-389970.0,2368.87,pp-ro,1,1,-1,-1
1570531855.8,2019-10-08,12:50:55.800,15.0,11.0,18.7399997711182,19.5,-1.7,-4.1,49.1,22.4,-23.0,21.3727,-0.3327739999999999,-3.42582,-1.81824,-10.7432,-0.229932,46.4476,18.6245,-23.148000000000003,-0.043974,0.11322,-0.333371,268.0,5.2,52.1701,4.42724,0.7,1.18574,338.5,4.6798,176.324,1.14316,148.656,0.700455,0.0260904999999999,230.63,1.02299,1.36127,9.79988098144531,21.9994239807129,7.19803094863892,22.0,-389667.0,3414.86,pp-ro,1,1,-1,-1
1570531855.9,2019-10-08,12:50:55.900,15.0,11.0,18.9699993133545,19.1,-2.3,-4.5,48.9,23.4,-25.1,20.8297,-1.7259400000000005,-4.35469,-4.81714,-8.73495,-3.10175,46.2841,21.1908,-26.3049,0.0915861999999999,-0.1131559999999999,-0.475675,268.0,5.2,52.1701,4.42724,0.7,1.18574,339.904,4.67978,176.09,3.4232,148.856,0.701689,0.0131722999999999,230.603,0.995153,1.33092,8.93128204345703,21.9994239807129,6.68023586273193,22.0,-389311.0,3414.86,pp-ro,1,1,-1,-1
1570531856.0,2019-10-08,12:50:56.000,15.0,12.0,19.25,18.5,-2.9,-5.0,48.3,24.0,-27.3,20.8297,-1.7259400000000005,-4.35469,-4.81714,-8.73495,-3.10175,46.2841,21.1908,-26.3049,0.0915861999999999,-0.1131559999999999,-0.475675,268.0,5.2,52.1701,4.42724,0.7,1.1874,336.964,4.67976,175.827,4.943230000000001,149.156,0.703317,0.00452371,230.623,0.968211,1.29025,8.10695648193359,21.9994239807129,5.890499114990231,22.0,-388812.0,3753.27,pp-ro,1,1,-1,-1
1570531856.1,2019-10-08,12:50:56.100,15.0,11.0,19.5599994659424,18.1,-3.5,-5.4,47.7,25.1,-29.0,20.6724,-2.16088,-4.64551,1.4389299999999998,-4.33091,-7.39692,45.9219,21.7318,-27.6302,0.190709,0.104189,-0.309194,268.0,5.2,52.1701,4.42724,0.7,1.18297,335.67400000000004,4.67974,175.50599999999997,7.223269999999999,149.556,0.7053189999999999,-0.00849224,230.698,0.943957,1.25796,7.12935638427734,22.0009689331055,5.31004858016968,22.0,-388598.0,4276.26,pp-ro,1,1,-1,-1
1570531856.2,2019-10-08,12:50:56.200,15.0,11.0,19.8799991607666,17.6,-3.9,-5.6,46.8,25.9,-31.0,20.6724,-2.16088,-4.64551,1.4389299999999998,-4.33091,-7.39692,45.9219,21.7318,-27.6302,0.190709,0.104189,-0.309194,268.0,5.2,52.1701,4.42724,0.7,1.1802,335.125,4.67972,175.12599999999998,9.1233,149.95600000000002,0.7074560000000001,-0.0193862,230.736,0.918486,1.23565,6.40211486816406,22.0009689331055,4.89990425109863,22.0,-388121.0,2707.27,pp-ro,1,1,-1,-1
1570531856.3,2019-10-08,12:50:56.300,15.0,11.0,20.1000003814697,17.2,-4.3,-5.9,46.0,26.6,-32.4,19.4899,-3.30778,-5.506480000000001,-2.76027,-4.918740000000001,1.46547,45.3158,24.153,-31.1454,-0.0783024,0.038774,-0.416641,268.0,5.2,52.1701,4.42724,0.7,1.18352,336.05400000000003,4.6797,174.717,10.6433,150.45600000000002,0.710011,-0.0281589,230.817,0.899799,1.2093,5.70893096923828,22.0009689331055,4.35914087295532,22.0,-387929.0,3353.33,pp-ro,1,1,-1,-1
1570531856.4,2019-10-08,12:50:56.400,15.0,10.0,20.1900005340576,16.9,-4.6,-6.1,45.4,27.5,-33.9,19.4899,-3.30778,-5.506480000000001,-2.76027,-4.918740000000001,1.46547,45.3158,24.153,-31.1454,-0.0783024,0.038774,-0.416641,268.0,5.2,52.1701,4.42724,0.6,1.17853,334.69800000000004,4.67967,174.22099999999998,12.1633,151.056,0.713101,-0.0369878,230.909,0.877748,1.1916,5.37511444091797,22.0009689331055,3.96261668205261,22.0,-387469.0,2799.57,pp-ro,1,1,-1,-1
1570531856.5,2019-10-08,12:50:56.500,15.0,11.0,20.1900005340576,16.6,-5.0,-6.2,44.4,28.1,-35.5,19.0771,-3.88971,-5.88039,-8.320789999999999,-10.8213,-0.0418708,44.6313,25.3721,-32.542,0.0122373,-0.0417906,-0.201959,268.0,5.2,52.1701,4.42724,0.6,1.1802,334.957,4.67965,173.72400000000002,14.4434,151.556,0.715648,-0.0502126999999999,230.99400000000003,0.8610049999999999,1.177,4.652984619140621,22.0009689331055,3.73177790641785,22.0,-387109.0,3753.27,pp-ro,1,1,-1,-1
1570531856.6,2019-10-08,12:50:56.600,15.0,11.0,20.1399993896484,16.2,-5.2,-6.4,44.0,28.5,-37.0,18.3462,-4.65667,-6.34614,0.271395,0.109847,-0.985131,42.9832,27.4132,-35.714,-0.00820762,0.0317934,-0.319634,268.0,5.2,52.1701,4.42724,0.6,1.17632,336.086,4.67963,173.22799999999998,15.5834,152.156,0.718733,-0.0569708,231.08900000000003,0.84335,1.15796,4.15907287597656,22.0009689331055,3.2768628597259504,22.0,-386923.0,3660.97,pp-ro,1,1,-1,-1
1570531856.7,2019-10-08,12:50:56.700,15.0,11.0,20.1399993896484,16.0,-5.6,-6.5,43.3,29.5,-38.2,18.3462,-4.65667,-6.34614,0.271395,0.109847,-0.985131,42.9832,27.4132,-35.714,-0.00820762,0.0317934,-0.319634,268.0,5.2,52.1701,4.42724,0.6,1.18518,338.43300000000005,4.67961,172.673,17.4834,152.757,0.721745,-0.0681402,231.206,0.825584,1.144,3.86272430419922,22.0009689331055,3.00378680229187,22.0,-386695.0,2276.57,pp-ro,1,1,-1,-1
1570531856.8,2019-10-08,12:50:56.800,15.0,11.0,20.1499996185303,15.7,-5.9,-6.6,43.1,29.6,-39.8,17.0157,-6.20556,-6.74192,-3.06351,-2.68271,7.82107,40.1958,30.2347,-41.578,0.0761159,-0.0126587,-0.2331329999999999,261.5,6.2,52.1701,4.42724,0.6,1.18574,337.49800000000005,4.67959,172.05900000000003,19.0034,153.357,0.724978,-0.0772016,231.266,0.8116800000000001,1.12906,3.3585968017578103,22.0009689331055,2.66105389595032,22.0,-386278.0,4891.55,pp-ro,1,1,-1,-1
1570531856.9,2019-10-08,12:50:56.900,15.0,11.0,20.0599994659424,15.5,-6.0,-6.7,42.6,30.0,-41.1,17.0157,-6.20556,-6.74192,-3.06351,-2.68271,7.82107,40.1958,30.2347,-41.578,0.0761159,-0.0126587,-0.2331329999999999,261.5,6.2,52.1701,4.42724,0.6,1.17576,332.741,4.67954,171.446,20.9035,153.957,0.728038,-0.0884818,231.373,0.799541,1.12417,3.04010772705078,22.0009689331055,2.57443261146545,22.0,-385920.0,3107.21,pp-ro,1,1,-1,-1
1570531857.0,2019-10-08,12:50:57.000,15.0,11.0,20.0599994659424,15.1,-6.3,-6.8,42.3,30.0,-42.2,16.5207,-6.53909,-6.875260000000001,2.58287,-3.948080000000001,2.85031,39.3998,30.6874,-43.6734,0.0329881999999999,-0.00884353,-0.299844,261.5,6.2,52.1701,4.42724,0.6,1.17244,328.68800000000005,4.6795,170.803,22.0435,154.55700000000002,0.731399,-0.0954589,231.403,0.791141,1.10451,2.68415069580078,22.0009689331055,2.08796501159668,22.0,-385534.0,4122.44,pp-ro,1,1,-1,-1
1570531857.1,2019-10-08,12:50:57.100,15.0,11.0,20.0599994659424,15.0,-6.5,-7.0,42.2,30.1,-42.8,16.2511,-6.86225,-6.890439999999999,-4.99878,-2.13881,-0.665427,39.3291,30.9764,-44.6705,-0.0150573999999999,-0.0431,-0.155999,261.5,6.2,52.1701,4.42724,0.6,1.16025,326.902,4.67945,170.102,23.9435,154.857,0.733637,-0.106903,231.276,0.790723,1.09558,2.43549346923828,22.0009689331055,1.98849976062775,22.0,-385184.0,3107.21,pp-ro,1,1,-1,-1
1570531857.2,2019-10-08,12:50:57.200,15.0,10.0,20.0599994659424,14.5,-6.8,-7.0,42.2,30.0,-44.1,15.7311,-7.26757,-7.012989999999999,-0.515047,-1.42572,-0.75147,39.0219,31.2028,-46.2426,0.0114598999999999,-0.0615424,-0.112525,261.5,6.2,52.1701,4.42724,0.6,1.17022,327.499,4.67941,169.43,25.0835,155.857,0.738296,-0.113999,231.576,0.7809520000000001,1.07607,2.09146118164062,22.0009689331055,1.40731918811798,22.0,-384926.0,3137.98,pp-ro,1,1,-1,-1
1570531857.3,2019-10-08,12:50:57.300,15.0,10.0,19.9699993133545,14.2,-7.0,-7.0,42.2,30.0,-45.1,15.7311,-7.26757,-7.012989999999999,-0.515047,-1.42572,-0.75147,39.0219,31.2028,-46.2426,0.0114598999999999,-0.0615424,-0.112525,261.5,6.2,52.1701,4.42724,0.6,1.16191,326.278,4.67936,168.7,26.6035,156.157,0.740686,-0.123384,231.414,0.77532,1.06669,1.94158172607422,22.0009689331055,1.24804544448853,22.0,-384530.0,3630.21,pp-ro,1,1,-1,-1
1570531857.4,2019-10-08,12:50:57.400,15.0,10.0,19.979999542236303,14.0,-7.0,-6.9,42.2,30.1,-45.8,15.7311,-7.26757,-7.012989999999999,-0.515047,-1.42572,-0.75147,39.0219,31.2028,-46.2426,0.0114598999999999,-0.0615424,-0.112525,261.5,6.2,52.1701,4.427230000000001,0.7,1.15969,319.16900000000004,4.67932,167.99900000000002,28.1235,157.157,0.7451760000000001,-0.132795,231.761,0.772239,1.07024,1.51239013671875,22.0009689331055,1.1827185153961202,22.0,-384221.0,3537.92,pp-ro,1,1,-1,-1
1570531857.5,2019-10-08,12:50:57.500,15.0,10.0,19.979999542236303,13.7,-7.1,-6.8,41.9,30.1,-46.5,14.9101,-7.561,-6.77827,-3.25822,1.44133,2.15818,38.892,31.441,-48.3354,0.141253,-0.0476597,-0.0435024,261.5,6.2,52.1701,4.427230000000001,0.7,1.13975,309.996,4.67927,167.269,29.2635,157.857,0.748937,-0.1400809999999999,231.849,0.76873,1.0659,1.31142425537109,22.0009689331055,0.9603034257888792,22.0,-383739.0,4768.5,pp-ro,1,1,-1,-1
1570531857.6,2019-10-08,12:50:57.600,15.0,10.0,19.9300003051758,13.6,-7.1,-6.7,42.0,29.9,-46.8,14.9101,-7.561,-6.77827,-3.25822,1.44133,2.15818,38.892,31.441,-48.3354,0.141253,-0.0476597,-0.0435024,261.5,6.2,52.1701,4.427230000000001,0.7,1.12368,303.748,4.67923,166.889,30.0235,158.157,0.7505930000000001,-0.144837,231.877,0.770437,1.06952,1.19219970703125,22.0009689331055,1.00997853279114,22.0,-383438.0,2645.75,pp-ro,1,1,-1,-1
1570531857.7,2019-10-08,12:50:57.700,15.0,10.0,19.9300003051758,13.3,-7.1,-6.7,41.9,29.6,-47.3,14.2687,-7.65683,-6.589989999999999,4.03116,2.56265,7.58696,39.0275,31.1239,-49.5422,0.139573,0.0356203,-0.0285288,261.5,6.2,52.1701,4.427230000000001,0.7,1.11925,301.48900000000003,4.679180000000001,166.13,31.5436,158.857,0.754182,-0.1544569999999999,232.012,0.774059,1.06553,0.974197387695312,22.0009689331055,0.8623474836349491,22.0,-382949.0,3414.86,pp-ro,1,1,-1,-1
1570531857.8,2019-10-08,12:50:57.800,15.0,10.0,19.8500003814697,13.3,-7.3,-6.7,41.9,29.4,-47.8,14.2687,-7.65683,-6.589989999999999,4.03116,2.56265,7.58696,39.0275,31.1239,-49.5422,0.139573,0.0356203,-0.0285288,264.0,6.8,52.1701,4.427230000000001,0.7,1.11648,301.395,4.67914,165.37,32.6836,159.457,0.757627,-0.161875,232.039,0.7751279999999999,1.06467,0.991233825683594,22.0009689331055,0.7276237607002259,22.0,-382811.0,2584.22,pp-ro,1,1,-1,-1
1570531857.9,2019-10-08,12:50:57.900,15.0,11.0,19.7999992370605,13.1,-7.4,-6.6,41.7,29.4,-48.3,14.0958,-7.79938,-6.62265,-3.48325,-3.3092,-2.65461,38.9759,31.037,-49.8244,0.1939799999999999,0.0442032,0.0338894,264.0,6.8,52.1701,4.427230000000001,0.7,1.1242299999999998,301.724,4.67911,164.611,33.8236,160.157,0.761355,-0.169373,232.145,0.774179,1.06353,0.827728271484375,22.0009689331055,0.555512368679047,22.0,-382582.0,2676.51,pp-ro,1,1,-1,-1
1570531858.0,2019-10-08,12:50:58.000,15.0,11.0,19.7099990844727,13.1,-7.6,-6.6,41.8,29.2,-48.7,14.0054,-7.84393,-6.45099,2.67591,0.0720932,4.88055,38.967,30.9554,-50.2063,0.0470839,-0.152988,-0.104976,264.0,6.8,52.1701,4.427230000000001,0.7,1.11925,300.923,4.679069999999999,163.822,35.3436,160.858,0.764898,-0.179172,232.297,0.778138,1.06431,0.7493820190429691,22.0009689331055,0.500105023384094,22.0,-382261.0,3414.86,pp-ro,1,1,-1,-1
1570531858.1,2019-10-08,12:50:58.100,15.0,10.0,19.6299991607666,12.9,-7.8,-6.6,41.5,28.6,-49.3,13.8793,-8.031789999999999,-6.41915,2.3652900000000003,-0.989344,-1.84246,38.6094,30.6908,-51.0553,-0.0783789,-0.0694567,-0.102875,264.0,6.8,52.1701,4.427230000000001,0.7,1.11814,300.774,4.6790400000000005,163.034,36.4836,161.458,0.768328,-0.186806,232.335,0.7821,1.05636,0.7323532104492191,22.0009689331055,-35.0,22.0,-381997.0,2153.51,pp-ro,1,1,-1,-1
1570531858.2,2019-10-08,12:50:58.200,15.0,11.0,19.5799999237061,12.7,-7.9,-6.5,41.4,28.3,-49.6,13.7266,-8.26478,-6.40956,-5.59098,-3.895480000000001,-3.50022,38.6436,30.4248,-51.2245,0.160014,-0.048825,0.256947,264.0,6.8,52.1701,4.427230000000001,0.7,1.12146,299.661,4.67901,162.216,37.6236,162.058,0.7718119999999999,-0.194543,232.362,0.786822,1.05513,0.684661865234375,22.0009689331055,-35.0,22.0,-381722.0,3291.8,pp-ro,1,1,-1,-1
1570531858.3,2019-10-08,12:50:58.300,15.0,11.0,19.5400009155273,12.5,-7.9,-6.5,41.1,27.8,-50.1,13.3936,-8.386439999999999,-6.32569,-3.92909,-1.49191,0.2979219999999999,38.3304,29.6899,-52.082,0.116791,0.005211,-0.0631896,264.0,6.8,52.1701,4.427230000000001,0.7,1.11038,295.73900000000003,4.67896,161.369,39.1436,162.75799999999998,0.7753899999999999,-0.204569,232.513,0.792702,1.05447,0.313377380371094,22.0009689331055,-35.0,22.0,-381296.0,2430.39,pp-ro,1,1,-1,-1
1570531858.4,2019-10-08,12:50:58.400,15.0,10.0,19.4899997711182,12.5,-8.1,-6.4,41.1,27.3,-50.3,13.3053,-8.39326,-6.27808,-1.66522,-1.11682,1.63995,38.3039,29.5424,-52.1739,0.0115969,-0.0531332,0.0118582,264.0,6.8,52.1701,4.427230000000001,0.8,1.1126,295.266,4.67895,160.55100000000002,40.2836,163.358,0.7788,-0.212402,232.562,0.800776,1.05796,-0.42669677734375,22.0009689331055,-35.0,22.0,-381164.0,2491.92,pp-ro,1,1,-1,-1
1570531858.5,2019-10-08,12:50:58.500,15.0,10.0,19.5799999237061,12.6,-8.1,-6.1,40.8,26.9,-50.9,13.3053,-8.39326,-6.27808,-1.66522,-1.11682,1.63995,38.3039,29.5424,-52.1739,0.0115969,-0.0531332,0.0118582,264.0,6.8,52.1701,4.427230000000001,0.8,1.1065,293.157,4.67891,159.733,41.8036,163.958,0.781888,-0.222493,232.69,0.804425,1.08044,-1.5258560180664098,22.0009689331055,-35.0,22.0,-380837.0,3045.68,pp-ro,1,1,-1,-1
1570531858.6,2019-10-08,12:50:58.600,15.0,10.0,19.6700000762939,12.6,-8.0,-5.9,40.9,25.8,-51.3,13.2807,-8.49518,-5.91373,1.37896,3.5017400000000003,3.5752300000000004,38.3325,28.7873,-52.475,0.0529544,-0.106294,0.0833107,264.0,6.8,52.1701,4.427230000000001,0.8,1.09985,285.585,4.67888,158.886,42.9436,164.558,0.785309,-0.23048,232.741,0.81604,1.09694,-2.98003387451172,22.0009689331055,-35.0,22.0,-380592.0,2707.27,pp-ro,1,1,-1,-1
1570531858.7,2019-10-08,12:50:58.700,15.0,10.0,19.7600002288818,12.8,-7.8,-5.6,41.4,25.2,-50.9,13.2807,-8.49518,-5.91373,1.37896,3.5017400000000003,3.5752300000000004,38.3325,28.7873,-52.475,0.0529544,-0.106294,0.0833107,264.0,6.8,52.1701,4.427230000000001,0.8,1.06605,272.343,4.67885,158.06799999999998,44.0836,165.158,0.78861,-0.238443,232.822,0.8330040000000001,1.12815,-4.796043395996089,22.0009689331055,-35.0,22.0,-380043.0,3261.04,pp-ro,1,1,-1,-1
1570531858.8,2019-10-08,12:50:58.800,15.0,10.0,19.8099994659424,13.1,-7.6,-5.3,42.2,24.3,-50.1,13.2593,-8.43714,-5.701309999999999,4.23506,2.10089,6.00232,38.4139,28.5184,-52.687,0.161004,-0.123589,0.0286239,264.8,7.0,52.1701,4.427230000000001,0.8,1.06827,269.971,4.67882,157.28,45.6037,165.75799999999998,0.7914680000000001,-0.248658,233.007,0.859933,1.16458,-6.8851318359375,22.0009689331055,-35.0,22.0,-379863.0,1876.63,pp-ro,1,1,-1,-1
1570531858.9,2019-10-08,12:50:58.900,15.0,10.0,19.770000457763697,13.5,-7.5,-4.8,43.2,22.9,-49.3,13.2593,-8.43714,-5.701309999999999,4.23506,2.10089,6.00232,38.4139,28.5184,-52.687,0.161004,-0.123589,0.0286239,264.8,7.0,52.1701,4.427230000000001,0.8,1.07049,270.555,4.67877,156.491,46.7437,166.25799999999998,0.794303,-0.256668,233.058,0.8905370000000001,1.20748,-8.99641418457031,22.0009689331055,-35.0,22.0,-379720.0,2707.28,pp-ro,1,1,-1,-1
1570531859.0,2019-10-08,12:50:59.000,15.0,10.0,19.770000457763697,14.1,-7.2,-4.2,44.1,21.1,-48.2,14.2693,-7.49993,-4.04983,8.3954,4.698169999999999,3.37447,41.7013,26.1886,-48.4651,0.141176,0.0047561999999999,0.2393179999999999,264.8,7.0,52.1701,4.427230000000001,0.8,1.06439,271.319,4.678730000000001,155.732,47.8837,166.75799999999998,0.797018,-0.264661,233.138,0.929485,1.2667,-11.1042861938477,22.0009689331055,-35.0,22.0,-379473.0,2091.99,pp-ro,1,1,-1,-1
