time,date,time_of_day,airspeed_temperature,airspeed_angle_of_attack,airspeed_apparent_windspeed,kite_0_vx,kite_0_vy,kite_0_vz,kite_0_roll,kite_0_pitch,kite_0_yaw,kite_1_vx,kite_1_vy,kite_1_vz,kite_1_ax,kite_1_ay,kite_1_az,kite_1_roll,kite_1_pitch,kite_1_yaw,kite_1_roll_rate,kite_1_pitch_rate,kite_1_yaw_rate,ground_upwind_direction,ground_wind_velocity,ground_pos_latitude,ground_pos_longitude,ground_pos_altitude,ground_tether_reelout_speed,ground_tether_force,est_upwind_direction,kite_pos_east,kite_pos_north,kite_height,kite_elevation,kite_azimuth,kite_distance,kite_heading,kite_course,kite_actual_steering,kite_actual_depower,kite_set_steering,kite_set_depower,ground_mech_energy,ground_mech_power,flight_phase,flight_phase_index,phase,pattern,pattern_section
1570532841.4,2019-10-08,13:07:21.400,14.0,8.0,15.8100004196167,12.6,-0.9,3.1,22.5,-8.2,-43.7,11.1579,-0.919939,3.42005,4.64246,12.9013,2.50515,25.658,6.38335,-45.4628,0.215231,0.183214,1.00221,266.6,6.6,52.1701,4.427219999999999,6.9,-2.47398,99.4864,4.59806,44.4831,7.60048,235.547,1.3815,-0.0548986,239.831,1.00872,1.71271,-34.970123291015604,22.007146835327102,-35.0,22.0,-781792.0,-3845.56,pp-riro,4,0,-1,-1
1570532841.5,2019-10-08,13:07:21.500,14.0,7.0,15.6999998092651,13.1,0.2,3.4,23.8,-10.0,-38.4,11.5142,-0.3272219999999999,3.55742,4.976369999999999,10.177,1.16519,26.4758,5.54359,-42.6376,0.034134,0.2273929999999999,0.983905,266.6,6.6,52.1701,4.427219999999999,7.1,-2.47952,97.9407,4.59807,44.3955,9.12053,235.347,1.38055,-0.0882956,239.672,1.1409200000000002,1.83233,-34.971832275390604,22.0009689331055,-35.0,22.0,-782710.0,-5906.78,pp-riro,4,0,-1,-1
1570532841.6,2019-10-08,13:07:21.600,14.0,8.0,15.359999656677198,13.5,1.5,3.8,24.9,-11.7,-33.1,12.133,1.51695,4.066730000000001,4.00347,11.7297,4.06095,28.7259,3.2844900000000004,-33.6509,0.0758159,0.283491,1.05086,266.6,6.6,52.1701,4.427219999999999,7.1,-2.48894,97.3938,4.59807,44.4539,10.2606,235.147,1.37916,-0.112524,239.532,1.26354,1.95214,-34.9871978759766,21.997879028320305,-35.0,22.0,-783074.0,-6983.54,pp-riro,4,0,-1,-1
1570532841.7,2019-10-08,13:07:21.700,14.0,8.0,14.9499998092651,13.9,2.8,4.2,26.1,-13.7,-28.2,12.5224,2.69436,4.50044,0.210402,10.2921,3.89498,29.9156,1.6422599999999998,-27.6536,0.113827,0.287487,1.02128,266.6,6.6,52.1701,4.427219999999999,7.1,-2.50667,92.3832,4.59808,44.5707,11.4006,234.847,1.37735,-0.136107,239.311,1.37945,2.06305,-34.9871978759766,21.997879028320305,-35.0,22.0,-783833.0,-9044.76,pp-riro,4,0,-1,-1
1570532841.8,2019-10-08,13:07:21.800,14.0,8.0,14.710000038147,14.1,4.0,4.5,26.7,-15.4,-23.0,12.6607,3.33762,4.63388,2.46707,11.5478,3.3619,30.428,0.6468470000000001,-24.7776,0.157858,0.18631,0.976336,266.6,6.6,52.1701,4.427219999999999,7.1,-2.54435,87.1428,4.59809,44.8628,12.9207,234.647,1.3744,-0.1661099999999999,239.246,1.50577,2.16877,-34.9957275390625,21.997879028320305,-35.0,22.0,-785005.0,-12244.3,pp-riro,4,0,-1,-1
1570532841.9,2019-10-08,13:07:21.900,14.0,8.0,14.460000038147,14.3,5.3,4.7,27.5,-16.9,-17.7,12.9079,5.13687,5.101,-1.10729,10.4577,2.49019,31.397,-2.2610900000000003,-16.5155,0.2362449999999999,0.23911,1.12295,270.9,6.0,52.1701,4.427219999999999,7.1,-2.60862,85.1679,4.59808,45.2717,14.4407,234.347,1.37074,-0.194477,239.116,1.63096,2.27192,-34.9991455078125,21.9983940124512,-35.0,22.0,-786278.0,-13628.7,pp-riro,4,0,-1,-1
1570532842.0,2019-10-08,13:07:22.000,14.0,7.0,14.460000038147,14.4,6.5,5.1,27.7,-18.4,-12.3,12.9244,6.32619,5.43034,-0.946404,11.2863,3.92942,32.0792,-4.18725,-10.6049,0.129156,0.250455,1.03726,270.9,6.0,52.1701,4.427219999999999,7.1,-2.67677,85.4879,4.5981,45.7974,15.5808,234.047,1.36698,-0.213631,238.99400000000003,1.74807,2.35885,-35.0025634765625,21.9983940124512,-35.0,22.0,-787832.0,-15905.2,pp-riro,4,0,-1,-1
1570532842.1,2019-10-08,13:07:22.100,14.0,8.0,14.2799997329712,14.3,7.7,5.6,27.9,-20.3,-6.5,12.9354,6.908580000000001,5.54362,-0.829349,12.2532,2.38735,32.1299,-5.07565,-7.66581,0.220494,0.284663,0.999873,270.9,6.0,52.1701,4.427219999999999,7.1,-2.7488,86.3532,4.5981,46.4399,17.1008,233.547,1.36199,-0.238539,238.733,1.8784,2.45267,-35.0042724609375,21.9983940124512,-35.0,22.0,-789381.0,-16028.3,pp-riro,4,0,-1,-1
1570532842.2,2019-10-08,13:07:22.200,14.0,8.0,14.2200002670288,14.2,9.0,5.9,27.6,-22.3,-0.7,12.8116,8.013810000000001,5.93372,-2.28644,8.48511,4.48501,32.015,-6.90141,-1.69423,0.12043,0.300332,1.04255,270.9,6.0,52.1701,4.427219999999999,7.1,-2.8485400000000003,85.8451,4.59813,47.2577,18.6209,233.147,1.35629,-0.261081,238.616,2.00578,2.54273,-35.0059814453125,21.997879028320305,-35.0,22.0,-791460.0,-14059.4,pp-riro,4,0,-1,-1
1570532842.3,2019-10-08,13:07:22.300,14.0,9.0,14.210000038147,13.9,10.2,6.2,27.3,-24.0,5.1,12.6585,9.09194,6.25823,-2.43998,9.28794,3.58101,31.6016,-8.80681,4.27086,0.100964,0.264815,1.0144,270.9,6.0,52.1701,4.427219999999999,7.1,-2.88178,85.2752,4.59813,48.1339,20.141,232.647,1.35017,-0.282032,238.426,2.12922,2.62859,-35.0059814453125,21.997879028320305,-35.0,22.0,-792296.0,-16428.2,pp-riro,4,0,-1,-1
1570532842.4,2019-10-08,13:07:22.400,14.0,9.0,14.3999996185303,13.6,11.4,6.5,26.6,-25.6,11.0,12.3481,10.1957,6.44549,-2.67672,10.0242,0.605055,30.9359,-10.5977,10.3222,0.177282,0.298317,1.06957,270.9,6.0,52.1701,4.427219999999999,7.1,-2.98373,86.7763,4.59816,49.1562,21.661,232.047,1.34331,-0.300821,238.183,2.25051,2.70845,-35.0059814453125,21.997879028320305,-35.0,22.0,-794822.0,-16858.9,pp-riro,4,0,-1,-1
1570532842.5,2019-10-08,13:07:22.500,14.0,9.0,14.5200004577637,13.2,12.5,6.9,25.7,-27.1,17.2,11.9989,11.2696,6.678030000000001,-1.58709,8.263539999999999,1.7718900000000002,30.0421,-12.0676,16.4324,0.166107,0.269899,1.00925,270.9,6.0,52.1701,4.427219999999999,7.6,-3.02141,89.3001,4.59818,50.2952,22.8011,231.447,1.33658,-0.311411,237.944,2.36707,2.77699,-35.0059814453125,21.997879028320305,-23.0,22.0,-795713.0,-17351.2,pp-riro,4,0,-1,-1
1570532842.6,2019-10-08,13:07:22.600,14.0,10.0,14.640000343322802,12.7,13.6,7.2,24.8,-28.4,23.3,11.6523,12.275,7.04208,-4.037,9.15687,4.49643,29.0561,-13.5142,22.4801,0.0188912,0.310395,0.951781,270.9,6.0,52.1701,4.427219999999999,7.6,-3.06629,96.6565,4.59819,51.5219,24.3211,230.847,1.32883,-0.326836,237.774,2.48436,2.85012,-35.0059814453125,21.997879028320305,-23.0,22.0,-796993.0,-10736.8,pp-riro,4,0,-1,-1
1570532842.7,2019-10-08,13:07:22.700,14.0,10.0,14.6999998092651,12.1,14.7,7.5,23.2,-29.4,29.8,10.8938,13.7573,7.47548,-6.41165,11.0868,5.578790000000001,26.9968,-15.0874,31.9514,0.0466559,0.396984,0.97356,270.9,6.0,52.1701,4.427219999999999,7.6,-3.07183,102.928,4.59819,52.8655,25.4612,230.147,1.32116,-0.334633,237.509,2.59851,2.91673,-34.9598999023438,21.9983940124512,-23.0,22.0,-797953.0,-4399.32,pp-riro,4,0,-1,-1
1570532842.8,2019-10-08,13:07:22.800,14.0,10.0,14.880000114440902,11.4,15.9,7.8,21.7,-30.0,36.2,10.3228,14.7381,7.71173,-4.233280000000001,8.7932,2.61469,25.4092,-16.1626,38.1445,0.0780523,0.353717,1.02601,270.9,6.0,52.1701,4.427219999999999,7.6,-3.06906,104.554,4.59822,54.355,26.6012,229.447,1.31292,-0.340955,237.293,2.70738,2.98543,-34.555389404296896,21.9983940124512,-23.0,22.0,-798156.0,-4122.44,pp-riro,4,0,-1,-1
1570532842.9,2019-10-08,13:07:22.900,14.0,10.0,15.1800003051758,10.8,17.1,8.2,20.4,-30.6,42.9,10.0655,15.2499,7.903119999999999,-9.46453,11.0445,5.524,24.6696,-16.5989,41.1918,0.040347,0.2420739999999999,0.943595,265.1,6.1,52.1701,4.427219999999999,7.6,-3.03693,111.694,4.5982400000000005,56.0198,28.1213,228.647,1.30323,-0.351077,237.083,2.82329,3.0500700000000003,-33.7890472412109,21.9983940124512,-23.0,22.0,-798380.0,-1722.81,pp-riro,4,0,-1,-1
1570532843.0,2019-10-08,13:07:23.000,14.0,10.0,15.460000038147,10.0,18.4,8.6,18.9,-31.1,49.1,10.0655,15.2499,7.903119999999999,-9.46453,11.0445,5.524,24.6696,-16.5989,41.1918,0.040347,0.2420739999999999,0.943595,265.1,6.1,52.1701,4.427219999999999,7.6,-2.92278,136.439,4.59822,57.8014,28.8814,227.847,1.29446,-0.34922,236.832,2.91932,3.10953,-32.667694091796896,21.9983940124512,-23.0,22.0,-797461.0,12244.3,pp-riro,4,0,-1,-1
1570532843.1,2019-10-08,13:07:23.100,14.0,12.0,15.8000001907349,9.1,19.5,9.1,17.4,-31.5,55.2,9.5217,16.4728,8.12693,-6.22119,10.1984,3.88464,23.0156,-17.3387,47.3138,-0.00199587,0.336453,0.948952,265.1,6.1,52.1701,4.427219999999999,7.6,-2.82804,144.539,4.59821,59.6415,30.0214,226.947,1.28465,-0.352161,236.565,3.01704,3.16913,-31.191329956054695,21.9983940124512,-22.4774284362793,22.0,-796474.0,17843.4,pp-riro,4,0,-1,-1
1570532843.2,2019-10-08,13:07:23.200,14.0,11.0,16.0300006866455,8.1,20.4,9.4,15.6,-31.7,61.5,8.81894,17.5632,8.61002,-9.29244,10.298,5.66255,21.4018,-17.9728,53.4094,-0.00243638,0.218173,0.946556,265.1,6.1,52.1701,4.427219999999999,7.6,-2.62358,152.22899999999998,4.59819,61.5984,31.1615,225.947,1.27428,-0.354151,236.257,3.11602,3.22515,-29.3616638183594,21.9994239807129,-21.811622619628896,22.0,-794389.0,23381.0,pp-riro,4,0,-1,-1
1570532843.3,2019-10-08,13:07:23.300,14.0,11.0,16.2999992370605,7.0,21.3,9.4,13.9,-31.3,67.5,7.06578,19.3904,9.18172,-9.66034,6.506819999999999,1.25598,17.7267,-19.6053,65.1784,-0.1461569999999999,0.170721,0.956731,265.1,6.1,52.1701,4.427219999999999,7.6,-2.2457,152.708,4.59817,63.6721,31.9215,224.947,1.26415,-0.350515,235.954,3.20494,3.27787,-27.3647384643555,21.9994239807129,-21.0749454498291,22.0,-790806.0,22119.7,pp-riro,4,0,-1,-1
1570532843.4,2019-10-08,13:07:23.400,14.0,10.0,16.6700000762939,6.0,22.1,9.5,12.5,-31.0,73.1,6.07099,20.2701,9.2603,-11.8183,7.11061,4.14785,16.281,-20.139,70.4638,-0.0193872,0.253864,0.8698389999999999,265.1,6.1,52.1701,4.427219999999999,7.6,-2.00245,152.438,4.59816,65.8042,32.3016,223.946,1.25446,-0.34209,235.639,3.28345,3.31866,-25.2005462646484,21.9994239807129,-20.4521255493164,22.0,-788754.0,19750.8,pp-riro,4,0,-1,-1
1570532843.5,2019-10-08,13:07:23.500,14.0,10.0,16.8299999237061,4.8,22.7,9.6,10.9,-30.6,78.3,5.08385,21.0759,9.3871,-14.4544,7.418080000000001,2.37967,14.6928,-20.4038,75.8546,0.00746325,0.223773,0.8066979999999999,265.1,6.1,52.1701,4.42721,7.9,-1.86615,153.944,4.59814,68.0239,33.0616,222.946,1.24374,-0.3381699999999999,235.426,3.3597900000000003,3.36737,-23.630310058593803,21.9994239807129,-19.8294010162354,22.0,-787726.0,18335.6,pp-riro,4,0,-1,-1
1570532843.6,2019-10-08,13:07:23.600,14.0,9.0,16.9899997711182,3.6,23.1,9.6,9.4,-30.2,83.3,4.50251,21.4182,9.41842,-11.9503,8.80888,1.01107,13.844,-20.4562,78.4641,-0.00509793,0.2706969999999999,0.7525310000000001,265.1,6.1,52.1701,4.42721,7.9,-1.61293,159.347,4.59813,70.3313,33.4417,221.946,1.23334,-0.329592,235.213,3.42901,3.40918,-22.2785491943359,21.9994239807129,-19.2291870117188,22.0,-786086.0,17135.8,pp-riro,4,0,-1,-1
1570532843.7,2019-10-08,13:07:23.700,14.0,9.0,17.0900001525879,2.4,23.6,9.6,7.7,-29.5,88.1,3.3731800000000005,21.8277,9.40504,-12.1141,4.31875,-1.66565,12.3236,-20.4658,83.3109,0.0304166,0.11592,0.666917,265.1,6.1,52.1701,4.42721,7.9,-1.32204,161.82,4.59811,72.7263,33.8217,220.946,1.22258,-0.321032,235.054,3.4959,3.4507800000000004,-21.6709289550781,21.9994239807129,-18.6586818695068,22.0,-784455.0,15505.3,pp-riro,4,0,-1,-1
1570532843.8,2019-10-08,13:07:23.800,14.0,9.0,17.1900005340576,1.4,23.8,9.6,6.4,-28.9,92.6,3.3731800000000005,21.8277,9.40504,-12.1141,4.31875,-1.66565,12.3236,-20.4658,83.3109,0.0304166,0.11592,0.666917,265.1,6.1,52.1701,4.42721,7.9,-1.04112,160.578,4.59809,75.0921,33.8217,219.946,1.21251,-0.308903,234.86,3.55511,3.47893,-20.5803070068359,21.9994239807129,-18.2512912750244,22.0,-783155.0,12244.3,pp-riro,4,0,-1,-1
1570532843.9,2019-10-08,13:07:23.900,14.0,9.0,17.2900009155273,0.4,23.8,9.4,4.6,-28.6,97.1,1.35268,22.4595,9.26636,-6.55277,-1.7784799999999998,0.950187,9.2981,-19.9572,92.3475,0.0637939,0.226169,0.648982,267.9,6.2,52.1701,4.42721,7.9,-0.62168,151.256,4.59806,77.487,34.5818,218.946,1.20106,-0.3054489999999999,234.814,3.62103,3.51516,-19.4418869018555,21.9994239807129,-17.962347030639602,22.0,-781922.0,6337.48,pp-riro,4,0,-1,-1
1570532844.0,2019-10-08,13:07:24.000,14.0,8.0,17.2900009155273,-0.5,23.8,9.1,3.0,-27.8,101.5,0.873043,22.495,9.26104,-12.6205,0.162041,-5.21089,8.69936,-20.0143,94.4712,0.00253407,0.0352055,0.533521,267.9,6.2,52.1701,4.42721,7.9,-0.391736,144.868,4.59808,78.7722,34.5818,218.546,1.1957799999999998,-0.2993639999999999,234.86900000000003,3.68539,3.54598,-18.7216262817383,21.9994239807129,-17.4441452026367,22.0,-781526.0,3322.56,pp-riro,4,0,-1,-1
1570532844.1,2019-10-08,13:07:24.100,14.0,8.0,17.2399997711182,-1.5,23.6,8.9,1.9,-26.5,105.7,-0.4632159999999999,22.365,8.79481,-5.76725,1.15374,-5.95292,6.32758,-19.5691,100.639,0.159374,0.196312,0.54228,267.9,6.2,52.1701,4.42721,7.9,-0.273163,143.389,4.59807,82.3062,34.5819,217.146,1.1807299999999998,-0.283451,234.782,3.73967,3.5712300000000003,-18.1993560791016,21.9994239807129,-17.2695236206055,22.0,-781419.0,2091.99,pp-riro,4,0,-1,-1
1570532844.2,2019-10-08,13:07:24.200,14.0,8.0,17.1399993896484,-2.5,23.3,8.8,0.4,-25.8,109.4,-2.02565,22.209,8.55044,-13.4904,-0.510738,2.09663,4.651619999999999,-18.2061,106.399,-0.0780696,0.259805,0.6197560000000001,267.9,6.2,52.1701,4.42721,7.9,0.00997348,141.01,4.59809,84.7304,33.8219,216.146,1.1714,-0.265487,234.611,3.78289,3.59479,-17.7658309936523,21.9994239807129,-16.8236885070801,22.0,-781335.0,-92.2935,pp-riro,4,0,-1,-1
1570532844.3,2019-10-08,13:07:24.300,14.0,7.0,17.0300006866455,-3.0,23.2,8.7,0.0,-25.4,111.0,-2.48303,22.0944,8.54012,-13.443,0.4343109999999999,-1.76049,4.120340000000001,-17.8653,108.16,-0.0989516,0.232198,0.50358,267.9,6.2,52.1701,4.42721,7.9,0.188942,138.846,4.59807,85.8695,33.8219,215.746,1.16658,-0.260898,234.657,3.80485,3.61115,-17.3084106445312,21.9994239807129,-16.6252040863037,22.0,-781439.0,-1292.11,pp-riro,4,0,-1,-1
1570532844.4,2019-10-08,13:07:24.400,14.0,8.0,17.0799999237061,-4.0,23.0,8.3,-1.0,-24.1,114.2,-3.37107,21.8298,8.204039999999999,-5.33154,-1.42897,-8.02406,2.70401,-17.3701,111.23,-0.0708602,0.139248,0.53087,267.9,6.2,52.1701,4.42721,7.9,0.261527,138.976,4.59807,89.4036,33.4419,214.846,1.1527,-0.2436239999999999,235.096,3.844030000000001,3.63834,-17.0353317260742,21.9994239807129,-16.3719158172607,22.0,-781516.0,-1568.99,pp-riro,4,0,-1,-1
1570532844.5,2019-10-08,13:07:24.500,14.0,9.0,17.0799999237061,-4.7,22.8,8.3,-1.9,-22.8,117.1,-3.83509,21.8159,8.0088,-5.61028,1.93278,-3.58782,2.36599,-16.8591,112.875,0.0573822,0.250916,0.534546,267.9,6.2,52.1701,4.4272,8.1,0.231606,145.442,4.59807,90.6011,33.0619,213.946,1.14728,-0.2355809999999999,234.68,3.88791,3.65946,-16.565963745117198,21.9994239807129,-16.0393466949463,22.0,-781406.0,1138.29,pp-riro,4,0,-1,-1
1570532844.6,2019-10-08,13:07:24.600,14.0,8.0,17.129999160766598,-5.6,22.6,8.6,-2.9,-22.4,120.0,-4.6365,21.6469,8.01543,-7.6775,-1.4417,-0.873049,1.31,-15.7035,115.791,-0.0722498999999999,0.102161,0.4487279999999999,267.9,6.2,52.1701,4.4272,8.1,0.270946,162.732,4.59807,92.9085,32.681999999999995,213.046,1.1377700000000002,-0.2239239999999999,234.71,3.9238,3.68263,-16.166580200195302,21.9994239807129,-15.8024234771729,22.0,-781465.0,-830.6410000000001,pp-riro,4,0,-1,-1
1570532844.7,2019-10-08,13:07:24.700,14.0,10.0,17.0300006866455,-6.3,22.3,8.7,-4.0,-22.2,123.2,-5.80952,21.2028,8.27985,-6.415,-3.5443,-2.10585,-0.586963,-15.4312,120.544,-0.212044,-0.145419,0.442817,267.9,6.2,52.1701,4.4272,8.1,0.3080699999999999,179.938,4.59806,95.2742,32.302,212.046,1.12781,-0.212556,234.7,3.96331,3.70063,-16.021507263183597,21.9994239807129,-15.713836669921902,22.0,-781437.0,584.525,pp-riro,4,0,-1,-1
1570532844.8,2019-10-08,13:07:24.800,14.0,10.0,16.9699993133545,-7.1,22.1,8.6,-5.5,-21.3,126.3,-6.50561,20.9613,8.13176,-4.459,-1.787,-1.54481,-2.22223,-14.8755,123.569,-0.118477,0.0398648,0.49317,267.9,6.2,52.1701,4.4272,8.1,0.3174889999999999,183.997,4.59806,97.494,31.542,211.046,1.11879,-0.198573,234.607,4.00326,3.72134,-15.8303451538086,21.9994239807129,-15.4732608795166,22.0,-781411.0,184.587,pp-riro,4,0,-1,-1
1570532844.9,2019-10-08,13:07:24.900,14.0,10.0,17.0799999237061,-7.9,21.9,8.8,-6.8,-20.5,129.2,-7.36246,20.835,8.20853,-5.82261,-2.71698,1.36298,-3.8984,-14.0815,126.465,-0.310866,0.108302,0.582569,267.3,5.5,52.1701,4.4272,8.1,0.319706,183.442,4.59808,99.743,30.402,210.046,1.11001,-0.18153,234.504,4.0371,3.73627,-15.6152954101562,21.9994239807129,-15.2775745391846,22.0,-781354.0,738.3480000000001,pp-riro,4,0,-1,-1
1570532845.0,2019-10-08,13:07:25.000,14.0,10.0,17.129999160766598,-8.8,21.4,9.0,-8.4,-20.3,132.2,-8.20089,20.4417,8.37318,-10.1099,-7.80362,-0.0734319,-5.49594,-13.8494,129.439,-0.261471,0.0115925,0.451529,267.3,5.5,52.1701,4.4272,8.1,0.321922,188.863,4.59811,101.934,29.642,209.046,1.10092,-0.168719,234.455,4.0722,3.7616,-15.5009384155273,21.9994239807129,-15.0067157745361,22.0,-781297.0,184.587,pp-riro,4,0,-1,-1
1570532845.1,2019-10-08,13:07:25.100,14.0,11.0,17.1800003051758,-9.5,20.9,8.7,-9.9,-19.8,135.1,-8.52191,20.2091,8.353,-2.46779,-6.83559,-1.44021,-6.33611,-14.0102,130.941,-0.0409975,0.0242831999999999,0.500834,267.3,5.5,52.1701,4.4272,8.1,0.330787,191.453,4.59815,104.153,28.882,207.945,1.09146,-0.15625,234.357,4.10802,3.78564,-15.3012466430664,21.9994239807129,-14.8098211288452,22.0,-781280.0,307.645,pp-riro,4,0,-1,-1
1570532845.2,2019-10-08,13:07:25.200,14.0,9.0,17.229999542236303,-10.4,20.6,8.7,-11.4,-19.0,137.7,-8.89172,19.9692,8.250580000000001,-3.79947,-7.577210000000001,-3.90066,-7.215889999999999,-14.1022,132.16,-0.15994,0.0399372,0.377839,267.3,5.5,52.1701,4.4272,8.1,0.3346659999999999,194.716,4.59818,106.227,28.122,207.045,1.08286,-0.144588,234.399,4.14222,3.81226,-15.0520553588867,21.9994239807129,-14.5449438095093,22.0,-781233.0,492.232,pp-riro,4,0,-1,-1
1570532845.3,2019-10-08,13:07:25.300,14.0,10.0,17.2800006866455,-11.2,20.0,8.8,-12.7,-18.8,140.2,-10.1973,19.3487,8.170589999999999,-6.17421,-8.14605,3.82017,-9.63982,-13.2029,135.91299999999998,-0.28586,-0.023676,0.438882,267.3,5.5,52.1701,4.4272,8.1,0.343531,200.99,4.59822,108.272,26.602,206.045,1.07481,-0.126738,234.276,4.16528,3.83265,-14.8233489990234,21.9994239807129,-14.2468070983887,22.0,-781194.0,338.409,pp-riro,4,0,-1,-1
1570532845.4,2019-10-08,13:07:25.400,14.0,10.0,17.2800006866455,-12.0,19.3,8.7,-13.9,-18.5,142.9,-10.9506,18.7605,8.26501,-8.654869999999999,-8.13305,-1.76078,-11.2275,-13.0375,138.68200000000002,-0.143153,-0.0656895,0.367566,267.3,5.5,52.1701,4.4272,8.1,0.359599,206.233,4.59826,110.287,25.462,204.945,1.0662,-0.112749,234.124,4.19524,3.86096,-14.5690383911133,21.9994239807129,-13.9342746734619,22.0,-781126.0,615.29,pp-riro,4,0,-1,-1
1570532845.5,2019-10-08,13:07:25.500,14.0,9.0,17.2800006866455,-12.6,18.7,8.5,-15.2,-18.1,145.0,-11.7255,18.1489,8.12082,-4.71392,-6.07529,-5.33362,-12.5938,-13.0644,141.037,-0.156397,-0.1393039999999999,0.580643,267.3,5.5,52.1701,4.4272,7.8,0.354059,204.444,4.59829,112.185,24.7021,203.945,1.05784,-0.102614,234.071,4.22029,3.88601,-14.3078994750977,21.9994239807129,-13.7783975601196,22.0,-781048.0,769.112,pp-riro,4,0,-1,-1
1570532845.6,2019-10-08,13:07:25.600,14.0,9.0,17.379999160766598,-13.2,18.1,8.4,-15.7,-17.3,146.8,-11.7255,18.1489,8.12082,-4.71392,-6.07529,-5.33362,-12.5938,-13.0644,141.037,-0.156397,-0.1393039999999999,0.580643,267.3,5.5,52.1701,4.4272,7.8,0.352396,204.243,4.598319999999999,114.025,23.182,203.045,1.05042,-0.0864895,234.023,4.23911,3.90504,-13.889739990234402,21.9994239807129,-13.564489364624,22.0,-781016.0,615.29,pp-riro,4,0,-1,-1
1570532845.7,2019-10-08,13:07:25.700,14.0,9.0,17.5300006866455,-13.9,17.5,8.4,-16.5,-16.9,148.8,-12.3799,17.5683,7.98365,-4.73567,-5.721030000000001,-3.03731,-13.5415,-12.9131,143.126,-0.0634534,0.0570059,0.370392,267.3,5.5,52.1701,4.4272,7.8,0.356275,205.981,4.59836,115.865,21.662,202.045,1.04267,-0.0707773,233.915,4.25806,3.92683,-13.7890396118164,21.9994239807129,-13.3504514694214,22.0,-780933.0,584.525,pp-riro,4,0,-1,-1
1570532845.8,2019-10-08,13:07:25.800,14.0,9.0,17.5799999237061,-14.4,16.9,8.3,-17.1,-16.9,150.7,-13.7701,16.1152,7.8471,-3.27875,-3.42653,-4.1750300000000005,-15.6024,-12.5246,147.964,0.115114,-0.0861468,0.299261,267.3,5.5,52.1701,4.4272,7.8,0.356829,205.813,4.59839,117.618,20.522,201.145,1.03511,-0.0587284,233.911,4.27525,3.94686,-13.5739898681641,21.9994239807129,-13.2611818313599,22.0,-780901.0,615.29,pp-riro,4,0,-1,-1
1570532845.9,2019-10-08,13:07:25.900,14.0,8.0,17.6800003051758,-14.8,16.4,8.1,-17.4,-16.2,152.4,-13.7701,16.1152,7.8471,-3.27875,-3.42653,-4.1750300000000005,-15.6024,-12.5246,147.964,0.115114,-0.0861468,0.299261,263.8,5.1,52.1701,4.4272,7.8,0.355721,205.71,4.59842,119.283,18.622,200.245,1.02825,-0.0408881,233.823,4.29061,3.95851,-13.372589111328098,21.9994239807129,-13.1878271102905,22.0,-780834.0,676.819,pp-riro,4,0,-1,-1
1570532846.0,2019-10-08,13:07:26.000,14.0,8.0,17.8199996948242,-15.2,15.9,8.0,-17.7,-15.7,154.2,-13.7701,16.1152,7.8471,-3.27875,-3.42653,-4.1750300000000005,-15.6024,-12.5246,147.964,0.115114,-0.0861468,0.299261,263.8,5.1,52.1701,4.4272,7.8,0.357383,207.488,4.59842,120.889,17.482,199.345,1.02106,-0.0296445999999999,233.791,4.311319999999999,3.97464,-13.297492980957,21.9994239807129,-13.2142963409424,22.0,-780773.0,615.29,pp-riro,4,0,-1,-1
1570532846.1,2019-10-08,13:07:26.100,14.0,8.0,17.9200000762939,-15.6,15.2,8.0,-17.9,-15.4,156.0,-14.5892,15.0262,7.663069999999999,-2.38791,-4.159009999999999,0.680253,-16.5296,-11.3972,151.512,-0.0992232,-0.089786,0.389186,263.8,5.1,52.1701,4.4272,7.8,0.363478,210.505,4.59842,122.408,15.582,198.445,1.01449,-0.0126419,233.681,4.32552,3.98915,-13.205322265625,21.9994239807129,-13.1322803497314,22.0,-780688.0,676.819,pp-riro,4,0,-1,-1
1570532846.2,2019-10-08,13:07:26.200,14.0,8.0,18.020000457763697,-15.9,14.7,7.8,-18.2,-15.0,157.7,-15.0171,14.4134,7.5475,-3.41806,-6.20403,-4.684740000000001,-16.8069,-11.5422,153.472,-0.0913965,-0.0641675999999999,0.3119409999999999,263.8,5.1,52.1701,4.4272,7.8,0.364032,211.231,4.598409999999999,123.898,14.442,197.645,1.00781,-0.00206477,233.715,4.34449,4.00514,-13.2019119262695,21.9994239807129,-13.185917854309098,22.0,-780658.0,584.525,pp-riro,4,0,-1,-1
1570532846.3,2019-10-08,13:07:26.300,14.0,8.0,18.0699996948242,-16.4,14.2,7.7,-18.4,-14.4,159.7,-15.2917,13.9224,7.334169999999999,-1.58673,-3.37174,-2.4609,-17.1498,-11.098,155.333,0.1201769999999999,0.0542274,0.3712789999999999,263.8,5.1,52.1701,4.4272,7.8,0.367357,211.415,4.598409999999999,125.358,12.922,196.745,1.0011,0.0112596,233.645,4.36734,4.023540000000001,-13.140472412109402,21.9994239807129,35.0,22.0,-780598.0,676.819,pp-riro,4,0,-1,-1
1570532846.4,2019-10-08,13:07:26.400,14.0,9.0,18.2099990844727,-16.7,13.6,7.6,-18.8,-14.1,161.7,-15.9336,13.1728,7.233919999999999,-3.22012,-10.3836,-2.04837,-17.4553,-9.95473,158.16,0.144626,0.0716734,0.386683,263.8,5.1,52.1701,4.4272,7.8,0.75466,212.561,4.598409999999999,126.731,11.022,195.945,0.994977,0.0272267,233.616,4.38529,4.03641,-13.1677780151367,21.9994239807129,35.0,22.0,-782070.0,-18827.9,pp-riro,4,0,-1,-1
1570532846.5,2019-10-08,13:07:26.500,14.0,9.0,18.3099994659424,-16.8,12.9,7.3,-18.8,-13.6,163.5,-16.1451,12.4806,7.02457,-3.09725,-12.1763,-5.56199,-17.6031,-9.56809,160.1,0.168629,-0.0582374,0.0967726,263.8,5.1,52.1701,4.42719,7.6,1.03503,206.896,4.598409999999999,128.045,9.50194,195.145,0.988847,0.0399102,233.596,4.40491,4.05319,-13.0124588012695,21.9994239807129,35.0,22.0,-783337.0,-24334.7,pp-riro,4,0,-1,-1
1570532846.6,2019-10-08,13:07:26.600,14.0,8.0,18.3099994659424,-16.7,12.5,6.5,-19.1,-12.4,164.8,-16.1451,12.4806,7.02457,-3.09725,-12.1763,-5.56199,-17.6031,-9.56809,160.1,0.168629,-0.0582374,0.0967726,263.8,5.1,52.1701,4.42719,7.6,0.92698,171.753,4.5984,129.27200000000002,7.60191,194.445,0.983273,0.0552466,233.61900000000003,4.42192,4.06452,-12.4611663818359,21.9994239807129,35.0,22.0,-781863.0,17166.6,pp-riro,4,0,-1,-1
1570532846.7,2019-10-08,13:07:26.700,14.0,8.0,18.3600006103516,-16.5,12.0,6.4,-19.1,-10.8,165.9,-16.0343,11.99,6.28771,7.243060000000001,-0.441036,-3.67138,-17.7634,-9.47313,161.683,-0.00129545,-0.0008406819999999,0.2352469999999999,263.8,5.1,52.1701,4.42719,7.6,0.843867,161.343,4.5984,130.469,6.0819,193.745,0.977638,0.0674052,233.658,4.44268,4.065180000000001,-11.5565795898438,21.9994239807129,35.0,22.0,-781765.0,-3199.51,pp-riro,4,0,-1,-1
1570532846.8,2019-10-08,13:07:26.800,14.0,6.0,18.2600002288818,-16.7,11.3,6.5,-19.5,-10.3,167.4,-16.0343,11.99,6.28771,7.243060000000001,-0.441036,-3.67138,-17.7634,-9.47313,161.683,-0.00129545,-0.0008406819999999,0.2352469999999999,263.8,5.1,52.1701,4.42719,7.6,0.917006,181.88,4.5984,131.579,4.18187,193.045,0.972291,0.0822179,233.66,4.45659,4.0776900000000005,-10.3055114746094,21.9994239807129,35.0,22.0,-781883.0,861.4060000000001,pp-riro,4,0,-1,-1
1570532846.9,2019-10-08,13:07:26.900,14.0,8.0,18.0100002288818,-16.5,10.9,6.4,-20.0,-10.6,169.5,-15.9064,10.6479,6.11826,2.84005,-5.91931,0.919795,-18.2321,-7.724660000000001,165.687,0.0988404,-0.0107633,0.468641,267.1,4.8,52.1701,4.42719,7.6,0.910357,171.90099999999998,4.59839,132.66,2.66185,192.445,0.967166,0.0939291999999999,233.753,4.4738,4.07675,-8.69261169433594,21.9994239807129,35.0,22.0,-781635.0,2122.75,pp-riro,4,0,-1,-1
1570532847.0,2019-10-08,13:07:27.000,14.0,9.0,17.770000457763697,-16.3,10.8,6.2,-20.1,-10.2,170.9,-15.9064,10.6479,6.11826,2.84005,-5.91931,0.919795,-18.2321,-7.724660000000001,165.687,0.0988404,-0.0107633,0.468641,267.1,4.8,52.1701,4.42719,7.6,0.8937350000000001,168.384,4.598409999999999,133.711,0.761824,191.745,0.961849,0.108292,233.763,4.4856300000000005,4.06663,-6.72640228271484,21.9994239807129,35.0,22.0,-781482.0,2984.16,pp-riro,4,0,-1,-1
1570532847.1,2019-10-08,13:07:27.100,14.0,10.0,17.4699993133545,-16.6,10.7,6.3,-20.5,-8.8,170.9,-15.8408,10.2721,5.784619999999999,-0.830936,0.573662,-0.964438,-19.1061,-7.82745,168.665,-0.0810712,-0.0561343,0.086001,267.1,4.8,52.1701,4.42719,7.6,0.888748,174.666,4.59842,134.763,-0.758193,191.044,0.956447,0.119598,233.794,4.49006,4.06709,-4.61682891845703,21.9994239807129,35.0,22.0,-781411.0,-307.645,pp-riro,4,0,-1,-1
1570532847.2,2019-10-08,13:07:27.200,14.0,9.0,17.3600006103516,-16.7,10.4,6.7,-20.9,-8.3,171.2,-16.037,10.2916,5.8256,-1.8984,-0.6958529999999999,0.626664,-19.2953,-7.59848,169.017,0.0402630999999999,-0.0249928,0.118966,267.1,4.8,52.1701,4.42719,7.6,0.919223,184.944,4.59844,135.785,-2.65822,190.444,0.951314,0.1335319999999999,233.91,4.48784,4.0591800000000005,-2.50383758544922,21.9994239807129,35.0,22.0,-781389.0,707.5830000000001,pp-riro,4,0,-1,-1
1570532847.3,2019-10-08,13:07:27.300,14.0,9.0,17.2600002288818,-16.6,10.4,6.9,-21.7,-8.8,172.0,-16.2951,10.1089,6.18813,-0.353477,1.48308,4.6051,-19.9824,-7.90667,169.741,-0.0988891,-0.1190329999999999,0.0449106,267.1,4.8,52.1701,4.42719,7.6,0.921439,186.2,4.59845,136.749,-4.17824,189.74400000000003,0.94609,0.14449,233.925,4.48514,4.04296,-0.4079208374023439,21.9994239807129,35.0,22.0,-781185.0,1169.05,pp-riro,4,0,-1,-1
1570532847.4,2019-10-08,13:07:27.400,14.0,9.0,17.1100006103516,-16.5,10.6,7.1,-22.4,-8.9,172.0,-16.2843,10.1236,6.40874,4.21738,3.3650300000000004,1.11217,-20.7676,-8.35474,170.575,-0.0677945,-0.11373,0.0762566,267.1,4.8,52.1701,4.42719,7.6,0.920885,184.149,4.59847,137.80100000000002,-6.07827,188.944,0.9402,0.1580079999999999,233.936,4.47308,4.01842,1.18028259277344,21.9994239807129,35.0,22.0,-781111.0,1415.17,pp-riro,4,0,-1,-1
1570532847.5,2019-10-08,13:07:27.500,14.0,8.0,17.0,-16.4,10.6,7.6,-23.3,-9.3,171.5,-16.2951,10.3175,6.66482,0.0183112,2.40408,0.225084,-21.5676,-9.31851,170.83,-0.178008,-0.149037,-0.0110479,267.1,4.8,52.1701,4.42718,7.2,0.907587,176.885,4.59848,138.79399999999998,-7.59828,188.24400000000003,0.934754,0.168604,234.003,4.4534,3.99612,3.27854919433594,21.9994239807129,35.0,22.0,-780842.0,1753.58,pp-riro,4,0,-1,-1
1570532847.6,2019-10-08,13:07:27.600,14.0,8.0,16.8999996185303,-16.2,10.8,8.1,-24.3,-10.2,170.8,-16.3343,10.3692,6.877689999999999,1.6097,0.5016430000000001,6.785360000000001,-22.0386,-9.90996,170.794,-0.3351719999999999,-0.117448,0.00965272,267.1,4.8,52.1701,4.42718,7.2,0.8965049999999999,170.24900000000002,4.5985,139.845,-9.49831,187.444,0.928716,0.181707,234.056,4.42389,3.96295,5.38874053955078,21.9994239807129,35.0,22.0,-780696.0,1384.4,pp-riro,4,0,-1,-1
1570532847.7,2019-10-08,13:07:27.700,14.0,8.0,16.7900009155273,-15.7,11.1,8.5,-25.3,-11.6,169.7,-16.2976,10.6843,7.657589999999999,3.40825,0.998331,1.85709,-23.3886,-11.9156,170.271,-0.264009,-0.0999359,-0.32154,267.1,4.8,52.1701,4.42718,7.2,0.890965,166.9,4.59851,140.868,-11.0183,186.544,0.922545,0.191942,234.017,4.3861,3.92218,7.49893951416016,21.9994239807129,35.0,22.0,-780615.0,1630.52,pp-riro,4,0,-1,-1
1570532847.8,2019-10-08,13:07:27.800,14.0,8.0,16.6900005340576,-15.2,11.5,9.0,-26.3,-13.0,168.2,-16.2976,10.6843,7.657589999999999,3.40825,0.998331,1.85709,-23.3886,-11.9156,170.271,-0.264009,-0.0999359,-0.32154,267.1,4.8,52.1701,4.42718,7.2,0.881545,161.895,4.59853,141.977,-12.1583,185.74400000000003,0.916398,0.199296,234.107,4.34517,3.87882,9.60572052001953,21.9994239807129,35.0,22.0,-780455.0,1568.99,pp-riro,4,0,-1,-1
1570532847.9,2019-10-08,13:07:27.900,14.0,8.0,16.5799999237061,-14.8,11.8,9.6,-27.0,-14.6,165.7,-15.8691,11.0213,8.13265,3.80038,5.59414,4.87822,-24.3384,-13.6381,169.345,-0.263673,-0.226455,-0.243951,255.3,4.2,52.1701,4.42718,7.2,0.8721260000000001,158.543,4.59855,143.08700000000002,-14.0583,184.74400000000003,0.909462,0.21179,234.098,4.28455,3.83587,11.717620849609402,21.9994239807129,35.0,22.0,-780323.0,1322.87,pp-riro,4,0,-1,-1
1570532848.0,2019-10-08,13:07:28.000,14.0,9.0,16.4200000762939,-14.1,12.1,10.2,-27.6,-16.8,163.1,-15.5344,11.554,8.709710000000001,2.19087,3.3056,5.5395900000000005,-25.0691,-15.6463,167.741,-0.0534942,-0.165796,-0.450643,255.3,4.2,52.1701,4.42718,7.2,0.868801,153.445,4.5985,144.226,-15.1983,183.844,0.902892,0.2188389999999999,234.16,4.2212,3.78738,13.817596435546902,21.9994239807129,35.0,22.0,-780155.0,1384.4,pp-riro,4,0,-1,-1
1570532848.1,2019-10-08,13:07:28.100,14.0,9.0,16.2000007629395,-13.2,12.8,10.9,-27.8,-19.2,160.1,-15.5344,11.554,8.709710000000001,2.19087,3.3056,5.5395900000000005,-25.0691,-15.6463,167.741,-0.0534942,-0.165796,-0.450643,255.3,4.2,52.1701,4.42718,7.2,0.858828,150.934,4.5985,145.395,-17.0984,182.844,0.89565,0.23094,234.23,4.14702,3.71616,15.9311981201172,21.9994239807129,35.0,22.0,-780025.0,1045.99,pp-riro,4,0,-1,-1
1570532848.2,2019-10-08,13:07:28.200,14.0,9.0,16.0900001525879,-12.4,13.5,11.5,-28.4,-21.5,156.2,-13.7757,13.2652,10.9638,11.7569,5.76261,4.67203,-26.9901,-24.4176,161.018,-0.243717,-0.269148,-0.521803,255.3,4.2,52.1701,4.42718,7.2,0.858274,150.534,4.59847,146.709,-18.2383,181.74400000000003,0.887912,0.237589,234.28,4.06654,3.65577,18.0413818359375,21.9994239807129,35.0,22.0,-779930.0,1045.99,pp-riro,4,0,-1,-1
1570532848.3,2019-10-08,13:07:28.300,14.0,10.0,15.9300003051758,-11.5,14.1,12.2,-27.6,-24.1,152.3,-13.7757,13.2652,10.9638,11.7569,5.76261,4.67203,-26.9901,-24.4176,161.018,-0.243717,-0.269148,-0.521803,255.3,4.2,52.1701,4.42718,7.2,0.864368,157.925,4.59844,147.994,-19.3783,180.644,0.880251,0.244135,234.329,3.984280000000001,3.5939,20.1532821655273,21.9994239807129,35.0,22.0,-779862.0,461.467,pp-riro,4,0,-1,-1
1570532848.4,2019-10-08,13:07:28.400,14.0,9.0,15.869999885559098,-10.9,14.7,13.0,-26.8,-27.1,147.6,-12.0174,14.7514,12.5693,8.11539,9.33918,7.42903,-27.0911,-31.3057,154.431,-0.361237,-0.337576,-0.664916,255.3,4.2,52.1701,4.42718,7.2,0.8748959999999999,163.778,4.598409999999999,149.36700000000002,-20.5183,179.544,0.87229,0.25048,234.451,3.88918,3.5443800000000003,22.2685852050781,21.9994239807129,35.0,22.0,-779859.0,61.529,pp-riro,4,0,-1,-1
1570532848.5,2019-10-08,13:07:28.500,14.0,10.0,15.7600002288818,-9.3,15.2,13.7,-25.1,-30.0,142.4,-12.0174,14.7514,12.5693,8.11539,9.33918,7.42903,-27.0911,-31.3057,154.431,-0.361237,-0.337576,-0.664916,255.3,4.2,52.1701,4.427169999999999,6.8,0.8965049999999999,172.041,4.598380000000001,150.798,-21.6583,178.24400000000003,0.8635780000000001,0.256644,234.478,3.79037,3.4603900000000003,24.373664855957,21.9994239807129,35.0,22.0,-779821.0,461.467,pp-riro,4,0,-1,-1
1570532848.6,2019-10-08,13:07:28.600,14.0,10.0,15.869999885559098,-7.8,15.6,14.2,-23.3,-32.8,136.2,-10.3951,15.8117,13.9012,11.269,1.20207,4.84869,-25.9957,-36.6442,148.37,-0.458184,-0.5072439999999999,-0.876079,255.3,4.2,52.1701,4.427169999999999,6.8,0.895951,171.79,4.59835,152.28799999999998,-22.4183,177.044,0.855124,0.260185,234.603,3.68338,3.38612,26.4855651855469,21.9994239807129,35.0,22.0,-779694.0,1384.4,pp-riro,4,0,-1,-1
1570532848.7,2019-10-08,13:07:28.700,14.0,10.0,15.869999885559098,-6.2,16.0,14.7,-20.0,-35.2,129.4,-8.1516,16.7409,14.9643,20.4268,0.804953,6.18882,-23.5415,-42.4885,139.535,-0.817241,-0.1496029999999999,-0.918269,255.3,4.2,52.1701,4.427169999999999,6.8,0.897059,173.19,4.598330000000001,153.77700000000002,-23.1782,175.74400000000003,0.846391,0.2636449999999999,234.671,3.5739300000000003,3.30816,28.5940551757812,21.9994239807129,35.0,22.0,-779588.0,1045.99,pp-riro,4,0,-1,-1
1570532848.8,2019-10-08,13:07:28.800,14.0,10.0,16.0400009155273,-4.6,16.5,15.3,-16.4,-37.6,121.4,-8.1516,16.7409,14.9643,20.4268,0.804953,6.18882,-23.5415,-42.4885,139.535,-0.817241,-0.1496029999999999,-0.918269,255.3,4.2,52.1701,4.427169999999999,6.8,0.901492,174.96900000000002,4.59829,155.41299999999998,-23.9382,174.24400000000003,0.8366309999999999,0.266912,234.706,3.4517800000000003,3.23029,30.5424499511719,21.9994239807129,35.0,22.0,-779479.0,1107.52,pp-riro,4,0,-1,-1
1570532848.9,2019-10-08,13:07:28.900,14.0,10.0,16.0300006866455,-3.8,16.6,15.4,-13.9,-38.5,117.2,-6.345940000000001,17.4148,15.6185,9.86143,5.1799800000000005,2.6129,-20.2016,-45.7185,132.218,-0.0792906999999999,-0.28448,-1.01195,266.3,4.6,52.1701,4.427169999999999,6.8,0.901492,176.215,4.59826,156.202,-24.3182,173.644,0.8322709999999999,0.268558,234.824,3.39075,3.19393,32.1365966796875,21.9994239807129,35.0,22.0,-779364.0,1045.99,pp-riro,4,0,-1,-1
1570532849.0,2019-10-08,13:07:29.000,14.0,11.0,16.1399993896484,-2.0,16.8,15.6,-8.4,-40.5,107.8,-6.345940000000001,17.4148,15.6185,9.86143,5.1799800000000005,2.6129,-20.2016,-45.7185,132.218,-0.0792906999999999,-0.28448,-1.01195,266.3,4.6,52.1701,4.427169999999999,6.8,0.910911,185.836,4.59831,157.89600000000002,-24.3181,172.144,0.8227,0.266917,234.853,3.26149,3.11636,33.38330078125,21.9994239807129,23.0,22.0,-779281.0,707.5830000000001,pp-riro,4,0,-1,-1
1570532849.1,2019-10-08,13:07:29.100,14.0,10.0,16.2000007629395,-0.2,16.6,15.5,-2.6,-41.4,98.2,-2.71977,18.2882,16.5587,9.57054,2.73956,-1.63828,-10.7264,-53.20399999999999,114.248,-0.291707,-0.608969,-1.27674,266.3,4.6,52.1701,4.427169999999999,6.8,0.940832,200.569,4.59835,159.531,-24.6981,170.643,0.813131,0.26766,234.903,3.13373,3.03829,34.2672119140625,21.9994239807129,23.0,22.0,-779279.0,-61.529,pp-ro,1,1,-1,-1
1570532849.2,2019-10-08,13:07:29.200,14.0,10.0,16.2999992370605,1.5,16.4,15.5,3.7,-41.3,87.9,0.465335,18.334,16.6676,28.2192,-5.75304,2.86311,0.7358279999999999,-54.8164,95.4951,-0.4698779999999999,0.147669,-1.27995,266.3,4.6,52.1701,4.427169999999999,6.8,0.949697,198.612,4.5984,161.108,-24.698,169.143,0.803922,0.266125,234.894,3.00005,2.96523,34.795196533203104,21.9994239807129,23.0,22.0,-779075.0,1907.4,pp-ro,1,1,-1,-1
1570532849.3,2019-10-08,13:07:29.300,14.0,11.0,16.1900005340576,3.6,16.0,15.5,10.3,-40.5,77.1,2.71854,18.1181,16.6886,21.0951,-6.402340000000001,2.70004,9.90449,-54.4653,81.0721,-0.7143520000000001,0.168422,-1.47374,266.3,4.6,52.1701,4.427169999999999,6.8,0.940832,193.287,4.5984300000000005,162.773,-24.698,167.643,0.7944479999999999,0.2645639999999999,234.967,2.85865,2.87429,34.970626831054695,21.9994239807129,23.0,22.0,-778943.0,2461.16,pp-ro,1,1,-1,-1
1570532849.4,2019-10-08,13:07:29.400,14.0,12.0,16.1900005340576,5.5,15.6,14.9,16.0,-39.1,67.5,2.71854,18.1181,16.6886,21.0951,-6.402340000000001,2.70004,9.90449,-54.4653,81.0721,-0.7143520000000001,0.168422,-1.47374,266.3,4.6,52.1701,4.427169999999999,6.8,0.921439,186.509,4.59847,164.37900000000002,-24.3179,166.143,0.7853220000000001,0.260811,234.98,2.73135,2.78727,34.829254150390604,21.9994239807129,23.0,22.0,-778730.0,1968.93,pp-ro,1,1,-1,-1
1570532849.5,2019-10-08,13:07:29.500,14.0,13.0,16.3500003814697,7.3,14.8,14.1,20.8,-37.0,59.1,3.9812,17.8638,16.439,19.8841,-8.43952,-4.05598,13.6689,-54.0034,74.8209,-0.0135752999999999,-0.0923468,-1.14411,266.3,4.6,52.1701,4.427169999999999,6.3,0.922547,191.415,4.59851,165.898,-23.1778,164.743,0.7770729999999999,0.25271,234.946,2.6167,2.69994,34.2893676757812,21.9994239807129,23.0,22.0,-778643.0,369.174,pp-ro,1,1,-1,-1
1570532849.6,2019-10-08,13:07:29.600,14.0,14.0,16.4599990844727,9.2,14.3,13.6,24.5,-34.1,51.3,8.20459,16.4462,14.8706,18.4291,-5.1441,-3.80797,27.1023,-49.6257,52.5679,-0.947991,0.1188859999999999,-1.27823,266.3,4.6,52.1701,4.427169999999999,6.3,0.942494,199.67,4.59855,167.388,-22.7978,163.44299999999998,0.768883,0.2492199999999999,235.058,2.4976700000000003,2.60953,33.388397216796896,21.9994239807129,23.0,22.0,-778498.0,1507.46,pp-ro,1,1,-1,-1
1570532849.7,2019-10-08,13:07:29.700,14.0,12.0,16.770000457763697,10.9,13.5,13.1,28.3,-31.2,43.8,10.4021,15.8492,14.2339,20.9835,-9.97328,-7.62028,30.7706,-45.62,43.8451,-0.283672,-0.0904376,-1.09197,266.3,4.6,52.1701,4.427169999999999,6.3,0.953576,212.612,4.59859,168.84799999999998,-21.6577,162.143,0.7610680000000001,0.241365,235.094,2.38326,2.52733,32.128082275390604,21.9994239807129,23.0,22.0,-778406.0,492.232,pp-ro,1,1,-1,-1
1570532849.8,2019-10-08,13:07:29.800,14.0,11.0,16.8199996948242,12.6,12.5,12.1,31.2,-28.2,36.7,10.4021,15.8492,14.2339,20.9835,-9.97328,-7.62028,30.7706,-45.62,43.8451,-0.283672,-0.0904376,-1.09197,266.3,4.6,52.1701,4.427169999999999,6.3,0.96909,218.908,4.5986400000000005,170.19099999999997,-20.8976,160.843,0.7534310000000001,0.235951,235.101,2.26971,2.42978,30.5066833496094,21.9994239807129,21.426692962646506,22.0,-778404.0,30.7645,pp-ro,1,1,-1,-1
1570532849.9,2019-10-08,13:07:29.900,14.0,14.0,16.8199996948242,14.1,11.6,11.1,33.8,-24.9,30.3,15.0981,13.0048,11.6981,12.7853,-3.4429199999999995,-9.93918,37.6638,-35.9098,24.8469,-0.6236,-0.0782084,-1.3918,263.2,4.2,52.1701,4.427169999999999,6.3,0.973523,211.273,4.598669999999999,171.389,-19.3775,159.743,0.7470760000000001,0.226316,235.09,2.1630000000000003,2.34249,28.54296875,21.9994239807129,19.8669548034668,22.0,-778100.0,3476.39,pp-ro,1,1,-1,-1
1570532850.0,2019-10-08,13:07:30.000,14.0,12.0,16.9300003051758,15.2,10.4,9.8,35.8,-21.6,24.6,15.8927,12.5106,11.084,7.11603,-13.318,-11.6617,38.5083,-33.6089,21.8622,-0.309429,0.117468,-1.26212,263.2,4.2,52.1701,4.427169999999999,6.3,0.958008,209.399,4.59869,172.58599999999998,-17.8574,158.743,0.740989,0.2168159999999999,235.169,2.0634200000000003,2.25323,26.439582824707,21.9994239807129,18.265926361084,22.0,-777954.0,2799.57,pp-ro,1,1,-1,-1
1570532850.1,2019-10-08,13:07:30.100,14.0,11.0,17.0300006866455,16.2,9.3,8.7,36.8,-18.5,19.8,17.0002,11.1536,9.67283,15.3315,-7.476719999999999,-15.8162,39.721,-29.316,16.357,-0.132003,-0.0224629,-0.948436,263.2,4.2,52.1701,4.427169999999999,6.3,0.964657,213.80900000000003,4.5987,173.638,-16.7174,157.843,0.7354890000000001,0.209675,235.253,1.97442,2.16995,25.4108810424805,21.9994239807129,16.7816505432129,22.0,-777892.0,30.7645,pp-ro,1,1,-1,-1
1570532850.2,2019-10-08,13:07:30.200,14.0,10.0,17.0300006866455,16.6,8.3,7.6,38.0,-15.4,15.7,18.0238,9.01889,7.72032,-1.4366,-12.5934,-9.82279,40.9505,-23.0702,9.80002,-0.53123,0.137379,-0.983285,263.2,4.2,52.1701,4.427169999999999,6.3,0.951359,196.195,4.59872,174.543,-14.8173,157.043,0.730885,0.198363,235.26,1.89561,2.1068,23.438644409179695,21.9994239807129,15.6450204849243,22.0,-777535.0,3476.39,pp-ro,1,1,-1,-1
1570532850.3,2019-10-08,13:07:30.300,14.0,9.0,16.9699993133545,16.8,7.3,6.2,38.2,-11.9,12.0,18.0238,9.01889,7.72032,-1.4366,-12.5934,-9.82279,40.9505,-23.0702,9.80002,-0.53123,0.137379,-0.983285,263.2,4.2,52.1701,4.427169999999999,6.3,0.925318,187.621,4.59874,175.47799999999998,-13.2972,156.343,0.726374,0.1892869999999999,235.398,1.81424,2.03327,21.5379333496094,21.9994239807129,14.3166656494141,22.0,-777368.0,3045.68,pp-ro,1,1,-1,-1
1570532850.4,2019-10-08,13:07:30.400,14.0,9.0,16.9200000762939,16.6,6.5,5.4,39.2,-9.0,9.1,18.0238,9.01889,7.72032,-1.4366,-12.5934,-9.82279,40.9505,-23.0702,9.80002,-0.53123,0.137379,-0.983285,263.2,4.2,52.1701,4.427169999999999,6.3,0.907587,172.23,4.59876,176.266,-11.3971,155.743,0.722627,0.178204,235.49,1.75068,1.9931,19.3238525390625,21.9994239807129,13.6195335388184,22.0,-777211.0,1753.58,pp-ro,1,1,-1,-1
1570532850.5,2019-10-08,13:07:30.500,14.0,9.0,16.9200000762939,16.4,5.8,4.6,39.7,-5.8,6.4,18.0168,6.34115,4.67173,-1.7193,-6.553910000000001,-8.75676,41.8679,-12.8771,1.43933,0.186525,0.1368339999999999,-0.84751,263.2,4.2,52.1701,4.427169999999999,5.9,0.8760040000000001,158.273,4.5987800000000005,176.967,-10.2571,155.243,0.719267,0.171512,235.633,1.6823400000000002,1.94959,17.6820220947266,21.9994239807129,12.8651399612427,22.0,-776964.0,2461.16,pp-ro,1,1,-1,-1
1570532850.6,2019-10-08,13:07:30.600,14.0,10.0,16.870000839233402,16.6,5.4,3.7,40.2,-2.8,4.2,18.0168,6.34115,4.67173,-1.7193,-6.553910000000001,-8.75676,41.8679,-12.8771,1.43933,0.186525,0.1368339999999999,-0.84751,263.2,4.2,52.1701,4.427169999999999,5.9,0.861044,151.40200000000002,4.5988,177.61,-8.35702,154.843,0.716476,0.160614,235.778,1.62491,1.90365,16.133865356445302,21.9994239807129,12.0240631103516,22.0,-776837.0,1045.99,pp-ro,1,1,-1,-1
1570532850.7,2019-10-08,13:07:30.700,14.0,11.0,16.7099990844727,17.1,5.0,3.0,40.9,-0.2,1.5,17.7757,5.29842,3.20831,1.92767,-5.79258,-7.97318,41.9441,-6.39766,-1.83361,-0.327833,0.196638,-0.7742859999999999,263.2,4.2,52.1701,4.427169999999999,5.9,0.864368,159.89600000000002,4.59882,178.252,-6.83696,154.44299999999998,0.713592,0.151914,235.951,1.56548,1.8583,14.4256210327148,21.9994239807129,11.213398933410598,22.0,-776758.0,430.703,pp-ro,1,1,-1,-1
1570532850.8,2019-10-08,13:07:30.800,14.0,11.0,16.3400001525879,17.7,4.3,2.4,41.8,2.3,-1.2,18.4787,4.408919999999999,2.18183,7.67593,-2.66664,-5.35813,42.1846,-1.92735,-5.57126,-0.0749817,-0.00238864,-0.546231,263.2,4.2,52.1701,4.427169999999999,5.9,0.927534,197.326,4.59884,178.80700000000002,-4.9369,154.143,0.711267,0.1411609999999999,236.128,1.5087,1.80795,13.2231979370117,21.9994239807129,10.2755260467529,22.0,-776870.0,-1076.76,pp-ro,1,1,-1,-1
1570532850.9,2019-10-08,13:07:30.900,14.0,10.0,16.120000839233402,17.9,3.6,1.9,42.3,4.1,-3.9,18.8388,3.52971,1.59958,0.74268,-10.7109,-8.477910000000001,42.4293,0.657382,-7.545339999999999,0.0463942,-0.00819148,-0.513656,260.6,5.1,52.1701,4.427169999999999,5.9,0.950251,201.872,4.59886,179.274,-3.03683,153.94299999999998,0.709453,0.130465,236.319,1.46115,1.76804,12.6713790893555,21.9994239807129,9.52908134460449,22.0,-776877.0,-123.058,pp-ro,1,1,-1,-1
1570532851.0,2019-10-08,13:07:31.000,14.0,10.0,15.8500003814697,17.8,3.1,1.3,43.0,5.2,-6.0,18.8388,3.52971,1.59958,0.74268,-10.7109,-8.477910000000001,42.4293,0.657382,-7.545339999999999,0.0463942,-0.00819148,-0.513656,260.6,5.1,52.1701,4.427169999999999,5.9,0.933075,191.768,4.5989,179.683,-1.13677,153.643,0.7074239999999999,0.119842,236.418,1.4296799999999998,1.73374,11.6188354492188,21.9994239807129,8.91055488586426,22.0,-776545.0,2399.63,pp-ro,1,1,-1,-1
1570532851.1,2019-10-08,13:07:31.100,14.0,10.0,15.6800003051758,17.9,2.8,0.9,44.5,6.4,-7.9,18.7097,2.70958,0.83236,-5.92734,-4.172540000000001,-13.142,43.5527,3.33638,-10.9472,0.226701,-0.071071,-0.553304,260.6,5.1,52.1701,4.427169999999999,5.9,0.926426,189.654,4.59891,180.063,0.383275,153.44299999999998,0.7057479999999999,0.111345,236.574,1.39778,1.71102,10.6446380615234,21.9994239807129,8.517335891723631,22.0,-776461.0,1692.05,pp-ro,1,1,-1,-1
1570532851.2,2019-10-08,13:07:31.200,14.0,8.0,15.5100002288818,18.1,2.3,0.5,45.9,8.0,-9.8,18.8091,2.25654,0.437376,-1.2669700000000002,-7.004,-4.34196,44.6021,5.56321,-12.634,0.136499,0.0658177,-0.55943,260.6,5.1,52.1701,4.427169999999999,5.9,0.923655,187.096,4.59893,180.384,2.6633400000000003,153.343,0.704493,0.0987072,236.769,1.36337,1.68344,9.58187866210938,21.9994239807129,8.00261878967285,22.0,-776330.0,1353.64,pp-ro,1,1,-1,-1
1570532851.3,2019-10-08,13:07:31.300,14.0,11.0,15.3400001525879,17.9,1.8,0.6,47.1,9.0,-11.9,18.9533,1.6919099999999998,0.251954,1.52427,-5.72757,-0.882217,45.7042,7.09289,-14.3161,0.118696,0.103498,-0.358309,260.6,5.1,52.1701,4.427169999999999,5.9,0.918115,183.675,4.59897,180.676,4.18339,153.243,0.703295,0.0902791,236.948,1.33184,1.67623,8.70645904541016,21.9994239807129,7.9051203727722195,22.0,-776180.0,1507.46,pp-ro,1,1,-1,-1
1570532851.4,2019-10-08,13:07:31.400,14.0,9.0,15.2799997329712,17.7,1.5,0.2,48.1,9.7,-13.8,18.9533,1.6919099999999998,0.251954,1.52427,-5.72757,-0.882217,45.7042,7.09289,-14.3161,0.118696,0.103498,-0.358309,260.6,5.1,52.1701,4.427169999999999,5.9,0.917006,185.838,4.59897,180.88,6.46345,153.143,0.702233,0.0777081,237.091,1.30925,1.6572900000000002,8.39989471435547,21.9994239807129,7.56535768508911,22.0,-775988.0,1107.52,pp-ro,1,1,-1,-1
1570532851.5,2019-10-08,13:07:31.500,14.0,8.0,15.3400001525879,17.6,0.9,0.0,49.2,10.3,-15.3,18.408,0.601546,-0.257279,-0.727237,-0.579225,2.50323,48.93899999999999,9.77829,-18.688,-0.0416106,-0.0522196,-0.276588,260.6,5.1,52.1701,4.42716,5.7,0.920331,187.485,4.599,181.085,7.98349,153.043,0.70119,0.0693452,237.229,1.28977,1.63229,8.0081787109375,21.9994239807129,7.112797737121579,22.0,-775941.0,892.17,pp-ro,1,1,-1,-1
1570532851.6,2019-10-08,13:07:31.600,14.0,10.0,15.2799997329712,17.4,0.3,-0.2,50.4,10.9,-16.3,18.2208,-0.0342091,-0.488371,-6.04686,-10.9067,-3.31184,49.8568,10.5614,-19.9402,0.155142,0.0723703,-0.224111,260.6,5.1,52.1701,4.42716,5.7,0.929196,193.965,4.599019999999999,181.172,9.88354,153.043,0.7006979999999999,0.0588821,237.367,1.27738,1.6083,7.643707275390621,21.9994239807129,6.6541628837585405,22.0,-775858.0,769.112,pp-ro,1,1,-1,-1
1570532851.7,2019-10-08,13:07:31.700,14.0,9.0,15.3400001525879,17.2,-0.2,-0.3,50.9,11.0,-17.2,18.1366,-0.370255,-0.5549729999999999,-2.98674,-4.49105,-0.0945949,50.2058,10.9465,-20.3464,0.162897,-0.0515509,-0.1786839999999999,260.6,5.1,52.1701,4.42716,5.7,0.942494,196.017,4.5990400000000005,181.23,11.7836,152.94299999999998,0.69991,0.0484309,237.43400000000003,1.27266,1.5918,7.24176025390625,21.9994239807129,6.365911960601809,22.0,-775763.0,1107.52,pp-ro,1,1,-1,-1
1570532851.8,2019-10-08,13:07:31.800,14.0,10.0,15.4499998092651,17.0,-0.6,-0.6,51.4,10.4,-18.0,17.9008,-0.592993,-0.664007,-1.96547,-5.2036,-3.76436,50.4743,11.1252,-20.9331,0.161411,-0.0510611,-0.23742,260.6,5.1,52.1701,4.42716,5.7,0.911466,178.905,4.59906,181.201,13.6836,152.94299999999998,0.699628,0.0379529,237.513,1.27817,1.56962,6.75125885009766,21.9994239807129,5.940945625305179,22.0,-775404.0,2553.45,pp-ro,1,1,-1,-1
1570532851.9,2019-10-08,13:07:31.900,14.0,11.0,15.6800003051758,16.9,-0.8,-0.8,51.8,11.0,-18.6,17.6734,-0.940623,-0.870158,2.03553,-0.380731,-1.86071,51.4339,11.2721,-21.5145,-0.144224,-0.274253,-0.379628,269.8,5.3,52.1701,4.42716,5.7,0.900938,177.363,4.59909,181.172,15.2037,152.94299999999998,0.69938,0.0295923,237.583,1.26898,1.55804,6.35442352294922,21.9994239807129,5.72883701324463,22.0,-775318.0,1630.52,pp-ro,1,1,-1,-1
1570532852.0,2019-10-08,13:07:32.000,14.0,10.0,15.789999961853,16.8,-1.2,-0.7,51.7,11.1,-19.2,17.6734,-0.940623,-0.870158,2.03553,-0.380731,-1.86071,51.4339,11.2721,-21.5145,-0.144224,-0.274253,-0.379628,269.8,5.3,52.1701,4.42716,5.7,0.910357,180.944,4.59919,181.113,17.1037,153.043,0.6994020000000001,0.0190892,237.732,1.26765,1.5537,5.99505615234375,21.9994239807129,5.65075922012329,22.0,-775244.0,769.112,pp-ro,1,1,-1,-1
1570532852.1,2019-10-08,13:07:32.100,14.0,10.0,15.7299995422363,16.6,-1.5,-0.8,51.5,11.0,-20.1,17.5924,-1.13891,-1.14866,-1.63776,-2.44578,-0.807512,51.6579,11.751,-21.9539,0.1058569999999999,0.0541639,-0.161189,269.8,5.3,52.1701,4.42716,5.7,0.913682,182.941,4.59929,180.967,18.6237,153.143,0.6997140000000001,0.0106004,237.8,1.26413,1.54209,5.78727722167969,21.9994239807129,5.41095304489136,22.0,-775139.0,1138.29,pp-ro,1,1,-1,-1
1570532852.2,2019-10-08,13:07:32.200,14.0,10.0,15.6800003051758,16.4,-1.7,-0.9,51.3,11.0,-20.6,17.5924,-1.13891,-1.14866,-1.63776,-2.44578,-0.807512,51.6579,11.751,-21.9539,0.1058569999999999,0.0541639,-0.161189,269.8,5.3,52.1701,4.42716,5.7,0.91202,178.11900000000003,4.59938,180.821,20.5238,153.143,0.699553,3.6689e-05,237.845,1.26528,1.53531,5.61696624755859,21.9994239807129,5.3028450012207005,22.0,-775005.0,1538.22,pp-ro,1,1,-1,-1
1570532852.3,2019-10-08,13:07:32.300,14.0,9.0,15.6800003051758,16.3,-1.9,-0.9,50.7,10.6,-21.6,17.459,-1.54327,-1.1075700000000002,-3.50362,-3.06378,0.6916760000000001,51.8276,12.038,-22.4336,0.0358809,-0.139847,-0.0647329,269.8,5.3,52.1701,4.42716,5.7,0.890965,170.62900000000002,4.5995,180.646,22.0438,153.243,0.699865,-0.0084661,237.912,1.2645,1.53233,5.398956298828121,21.9994239807129,5.24126482009888,22.0,-774732.0,1415.17,pp-ro,1,1,-1,-1
1570532852.4,2019-10-08,13:07:32.400,14.0,9.0,15.6800003051758,16.2,-2.2,-1.0,50.2,11.0,-22.2,16.982,-2.27602,-1.22212,-2.5893,-5.61895,-2.79894,50.6516,11.8223,-24.719,-0.16348,-0.0958898999999999,0.0325635,269.8,5.3,52.1701,4.42716,5.7,0.8942889999999999,172.878,4.59957,180.471,23.9438,153.343,0.7000069999999999,-0.0190678,238.027,1.2593,1.52207,5.30699157714844,21.9994239807129,5.05302095413208,22.0,-774662.0,676.819,pp-ro,1,1,-1,-1
1570532852.5,2019-10-08,13:07:32.500,14.0,10.0,15.7399997711182,16.1,-2.3,-1.0,49.7,11.1,-22.9,16.974,-2.43344,-1.22566,0.202439,-2.66297,0.2994699999999999,50.3744,11.9078,-25.0642,-0.177114,0.0499508,-0.135783,269.8,5.3,52.1701,4.42716,5.5,0.902046,174.834,4.59967,180.237,25.4639,153.44299999999998,0.700397,-0.0276283,238.072,1.25549,1.52282,5.14348602294922,21.9994239807129,5.066936016082759,22.0,-774562.0,1230.58,pp-ro,1,1,-1,-1
1570532852.6,2019-10-08,13:07:32.600,14.0,11.0,15.7399997711182,15.9,-2.5,-0.9,49.0,11.2,-23.7,16.7567,-2.76119,-1.22135,1.07602,1.17518,0.264915,49.6311,11.9774,-26.023000000000003,0.148287,-0.1365,-0.11852,269.8,5.3,52.1701,4.42716,5.5,0.900938,174.905,4.59976,180.003,27.3639,153.44299999999998,0.700277,-0.0381883,238.106,1.25192,1.52479,5.024269104003911,21.9994239807129,5.15002584457397,22.0,-774496.0,1292.11,pp-ro,1,1,-1,-1
1570532852.7,2019-10-08,13:07:32.700,14.0,12.0,15.8500003814697,15.8,-2.7,-1.0,48.6,11.3,-24.5,16.7567,-2.76119,-1.22135,1.07602,1.17518,0.264915,49.6311,11.9774,-26.023000000000003,0.148287,-0.1365,-0.11852,269.8,5.3,52.1701,4.42716,5.5,0.8976129999999999,172.143,4.59986,179.74,28.8839,153.543,0.700665,-0.0467557,238.152,1.24697,1.51676,5.09410095214844,21.9994239807129,4.99558973312378,22.0,-774380.0,1138.29,pp-ro,1,1,-1,-1
1570532852.8,2019-10-08,13:07:32.800,14.0,11.0,15.789999961853,15.7,-2.7,-0.9,48.0,11.2,-25.2,16.5689,-3.12138,-1.101,-3.9915,-2.75139,-2.13477,48.3448,11.9833,-27.7727,-0.0173924,-0.0533011999999999,-0.177339,269.8,5.3,52.1701,4.42716,5.5,0.889856,165.10299999999998,4.59995,179.44799999999998,30.404,153.643,0.701096,-0.0553515999999999,238.185,1.24577,1.52606,5.12645721435547,21.9994239807129,5.18770503997803,22.0,-774240.0,1568.99,pp-ro,1,1,-1,-1
1570532852.9,2019-10-08,13:07:32.900,14.0,12.0,15.8500003814697,15.6,-2.7,-1.0,47.9,11.4,-26.3,16.4729,-3.2049,-1.03767,-3.7282,-2.02697,-0.363302,48.0813,12.2303,-28.486,-0.00514813,-0.0786315,-0.193289,268.6,5.9,52.1701,4.42716,5.5,0.874342,159.464,4.60009,179.15599999999998,32.304,153.743,0.70131,-0.0660052,238.28,1.23743,1.52709,5.03789520263672,21.9994239807129,5.24451637268066,22.0,-774066.0,1661.28,pp-ro,1,1,-1,-1
1570532853.0,2019-10-08,13:07:33.000,14.0,11.0,15.789999961853,15.6,-2.8,-1.0,47.7,12.0,-27.0,16.4729,-3.2049,-1.03767,-3.7282,-2.02697,-0.363302,48.0813,12.2303,-28.486,-0.00514813,-0.0786315,-0.193289,268.6,5.9,52.1701,4.42716,5.5,0.874342,163.002,4.60025,178.893,33.824,153.843,0.701583,-0.0746478,238.358,1.22719,1.52861,5.17584991455078,21.9994239807129,5.30160427093506,22.0,-773986.0,492.232,pp-ro,1,1,-1,-1
1570532853.1,2019-10-08,13:07:33.100,14.0,10.0,15.7299995422363,15.4,-3.1,-0.9,47.3,12.3,-28.2,16.4729,-3.2049,-1.03767,-3.7282,-2.02697,-0.363302,48.0813,12.2303,-28.486,-0.00514813,-0.0786315,-0.193289,268.6,5.9,52.1701,4.42716,5.5,0.889302,165.266,4.60042,178.572,35.7241,153.94299999999998,0.701775,-0.0853945,238.458,1.21642,1.5263,5.308692932128911,21.9994239807129,5.30674076080322,22.0,-773887.0,1261.34,pp-ro,1,1,-1,-1
1570532853.2,2019-10-08,13:07:33.200,14.0,9.0,15.5699996948242,15.2,-3.1,-1.0,47.2,12.5,-29.1,16.4473,-3.15341,-1.03089,-1.7460099999999998,-0.492488,-1.19023,47.9749,12.2842,-28.9828,-0.155252,-0.0719571,-0.118157,268.6,5.9,52.1701,4.42716,5.5,0.8771120000000001,159.72299999999998,4.60058,178.25,36.8641,153.94299999999998,0.702012,-0.0920481,238.391,1.20768,1.52339,5.22694396972656,21.9994239807129,5.2748532295227095,22.0,-773722.0,1630.52,pp-ro,1,1,-1,-1
1570532853.3,2019-10-08,13:07:33.300,14.0,9.0,15.3400001525879,15.1,-3.1,-1.1,47.3,12.9,-29.8,15.9212,-3.67416,-1.04443,-3.01602,-1.49849,-0.4116689999999999,47.0148,13.3679,-32.8283,0.094612,-0.0684268999999999,-0.211141,268.6,5.9,52.1701,4.42716,5.5,0.869909,157.866,4.60075,177.9,38.7641,154.043,0.702192,-0.102839,238.496,1.20147,1.52414,5.220130920410161,21.9994239807129,5.35657072067261,22.0,-773654.0,1230.58,pp-ro,1,1,-1,-1
1570532853.4,2019-10-08,13:07:33.400,14.0,9.0,15.1700000762939,14.9,-3.3,-1.2,47.4,13.4,-30.7,15.9212,-3.67416,-1.04443,-3.01602,-1.49849,-0.4116689999999999,47.0148,13.3679,-32.8283,0.094612,-0.0684268999999999,-0.211141,268.6,5.9,52.1701,4.42716,5.5,0.8710180000000001,157.957,4.60092,177.549,40.2841,154.243,0.702865,-0.1115579999999999,238.616,1.1902700000000002,1.51419,5.242271423339839,21.9994239807129,5.17306041717529,22.0,-773580.0,738.3480000000001,pp-ro,1,1,-1,-1
1570532853.5,2019-10-08,13:07:33.500,14.0,9.0,15.109999656677198,14.7,-3.5,-1.3,47.3,13.5,-31.6,15.7465,-3.87807,-1.15445,-1.54219,-2.87615,-0.5191439999999999,47.0925,14.2686,-33.6818,0.127243,-0.015809,-0.1850359999999999,268.6,5.9,52.1701,4.42716,5.5,0.8737879999999999,158.395,4.6010800000000005,177.199,41.8042,154.343,0.703182,-0.120292,238.681,1.18419,1.50394,5.26781463623047,21.9994239807129,5.01995325088501,22.0,-773483.0,1045.99,pp-ro,1,1,-1,-1
1570532853.6,2019-10-08,13:07:33.600,14.0,8.0,14.9899997711182,14.5,-3.5,-1.3,47.1,13.8,-32.4,15.7465,-3.87807,-1.15445,-1.54219,-2.87615,-0.5191439999999999,47.0925,14.2686,-33.6818,0.127243,-0.015809,-0.1850359999999999,268.6,5.9,52.1701,4.42716,5.5,0.8704629999999999,158.616,4.60125,176.84799999999998,43.3242,154.44299999999998,0.703462,-0.129026,238.757,1.17674,1.50662,5.21501922607422,21.9994239807129,5.13581275939941,22.0,-773346.0,522.996,pp-ro,1,1,-1,-1
1570532853.7,2019-10-08,13:07:33.700,14.0,8.0,14.9300003051758,14.4,-3.6,-1.5,47.0,14.3,-33.2,15.4819,-4.11502,-1.17014,-1.49157,-0.2536219999999999,1.7243,47.0696,14.5196,-34.6596,-0.00609156,-0.0950955,-0.181651,268.6,5.9,52.1701,4.42716,5.5,0.8737879999999999,158.08100000000002,4.60142,176.46900000000002,44.4642,154.543,0.7040350000000001,-0.135773,238.75,1.1654,1.49511,5.09239196777344,21.9994239807129,4.92515563964844,22.0,-773309.0,769.112,pp-ro,1,1,-1,-1
1570532853.8,2019-10-08,13:07:33.800,14.0,8.0,15.109999656677198,14.3,-3.8,-1.6,46.9,15.0,-34.0,15.089,-4.15212,-1.31731,-1.08821,-0.8401040000000001,-0.715946,46.7705,14.9081,-36.4262,0.0777354,-0.0329982,-0.184757,268.6,5.9,52.1701,4.42716,5.5,0.8715719999999999,159.416,4.60158,176.08900000000003,46.3642,154.743,0.704385,-0.146567,238.961,1.15428,1.48712,5.080474853515621,21.9994239807129,4.85958576202393,22.0,-773187.0,1261.34,pp-ro,1,1,-1,-1
1570532853.9,2019-10-08,13:07:33.900,14.0,9.0,15.2799997329712,14.0,-4.2,-1.7,46.7,15.5,-35.0,15.0093,-4.36845,-1.54956,-3.04582,-4.68927,-2.1440900000000003,46.8159,15.5348,-37.04,0.0382634,7.5638e-05,-0.0558135,269.3,5.3,52.1701,4.42716,5.5,0.8793290000000001,164.78,4.60171,175.65099999999998,47.5042,154.94299999999998,0.7053729999999999,-0.153448,238.992,1.14068,1.46489,5.10942840576172,21.9994239807129,4.40462255477905,22.0,-773133.0,430.703,pp-ro,1,1,-1,-1
1570532854.0,2019-10-08,13:07:34.000,14.0,10.0,15.2799997329712,13.8,-4.3,-1.7,46.2,16.0,-36.2,14.8348,-4.53488,-1.59706,-3.30894,-1.41739,-4.58922,46.6961,15.66,-37.5579,0.1929789999999999,-0.136032,-0.145154,269.3,5.3,52.1701,4.42716,5.5,0.888194,165.856,4.6018,175.21200000000002,49.0243,155.043,0.7057439999999999,-0.162186,239.042,1.12613,1.4627,5.03108215332031,21.9994239807129,4.44368886947632,22.0,-773055.0,892.17,pp-ro,1,1,-1,-1
1570532854.1,2019-10-08,13:07:34.100,14.0,9.0,15.2799997329712,13.6,-4.4,-2.1,46.1,16.1,-36.8,14.8348,-4.53488,-1.59706,-3.30894,-1.41739,-4.58922,46.6961,15.66,-37.5579,0.1929789999999999,-0.136032,-0.145154,269.3,5.3,52.1701,4.42716,5.5,0.880437,161.579,4.60189,174.745,50.5443,155.143,0.7061529999999999,-0.171015,239.081,1.12368,1.43938,4.68023681640625,21.9994239807129,4.06793260574341,22.0,-772905.0,1815.1,pp-ro,1,1,-1,-1
1570532854.2,2019-10-08,13:07:34.200,14.0,9.0,15.2799997329712,13.4,-4.6,-2.1,46.0,16.6,-37.6,14.0692,-5.08419,-2.09173,-0.8396239999999999,-3.67201,-3.33136,45.7987,17.3133,-40.4802,-0.0456356,0.0577951,-0.1438019999999999,269.3,5.3,52.1701,4.42716,5.5,0.876558,163.304,4.60198,174.511,50.9243,155.343,0.7071109999999999,-0.173469,239.121,1.10954,1.42856,4.366859436035161,21.9994239807129,3.78536200523376,22.0,-772798.0,707.5830000000001,pp-ro,1,1,-1,-1
1570532854.3,2019-10-08,13:07:34.300,14.0,9.0,15.3400001525879,13.1,-4.8,-2.1,45.8,17.0,-38.8,13.9899,-5.1633,-2.13507,-4.22958,-3.15404,-1.61282,45.5964,17.7729,-40.9889,-0.133007,-0.0704132,-0.197657,269.3,5.3,52.1701,4.42716,5.5,0.889302,171.017,4.602069999999999,174.044,52.0643,155.643,0.708404,-0.180303,239.221,1.09486,1.41804,4.050071716308589,21.9994239807129,3.5412166118621804,22.0,-772770.0,30.7645,pp-ro,1,1,-1,-1
1570532854.4,2019-10-08,13:07:34.400,14.0,10.0,15.3400001525879,13.0,-4.9,-2.1,45.2,17.3,-40.1,13.9899,-5.1633,-2.13507,-4.22958,-3.15404,-1.61282,45.5964,17.7729,-40.9889,-0.133007,-0.0704132,-0.197657,269.3,5.3,52.1701,4.42716,5.5,0.8942889999999999,167.058,4.60215,173.518,53.9643,155.843,0.708899,-0.191239,239.39,1.08305,1.4186299999999998,3.76394653320312,21.9994239807129,-35.0,22.0,-772580.0,2122.75,pp-ro,1,1,-1,-1
1570532854.5,2019-10-08,13:07:34.500,14.0,10.0,15.3400001525879,12.7,-4.9,-2.3,45.1,17.7,-40.8,13.9899,-5.1633,-2.13507,-4.22958,-3.15404,-1.61282,45.5964,17.7729,-40.9889,-0.133007,-0.0704132,-0.197657,269.3,5.3,52.1701,4.42716,5.4,0.881545,164.041,4.60227,173.02200000000002,55.1044,156.043,0.7098899999999999,-0.198164,239.421,1.07437,1.40487,3.54934692382812,21.9994239807129,-35.0,22.0,-772476.0,1968.93,pp-ro,1,1,-1,-1
1570532854.6,2019-10-08,13:07:34.600,14.0,10.0,15.2799997329712,12.5,-5.1,-2.4,44.9,18.0,-41.5,13.7631,-5.44722,-2.08924,-0.917158,-0.284515,1.30742,45.3163,18.3652,-42.101000000000006,-0.1085579999999999,-0.0875571,-0.177571,269.3,5.3,52.1701,4.42716,5.4,0.8760040000000001,158.253,4.60236,172.49599999999998,56.6244,156.343,0.710928,-0.207082,239.592,1.06833,1.39181,3.2700347900390603,21.9994239807129,-35.0,22.0,-772385.0,861.4060000000001,pp-ro,1,1,-1,-1
1570532854.7,2019-10-08,13:07:34.700,14.0,10.0,15.3400001525879,12.4,-5.2,-2.4,44.7,17.9,-42.5,12.899,-5.71269,-2.30169,0.520525,0.291825,1.55978,44.6194,19.9162,-45.0649,-0.150979,0.0196247,-0.116242,269.3,5.3,52.1701,4.42716,5.4,0.866031,155.362,4.60242,171.94099999999997,57.7644,156.543,0.712017,-0.214125,239.596,1.06225,1.38956,2.63645935058594,21.9994239807129,-35.0,22.0,-772244.0,1384.4,pp-ro,1,1,-1,-1
1570532854.8,2019-10-08,13:07:34.800,14.0,10.0,15.3999996185303,12.2,-5.2,-2.3,44.5,17.9,-43.1,12.899,-5.71269,-2.30169,0.520525,0.291825,1.55978,44.6194,19.9162,-45.0649,-0.150979,0.0196247,-0.116242,269.3,5.3,52.1701,4.42716,5.4,0.867139,154.859,4.60251,171.415,58.9044,156.843,0.713321,-0.221072,239.693,1.05968,1.39403,1.65545654296875,21.9994239807129,-35.0,22.0,-772162.0,799.877,pp-ro,1,1,-1,-1
