time,date,time_of_day,airspeed_temperature,airspeed_angle_of_attack,airspeed_apparent_windspeed,kite_0_vx,kite_0_vy,kite_0_vz,kite_0_roll,kite_0_pitch,kite_0_yaw,kite_1_vx,kite_1_vy,kite_1_vz,kite_1_ax,kite_1_ay,kite_1_az,kite_1_roll,kite_1_pitch,kite_1_yaw,kite_1_roll_rate,kite_1_pitch_rate,kite_1_yaw_rate,ground_upwind_direction,ground_wind_velocity,ground_pos_latitude,ground_pos_longitude,ground_pos_altitude,ground_tether_reelout_speed,ground_tether_force,est_upwind_direction,kite_pos_east,kite_pos_north,kite_height,kite_elevation,kite_azimuth,kite_distance,kite_heading,kite_course,kite_actual_steering,kite_actual_depower,kite_set_steering,kite_set_depower,ground_mech_energy,ground_mech_power,flight_phase,flight_phase_index,phase,pattern,pattern_section
1570534449.2,2019-10-08,13:34:09.200,14.0,9.0,15.2399997711182,12.5,-0.9,2.5,21.5,-4.4,-49.4,10.5311,-1.35286,2.22412,8.77053,9.54872,2.42248,23.211,11.0457,-53.8976,0.113517,0.226347,0.943268,249.8,5.9,52.17,4.42727,4.9,-1.90937,116.423,4.58378,50.091,4.18041,236.533,1.3614,0.0453301999999999,241.815,0.8146680000000001,1.62336,-34.886505126953104,22.0256862640381,-35.0,22.0,-942820.0,3876.33,pp-riro,4,0,-1,-1
1570534449.3,2019-10-08,13:34:09.300,14.0,10.0,14.5299997329712,13.1,0.4,2.8,22.8,-6.2,-44.4,11.6715,0.31578,3.11293,6.753360000000001,14.0609,5.53235,25.8827,9.28914,-44.8151,-0.0901223,0.183093,0.937811,249.8,5.9,52.17,4.42727,4.9,-1.87335,109.669,4.58374,50.0326,5.70046,236.433,1.36095,0.0151815,241.736,0.938444,1.7554299999999998,-34.973541259765604,22.007146835327102,-35.0,22.0,-942693.0,2399.63,pp-riro,4,0,-1,-1
1570534449.4,2019-10-08,13:34:09.400,14.0,10.0,14.5299997329712,13.5,1.8,3.0,23.9,-7.7,-39.6,12.2115,1.63142,3.50422,4.52975,16.0727,4.23803,27.3334,7.45325,-39.0083,0.272996,0.182673,0.996988,249.8,5.9,52.17,4.42727,4.9,-1.87391,76.0993,4.58371,50.091,6.8405,236.233,1.35997,-0.00706043,241.582,1.05005,1.87743,-34.976959228515604,22.0009689331055,-35.0,22.0,-943489.0,-10552.2,pp-riro,4,0,-1,-1
1570534449.5,2019-10-08,13:34:09.500,14.0,8.0,13.7799997329712,13.8,3.0,3.3,25.2,-9.1,-34.3,12.6022,3.60522,3.81338,4.474530000000001,9.16645,1.65725,29.4026,4.7029,-31.3099,0.1799869999999999,0.1565339999999999,0.931352,249.8,5.9,52.17,4.42727,4.9,-1.92599,71.5121,4.58368,50.2954,8.360560000000001,236.033,1.35805,-0.0360274,241.477,1.17686,1.98709,-34.9889068603516,21.9994239807129,-35.0,22.0,-944243.0,-14920.8,pp-riro,4,0,-1,-1
1570534449.6,2019-10-08,13:34:09.600,14.0,8.0,13.5799999237061,14.1,4.0,3.6,25.9,-10.0,-29.3,12.6022,3.60522,3.81338,4.474530000000001,9.16645,1.65725,29.4026,4.7029,-31.3099,0.1799869999999999,0.1565339999999999,0.931352,249.8,5.9,52.17,4.42727,4.8,-2.0634,78.2026,4.58366,50.4707,9.12059,235.933,1.35674,-0.050072,241.443,1.28125,2.06315,-34.9889068603516,21.9994239807129,-35.0,22.0,-946043.0,-18366.4,pp-riro,4,0,-1,-1
1570534449.7,2019-10-08,13:34:09.700,14.0,10.0,13.3199996948242,14.4,4.9,4.2,27.2,-12.5,-24.4,12.8221,4.63331,4.1967,4.73186,9.27459,4.45033,30.7556,2.96455,-25.7901,0.0941262,0.233123,0.975055,249.8,5.9,52.17,4.42727,4.8,-2.15981,89.3999,4.58361,51.0256,11.0207,235.533,1.35269,-0.0839516,241.248,1.4099700000000002,2.15127,-34.9974365234375,21.9994239807129,-35.0,22.0,-947403.0,-11752.0,pp-riro,4,0,-1,-1
1570534449.8,2019-10-08,13:34:09.800,14.0,12.0,13.1800003051758,14.6,5.8,4.6,27.7,-14.4,-19.2,13.2706,6.307930000000001,5.16182,0.959747,7.36165,2.10783,32.3655,-0.663075,-14.2988,0.0460275,0.209504,1.01888,249.8,5.9,52.17,4.42727,4.8,-2.25512,82.8757,4.58357,51.4929,12.9207,235.133,1.34874,-0.117049,241.052,1.54028,2.2343,-35.0025634765625,21.9994239807129,-35.0,22.0,-948989.0,-11475.2,pp-riro,4,0,-1,-1
1570534449.9,2019-10-08,13:34:09.900,14.0,13.0,13.1800003051758,15.1,6.7,4.6,28.1,-16.1,-13.5,13.2706,6.307930000000001,5.16182,0.959747,7.36165,2.10783,32.3655,-0.663075,-14.2988,0.0460275,0.209504,1.01888,249.8,5.9,52.17,4.42727,4.8,-2.29501,80.0883,4.58354,52.077,14.0608,234.833,1.34501,-0.1348619999999999,240.948,1.66257,2.28709,-35.0059814453125,21.9994239807129,-35.0,22.0,-949751.0,-14582.4,pp-riro,4,0,-1,-1
1570534450.0,2019-10-08,13:34:10.000,14.0,12.0,13.5100002288818,15.3,7.3,4.7,28.4,-17.1,-10.4,13.3081,6.7645100000000005,5.25338,-0.49891,7.39964,2.14061,32.3846,-1.72465,-11.5995,-0.0250305,0.1172359999999999,0.921352,255.3,5.8,52.17,4.42727,4.8,-2.41857,98.8928,4.58349,52.4567,14.8208,234.633,1.3425200000000002,-0.14649,240.881,1.73101,2.3246,-35.0076751708984,21.9994239807129,-35.0,22.0,-951968.0,-12551.9,pp-riro,4,0,-1,-1
1570534450.1,2019-10-08,13:34:10.100,14.0,12.0,13.5100002288818,15.7,8.4,5.4,28.4,-18.8,-4.9,14.2077,8.65889,5.59234,3.4351,10.1429,8.08826,32.4539,-5.87556,-0.112042,-0.00344103,0.25832,1.03651,255.3,5.8,52.17,4.42727,4.8,-2.43242,110.195,4.58351,53.1869,16.7209,234.233,1.33712,-0.175718,240.777,1.85983,2.40096,-35.0059814453125,21.9994239807129,-35.0,22.0,-952346.0,-6860.48,pp-riro,4,0,-1,-1
1570534450.2,2019-10-08,13:34:10.200,14.0,10.0,13.9700002670288,15.9,9.6,6.1,27.7,-21.4,0.3,14.2077,8.65889,5.59234,3.4351,10.1429,8.08826,32.4539,-5.87556,-0.112042,-0.00344103,0.25832,1.03651,255.3,5.8,52.17,4.42727,4.8,-2.38311,118.531,4.58352,54.0339,17.8609,233.733,1.33196,-0.190372,240.561,1.97236,2.46825,-35.0059814453125,21.9994239807129,-35.0,22.0,-952291.0,2553.45,pp-riro,4,0,-1,-1
1570534450.3,2019-10-08,13:34:10.300,14.0,10.0,13.9700002670288,15.7,10.9,6.5,27.0,-24.0,6.1,14.3736,9.08381,5.97276,2.84743,8.80007,8.64119,32.0364,-6.87966,2.87647,0.0023292,0.201125,1.0972,255.3,5.8,52.17,4.42727,4.8,-2.30554,109.179,4.58352,55.0561,19.381,233.033,1.3253700000000002,-0.209605,240.231,2.09816,2.54874,-35.0059814453125,21.9994239807129,-35.0,22.0,-951706.0,4830.02,pp-riro,4,0,-1,-1
1570534450.4,2019-10-08,13:34:10.400,14.0,13.0,14.0900001525879,15.3,12.4,6.5,26.1,-26.2,12.1,14.5735,10.2386,6.5199,-2.69267,12.2467,4.15082,30.9428,-9.14971,9.03891,-0.124189,0.207928,1.07272,255.3,5.8,52.17,4.42727,4.8,-2.26343,103.48,4.5835,56.1952,21.2811,232.433,1.31781,-0.233144,240.074,2.22793,2.64037,-35.0042724609375,21.9994239807129,-35.0,22.0,-951713.0,-2122.75,pp-riro,4,0,-1,-1
1570534450.5,2019-10-08,13:34:10.500,14.0,10.0,14.5299997329712,14.9,13.6,6.8,25.4,-27.6,18.0,13.7085,13.2861,7.06439,-3.95678,11.7184,6.20561,27.9661,-14.1821,22.9303,0.1098329999999999,0.19311,0.916615,255.3,5.8,52.17,4.42727,4.8,-2.24625,112.753,4.5835300000000005,57.4511,22.8012,231.833,1.31024,-0.248951,239.931,2.34384,2.71196,-35.0042724609375,21.9994239807129,-35.0,22.0,-952072.0,-2953.39,pp-riro,4,0,-1,-1
1570534450.6,2019-10-08,13:34:10.600,14.0,9.0,15.1800003051758,14.5,14.8,7.4,24.0,-28.3,23.9,13.7085,13.2861,7.06439,-3.95678,11.7184,6.20561,27.9661,-14.1821,22.9303,0.1098329999999999,0.19311,0.916615,255.3,5.8,52.17,4.42727,4.8,-2.12657,125.763,4.5835300000000005,58.853,24.3212,231.133,1.30195,-0.263023,239.745,2.45414,2.78008,-35.0042724609375,21.9994239807129,-23.0,22.0,-951449.0,7537.3,pp-riro,4,0,-1,-1
1570534450.7,2019-10-08,13:34:10.700,14.0,9.0,15.1800003051758,13.7,16.1,7.8,22.5,-29.3,30.2,13.0342,14.9857,7.81003,-8.458919999999999,9.19525,5.2679,25.7623,-15.4934,32.3527,-0.0596109,0.323479,1.01976,255.3,5.8,52.17,4.42727,4.8,-2.07559,122.364,4.583559999999999,60.3718,25.8413,230.333,1.29306,-0.275609,239.511,2.56907,2.859,-34.922332763671896,21.9994239807129,-23.0,22.0,-950997.0,8429.47,pp-riro,4,0,-1,-1
1570534450.8,2019-10-08,13:34:10.800,14.0,10.0,15.2399997711182,12.6,17.3,8.0,21.4,-29.9,36.4,13.0342,14.9857,7.81003,-8.458919999999999,9.19525,5.2679,25.7623,-15.4934,32.3527,-0.0596109,0.323479,1.01976,255.3,5.8,52.17,4.42727,4.8,-1.96865,116.109,4.58354,62.0073,27.3614,229.633,1.2838,-0.2867119999999999,239.426,2.6785400000000004,2.9408,-34.4802856445312,21.9994239807129,-23.0,22.0,-950630.0,3076.45,pp-riro,4,0,-1,-1
1570534450.9,2019-10-08,13:34:10.900,14.0,11.0,15.5799999237061,11.7,18.6,8.2,20.8,-30.1,42.2,11.0973,17.1935,8.30305,-6.61712,10.8766,5.160880000000001,22.9596,-16.9052,44.1616,0.233352,0.3977489999999999,0.90883,255.3,5.8,52.17,4.42727,4.8,-1.83235,135.593,4.58354,63.7598,28.5014,228.833,1.27457,-0.291523,239.253,2.77417,3.00916,-33.6798095703125,21.9994239807129,-23.0,22.0,-950093.0,5506.84,pp-riro,4,0,-1,-1
1570534451.0,2019-10-08,13:34:11.000,14.0,11.0,15.9700002670288,10.9,19.9,8.7,19.9,-29.9,48.1,10.2397,18.2802,8.671389999999999,-9.79927,11.5443,5.67571,21.9343,-17.2893,49.6667,-0.0802924999999999,0.200878,0.783917,254.7,5.4,52.17,4.42727,4.8,-1.75921,149.283,4.583559999999999,65.62899999999999,29.6415,228.033,1.26491,-0.295385,239.133,2.86921,3.06968,-32.519195556640604,21.9994239807129,-23.0,22.0,-949543.0,10336.9,pp-riro,4,0,-1,-1
1570534451.1,2019-10-08,13:34:11.100,14.0,10.0,15.9700002670288,10.1,21.0,9.4,19.0,-30.2,54.4,9.55083,19.3695,9.1569,-10.0167,9.32884,6.92316,20.5884,-17.4861,55.8213,0.113543,0.237364,0.985713,254.7,5.4,52.17,4.42727,4.8,-1.52428,173.467,4.5836,67.6151,30.4015,227.232,1.2554299999999998,-0.293736,239.02,2.9659,3.11766,-31.0104064941406,21.9994239807129,-23.0,22.0,-947947.0,18366.4,pp-riro,4,0,-1,-1
1570534451.2,2019-10-08,13:34:11.200,14.0,13.0,16.3600006103516,9.0,21.8,9.8,17.1,-31.1,61.0,8.18572,20.5512,9.73727,-8.99976,7.75436,-3.22132,17.9107,-19.1617,65.4433,0.0103415,0.199777,1.14873,254.7,5.4,52.17,4.42727,4.8,-1.16745,178.304,4.58363,69.7472,31.9216,226.232,1.24391,-0.300444,238.882,3.07416,3.17647,-29.1432037353516,21.9994239807129,-22.723312377929695,22.0,-946044.0,18212.6,pp-riro,4,0,-1,-1
1570534451.3,2019-10-08,13:34:11.300,14.0,13.0,16.3600006103516,7.8,22.7,9.7,15.5,-31.4,67.5,7.730010000000001,20.9558,9.71496,-10.3824,5.83965,-1.28736,17.0155,-19.6679,68.6549,0.301706,0.167443,0.838309,254.7,5.4,52.17,4.42727,4.8,-0.642736,157.321,4.58366,71.8501,32.6817,225.332,1.23386,-0.298162,238.758,3.17144,3.23061,-27.217956542968803,21.9994239807129,-22.0157146453857,22.0,-944320.0,7968.0,pp-riro,4,0,-1,-1
1570534451.4,2019-10-08,13:34:11.400,14.0,12.0,16.2999992370605,6.4,23.5,9.7,14.0,-31.5,74.2,7.13629,21.3212,9.6416,-11.550999999999998,6.89998,-3.17312,16.2088,-20.1857,71.7428,0.127903,0.0831647,1.01737,254.7,5.4,52.17,4.42727,4.8,-0.511972,151.632,4.5837,74.2451,33.4417,224.332,1.2226,-0.2944969999999999,238.654,3.26988,3.28775,-25.558967590332,21.9994239807129,-21.2761383056641,22.0,-944032.0,5476.08,pp-riro,4,0,-1,-1
1570534451.5,2019-10-08,13:34:11.500,14.0,11.0,16.4599990844727,5.1,23.9,9.8,12.4,-31.6,79.7,5.87539,22.1261,9.62185,-11.5742,7.94485,-0.919054,14.8373,-20.8641,77.5435,0.134476,0.289468,0.988501,254.7,5.4,52.17,4.42727,4.8,-0.275379,150.31,4.58373,76.5817,33.8218,223.332,1.21215,-0.287207,238.508,3.34637,3.33236,-24.1116180419922,21.9994239807129,-20.6737785339355,22.0,-943741.0,2215.04,pp-riro,4,0,-1,-1
1570534451.6,2019-10-08,13:34:11.600,14.0,10.0,16.4599990844727,3.6,24.2,9.8,10.7,-31.5,85.4,4.63482,22.553,9.75078,-11.7926,1.8283,3.30648,13.2833,-21.3807,83.0607,-0.0574196,0.114017,0.871133,254.7,5.4,52.17,4.42727,4.7,0.0842205,154.94899999999998,4.58376,79.0351,34.5818,222.332,1.20066,-0.28381,238.483,3.42905,3.3870400000000003,-23.442565917968803,21.9994239807129,-20.023851394653303,22.0,-943712.0,-922.935,pp-riro,4,0,-1,-1
1570534451.7,2019-10-08,13:34:11.700,14.0,9.0,16.5699996948242,2.3,24.2,9.7,8.8,-31.4,90.7,3.4338300000000004,22.7111,9.63591,-15.806,-1.05826,-1.49885,11.9992,-21.9266,88.3827,0.0263640999999999,0.171429,0.741062,254.7,5.4,52.17,4.42727,4.7,0.309732,145.799,4.5838,81.4593,34.9619,221.332,1.18985,-0.276809,238.424,3.50224,3.42951,-22.2529449462891,21.9994239807129,-19.5110092163086,22.0,-943946.0,-2338.1,pp-riro,4,0,-1,-1
1570534451.8,2019-10-08,13:34:11.800,14.0,9.0,16.620000839233402,1.2,24.2,9.5,7.2,-31.2,95.7,2.78955,22.7862,9.56044,-10.1347,4.44401,-2.0678,11.1552,-22.0039,90.9408,0.049154,0.0586376,0.8504649999999999,254.7,5.4,52.17,4.42727,4.7,0.283136,141.02200000000002,4.58383,83.825,35.3419,220.432,1.1794,-0.270424,238.466,3.5714300000000003,3.46602,-21.003585815429695,21.9994239807129,-19.127483367919897,22.0,-943811.0,2553.45,pp-riro,4,0,-1,-1
1570534451.9,2019-10-08,13:34:11.900,14.0,8.0,16.729999542236303,0.1,23.9,9.4,5.5,-30.4,100.7,1.73599,22.8514,9.34643,-3.85708,-1.86073,-1.82241,9.62965,-21.9912,95.7028,0.0778368999999999,0.288733,0.797605,254.7,5.4,52.17,4.42727,4.7,0.207227,141.749,4.58386,86.3369,35.342,219.432,1.1688,-0.259996,238.44,3.63917,3.49804,-20.1723861694336,21.9994239807129,-18.7556476593018,22.0,-943771.0,-553.761,pp-riro,4,0,-1,-1
1570534452.0,2019-10-08,13:34:12.000,14.0,9.0,16.8299999237061,-0.9,23.9,9.4,3.9,-29.7,104.9,0.663738,22.5536,9.19253,-11.9467,-0.821365,-3.24997,8.39954,-21.7312,100.16,-0.0286127,0.0272525,0.662928,249.0,5.5,52.17,4.42727,4.7,0.269838,150.452,4.583880000000001,88.7318,35.342,218.532,1.15876,-0.25053,238.493,3.69573,3.52781,-19.4999160766602,21.9994239807129,-18.437692642211896,22.0,-943798.0,615.29,pp-riro,4,0,-1,-1
1570534452.1,2019-10-08,13:34:12.100,14.0,9.0,16.8299999237061,-1.8,23.8,9.4,2.1,-28.8,109.0,-0.370804,22.5811,9.13859,-7.52532,0.463242,-2.71772,6.73845,-21.2281,104.321,-0.0803538,0.20343,0.5796140000000001,249.0,5.5,52.17,4.42727,4.7,0.2509989999999999,149.836,4.58384,91.0684,35.342,217.532,1.14872,-0.241646,238.459,3.75253,3.55431,-18.9742279052734,21.9994239807129,-18.211078643798803,22.0,-943760.0,61.529,pp-riro,4,0,-1,-1
1570534452.2,2019-10-08,13:34:12.200,14.0,9.0,16.8199996948242,-2.7,23.8,9.3,0.2,-27.9,113.5,-1.2384700000000002,22.5763,9.056,-8.7113,-0.164202,-3.78798,5.1545,-20.3833,108.552,-0.0526972,0.257218,0.712202,249.0,5.5,52.17,4.42727,4.7,0.263743,159.612,4.58381,93.551,34.9621,216.632,1.1388200000000002,-0.229071,238.545,3.81251,3.57809,-18.5680160522461,21.9994239807129,-17.958599090576197,22.0,-943733.0,184.587,pp-riro,4,0,-1,-1
1570534452.3,2019-10-08,13:34:12.300,14.0,8.0,16.9300003051758,-3.5,23.7,9.4,-1.9,-26.8,117.5,-2.53154,22.5286,8.970139999999999,-10.7613,-1.38324,-3.79265,2.12653,-19.6893,114.723,-0.221654,0.0939403,0.704205,249.0,5.5,52.17,4.42727,4.7,0.274825,166.68200000000002,4.58378,95.9752,34.9621,215.632,1.12841,-0.22073,238.602,3.87005,3.60063,-18.1788711547852,21.9994239807129,-17.8720588684082,22.0,-943733.0,0.0,pp-riro,4,0,-1,-1
1570534452.4,2019-10-08,13:34:12.400,14.0,10.0,16.979999542236303,-4.4,23.4,9.5,-4.1,-25.4,121.7,-3.25973,22.3527,8.97068,-4.28841,-10.283,3.46855,-0.156277,-18.5829,118.658,0.104127,0.263196,0.6874180000000001,249.0,5.5,52.17,4.42727,4.7,0.307516,177.47099999999998,4.58374,98.3118,34.5821,214.632,1.11877,-0.209613,238.596,3.93052,3.62509,-18.026969909668,21.9994239807129,-17.6558856964111,22.0,-943726.0,246.116,pp-riro,4,0,-1,-1
1570534452.5,2019-10-08,13:34:12.500,14.0,10.0,17.0799999237061,-5.5,22.9,9.4,-5.9,-24.1,126.0,-4.17589,22.0762,8.924719999999999,-10.1881,-5.658,-2.47787,-2.36142,-17.1347,122.801,-0.184703,0.31278,0.5260859999999999,249.0,5.5,52.17,4.42727,4.7,0.305853,176.866,4.58371,100.707,33.8221,213.632,1.10933,-0.19535,238.588,3.98982,3.65737,-17.8477554321289,21.9994239807129,-17.2154388427734,22.0,-943681.0,430.703,pp-riro,4,0,-1,-1
1570534452.6,2019-10-08,13:34:12.600,14.0,10.0,17.0300006866455,-6.6,22.7,9.2,-8.1,-22.9,129.6,-5.208880000000001,21.674,8.84334,-10.9212,-0.916301,-2.79605,-4.49697,-16.0468,126.481,-0.130886,0.134914,0.6206149999999999,249.0,5.5,52.17,4.42727,4.5,0.315273,187.481,4.58368,102.897,33.0622,212.632,1.10054,-0.1821809999999999,238.523,4.03949,3.69036,-17.6395263671875,21.9994239807129,-16.764347076415998,22.0,-943632.0,153.822,pp-riro,4,0,-1,-1
1570534452.7,2019-10-08,13:34:12.700,14.0,11.0,17.129999160766598,-7.8,22.2,9.1,-9.3,-21.2,132.8,-5.8396,21.5533,8.76171,-13.1775,-4.66573,-4.78633,-5.470330000000001,-15.5301,128.283,-0.0013085999999999,0.0878983,0.7971659999999999,249.0,5.5,52.17,4.42727,4.5,0.328571,194.719,4.58364,105.234,32.6822,211.532,1.09055,-0.172394,238.512,4.08985,3.73168,-17.2879333496094,21.9994239807129,-16.3112525939941,22.0,-943625.0,123.058,pp-riro,4,0,-1,-1
1570534452.8,2019-10-08,13:34:12.800,14.0,11.0,17.129999160766598,-8.9,21.5,9.2,-10.9,-20.4,136.1,-6.43911,21.4373,8.67822,-6.13943,-3.19023,-3.21521,-6.721839999999999,-14.9383,129.899,-0.104891,0.0947821,0.626436,249.0,5.5,52.17,4.42727,4.5,0.357383,212.057,4.58361,107.454,31.9222,210.532,1.08154,-0.159995,238.514,4.1336,3.76736,-16.7997970581055,21.9994239807129,-15.8718595504761,22.0,-943606.0,276.88,pp-riro,4,0,-1,-1
1570534452.9,2019-10-08,13:34:12.900,14.0,11.0,17.229999542236303,-10.0,21.0,9.1,-12.2,-19.3,138.8,-8.18417,20.5511,8.808710000000001,-11.0858,-9.44092,-1.96382,-9.25014,-13.5183,134.78,-0.229367,0.00183645,0.4894479999999999,249.0,5.5,52.17,4.42727,4.5,0.384533,224.351,4.58354,109.527,31.1622,209.532,1.0729799999999998,-0.148394,238.476,4.17149,3.80429,-16.352615356445302,21.9994239807129,-15.4145259857178,22.0,-943587.0,215.351,pp-riro,4,0,-1,-1
1570534453.0,2019-10-08,13:34:13.000,14.0,12.0,17.3400001525879,-11.0,20.5,8.9,-13.5,-18.0,141.2,-9.28354,19.9397,8.71778,-9.80528,-5.18075,-1.65203,-11.0314,-12.9896,137.438,-0.153979,-0.0306856,0.387887,249.6,5.0,52.17,4.42727,4.5,0.382871,218.897,4.58358,111.63,29.6422,208.432,1.06479,-0.130719,238.294,4.201569999999999,3.83367,-16.1324462890625,21.9994239807129,-14.9718570709229,22.0,-943454.0,1045.99,pp-riro,4,0,-1,-1
1570534453.1,2019-10-08,13:34:13.100,14.0,12.0,17.4400005340576,-11.7,19.8,8.9,-14.5,-17.3,143.7,-10.2561,19.4548,8.5665,-5.0037400000000005,-4.97335,3.39353,-12.3384,-12.0476,139.951,-0.433593,0.133925,0.386401,249.6,5.0,52.17,4.42727,4.5,0.376776,216.173,4.5837,113.646,28.8822,207.432,1.05629,-0.120189,238.28,4.23461,3.85926,-15.591400146484402,21.9994239807129,-14.7988014221191,22.0,-943406.0,922.935,pp-riro,4,0,-1,-1
1570534453.2,2019-10-08,13:34:13.200,14.0,13.0,17.3299999237061,-12.4,19.2,8.7,-15.7,-16.9,146.2,-10.9724,18.8164,8.489980000000001,-12.8627,-4.53175,6.89447,-13.5806,-11.4872,142.493,-0.081041,-0.2456829999999999,0.36585,249.6,5.0,52.17,4.42727,4.5,0.373452,219.142,4.58369,115.661,27.7422,206.332,1.04787,-0.106714,238.159,4.26286,3.88423,-15.1322784423828,21.9994239807129,-14.592280387878402,22.0,-943337.0,553.761,pp-riro,4,0,-1,-1
1570534453.3,2019-10-08,13:34:13.300,14.0,11.0,17.2800006866455,-13.1,18.6,8.6,-16.4,-16.0,148.2,-11.7722,18.2567,8.42089,-8.916319999999999,-6.693689999999999,-4.67345,-14.7944,-11.5855,144.998,0.0979577,0.0726126999999999,0.505195,249.6,5.0,52.17,4.42727,4.5,0.387304,222.843,4.58375,117.589,26.2222,205.332,1.04018,-0.0907661999999999,238.067,4.28578,3.90616,-14.7994537353516,21.9994239807129,-14.3669242858887,22.0,-943288.0,553.761,pp-riro,4,0,-1,-1
1570534453.4,2019-10-08,13:34:13.400,14.0,11.0,17.379999160766598,-13.7,17.8,8.4,-17.1,-15.9,150.5,-12.753,17.2032,8.05739,-3.40377,-8.71809,-0.0172295,-16.0184,-10.5603,148.124,-0.213553,-0.095695,0.436324,249.6,5.0,52.17,4.42727,4.5,0.382871,222.282,4.5838,119.429,25.0822,204.432,1.03263,-0.0784202,238.086,4.30947,3.9335,-14.5809860229492,21.9994239807129,-14.1202011108398,22.0,-943161.0,799.877,pp-riro,4,0,-1,-1
1570534453.5,2019-10-08,13:34:13.500,14.0,8.0,17.729999542236303,-14.4,17.2,8.1,-17.8,-15.7,152.5,-13.1128,16.8323,8.012139999999999,-9.30597,-8.20582,-5.96596,-16.2887,-10.5528,149.235,0.0794166,-0.223302,0.4328729999999999,249.6,5.0,52.17,4.42727,4.5,0.385087,225.305,4.58385,121.152,23.1822,203.532,1.02594,-0.0605270999999999,237.992,4.3249,3.957980000000001,-14.2618179321289,21.9994239807129,-13.7787570953369,22.0,-943128.0,615.29,pp-riro,4,0,-1,-1
1570534453.6,2019-10-08,13:34:13.600,14.0,9.0,18.1800003051758,-15.0,16.6,8.0,-18.1,-14.6,153.7,-13.5595,16.4939,7.937530000000001,-9.60506,-5.88071,-2.2293,-16.7138,-10.7146,150.22899999999998,-0.132665,-0.177702,0.270412,249.6,5.0,52.17,4.4272800000000005,4.1,0.406696,234.121,4.58391,122.904,22.0422,202.532,1.01832,-0.0489759,237.93,4.341819999999999,3.98184,-13.9904403686523,21.9994239807129,-13.6713342666626,22.0,-943051.0,615.29,pp-riro,4,0,-1,-1
1570534453.7,2019-10-08,13:34:13.700,14.0,7.0,18.3199996948242,-15.3,15.9,7.9,-18.7,-14.1,155.8,-14.1632,15.9353,7.671130000000001,-3.90565,-14.6224,2.94313,-17.5487,-10.3997,151.75799999999998,-0.0403976999999999,0.120518,0.142345,249.6,5.0,52.17,4.4272800000000005,4.1,0.407251,231.429,4.58396,124.569,20.5222,201.632,1.01138,-0.0348235,237.895,4.36458,3.99643,-13.8487777709961,21.9994239807129,-13.6716537475586,22.0,-942997.0,984.464,pp-riro,4,0,-1,-1
1570534453.8,2019-10-08,13:34:13.800,14.0,8.0,18.3199996948242,-15.3,15.5,7.8,-19.2,-13.8,157.9,-14.4401,15.288,7.624460000000001,-3.83788,-4.64486,-1.49027,-18.3313,-9.84484,153.584,-0.0353902,-0.0205966,0.35677,249.6,5.0,52.17,4.4272800000000005,4.1,0.390628,223.622,4.58401,126.146,19.0022,200.732,1.0046700000000002,-0.0211106,237.83900000000003,4.38586,3.99559,-13.674690246582,21.9994239807129,-13.9988079071045,22.0,-942886.0,1076.76,pp-riro,4,0,-1,-1
1570534453.9,2019-10-08,13:34:13.900,14.0,8.0,18.270000457763697,-15.7,14.5,7.3,-19.4,-12.6,159.5,-14.5354,14.939,7.53607,-1.37891,-5.37288,-1.63374,-18.4246,-9.62097,154.67700000000002,0.0299985,0.0109623,0.332367,249.6,5.0,52.17,4.4272800000000005,4.1,0.380101,218.446,4.58407,127.578,17.4822,199.832,0.998374,-0.00783565,237.728,4.40859,4.03005,-13.7293090820312,21.9994239807129,-13.6197385787964,22.0,-942799.0,799.877,pp-riro,4,0,-1,-1
1570534454.0,2019-10-08,13:34:14.000,14.0,7.0,18.3199996948242,-16.0,13.8,7.0,-19.8,-12.1,161.5,-15.0286,13.5953,6.89307,-1.00886,-6.9543800000000005,-2.55903,-19.3423,-8.18988,158.096,0.0255042,0.0089062999999999,0.334469,255.0,5.2,52.17,4.4272800000000005,4.1,0.37456,215.981,4.5841,129.009,15.5822,199.032,0.99239,0.00808785,237.697,4.42854,4.04956,-13.8146438598633,21.9994239807129,35.0,22.0,-942717.0,861.4060000000001,pp-riro,4,0,-1,-1
1570534454.1,2019-10-08,13:34:14.100,14.0,9.0,18.409999847412102,-16.3,13.3,6.9,-20.4,-11.1,163.5,-15.2771,12.9923,6.633710000000001,1.21253,-3.14697,-1.38121,-19.848,-7.409389999999999,160.091,-0.0391733,0.0499856,0.449744,255.0,5.2,52.17,4.4272800000000005,4.1,0.376776,221.548,4.5841400000000005,130.352,14.4422,198.332,0.986542,0.0179055,237.773,4.45831,4.06578,-13.748077392578098,21.9994239807129,35.0,22.0,-942648.0,615.29,pp-riro,4,0,-1,-1
1570534454.2,2019-10-08,13:34:14.200,14.0,9.0,18.409999847412102,-16.4,12.5,6.8,-20.5,-10.5,165.7,-15.4533,12.3671,6.58387,-3.21502,-5.87201,-0.8216959999999999,-20.4035,-6.77681,162.112,-0.0599724,-0.0900218,0.437401,255.0,5.2,52.17,4.4272800000000005,4.1,0.524162,231.688,4.58418,131.608,12.9221,197.532,0.980857,0.0303355,237.711,4.485040000000001,4.08247,-13.4818267822266,21.9994239807129,35.0,22.0,-943238.0,-12551.9,pp-riro,4,0,-1,-1
1570534454.3,2019-10-08,13:34:14.300,14.0,10.0,18.5100002288818,-16.4,12.1,6.1,-21.0,-9.6,167.8,-15.4533,12.3671,6.58387,-3.21502,-5.87201,-0.8216959999999999,-20.4035,-6.77681,162.112,-0.0599724,-0.0900218,0.437401,255.0,5.2,52.17,4.4272800000000005,4.1,1.00732,225.42,4.5842,132.806,11.0221,196.832,0.975648,0.0453837,237.701,4.51115,4.09624,-12.9373626708984,21.9994239807129,35.0,22.0,-945383.0,-24519.3,pp-riro,4,0,-1,-1
1570534454.4,2019-10-08,13:34:14.400,14.0,9.0,18.5100002288818,-16.3,12.0,5.5,-21.1,-7.3,168.8,-15.6398,11.6805,5.95477,5.81372,2.41708,-8.91479,-20.7463,-5.43345,165.232,0.0316875999999999,0.144593,0.312737,255.0,5.2,52.17,4.4272800000000005,4.1,0.841651,179.602,4.5843,133.974,9.5021,196.232,0.970583,0.0572989,237.795,4.53785,4.09943,-12.0276489257812,21.9994239807129,35.0,22.0,-943810.0,6029.84,pp-riro,4,0,-1,-1
1570534454.5,2019-10-08,13:34:14.500,14.0,7.0,18.840000152587898,-16.3,11.7,5.5,-21.3,-6.7,169.5,-15.4414,11.5082,5.3397,-0.223451,-2.00257,-1.96394,-21.3313,-4.59186,166.669,-0.144743,0.0644803,0.32544,255.0,5.2,52.17,4.4272800000000005,4.1,0.8693549999999999,184.512,4.5843,134.558,8.36208,195.932,0.968111,0.0660227,237.834,4.54651,4.10131,-10.7731704711914,21.9994239807129,35.0,22.0,-944193.0,-7106.6,pp-riro,4,0,-1,-1
1570534454.6,2019-10-08,13:34:14.600,14.0,8.0,18.840000152587898,-16.5,10.9,5.9,-21.8,-6.7,171.3,-15.8579,11.0624,5.44669,-4.701280000000001,-6.21292,5.09377,-21.7497,-3.67098,168.423,0.038641,-0.0300057,0.2248889999999999,255.0,5.2,52.17,4.4272800000000005,3.8,0.974631,216.191,4.58434,135.639,7.222069999999999,195.332,0.963173,0.0748523999999999,237.917,4.56482,4.11576,-9.15685272216797,21.9994239807129,35.0,22.0,-944274.0,3722.5,pp-riro,4,0,-1,-1
1570534454.7,2019-10-08,13:34:14.700,14.0,8.0,18.6499996185303,-16.4,10.6,5.6,-22.1,-6.5,172.5,-15.8634,10.3941,5.72422,0.433604,-5.93243,-6.84175,-21.8745,-4.08461,170.31900000000002,-0.111691,-0.174559,0.264403,255.0,5.2,52.17,4.4272800000000005,3.8,0.980726,219.52,4.58438,136.72,5.70205,194.732,0.958258,0.0863445,238.003,4.57431,4.11997,-7.190643310546879,21.9994239807129,35.0,22.0,-944175.0,-92.2935,pp-riro,4,0,-1,-1
1570534454.8,2019-10-08,13:34:14.800,14.0,11.0,18.3600006103516,-16.7,10.8,5.1,-22.4,-5.4,172.8,-16.1518,10.4356,5.06912,-6.64197,0.985591,-8.56836,-22.2732,-4.44563,171.498,-0.449,-0.0375099,0.0184425,255.0,5.2,52.17,4.4272800000000005,3.8,0.975185,217.893,4.58442,137.74200000000002,3.80203,194.132,0.953524,0.10037,238.064,4.578,4.122269999999999,-5.08106994628906,21.9994239807129,35.0,22.0,-943890.0,4122.44,pp-riro,4,0,-1,-1
1570534454.9,2019-10-08,13:34:14.900,14.0,11.0,17.9699993133545,-17.1,10.6,5.8,-22.8,-5.3,173.5,-16.5666,10.5004,5.30891,-3.63742,-4.55494,4.9286,-23.3734,-4.36073,172.025,-0.233435,-0.2242219999999999,0.0667539,255.0,5.2,52.17,4.4272800000000005,3.8,1.045,263.965,4.58446,138.735,2.28201,193.532,0.94878,0.111478,238.133,4.57978,4.11444,-2.97490692138672,21.9994239807129,35.0,22.0,-943985.0,-2276.57,pp-riro,4,0,-1,-1
1570534455.0,2019-10-08,13:34:15.000,14.0,10.0,17.8700008392334,-17.3,10.4,6.4,-23.5,-6.2,174.1,-17.1065,10.3069,6.131419999999999,-3.14998,-1.24724,2.75368,-24.3343,-5.267119999999999,173.16400000000002,0.138867,-0.23535,-0.00163453,257.1,5.8,52.17,4.4272800000000005,3.8,1.07935,271.816,4.5845,139.787,0.38198,192.832,0.943542,0.125173,238.169,4.56789,4.10134,-0.872161865234375,21.9994239807129,35.0,22.0,-943823.0,2768.8,pp-riro,4,0,-1,-1
1570534455.1,2019-10-08,13:34:15.100,14.0,9.0,17.8199996948242,-16.9,10.5,6.3,-24.5,-6.5,173.6,-17.2261,10.292,6.1063,3.82696,3.06108,1.33317,-24.5343,-5.687880000000001,173.338,-0.0613998,-0.105921,0.184338,257.1,5.8,52.17,4.4272800000000005,3.8,1.07104,264.833,4.58453,140.809,-1.13804,192.132,0.938328,0.135957,238.208,4.54894,4.08071,1.23818206787109,21.9994239807129,35.0,22.0,-943614.0,3722.5,pp-riro,4,0,-1,-1
1570534455.2,2019-10-08,13:34:15.200,14.0,10.0,18.2600002288818,-16.7,10.6,6.9,-25.3,-7.2,172.3,-17.0409,10.3718,6.22017,-0.8418399999999999,-0.240983,4.523540000000001,-25.3044,-6.932939999999999,173.145,-0.388206,-0.242921,-0.289338,257.1,5.8,52.17,4.4272800000000005,3.8,1.04001,250.818,4.584569999999999,141.80200000000002,-3.03806,191.432,0.933135,0.14926,238.25,4.51274,4.047540000000001,3.3398590087890603,21.9994239807129,35.0,22.0,-943241.0,3507.15,pp-riro,4,0,-1,-1
1570534455.3,2019-10-08,13:34:15.300,14.0,10.0,18.6399993896484,-16.3,10.8,7.7,-26.3,-8.3,170.8,-17.0448,10.6197,6.96034,3.67915,1.6974599999999995,8.55309,-26.6998,-8.57388,172.08700000000002,0.0139676,-0.208046,-0.343006,257.1,5.8,52.17,4.4272800000000005,3.8,1.00178,223.642,4.58461,142.82399999999998,-4.55808,190.632,0.927553,0.1597049999999999,238.24400000000003,4.47204,4.00367,5.45175933837891,21.9994239807129,35.0,22.0,-942779.0,3322.56,pp-riro,4,0,-1,-1
1570534455.4,2019-10-08,13:34:15.400,14.0,9.0,19.0599994659424,-15.1,11.2,8.2,-27.7,-9.9,169.6,-16.6188,10.8983,7.7002,11.9477,5.95365,5.2489300000000005,-27.4338,-9.97234,170.887,-0.322389,-0.241575,-0.249794,257.1,5.8,52.17,4.4272800000000005,3.8,0.953576,193.076,4.58464,143.876,-6.07809,189.732,0.921567,0.169985,238.192,4.430630000000001,3.9351,7.553436279296879,21.9994239807129,35.0,22.0,-942356.0,4491.62,pp-riro,4,0,-1,-1
1570534455.5,2019-10-08,13:34:15.500,14.0,9.0,19.020000457763697,-14.2,11.9,8.8,-28.7,-11.6,167.3,-15.0769,11.9026,8.55358,7.70029,1.74439,5.43127,-28.6373,-13.4703,168.2,-0.2111219999999999,-0.156427,-0.49406,257.1,5.8,52.17,4.4272800000000005,3.8,0.924209,183.185,4.5846800000000005,145.015,-7.5981,188.832,0.915238,0.1800759999999999,238.211,4.37323,3.86431,9.66362762451172,21.9994239807129,35.0,22.0,-942144.0,3999.38,pp-riro,4,0,-1,-1
1570534455.6,2019-10-08,13:34:15.600,14.0,10.0,19.0599994659424,-13.5,12.6,9.5,-29.6,-12.9,164.6,-14.5379,12.6783,9.29057,3.64997,3.13912,7.28325,-29.5872,-15.3613,165.726,-0.473696,0.0225451,-0.620169,257.1,5.8,52.17,4.4272800000000005,3.6,0.900384,170.917,4.58472,146.183,-8.7381,187.932,0.908841,0.187396,238.252,4.31682,3.80157,11.775520324707,21.9994239807129,35.0,22.0,-941901.0,1445.93,pp-riro,4,0,-1,-1
1570534455.7,2019-10-08,13:34:15.700,14.0,11.0,19.0100002288818,-12.4,13.0,10.3,-30.5,-15.1,161.5,-14.1105,13.0365,9.77865,6.02091,3.07836,7.52832,-30.117,-16.4286,164.42700000000002,-0.189736,-0.170374,-0.637111,257.1,5.8,52.17,4.4272800000000005,3.6,0.889856,169.42700000000002,4.58475,147.381,-10.2581,186.932,0.901981,0.197146,238.264,4.24416,3.72864,13.8755035400391,21.9994239807129,35.0,22.0,-941724.0,1568.99,pp-riro,4,0,-1,-1
1570534455.8,2019-10-08,13:34:15.800,14.0,10.0,18.9200000762939,-11.2,13.7,11.2,-31.2,-18.0,158.0,-13.601,13.2921,10.282,9.59937,-0.0477181999999999,9.56497,-30.3504,-17.9882,163.191,-0.277908,-0.404541,-0.8217690000000001,257.1,5.8,52.17,4.4272800000000005,3.6,0.8926270000000001,169.28900000000002,4.58479,148.695,-11.3981,185.832,0.8945280000000001,0.204123,238.272,4.16183,3.64603,15.9908065795898,21.9994239807129,35.0,22.0,-941678.0,892.17,pp-riro,4,0,-1,-1
1570534455.9,2019-10-08,13:34:15.900,14.0,8.0,18.5,-10.1,14.5,12.1,-31.6,-20.5,153.6,-12.4615,14.1073,11.2325,12.2453,9.05883,10.8746,-31.4471,-21.7389,160.81799999999998,-0.331306,-0.313727,-0.715228,257.1,5.8,52.17,4.4272800000000005,3.6,0.888748,163.384,4.58483,150.039,-12.5381,184.832,0.887223,0.210954,238.394,4.072019999999999,3.56801,18.1026992797852,21.9994239807129,35.0,22.0,-941523.0,1753.58,pp-riro,4,0,-1,-1
1570534456.0,2019-10-08,13:34:16.000,14.0,8.0,18.0100002288818,-8.7,15.3,12.8,-31.2,-22.9,149.3,-10.8472,15.5957,12.6167,6.83927,4.17519,7.33942,-32.3309,-27.2042,156.181,-0.188393,-0.153284,-0.707746,250.6,5.3,52.17,4.4272800000000005,3.6,0.8721260000000001,159.549,4.58487,151.47,-13.6781,183.631,0.8790870000000001,0.217603,238.43400000000003,3.98561,3.48316,20.2180023193359,21.9994239807129,35.0,22.0,-941358.0,1353.64,pp-riro,4,0,-1,-1
1570534456.1,2019-10-08,13:34:16.100,14.0,9.0,17.5599994659424,-7.5,16.0,13.7,-30.2,-26.5,144.5,-9.50481,16.391,13.6225,9.86266,3.31196,9.42696,-32.5398,-31.0889,152.24200000000002,-0.343036,-0.357092,-0.91001,250.6,5.3,52.17,4.4272800000000005,3.6,0.88764,175.812,4.584890000000001,152.989,-14.4381,182.331,0.870499,0.2216,238.451,3.88524,3.4115900000000003,22.3298950195312,21.9994239807129,35.0,22.0,-941318.0,0.0,pp-riro,4,0,-1,-1
1570534456.2,2019-10-08,13:34:16.200,14.0,10.0,17.2099990844727,-6.3,16.5,14.5,-28.3,-29.8,138.6,-8.41437,17.3102,14.6689,10.0807,5.18261,10.4927,-31.6001,-34.8827,147.511,-0.16613,-0.29351,-1.11075,250.6,5.3,52.17,4.4272800000000005,3.6,0.934737,192.465,4.584919999999999,154.566,-14.818,181.031,0.8618370000000001,0.22305,238.501,3.77706,3.3486,24.434982299804695,21.9994239807129,35.0,22.0,-941288.0,1015.23,pp-riro,4,0,-1,-1
1570534456.3,2019-10-08,13:34:16.300,14.0,11.0,17.0499992370605,-4.7,17.0,14.9,-24.9,-33.4,131.4,-6.98561,18.0788,15.5611,25.2321,8.6664,13.1092,-29.4937,-38.8599,141.365,-0.179291,-0.2105949999999999,-0.714367,250.6,5.3,52.17,4.4272800000000005,3.6,0.934737,192.624,4.5849400000000005,156.201,-15.578,179.731,0.852877,0.2268639999999999,238.631,3.65077,3.27145,26.541770935058604,21.9994239807129,35.0,22.0,-941195.0,1753.58,pp-riro,4,0,-1,-1
1570534456.4,2019-10-08,13:34:16.400,14.0,10.0,16.8999996185303,-2.6,17.3,15.4,-20.5,-37.2,123.1,-6.98561,18.0788,15.5611,25.2321,8.6664,13.1092,-29.4937,-38.8599,141.365,-0.179291,-0.2105949999999999,-0.714367,250.6,5.3,52.17,4.4272800000000005,3.6,0.937507,200.328,4.58496,157.925,-15.9579,178.231,0.8432120000000001,0.228148,238.666,3.51605,3.17797,28.6502685546875,21.9994239807129,35.0,22.0,-941054.0,1138.29,pp-riro,4,0,-1,-1
1570534456.5,2019-10-08,13:34:16.500,14.0,10.0,16.7399997711182,-0.5,17.5,15.7,-15.1,-39.9,113.9,-6.05426,18.4365,15.8747,16.1841,3.5876,4.34255,-27.9744,-41.4169,137.782,-0.3961159999999999,-0.1988339999999999,-1.56991,250.6,5.3,52.17,4.4272800000000005,3.6,0.9569,203.111,4.584980000000001,159.589,-15.9579,176.831,0.8341299999999999,0.227082,238.732,3.38345,3.08868,30.5884399414062,21.9994239807129,35.0,22.0,-940886.0,1999.69,pp-riro,4,0,-1,-1
1570534456.6,2019-10-08,13:34:16.600,14.0,11.0,16.8899993896484,1.7,17.8,15.8,-8.9,-41.7,104.2,-1.58189,19.2748,17.0334,21.5612,-0.262723,7.18085,-18.9974,-50.5077,120.568,-0.122319,-0.0231708,-1.18881,250.6,5.3,52.17,4.42727,3.4,0.950805,201.516,4.585,161.283,-15.9578,175.331,0.824679,0.226011,238.764,3.25283,2.99673,32.170654296875,21.9994239807129,23.0,22.0,-940754.0,2461.16,pp-riro,4,0,-1,-1
1570534456.7,2019-10-08,13:34:16.700,14.0,10.0,17.0,4.1,17.8,15.9,-1.6,-42.1,93.4,1.20058,19.7327,17.0177,27.8987,-1.77049,2.04147,-11.2774,-52.5295,108.343,-0.317841,0.267437,-1.12304,250.6,5.3,52.17,4.42727,3.4,0.950251,209.479,4.58502,163.065,-15.9578,173.831,0.814966,0.224919,238.877,3.11324,2.89912,33.403732299804695,21.9994239807129,23.0,22.0,-940610.0,922.935,pp-ro,1,1,-1,-1
1570534456.8,2019-10-08,13:34:16.800,14.0,9.0,17.2000007629395,6.6,17.3,15.9,5.6,-41.9,82.4,2.5233,19.663,17.0178,34.7908,1.51653,2.76486,-7.36308,-53.2463,101.605,-0.8752639999999999,-0.200829,-1.31031,250.6,5.3,52.17,4.42727,3.4,0.983496,229.946,4.58504,164.847,-15.1977,172.43099999999998,0.805768,0.21929,239.035,2.97503,2.80067,34.2791442871094,21.9994239807129,23.0,22.0,-940595.0,215.351,pp-ro,1,1,-1,-1
1570534456.9,2019-10-08,13:34:16.900,14.0,9.0,17.3500003814697,9.1,16.5,15.6,12.8,-40.5,71.1,8.13953,19.0921,16.9451,23.9437,-7.374439999999999,-1.50749,10.9136,-54.0396,74.5706,-0.177011,0.0191509,-1.23663,250.6,5.3,52.17,4.42727,3.4,1.02228,247.45,4.58506,166.57,-14.8176,170.93099999999998,0.79635,0.216049,239.129,2.82729,2.69675,34.798614501953104,21.9994239807129,23.0,22.0,-940591.0,92.2935,pp-ro,1,1,-1,-1
1570534457.0,2019-10-08,13:34:17.000,14.0,11.0,17.5,11.3,15.4,15.0,18.2,-38.6,61.3,9.49297,18.6487,16.6034,25.2208,-17.3555,-1.63579,14.9979,-53.2517,67.9041,-0.267253,0.1595589999999999,-1.2915299999999998,250.4,5.0,52.17,4.42727,3.4,1.03613,250.03,4.5851,168.176,-13.6775,169.53099999999998,0.787763,0.208465,239.188,2.69742,2.60032,34.974029541015604,21.9994239807129,23.0,22.0,-940389.0,2799.57,pp-ro,1,1,-1,-1
1570534457.1,2019-10-08,13:34:17.100,14.0,12.0,17.6000003814697,12.9,13.9,14.2,23.3,-36.0,52.3,12.0343,17.3303,15.8512,26.574,-11.3566,-8.0138,22.1743,-50.8396,55.5554,-0.314918,0.0957336,-1.18434,250.4,5.0,52.17,4.42727,3.4,1.01231,229.386,4.58515,169.666,-12.5374,168.13099999999997,0.7794939999999999,0.201022,239.19,2.57041,2.51474,34.819046020507805,21.9994239807129,21.742427825927702,22.0,-940001.0,2645.75,pp-ro,1,1,-1,-1
1570534457.2,2019-10-08,13:34:17.200,14.0,12.0,17.5,14.4,13.1,13.2,26.9,-32.6,43.7,14.8755,15.4609,14.3303,22.4423,-17.0443,-2.1438200000000003,29.8252,-45.095,40.4805,-0.833807,0.157585,-1.23326,250.4,5.0,52.17,4.42727,3.4,0.992916,214.105,4.58521,171.097,-11.3973,166.731,0.77137,0.193698,239.172,2.43867,2.43656,34.2672119140625,21.9994239807129,20.4668941497803,22.0,-939798.0,4060.91,pp-ro,1,1,-1,-1
1570534457.3,2019-10-08,13:34:17.300,14.0,13.0,17.3999996185303,15.7,12.0,12.2,29.9,-28.6,36.2,14.8755,15.4609,14.3303,22.4423,-17.0443,-2.1438200000000003,29.8252,-45.095,40.4805,-0.833807,0.157585,-1.23326,250.4,5.0,52.17,4.42727,3.4,0.933629,192.828,4.58526,172.46900000000002,-9.87726,165.53099999999998,0.7640560000000001,0.184336,239.257,2.3128900000000003,2.35973,33.3543395996094,21.9994239807129,19.1730117797852,22.0,-939369.0,3722.5,pp-ro,1,1,-1,-1
1570534457.4,2019-10-08,13:34:17.400,14.0,13.0,17.1399993896484,16.7,10.7,11.5,32.4,-24.7,29.2,16.3988,14.318,13.0093,7.709039999999999,-10.6999,-5.40359,33.3222,-40.3963,32.1107,-0.320237,0.322444,-1.2709,250.4,5.0,52.17,4.42727,3.4,0.932521,197.334,4.58531,173.696,-8.35717,164.331,0.757124,0.17518,239.259,2.19151,2.29298,32.094024658203104,21.9994239807129,18.075216293335,22.0,-939294.0,-153.822,pp-ro,1,1,-1,-1
1570534457.5,2019-10-08,13:34:17.500,14.0,11.0,16.879999160766598,17.4,9.5,10.4,34.4,-21.2,23.1,17.1241,13.4986,12.5244,7.386430000000001,-11.2831,-5.14642,34.1964,-37.9428,28.3135,-0.0446846,0.0755411999999999,-1.05985,250.4,5.0,52.17,4.42727,3.4,0.949143,195.705,4.585430000000001,174.747,-6.8371,163.33100000000002,0.751261,0.166067,239.292,2.0839,2.22492,30.4589996337891,21.9994239807129,16.9120292663574,22.0,-939168.0,2061.22,pp-ro,1,1,-1,-1
1570534457.6,2019-10-08,13:34:17.600,14.0,12.0,16.5599994659424,18.0,8.6,9.2,35.2,-17.5,17.7,18.9532,10.4454,10.0424,9.57722,-6.829960000000001,-12.9644,37.5798,-28.9916,15.1974,-0.1054269999999999,-0.116513,-1.24718,250.4,5.0,52.17,4.42727,3.1,0.918669,180.609,4.58542,175.77,-4.93701,162.431,0.745783,0.155052,239.381,1.98261,2.16228,27.9553756713867,21.9994239807129,15.8355493545532,22.0,-938891.0,2584.22,pp-ro,1,1,-1,-1
1570534457.7,2019-10-08,13:34:17.700,14.0,13.0,16.3500003814697,18.3,7.8,8.2,36.2,-14.5,12.8,19.4514,9.44857,8.64974,7.70821,-4.91005,-14.9448,38.1546,-25.2392,9.84626,-0.136496,-0.12258,-0.986963,250.4,5.0,52.17,4.42727,3.1,0.888194,167.787,4.58547,176.675,-3.03693,161.631,0.7408859999999999,0.1441319999999999,239.474,1.89508,2.11294,25.8451843261719,21.9994239807129,15.0085191726685,22.0,-938600.0,1630.52,pp-ro,1,1,-1,-1
1570534457.8,2019-10-08,13:34:17.800,14.0,12.0,16.129999160766598,18.7,7.0,7.4,37.0,-11.2,8.4,19.8451,8.44919,7.693060000000001,0.736517,-10.2624,-7.2255,38.7338,-20.5421,5.63782,-0.3211199999999999,0.118941,-1.0097200000000002,250.4,5.0,52.17,4.42727,3.1,0.88764,164.558,4.58552,177.52200000000002,-1.13685,160.83100000000002,0.736099,0.133269,239.545,1.80913,2.06516,24.7943496704102,21.9994239807129,14.2178325653076,22.0,-938489.0,1199.82,pp-ro,1,1,-1,-1
1570534457.9,2019-10-08,13:34:17.900,14.0,12.0,16.0799999237061,18.7,6.2,6.3,37.9,-8.4,4.4,20.0663,7.88505,7.13048,4.6975,-12.2727,-10.5694,38.8843,-18.6275,3.4870400000000004,-0.256144,0.250345,-0.67043,250.4,5.0,52.17,4.42727,3.1,0.8732340000000001,157.495,4.58558,178.31,0.383212,160.231,0.7320439999999999,0.124663,239.726,1.73243,2.0134,22.6858520507812,21.9994239807129,13.3332595825195,22.0,-938316.0,1815.1,pp-ro,1,1,-1,-1
1570534458.0,2019-10-08,13:34:18.000,14.0,9.0,16.020000457763697,18.6,5.6,5.5,38.7,-5.6,1.0,20.0647,7.36105,6.59231,0.0190981,-7.527639999999999,-13.4079,39.0547,-16.5884,1.59134,-0.355564,0.162388,-0.923836,250.8,5.1,52.17,4.42727,3.1,0.867693,152.97899999999998,4.58561,179.011,2.66329,159.631,0.7281770000000001,0.111909,239.863,1.66526,1.97937,20.0527954101562,21.9994239807129,12.7820224761963,22.0,-938254.0,1199.82,pp-ro,1,1,-1,-1
1570534458.1,2019-10-08,13:34:18.100,14.0,9.0,16.0699996948242,18.8,5.1,4.5,39.5,-2.9,-2.3,19.8778,6.13488,5.08131,-1.16669,-4.82686,-7.715260000000001,39.8029,-11.0992,-3.50245,-0.0240949,0.030824,-0.8267450000000001,250.8,5.1,52.17,4.42727,3.1,0.856057,147.083,4.58563,179.65400000000002,4.18335,159.131,0.724761,0.103475,240.033,1.59754,1.93124,18.0669326782227,21.9994239807129,11.9547863006592,22.0,-938102.0,1661.28,pp-ro,1,1,-1,-1
1570534458.2,2019-10-08,13:34:18.200,14.0,9.0,16.020000457763697,18.7,4.8,4.2,40.2,-1.7,-5.1,19.9595,5.86563,4.53607,0.973033,-8.07739,-11.3211,39.8369,-9.3381,-5.1003300000000005,0.0877067,0.16022,-0.724337,250.8,5.1,52.17,4.42727,3.1,0.8543950000000001,151.153,4.58565,179.946,4.94338,158.931,0.723278,0.0992711,240.133,1.5523,1.91549,16.2735214233398,21.9994239807129,11.698525428772,22.0,-938022.0,369.174,pp-ro,1,1,-1,-1
1570534458.3,2019-10-08,13:34:18.300,14.0,9.0,16.0699996948242,18.7,3.9,3.1,41.3,1.9,-7.6,19.8349,4.865,3.33727,-1.02892,-4.91249,-7.58053,40.9835,-4.08967,-9.2581,0.0488633,0.0789208999999999,-0.693178,250.8,5.1,52.17,4.42727,3.1,0.868801,157.775,4.58567,180.763,7.98349,158.33100000000002,0.718858,0.082578,240.433,1.48749,1.85675,14.6742782592773,21.9994239807129,10.6945924758911,22.0,-937998.0,369.174,pp-ro,1,1,-1,-1
1570534458.4,2019-10-08,13:34:18.400,14.0,9.0,16.020000457763697,18.6,3.7,2.8,41.7,2.9,-8.8,19.6429,4.15187,2.7170400000000003,-2.30823,-7.81061,-2.11626,41.7013,-1.44429,-11.7475,0.0168706,0.0256296,-0.627725,250.8,5.1,52.17,4.42727,3.1,0.877666,161.69899999999998,4.5856900000000005,180.997,9.12352,158.131,0.717446,0.0763303,240.517,1.46471,1.84409,13.3526382446289,21.9994239807129,10.4978427886963,22.0,-937851.0,1138.29,pp-ro,1,1,-1,-1
1570534458.5,2019-10-08,13:34:18.500,14.0,9.0,16.020000457763697,18.4,3.2,2.3,42.9,4.6,-10.7,19.4224,3.5963800000000004,2.11718,3.23031,-3.30314,-5.21664,42.2833,0.985983,-14.0492,-0.104646,0.00237793,-0.702652,250.8,5.1,52.17,4.42727,3.1,0.880437,163.87,4.585719999999999,181.406,11.0236,157.731,0.7147899999999999,0.0659808,240.642,1.42747,1.81677,12.2592239379883,21.9994239807129,10.0679998397827,22.0,-937761.0,799.877,pp-ro,1,1,-1,-1
1570534458.6,2019-10-08,13:34:18.600,14.0,8.0,15.8500003814697,18.5,2.8,1.7,43.9,6.4,-12.5,19.343,3.17315,1.47385,-1.23176,-4.49845,-0.8969600000000001,43.543,3.61115,-15.4501,0.356553,0.1842589999999999,-0.4362319999999999,250.8,5.1,52.17,4.42727,2.8,0.882653,165.884,4.58574,181.785,12.9236,157.431,0.712478,0.0556802,240.827,1.39006,1.78493,11.2816162109375,21.9994239807129,9.53749942779541,22.0,-937717.0,861.4060000000001,pp-ro,1,1,-1,-1
1570534458.7,2019-10-08,13:34:18.700,14.0,8.0,15.7399997711182,18.4,2.1,1.3,45.1,8.1,-14.0,19.2978,2.78289,1.17786,-2.00029,-14.8752,-7.099419999999999,43.8046,4.75422,-16.1225,0.426329,0.1212369999999999,-0.49622,250.8,5.1,52.17,4.42727,2.8,0.8915190000000001,169.27900000000002,4.58576,182.077,14.8237,157.131,0.710354,0.0453976,240.961,1.35743,1.75175,10.6855163574219,21.9994239807129,8.977763175964359,22.0,-937651.0,738.3480000000001,pp-ro,1,1,-1,-1
1570534458.8,2019-10-08,13:34:18.800,14.0,8.0,15.5100002288818,18.0,1.6,1.1,46.1,9.3,-15.4,19.1528,2.4003400000000004,1.1007,-6.36701,-12.2426,-4.59094,44.3832,5.73813,-16.7448,0.244983,0.000459941,-0.372822,250.8,5.1,52.17,4.42727,2.8,0.8937350000000001,170.872,4.585780000000001,182.34,16.7238,156.931,0.7085739999999999,0.0351612,241.154,1.33248,1.73479,10.0076599121094,21.9994239807129,8.7306661605835,22.0,-937535.0,1230.58,pp-ro,1,1,-1,-1
1570534458.9,2019-10-08,13:34:18.900,14.0,8.0,15.3999996185303,17.9,1.3,0.8,47.3,10.2,-16.6,18.7269,1.65967,0.715465,-5.972919999999999,-5.80502,-6.32123,46.0452,8.10662,-18.7605,0.0860886,0.129418,-0.4741979999999999,250.8,5.1,52.17,4.42727,2.8,0.900938,174.21,4.5858,182.515,18.6238,156.631,0.706666,0.024914,241.23,1.31376,1.71839,9.36387634277344,21.9994239807129,8.51058769226074,22.0,-937414.0,707.5830000000001,pp-ro,1,1,-1,-1
1570534459.0,2019-10-08,13:34:19.000,14.0,8.0,15.289999961853,18.0,0.7,0.4,48.4,11.2,-17.6,18.5809,1.23347,0.389343,-4.6149,-8.269960000000001,-0.851143,47.1817,9.90394,-19.6964,0.158805,0.176759,-0.214301,255.5,5.1,52.17,4.42727,2.8,0.9026,176.418,4.5858300000000005,182.691,20.5239,156.531,0.705338,0.0146871,241.452,1.296,1.68586,8.90743255615234,21.9994239807129,7.94111108779907,22.0,-937349.0,1230.58,pp-ro,1,1,-1,-1
1570534459.1,2019-10-08,13:34:19.100,14.0,11.0,15.289999961853,18.1,0.0,0.2,49.5,12.0,-18.5,18.6452,0.0530316,-0.0211421,-1.79398,-10.8344,-1.55,48.4473,11.3998,-20.9378,0.268061,-0.152199,-0.0821611999999999,255.5,5.1,52.17,4.42727,2.8,0.909803,182.927,4.5859,182.749,22.0439,156.33100000000002,0.70408,0.00644803,241.501,1.2806799999999998,1.65715,8.52593231201172,21.9994239807129,7.44953393936157,22.0,-937271.0,553.761,pp-ro,1,1,-1,-1
1570534459.2,2019-10-08,13:34:19.200,14.0,11.0,15.1700000762939,17.8,-0.6,-0.1,50.0,12.0,-19.7,18.3224,-0.6187159999999999,-0.331955,-6.42296,-4.0089,-4.74633,49.1068,10.937,-22.4955,0.279213,-0.204881,-0.0742863,255.5,5.1,52.17,4.42727,2.8,0.921439,188.246,4.58597,182.72,24.324,156.231,0.703073,-0.00588594,241.633,1.27507,1.63041,8.11035919189453,21.9994239807129,6.99338722229004,22.0,-937199.0,953.699,pp-ro,1,1,-1,-1
1570534459.3,2019-10-08,13:34:19.300,14.0,12.0,15.2299995422363,17.7,-1.1,-0.4,50.6,11.4,-20.4,18.1875,-1.0516299999999998,-0.684504,-0.0374108,-4.89192,-3.02473,49.764,11.0134,-23.0712,0.132697,0.00368387,-0.173742,255.5,5.1,52.17,4.42727,2.8,0.930858,192.334,4.58603,182.661,25.844,156.131,0.7023590000000001,-0.0141639999999999,241.682,1.28029,1.60432,7.58579254150391,21.9994239807129,6.53263759613037,22.0,-937108.0,984.464,pp-ro,1,1,-1,-1
1570534459.4,2019-10-08,13:34:19.400,14.0,12.0,15.1700000762939,17.9,-1.6,-0.7,51.5,11.1,-21.1,18.2902,-1.29633,-0.80883,-0.680809,-4.7167,-4.04346,50.0347,11.073,-23.2678,-0.0895299,0.0688072,-0.112943,255.5,5.1,52.17,4.42727,2.8,0.940278,202.387,4.5861,182.515,27.744,156.131,0.702009,-0.0245129,241.782,1.28296,1.5809,7.16341400146484,21.9994239807129,6.11148977279663,22.0,-936934.0,799.877,pp-ro,1,1,-1,-1
1570534459.5,2019-10-08,13:34:19.500,14.0,10.0,15.2299995422363,18.0,-2.2,-0.5,51.9,11.1,-22.0,18.4048,-1.6711900000000002,-0.911397,2.18298,-5.87704,-1.79493,50.3872,11.2653,-23.2676,0.110663,0.0561687,-0.0443338,255.5,5.1,52.17,4.42727,2.8,0.950251,205.394,4.58617,182.34,29.6441,156.031,0.701367,-0.0349138,241.81,1.27945,1.57525,6.61159515380859,21.9994239807129,6.07264757156372,22.0,-936912.0,399.9380000000001,pp-ro,1,1,-1,-1
1570534459.6,2019-10-08,13:34:19.600,14.0,10.0,15.2299995422363,17.8,-2.5,-0.5,51.8,10.6,-23.6,18.5815,-2.32817,-0.778629,-0.902824,-7.21885,-0.70504,50.4634,11.0868,-24.2286,-0.0701519999999999,-0.1974119999999999,-0.16863,255.5,5.1,52.17,4.42727,2.6,0.958008,201.038,4.58624,182.106,31.5441,156.031,0.7011430000000001,-0.0453673,241.875,1.27443,1.57017,6.20625305175781,21.9994239807129,6.024277210235599,22.0,-936741.0,2307.34,pp-ro,1,1,-1,-1
1570534459.7,2019-10-08,13:34:19.700,14.0,11.0,15.1700000762939,17.6,-2.5,-0.5,51.8,10.6,-24.9,18.5815,-2.32817,-0.778629,-0.902824,-7.21885,-0.70504,50.4634,11.0868,-24.2286,-0.0701519999999999,-0.1974119999999999,-0.16863,255.5,5.1,52.17,4.42727,2.6,0.926426,183.099,4.58631,181.843,33.0641,156.031,0.701125,-0.0537485,241.88,1.26497,1.5743,6.00357818603516,21.9994239807129,6.14332056045532,22.0,-936447.0,3137.98,pp-ro,1,1,-1,-1
1570534459.8,2019-10-08,13:34:19.800,14.0,10.0,15.2299995422363,17.4,-2.7,-0.6,52.0,10.9,-25.6,18.1674,-2.85521,-0.78538,-0.679666,-1.26617,0.699861,50.7681,10.9418,-27.2041,0.117375,-0.0264154,-0.159849,255.5,5.1,52.17,4.42727,2.6,0.897059,172.264,4.58638,181.609,35.3442,156.031,0.700613,-0.066202,242.027,1.2612,1.56941,6.05467224121094,21.9994239807129,6.14427185058594,22.0,-936239.0,1415.17,pp-ro,1,1,-1,-1
1570534459.9,2019-10-08,13:34:19.900,14.0,10.0,15.1700000762939,17.1,-2.9,-0.4,51.9,11.1,-26.9,17.9625,-3.1407,-0.643787,-6.021809999999999,-3.94811,-2.1747,50.7368,11.2608,-28.2421,0.00621866,-0.278102,-0.224101,255.5,5.1,52.17,4.42727,2.6,0.895951,172.35,4.58645,181.288,36.8642,155.931,0.700346,-0.0746333,241.948,1.24917,1.57418,6.19603729248047,21.9994239807129,6.30819034576416,22.0,-936110.0,1322.87,pp-ro,1,1,-1,-1
1570534460.0,2019-10-08,13:34:20.000,14.0,10.0,15.109999656677198,16.8,-2.9,-0.3,51.6,11.6,-28.2,17.8269,-3.2555400000000003,-0.535192,-2.15043,-1.67332,1.04931,50.727,11.1981,-29.2142,0.0921685,-0.213703,-0.141276,242.3,5.2,52.17,4.42727,2.6,0.8915190000000001,164.49200000000002,4.58649,180.996,38.7642,155.931,0.700074,-0.0850895,242.026,1.23456,1.58314,6.131317138671879,21.9994239807129,6.57686185836792,22.0,-935922.0,1568.99,pp-ro,1,1,-1,-1
1570534460.1,2019-10-08,13:34:20.100,14.0,11.0,14.9399995803833,16.4,-2.8,-0.4,51.3,12.2,-29.0,17.7433,-3.32275,-0.433821,-0.966889,0.437749,1.09182,50.6576,11.4394,-29.98,0.0205064,-0.052859,-0.216731,242.3,5.2,52.17,4.42727,2.6,0.880991,158.139,4.58639,180.704,40.2843,155.931,0.69997,-0.0934243,242.056,1.22311,1.58478,6.2283935546875,21.9994239807129,6.67921352386475,22.0,-935817.0,2091.99,pp-ro,1,1,-1,-1
1570534460.2,2019-10-08,13:34:20.200,14.0,10.0,14.7600002288818,16.2,-2.9,-0.6,50.9,13.4,-29.7,17.3588,-3.2200900000000003,-0.459966,-5.16435,1.73436,-4.44119,50.2505,12.1696,-31.2743,0.0567854,-0.0504044,-0.217191,242.3,5.2,52.17,4.42727,2.6,0.858274,152.02200000000002,4.5864,180.382,42.1843,155.931,0.699678,-0.103765,242.14,1.20648,1.57677,6.591156005859379,21.9994239807129,6.62874794006348,22.0,-935607.0,830.6410000000001,pp-ro,1,1,-1,-1
1570534460.3,2019-10-08,13:34:20.300,14.0,10.0,14.7600002288818,16.2,-3.4,-0.9,50.5,14.2,-30.6,17.0221,-3.43362,-0.725078,-3.1398900000000003,-5.81657,-6.28231,49.643,13.5089,-32.5221,-0.178356,0.0338741,-0.129307,242.3,5.2,52.17,4.42727,2.6,0.862152,157.459,4.58635,180.032,43.7043,155.931,0.6996479999999999,-0.112113,242.149,1.1914,1.54933,6.68483734130859,21.9994239807129,6.15988683700562,22.0,-935582.0,492.232,pp-ro,1,1,-1,-1
1570534460.4,2019-10-08,13:34:20.400,14.0,10.0,14.8199996948242,16.1,-3.7,-1.1,50.0,14.4,-32.1,16.977,-3.78052,-1.08944,0.6172979999999999,-5.057230000000001,-1.51784,49.1829,14.0492,-33.428000000000004,-0.0732808,-0.0598565,-0.181641,242.3,5.2,52.17,4.42727,2.6,0.8926270000000001,180.695,4.5863,179.65200000000002,45.6044,156.031,0.6997260000000001,-0.1225339999999999,242.282,1.17842,1.5344799999999998,6.645660400390621,21.9994239807129,5.96339082717896,22.0,-935619.0,-646.054,pp-ro,1,1,-1,-1
1570534460.5,2019-10-08,13:34:20.500,14.0,10.0,15.0,16.1,-4.1,-1.3,49.4,14.8,-33.3,16.8499,-4.3013900000000005,-1.20257,1.39069,-3.10556,-2.30786,48.2555,14.1113,-34.7923,-0.124003,-0.184092,-0.161717,242.3,5.2,52.17,4.42727,2.6,0.945819,207.033,4.58625,179.21400000000003,47.1244,156.031,0.699843,-0.130994,242.248,1.16507,1.516,6.39019012451172,21.9994239807129,5.67968082427979,22.0,-935730.0,-1076.76,pp-ro,1,1,-1,-1
1570534460.6,2019-10-08,13:34:20.600,14.0,10.0,15.2299995422363,16.0,-4.5,-1.4,48.6,15.3,-34.2,16.7614,-4.83863,-1.43907,1.18996,-3.7779,-2.17785,47.387,15.0479,-36.1004,-0.158679,-0.0614927,-0.166192,242.3,5.2,52.17,4.42726,2.4,0.970198,214.466,4.58621,178.77599999999998,49.0244,156.131,0.699974,-0.141461,242.366,1.15525,1.50227,6.005279541015621,21.9994239807129,5.52529048919678,22.0,-935512.0,2461.16,pp-ro,1,1,-1,-1
1570534460.7,2019-10-08,13:34:20.700,14.0,9.0,15.3999996185303,16.0,-4.8,-1.8,48.3,15.9,-35.1,16.7469,-5.08972,-1.56181,1.05892,-4.43856,-0.931675,46.9829,15.3543,-36.61,-0.179694,0.0194167,-0.2455969999999999,242.3,5.2,52.17,4.42726,2.4,0.964657,212.333,4.58616,178.27900000000002,50.5444,156.232,0.700475,-0.150032,242.377,1.1429,1.47887,5.73958587646484,21.9994239807129,5.1279625892639205,22.0,-935420.0,1753.58,pp-ro,1,1,-1,-1
1570534460.8,2019-10-08,13:34:20.800,14.0,10.0,15.630000114440902,15.8,-5.2,-2.0,47.8,16.0,-35.9,16.6845,-5.26192,-1.69455,-3.75157,-4.08368,-4.99432,46.6362,15.6579,-36.9103,-0.0372904,-0.0625591,-0.213569,242.3,5.2,52.17,4.42726,2.4,0.964657,213.916,4.58611,177.753,51.6844,156.43200000000002,0.7016140000000001,-0.156708,242.36,1.1367200000000002,1.45681,5.455169677734379,21.9994239807129,4.6719689369201705,22.0,-935152.0,2030.46,pp-ro,1,1,-1,-1
1570534460.9,2019-10-08,13:34:20.900,14.0,11.0,15.6800003051758,15.5,-5.6,-2.3,47.2,15.9,-36.8,16.6407,-5.40907,-1.8417,-1.25526,-2.14852,-1.9831,46.4677,15.8812,-37.3388,-0.0337103,-0.0095471,-0.2286989999999999,242.3,5.2,52.17,4.42726,2.4,0.967982,218.034,4.58606,177.19799999999998,53.5845,156.532,0.701907,-0.167328,242.431,1.13461,1.43072,5.150299072265621,21.9994239807129,4.29096460342407,22.0,-935096.0,1138.29,pp-ro,1,1,-1,-1
1570534461.0,2019-10-08,13:34:21.000,14.0,10.0,15.8500003814697,15.3,-5.9,-2.3,47.1,15.7,-37.6,16.2132,-6.01475,-2.20823,-4.93203,-4.74915,-7.43657,45.4469,16.142,-38.633,0.111371,-0.140246,-0.0449664,241.9,4.4,52.17,4.42726,2.4,0.983496,219.922,4.58601,176.614,55.1045,156.732,0.702835,-0.176053,242.475,1.13358,1.42218,4.75176239013672,21.9994239807129,4.17446517944336,22.0,-935012.0,1076.76,pp-ro,1,1,-1,-1
1570534461.1,2019-10-08,13:34:21.100,14.0,10.0,15.8500003814697,15.0,-5.6,-2.3,47.0,15.7,-38.3,16.0729,-6.22918,-2.24573,-7.352130000000001,-5.61979,0.634487,45.5332,16.0431,-38.9076,0.148233,-0.13549,-0.119368,241.9,4.4,52.17,4.42726,2.4,0.965766,199.397,4.58595,176.03,56.6245,157.032,0.70404,-0.184779,242.594,1.13119,1.43223,4.31916809082031,21.9994239807129,-35.0,22.0,-934707.0,3691.74,pp-ro,1,1,-1,-1
1570534461.2,2019-10-08,13:34:21.200,14.0,9.0,15.960000038147,14.9,-5.5,-2.4,47.1,16.2,-39.0,15.7907,-6.19071,-2.33359,-3.721,0.375067,-0.239061,45.5916,16.6737,-39.4687,0.11845,0.0824345,-0.158853,241.9,4.4,52.17,4.42726,2.4,0.904262,180.307,4.58588,175.446,58.1445,157.232,0.7048909999999999,-0.193514,242.66,1.12256,1.43471,4.210166931152339,21.9994239807129,-35.0,22.0,-934292.0,1476.7,pp-ro,1,1,-1,-1
1570534461.3,2019-10-08,13:34:21.300,14.0,10.0,16.020000457763697,15.0,-5.6,-2.5,47.1,16.9,-40.4,15.6804,-6.23123,-2.302,1.8019,-4.35196,0.139296,45.5623,17.4576,-41.4672,-0.0706808999999999,-0.166356,-0.18934,241.9,4.4,52.17,4.42726,2.4,0.909249,183.919,4.58582,174.862,60.0445,157.43200000000002,0.705374,-0.204232,242.831,1.10456,1.43549,4.271484375,21.9994239807129,-35.0,22.0,-934270.0,430.703,pp-ro,1,1,-1,-1
1570534461.4,2019-10-08,13:34:21.400,14.0,8.0,16.020000457763697,15.3,-5.8,-2.6,47.4,18.0,-41.3,15.9179,-6.3442300000000005,-2.35759,-0.4902319999999999,-2.47073,0.45264,45.4777,17.8675,-42.8324,0.1340579999999999,-0.0662113999999999,-0.162348,241.9,4.4,52.17,4.42726,2.4,0.934737,198.717,4.58576,174.248,61.1846,157.732,0.706863,-0.211088,242.86900000000003,1.08489,1.43476,4.03985595703125,21.9994239807129,-35.0,22.0,-934214.0,738.3480000000001,pp-ro,1,1,-1,-1
1570534461.5,2019-10-08,13:34:21.500,14.0,8.0,16.0699996948242,15.2,-6.2,-2.6,47.9,17.8,-42.4,15.9179,-6.3442300000000005,-2.35759,-0.4902319999999999,-2.47073,0.45264,45.4777,17.8675,-42.8324,0.1340579999999999,-0.0662113999999999,-0.162348,241.9,4.4,52.17,4.42726,2.4,0.977401,221.583,4.5857,173.577,62.7046,158.032,0.7081310000000001,-0.220003,242.971,1.08036,1.42499,3.41650390625,21.9994239807129,-35.0,22.0,-934174.0,123.058,pp-ro,1,1,-1,-1
1570534461.6,2019-10-08,13:34:21.600,14.0,8.0,16.129999160766598,15.2,-6.4,-2.8,48.1,17.5,-43.0,16.0146,-6.4312,-2.43827,1.52917,-0.809017,0.6429159999999999,45.6095,18.2398,-43.2464,0.147991,0.0784526999999999,-0.136149,241.9,4.4,52.17,4.42726,2.3,0.994578,229.077,4.58564,172.93400000000003,64.6046,158.332,0.708929,-0.230804,243.205,1.08426,1.41635,2.44570922851562,21.9994239807129,-35.0,22.0,-934053.0,1384.4,pp-ro,1,1,-1,-1
1570534461.7,2019-10-08,13:34:21.700,14.0,9.0,16.4500007629395,15.0,-6.5,-2.7,48.8,16.7,-43.0,15.8964,-6.70185,-2.44904,-1.56907,-0.269311,1.00587,46.0062,18.5911,-43.8359,0.115906,-0.024982,-0.0524518,241.9,4.4,52.17,4.42726,2.3,0.997902,228.725,4.58558,172.204,65.7446,158.632,0.710616,-0.237923,243.188,1.09889,1.41784,1.10874938964844,21.9994239807129,-35.0,22.0,-933951.0,1938.16,pp-ro,1,1,-1,-1
1570534461.8,2019-10-08,13:34:21.800,14.0,7.0,16.979999542236303,15.0,-6.3,-2.4,49.8,16.2,-42.7,15.5153,-6.9238,-2.38889,-2.13703,1.3208799999999998,4.77445,47.4418,18.3943,-43.3797,0.266633,-0.06109,0.0380521,241.9,4.4,52.17,4.42726,2.3,0.987929,222.93,4.58551,171.56099999999998,67.6446,158.832,0.711002,-0.248729,243.386,1.11602,1.44526,-0.571769714355469,21.9994239807129,-35.0,22.0,-933720.0,2399.63,pp-ro,1,1,-1,-1
1570534461.9,2019-10-08,13:34:21.900,14.0,8.0,17.229999542236303,15.2,-6.3,-2.2,50.5,16.3,-42.3,15.5153,-6.9238,-2.38889,-2.13703,1.3208799999999998,4.77445,47.4418,18.3943,-43.3797,0.266633,-0.06109,0.0380521,241.9,4.4,52.17,4.42726,2.3,0.977401,216.671,4.58548,170.919,68.7846,159.132,0.7124050000000001,-0.255732,243.449,1.12418,1.46328,-2.59429931640625,21.9994239807129,-35.0,22.0,-933507.0,2091.99,pp-ro,1,1,-1,-1
1570534462.0,2019-10-08,13:34:22.000,14.0,8.0,17.2900009155273,15.5,-6.3,-1.8,51.2,15.6,-42.5,15.7648,-6.722239999999999,-1.90176,5.76989,0.8832040000000001,3.42633,49.0377,18.797,-42.3488,0.201376,0.000538995,0.120755,245.7,4.2,52.17,4.42726,2.3,0.967982,211.907,4.58539,170.217,70.3047,159.332,0.713229,-0.2647199999999999,243.523,1.13663,1.49328,-4.697044372558589,21.9994239807129,-35.0,22.0,-933289.0,2276.57,pp-ro,1,1,-1,-1
1570534462.1,2019-10-08,13:34:22.100,14.0,8.0,17.129999160766598,15.7,-6.4,-1.7,51.8,13.9,-42.4,15.8582,-6.72477,-1.44078,-1.38257,-0.936255,1.57836,49.8201,17.9676,-42.0989,0.131149,-0.1056859999999999,0.0980552,245.7,4.2,52.17,4.42726,2.3,0.965211,217.628,4.58535,169.546,72.2047,159.532,0.71354,-0.275568,243.741,1.16647,1.50524,-6.80662536621094,21.9994239807129,-35.0,22.0,-933134.0,1015.23,pp-ro,1,1,-1,-1
1570534462.2,2019-10-08,13:34:22.200,14.0,8.0,17.1900005340576,16.2,-6.4,-1.5,53.3,12.2,-41.1,16.1823,-6.52975,-1.24197,3.38599,1.83655,7.79789,51.5295,16.3832,-39.7374,0.158201,0.199165,0.213312,245.7,4.2,52.17,4.42726,2.3,1.00843,241.505,4.58531,168.845,73.3447,159.732,0.71468,-0.282737,243.726,1.20809,1.52774,-8.92302703857422,21.9994239807129,-35.0,22.0,-933061.0,707.5830000000001,pp-ro,1,1,-1,-1
1570534462.3,2019-10-08,13:34:22.300,14.0,8.0,17.3400001525879,16.8,-6.7,-0.7,54.3,9.8,-40.1,16.4263,-6.56456,-0.966329,7.001539999999999,-1.58121,5.8316,52.1766,15.5823,-38.5932,0.109739,-0.0118683,0.504896,245.7,4.2,52.17,4.42726,2.3,1.02173,250.428,4.58526,168.173,75.2447,159.832,0.7145819999999999,-0.293607,243.906,1.25786,1.56857,-11.0360107421875,21.9994239807129,-35.0,22.0,-933005.0,1045.99,pp-ro,1,1,-1,-1
1570534462.4,2019-10-08,13:34:22.400,14.0,9.0,17.5900001525879,17.5,-6.6,-0.1,55.2,6.9,-39.3,16.7718,-6.70982,-0.601535,6.609789999999999,-4.98446,8.773589999999999,52.596,14.4642,-37.6917,0.0115822,-0.140542,0.343805,245.7,4.2,52.17,4.42726,2.3,1.06439,270.13,4.58522,167.472,76.7647,159.93200000000002,0.7149220000000001,-0.302651,243.963,1.31069,1.6121299999999998,-13.138763427734402,21.9994239807129,-35.0,22.0,-932869.0,1292.11,pp-ro,1,1,-1,-1
1570534462.5,2019-10-08,13:34:22.500,14.0,9.0,18.2800006866455,18.3,-6.0,0.7,56.4,4.0,-37.2,17.3779,-6.68153,0.205292,2.13478,4.607419999999999,4.50938,53.663,12.1188,-36.0127,0.127941,0.0709908,0.560377,245.7,4.2,52.17,4.42726,2.3,1.0727,272.43,4.58518,166.8,79.0448,159.832,0.713662,-0.315334,244.165,1.38179,1.68078,-15.2415084838867,21.9994239807129,-35.0,22.0,-932768.0,2030.46,pp-ro,1,1,-1,-1
1570534462.6,2019-10-08,13:34:22.600,14.0,9.0,18.2800006866455,19.2,-5.8,2.1,58.2,0.8,-35.0,17.8084,-6.07784,1.0458,8.27217,3.0994900000000003,8.39005,54.6953,9.23049,-34.0095,0.185583,-0.110867,0.6292270000000001,245.7,4.2,52.17,4.42726,2.2,1.0727,277.028,4.58514,166.187,80.5648,159.732,0.713074,-0.324173,244.178,1.45541,1.7531900000000002,-17.3442535400391,21.9994239807129,-35.0,22.0,-932499.0,2461.16,pp-ro,1,1,-1,-1
1570534462.7,2019-10-08,13:34:22.700,14.0,9.0,18.6100006103516,19.5,-5.5,3.8,59.4,-3.1,-33.3,18.748,-5.68299,2.3466,4.90728,4.31307,18.4403,56.1434,6.3047,-31.1497,0.1353319999999999,0.076199,0.664235,245.7,4.2,52.17,4.42726,2.2,1.08711,282.286,4.5851,165.544,82.4648,159.43200000000002,0.711444,-0.334892,244.18,1.53404,1.83292,-19.4623641967773,21.9994239807129,-35.0,22.0,-932338.0,1476.7,pp-ro,1,1,-1,-1
1570534462.8,2019-10-08,13:34:22.800,14.0,9.0,18.8899993896484,20.1,-3.8,5.1,60.4,-7.7,-30.7,19.0596,-5.45046,3.16537,5.66377,7.700039999999999,16.8194,56.7177,4.49584,-29.7234,0.225609,-0.0907243,0.665408,245.7,4.2,52.17,4.42726,2.2,1.08656,277.698,4.58506,165.106,84.3648,158.93200000000002,0.708651,-0.345076,244.206,1.63224,1.9412,-21.583885192871104,21.9994239807129,-35.0,22.0,-932025.0,3660.97,pp-ro,1,1,-1,-1
1570534462.9,2019-10-08,13:34:22.900,14.0,8.0,19.3099994659424,20.4,-2.5,6.8,62.1,-12.3,-27.7,19.3034,-3.74661,5.3376,3.4700300000000004,15.8827,16.8011,58.2316,-1.79227,-25.2206,0.373684,0.095386,0.93828,245.7,4.2,52.17,4.42726,2.2,1.06827,271.44,4.58501,164.726,86.6449,158.332,0.70489,-0.3568719999999999,244.358,1.73585,2.04644,-23.7002868652344,21.9994239807129,-35.0,22.0,-931711.0,2614.98,pp-ro,1,1,-1,-1
