time,date,time_of_day,airspeed_temperature,airspeed_angle_of_attack,airspeed_apparent_windspeed,kite_0_vx,kite_0_vy,kite_0_vz,kite_0_roll,kite_0_pitch,kite_0_yaw,kite_1_vx,kite_1_vy,kite_1_vz,kite_1_ax,kite_1_ay,kite_1_az,kite_1_roll,kite_1_pitch,kite_1_yaw,kite_1_roll_rate,kite_1_pitch_rate,kite_1_yaw_rate,ground_upwind_direction,ground_wind_velocity,ground_pos_latitude,ground_pos_longitude,ground_pos_altitude,ground_tether_reelout_speed,ground_tether_force,est_upwind_direction,kite_pos_east,kite_pos_north,kite_height,kite_elevation,kite_azimuth,kite_distance,kite_heading,kite_course,kite_actual_steering,kite_actual_depower,kite_set_steering,kite_set_depower,ground_mech_energy,ground_mech_power,flight_phase,flight_phase_index,phase,pattern,pattern_section
1570541806.7,2019-10-08,15:36:46.700,14.0,6.0,16.0900001525879,10.5,-4.8,3.4,17.7,-6.6,-71.7,8.759039999999999,-5.25066,3.48781,9.50087,6.74172,5.97636,19.4576,6.755889999999999,-78.9056,0.225396,0.335632,0.950571,255.5,6.4,52.1701,4.42721,-0.9,-2.95603,103.449,4.28455,30.6971,13.3006,244.613,1.43487,0.0189721,246.89,0.7435350000000001,1.5909799999999998,-34.5178375244141,22.0050868988037,-35.0,22.0,1922090.0,-2861.1,pp-riro,4,0,-1,-1
1570541806.8,2019-10-08,15:36:46.800,14.0,5.0,15.6999998092651,11.7,-3.5,3.6,19.6,-7.8,-66.5,10.4559,-3.80019,4.0883400000000005,9.65195,10.6484,3.27979,22.0974,5.84776,-70.2293,0.1915369999999999,0.271542,0.90417,255.5,6.4,52.1701,4.42721,-0.9,-2.94218,97.1826,4.2846,30.2006,14.4406,244.413,1.43468,-0.01823,246.695,0.8750959999999999,1.76401,-34.906982421875,21.9983940124512,-35.0,22.0,1921930.0,-3168.74,pp-riro,4,0,-1,-1
1570541806.9,2019-10-08,15:36:46.900,14.0,5.0,15.0100002288818,12.7,-2.5,3.8,21.0,-9.0,-62.0,11.5372,-2.61155,4.36014,11.7439,9.74906,1.4172,24.036,4.82006,-64.721,0.21477,0.213221,0.836327,255.5,6.4,52.1701,4.42721,-0.9,-2.96323,82.6422,4.28465,29.8793,15.5807,244.113,1.43362,-0.0529194,246.428,0.991936,1.89267,-34.971832275390604,21.9994239807129,-35.0,22.0,1920830.0,-14613.1,pp-riro,4,0,-1,-1
1570541807.0,2019-10-08,15:36:47.000,14.0,7.0,14.710000038147,13.7,-1.5,4.1,22.9,-10.0,-57.7,12.5854,-1.6776099999999998,4.62758,10.6104,9.03653,2.18202,25.7726,3.8525,-59.7631,0.185383,0.2178699999999999,0.803466,255.5,6.4,52.1701,4.42721,-0.9,-3.05022,80.057,4.28469,29.6164,17.1007,243.913,1.43149,-0.0959454,246.299,1.11339,2.0191,-34.976959228515604,21.9994239807129,-35.0,22.0,1918840.0,-21658.2,pp-riro,4,0,-1,-1
1570541807.1,2019-10-08,15:36:47.100,14.0,7.0,14.3500003814697,14.4,-0.7,4.5,24.0,-11.2,-53.2,13.3965,-0.742805,5.00321,7.82959,7.976369999999999,0.7572770000000001,27.5162,3.01514,-54.8544,0.0747969,0.219978,0.86167,255.5,6.4,52.1701,4.42721,-0.8,-3.18985,85.3125,4.28474,29.412,18.2408,243.613,1.42967,-0.127479,246.05900000000003,1.22705,2.11087,-34.9923248291016,21.9994239807129,-35.0,22.0,1915800.0,-19412.4,pp-riro,4,0,-1,-1
1570541807.2,2019-10-08,15:36:47.200,14.0,7.0,14.0299997329712,15.1,0.1,4.8,25.0,-12.3,-48.7,14.0586,0.0631959,5.40212,7.25618,8.08597,3.1828,28.8985,1.57816,-49.7067,0.274507,0.187578,0.922127,255.5,6.4,52.1701,4.42721,-0.8,-3.26355,81.9862,4.28479,29.3536,19.3808,243.313,1.42723,-0.15595,245.843,1.33736,2.19327,-34.9923248291016,21.9994239807129,-35.0,22.0,1913980.0,-18181.8,pp-riro,4,0,-1,-1
1570541807.3,2019-10-08,15:36:47.300,14.0,7.0,13.6499996185303,15.7,1.0,5.1,25.7,-14.0,-43.9,14.4016,0.492684,5.58212,4.10198,8.605939999999999,4.88172,29.5233,0.950037,-47.0025,0.228038,0.241851,0.908536,255.5,6.4,52.1701,4.42721,-0.8,-3.31175,77.5416,4.28484,29.3243,21.2809,243.013,1.42279,-0.200218,245.699,1.47046,2.29283,-35.0093841552734,21.9994239807129,-35.0,22.0,1912800.0,-21873.6,pp-riro,4,0,-1,-1
1570541807.4,2019-10-08,15:36:47.400,14.0,7.0,13.380000114440902,16.2,1.9,5.4,26.3,-16.0,-39.2,14.4016,0.492684,5.58212,4.10198,8.605939999999999,4.88172,29.5233,0.950037,-47.0025,0.228038,0.241851,0.908536,255.5,6.4,52.1701,4.42721,-0.8,-3.4236800000000005,69.2248,4.28488,29.412,22.8009,242.513,1.4185299999999998,-0.231946,245.352,1.58986,2.37618,-35.0076751708984,21.9994239807129,-35.0,22.0,1910190.0,-28303.3,pp-riro,4,0,-1,-1
1570541807.5,2019-10-08,15:36:47.500,14.0,8.0,13.3199996948242,16.6,2.6,5.6,26.2,-17.6,-34.3,15.4188,2.27057,6.08926,3.75001,8.45669,2.50969,31.0332,-2.60482,-36.8973,0.1566779999999999,0.181359,0.89905,253.4,6.8,52.1701,4.42721,-0.8,-3.65584,68.0742,4.28492,29.5872,24.321,242.113,1.4139,-0.26055,245.124,1.7082,2.44181,-35.0093841552734,21.9994239807129,-35.0,22.0,1905010.0,-35502.2,pp-riro,4,0,-1,-1
1570541807.6,2019-10-08,15:36:47.600,14.0,8.0,13.1800003051758,17.0,3.5,6.0,26.5,-19.2,-28.7,15.7581,3.07002,6.223330000000001,1.01784,8.00554,3.16,31.1721,-4.4223300000000005,-31.6182,0.165657,0.171382,0.8353959999999999,253.4,6.8,52.1701,4.42721,-0.8,-3.80378,72.3354,4.28495,29.85,25.8411,241.613,1.4088200000000002,-0.286093,244.818,1.83499,2.51402,-35.0093841552734,21.9994239807129,-35.0,22.0,1901460.0,-34886.9,pp-riro,4,0,-1,-1
1570541807.7,2019-10-08,15:36:47.700,14.0,8.0,13.1800003051758,17.4,4.7,6.2,25.9,-20.9,-23.1,15.7581,3.07002,6.223330000000001,1.01784,8.00554,3.16,31.1721,-4.4223300000000005,-31.6182,0.165657,0.171382,0.8353959999999999,253.4,6.8,52.1701,4.42721,-0.8,-3.86971,74.0878,4.28497,30.2005,27.7411,241.013,1.40226,-0.31556,244.477,1.9654,2.60112,-35.0076751708984,21.9994239807129,-35.0,22.0,1899750.0,-34425.5,pp-riro,4,0,-1,-1
1570541807.8,2019-10-08,15:36:47.800,14.0,8.0,13.1800003051758,17.7,5.7,6.7,25.2,-22.7,-17.6,15.7581,3.07002,6.223330000000001,1.01784,8.00554,3.16,31.1721,-4.4223300000000005,-31.6182,0.165657,0.171382,0.8353959999999999,253.4,6.8,52.1701,4.42721,-0.8,-4.007680000000001,74.1413,4.285,30.6678,29.2612,240.413,1.39628,-0.334539,244.122,2.08307,2.66677,-35.0076751708984,21.9994239807129,-35.0,22.0,1896500.0,-31749.0,pp-riro,4,0,-1,-1
1570541807.9,2019-10-08,15:36:47.900,14.0,8.0,13.380000114440902,18.0,6.9,6.9,24.4,-24.1,-12.1,16.0511,3.96951,6.50211,5.02238,10.247,1.15071,31.0257,-6.392,-26.3272,0.106704,0.166122,0.927791,253.4,6.8,52.1701,4.42721,-0.8,-4.123480000000001,74.9119,4.285019999999999,31.2227,31.5413,239.813,1.3878,-0.363106,243.886,2.20819,2.74651,-35.0076751708984,21.9994239807129,-35.0,22.0,1893070.0,-34363.9,pp-riro,4,0,-1,-1
1570541808.0,2019-10-08,15:36:48.000,14.0,10.0,13.5799999237061,18.1,8.1,7.2,23.0,-25.4,-6.3,17.0941,7.63992,7.47393,0.378378,10.3262,3.1352900000000004,27.5812,-12.1526,-6.01294,0.0499125,0.2861579999999999,1.01191,253.4,6.8,52.1701,4.42721,-0.8,-4.29746,80.9359,4.28505,31.8945,33.0613,239.113,1.38099,-0.376019,243.486,2.32135,2.81166,-35.0076751708984,21.9994239807129,-35.0,22.0,1888100.0,-32395.0,pp-riro,4,0,-1,-1
1570541808.1,2019-10-08,15:36:48.100,14.0,10.0,13.640000343322802,18.2,9.4,7.5,21.8,-26.6,0.0,17.0941,7.63992,7.47393,0.378378,10.3262,3.1352900000000004,27.5812,-12.1526,-6.01294,0.0499125,0.2861579999999999,1.01191,253.4,6.8,52.1701,4.42721,-0.7,-4.38999,88.5991,4.285069999999999,32.7415,34.9614,238.313,1.37245,-0.39086,243.079,2.4432400000000003,2.87952,-35.0093841552734,21.9994239807129,-23.0,22.0,1885330.0,-25565.3,pp-riro,4,0,-1,-1
1570541808.2,2019-10-08,15:36:48.200,14.0,8.0,13.8299999237061,18.2,10.8,8.0,20.5,-27.2,6.0,17.0906,8.85357,7.76187,0.173823,11.8624,2.40855,26.0255,-13.2953,0.0417325,-0.0688357,0.211951,0.925767,253.4,6.8,52.1701,4.42721,-0.7,-4.42546,93.424,4.2851,33.7053,36.4815,237.513,1.36465,-0.397629,242.651,2.54969,2.9424900000000003,-35.0076751708984,21.9994239807129,-23.0,22.0,1884130.0,-22242.7,pp-riro,4,0,-1,-1
1570541808.3,2019-10-08,15:36:48.300,14.0,9.0,13.960000038147,18.2,12.1,8.5,19.3,-27.8,11.9,17.2644,10.761,8.3981,0.963613,13.5663,4.37056,23.827,-14.1912,9.33392,0.0457440999999999,0.298826,0.929082,253.4,6.8,52.1701,4.42721,-0.7,-4.44485,104.64,4.28512,34.7568,38.7615,236.713,1.3543,-0.4125529999999999,242.371,2.66131,3.0055400000000003,-34.8028564453125,21.9994239807129,-23.0,22.0,1882850.0,-10398.4,pp-riro,4,0,-1,-1
1570541808.4,2019-10-08,15:36:48.400,14.0,10.0,14.0900001525879,18.1,13.6,8.9,18.1,-28.1,17.9,17.2644,10.761,8.3981,0.963613,13.5663,4.37056,23.827,-14.1912,9.33392,0.0457440999999999,0.298826,0.929082,253.4,6.8,52.1701,4.42721,-0.7,-4.39609,117.667,4.28515,36.0127,40.2816,235.813,1.34555,-0.414042,241.925,2.7602900000000004,3.06149,-34.2362213134766,21.9994239807129,-23.0,22.0,1882750.0,1630.52,pp-riro,4,0,-1,-1
1570541808.5,2019-10-08,15:36:48.500,14.0,11.0,14.460000038147,17.9,14.8,9.3,17.0,-28.1,23.6,17.0919,13.4414,9.29581,-2.37568,13.4575,4.284009999999999,20.757,-15.1432,21.1205,-0.152835,0.2101969999999999,0.8698469999999999,252.0,8.7,52.1701,4.42721,-0.7,-4.35786,122.989,4.28519,37.3562,42.5617,234.913,1.33424,-0.423216,241.643,2.86049,3.11394,-33.3145599365234,21.9994239807129,-23.0,22.0,1883200.0,8675.59,pp-riro,4,0,-1,-1
1570541808.6,2019-10-08,15:36:48.600,14.0,12.0,15.119999885559098,17.8,16.4,9.6,16.0,-27.7,29.7,16.8384,14.6492,9.58877,-2.41605,12.0275,1.63895,19.1816,-15.6314,26.8933,0.154872,0.205192,0.879467,252.0,8.7,52.1701,4.42721,-0.7,-4.22765,141.30100000000002,4.28523,38.8165,44.0817,233.913,1.3247799999999998,-0.421666,241.175,2.95613,3.1627,-32.0327758789062,21.9994239807129,-22.752733230590803,22.0,1884820.0,20304.6,pp-riro,4,0,-1,-1
1570541808.7,2019-10-08,15:36:48.700,14.0,12.0,15.75,17.6,18.0,10.2,15.4,-27.3,35.9,16.6612,16.1761,9.99683,-0.751498,18.2627,4.51293,17.8813,-16.078,32.8232,0.0491429,0.204889,0.916422,252.0,8.7,52.1701,4.42721,-0.7,-3.87525,173.34900000000002,4.28527,40.4521,45.9818,232.913,1.31367,-0.422164,240.831,3.05516,3.21179,-30.3959655761719,21.9994239807129,-22.1845722198486,22.0,1890710.0,47685.0,pp-riro,4,0,-1,-1
1570541808.8,2019-10-08,15:36:48.800,14.0,13.0,16.1900005340576,17.2,20.0,10.8,14.5,-27.5,41.4,16.6612,16.1761,9.99683,-0.751498,18.2627,4.51293,17.8813,-16.078,32.8232,0.0491429,0.204889,0.916422,252.0,8.7,52.1701,4.42721,-0.7,-3.5339400000000003,189.398,4.28531,42.3506,47.5019,231.713,1.30276,-0.415583,240.294,3.13654,3.265,-27.9006652832031,21.9994239807129,-21.370433807373,22.0,1896270.0,59037.1,pp-riro,4,0,-1,-1
1570541808.9,2019-10-08,15:36:48.900,14.0,13.0,16.4599990844727,16.5,21.7,11.0,13.9,-27.7,46.6,16.6612,16.1761,9.99683,-0.751498,18.2627,4.51293,17.8813,-16.078,32.8232,0.0491429,0.204889,0.916422,252.0,8.7,52.1701,4.42721,-0.7,-3.32782,195.635,4.28535,44.3659,49.402,230.613,1.29045,-0.4120109999999999,239.982,3.2153400000000003,3.3177,-26.0112609863281,21.9994239807129,-20.696575164794897,22.0,1899440.0,59529.3,pp-riro,4,0,-1,-1
1570541809.0,2019-10-08,15:36:49.000,14.0,12.0,16.879999160766598,15.7,23.3,11.4,12.9,-28.0,51.6,15.7457,20.6448,11.2005,-6.83171,13.0175,2.35778,14.0805,-17.6907,46.8667,-0.0465916,0.0222634,0.927838,252.0,8.7,52.1701,4.42721,-0.7,-2.59809,213.405,4.2853900000000005,46.5564,50.922,229.413,1.27865,-0.403151,239.564,3.28557,3.3622400000000003,-25.152755737304695,21.9994239807129,-20.053840637207,22.0,1908320.0,58360.2,pp-riro,4,0,-1,-1
1570541809.1,2019-10-08,15:36:49.100,14.0,10.0,17.7000007629395,14.8,24.6,11.4,11.6,-28.3,57.0,15.3958,21.4423,11.3508,-6.29631,7.898389999999999,5.13598,13.4672,-18.2378,49.5464,-0.0442648,0.0341896999999999,0.90719,252.0,8.7,52.1701,4.42721,-0.6,-2.049,219.725,4.28543,48.8637,52.8221,228.213,1.26536,-0.397342,239.289,3.36411,3.40478,-23.58251953125,21.9994239807129,-19.5904426574707,22.0,1913220.0,46946.6,pp-riro,4,0,-1,-1
1570541809.2,2019-10-08,15:36:49.200,14.0,8.0,18.6299991607666,13.5,25.4,11.3,10.0,-28.4,62.9,14.1406,23.5113,11.4421,-12.102,3.67403,-1.9304,11.3234,-19.5831,57.6065,-0.015859,0.0106523,0.772857,252.0,8.7,52.1701,4.42721,-0.6,-1.79246,220.814,4.28546,51.3171,53.9622,227.013,1.25383,-0.3835929999999999,238.915,3.4430400000000003,3.44138,-22.2171020507812,21.9994239807129,-19.0027770996094,22.0,1915420.0,40855.2,pp-riro,4,0,-1,-1
1570541809.3,2019-10-08,15:36:49.300,14.0,5.0,19.3199996948242,12.0,25.6,11.0,9.2,-28.4,68.9,13.5489,23.9243,11.3437,-13.8819,6.85774,-2.22064,10.4144,-19.9677,60.1987,0.0147512,0.092078,0.8280790000000001,252.0,8.7,52.1701,4.42721,-0.6,-0.989591,211.205,4.2855,53.7997,55.1022,226.413,1.24294,-0.370473,239.152,3.5238,3.47587,-21.0530776977539,21.9994239807129,-18.454881668090803,22.0,1919630.0,22396.5,pp-riro,4,0,-1,-1
1570541809.4,2019-10-08,15:36:49.400,14.0,5.0,19.6399993896484,11.1,25.4,10.9,6.9,-27.1,74.4,12.2082,24.4032,11.0817,-11.2956,-0.167315,-1.58705,8.54829,-20.4637,66.1299,0.0287848,0.147386,0.962435,252.0,8.7,52.1701,4.42721,-0.6,-0.741362,194.321,4.28554,56.3115,56.6223,224.813,1.22949,-0.3612849999999999,238.575,3.60347,3.49105,-19.8651657104492,21.9994239807129,-18.5026931762695,22.0,1920510.0,16674.4,pp-riro,4,0,-1,-1
1570541809.5,2019-10-08,15:36:49.500,14.0,4.0,19.4500007629395,8.6,25.3,9.5,5.9,-25.3,79.9,9.9714,24.263,10.4188,-17.8425,3.04222,-8.49186,7.05565,-19.4991,74.3528,0.3185,0.43436,0.796303,251.8,7.9,52.1701,4.42721,-0.6,-0.329679,136.49,4.28555,58.8817,57.7624,223.813,1.2177,-0.348968,238.529,3.68309,3.5622300000000005,-19.155143737793,21.9994239807129,-17.2999401092529,22.0,1921170.0,3814.8,pp-riro,4,0,-1,-1
1570541809.6,2019-10-08,15:36:49.600,14.0,3.0,19.2800006866455,7.2,25.1,8.8,5.9,-23.8,84.2,9.17737,24.2021,9.78395,-13.7523,-3.21171,-10.6509,6.380269999999999,-18.534,76.8278,0.0457761999999999,0.2420719999999999,0.709457,251.8,7.9,52.1701,4.42721,-0.6,-0.136304,112.843,4.28558,61.3351,58.5224,223.013,1.20753,-0.335124,238.583,3.74277,3.5969300000000004,-18.5407104492188,21.9994239807129,-16.7319831848145,22.0,1921230.0,-123.058,pp-riro,4,0,-1,-1
1570541809.7,2019-10-08,15:36:49.700,14.0,1.0,19.3199996948242,5.7,24.7,9.0,5.3,-22.7,87.8,7.773680000000001,23.9643,9.01459,-16.4307,-1.18111,2.51233,6.20616,-17.6559,81.1711,0.0675933,0.128385,0.618346,251.8,7.9,52.1701,4.42721,-0.6,-0.119128,130.784,4.28559,63.8761,58.9024,222.213,1.19806,-0.318108,238.597,3.78779,3.6272,-17.8033752441406,21.9994239807129,-16.156702041626,22.0,1921230.0,61.529,pp-riro,4,0,-1,-1
1570541809.8,2019-10-08,15:36:49.800,14.0,3.0,18.9500007629395,4.4,24.6,9.1,4.9,-22.1,91.0,7.773680000000001,23.9643,9.01459,-16.4307,-1.18111,2.51233,6.20616,-17.6559,81.1711,0.0675933,0.128385,0.618346,251.8,7.9,52.1701,4.42721,-0.6,0.0304745,158.871,4.28559,66.3587,59.2825,221.313,1.18851,-0.302342,238.532,3.82588,3.65707,-17.0882415771484,21.9994239807129,-15.6305370330811,22.0,1921230.0,-307.645,pp-riro,4,0,-1,-1
1570541809.9,2019-10-08,15:36:49.900,14.0,5.0,18.4699993133545,3.5,24.1,8.7,4.4,-21.7,94.2,5.71746,23.6291,9.24355,-10.7488,-1.36271,4.916440000000001,5.47767,-16.2315,87.37299999999999,0.0150785,0.2373219999999999,0.501003,251.8,7.9,52.1701,4.42721,-0.6,0.266514,147.66,4.2856,68.7829,60.4225,220.513,1.17727,-0.2939969999999999,238.764,3.86974,3.68072,-16.4038238525391,21.9994239807129,-15.4925127029419,22.0,1920960.0,-3230.27,pp-riro,4,0,-1,-1
1570541810.0,2019-10-08,15:36:50.000,14.0,6.0,17.840000152587898,2.8,24.3,8.2,4.6,-20.2,97.5,3.70326,23.0765,8.52405,-6.30072,2.4477900000000004,-8.256839999999999,5.01474,-14.2577,94.5138,0.153906,0.291802,0.491479,251.8,7.9,52.1701,4.42721,-0.6,0.1806309999999999,136.251,4.28561,71.1779,60.4226,219.713,1.16897,-0.277076,238.728,3.91325,3.69653,-15.8576507568359,21.9994239807129,-15.1815423965454,22.0,1921180.0,646.054,pp-riro,4,0,-1,-1
1570541810.1,2019-10-08,15:36:50.100,14.0,7.0,17.4899997711182,2.3,24.4,8.4,4.3,-19.6,99.0,2.8827700000000003,23.2431,8.11106,-11.2041,2.60298,4.28981,4.43509,-13.4255,97.4324,-0.298063,0.167794,0.515267,251.8,7.9,52.1701,4.42721,-0.6,0.200024,151.906,4.28562,72.46300000000001,60.8026,219.313,1.16359,-0.271356,238.843,3.93451,3.70894,-15.540191650390598,21.9994239807129,-15.0641250610352,22.0,1921120.0,-1230.58,pp-riro,4,0,-1,-1
1570541810.2,2019-10-08,15:36:50.200,14.0,8.0,17.229999542236303,1.4,24.4,9.2,2.9,-19.7,102.0,2.19089,23.5086,8.70859,-2.67614,-2.18929,6.42088,3.23184,-12.6943,101.076,0.0822848,0.0379701,0.691553,251.8,7.9,52.1701,4.42721,-0.6,0.330787,180.669,4.28563,74.9164,60.8026,218.413,1.1548200000000002,-0.255019,238.776,3.96589,3.72066,-15.3012466430664,21.9994239807129,-14.8863248825073,22.0,1921020.0,430.703,pp-riro,4,0,-1,-1
1570541810.3,2019-10-08,15:36:50.300,14.0,9.0,17.020000457763697,0.9,24.2,8.9,1.1,-20.0,105.5,2.19089,23.5086,8.70859,-2.67614,-2.18929,6.42088,3.23184,-12.6943,101.076,0.0822848,0.0379701,0.691553,251.8,7.9,52.1701,4.42721,-0.6,0.292556,164.53799999999998,4.28564,77.3113,61.1827,217.513,1.14523,-0.242713,238.815,4.00715,3.72962,-15.0008544921875,21.9994239807129,-14.9113597869873,22.0,1921120.0,676.819,pp-riro,4,0,-1,-1
1570541810.4,2019-10-08,15:36:50.400,14.0,9.0,16.8199996948242,0.3,23.9,8.1,-0.3,-18.9,108.9,1.33932,22.9611,7.990060000000001,-2.98571,-3.05704,-8.78234,0.8438969999999999,-12.746,106.051,-0.394804,-0.00324988,0.466921,251.8,7.9,52.1701,4.42721,-0.6,0.251553,151.80100000000002,4.28565,79.7939,61.1827,216.613,1.1362,-0.2273949999999999,238.813,4.05232,3.74449,-14.9018630981445,21.9994239807129,-14.7306137084961,22.0,1921220.0,461.467,pp-riro,4,0,-1,-1
1570541810.5,2019-10-08,15:36:50.500,14.0,6.0,16.9200000762939,-0.7,24.2,8.3,-2.0,-17.9,111.4,0.673307,23.0741,7.56013,-10.7173,2.78551,-2.59546,-0.747657,-12.3365,108.435,-0.2605369999999999,0.137325,0.3992719999999999,249.2,8.1,52.1701,4.42721,-0.6,0.285906,172.605,4.28565,82.2181,61.1827,215.713,1.12727,-0.213004,238.821,4.08407,3.76848,-14.906982421875,21.9994239807129,-14.3972043991089,22.0,1921200.0,-246.116,pp-riro,4,0,-1,-1
1570541810.6,2019-10-08,15:36:50.600,14.0,8.0,16.7600002288818,-1.7,23.8,8.9,-3.9,-18.0,113.5,0.673307,23.0741,7.56013,-10.7173,2.78551,-2.59546,-0.747657,-12.3365,108.435,-0.2605369999999999,0.137325,0.3992719999999999,249.2,8.1,52.1701,4.42721,-0.6,0.307516,183.461,4.28562,84.5839,61.1828,214.813,1.11844,-0.199447,238.836,4.10343,3.78737,-14.7994537353516,21.9994239807129,-14.1929187774658,22.0,1921200.0,-61.529,pp-riro,4,0,-1,-1
1570541810.7,2019-10-08,15:36:50.700,14.0,10.0,16.7099990844727,-2.4,23.0,8.7,-6.2,-17.8,115.8,-0.910725,23.0947,8.32006,-9.77002,-10.7867,1.46679,-3.85277,-11.5751,112.074,-0.451231,-0.0456414,0.417041,249.2,8.1,52.1701,4.42721,-0.6,0.309732,162.65,4.28559,86.9497,60.8028,213.913,1.11036,-0.183448,238.781,4.12562,3.80154,-14.4717559814453,21.9994239807129,-13.9968032836914,22.0,1921290.0,1322.87,pp-riro,4,0,-1,-1
1570541810.8,2019-10-08,15:36:50.800,14.0,9.0,16.7600002288818,-3.0,22.3,8.2,-8.5,-17.4,117.9,-2.17319,21.7995,7.57195,-3.87005,-4.186780000000001,0.735913,-7.79258,-11.82,115.86,-0.297568,0.0146072,0.272943,249.2,8.1,52.1701,4.42721,-0.6,0.273163,150.089,4.28554,89.1986,60.8028,212.913,1.10155,-0.171457,238.716,4.14958,3.8206,-14.2259750366211,21.9994239807129,-13.8529405593872,22.0,1921360.0,1415.17,pp-riro,4,0,-1,-1
1570541810.9,2019-10-08,15:36:50.900,14.0,11.0,17.020000457763697,-3.7,22.1,8.3,-10.1,-16.7,119.4,-2.50896,21.7349,7.543489999999999,-5.23677,-8.104439999999999,2.48339,-8.760060000000001,-11.7337,116.482,-0.317802,0.101372,0.102289,249.2,8.1,52.1701,4.42721,-0.6,0.239364,150.08100000000002,4.2855300000000005,91.4183,60.4228,212.013,1.09375,-0.1571779999999999,238.659,4.16456,3.83499,-13.963134765625,21.9994239807129,-13.7039289474487,22.0,1921400.0,0.0,pp-riro,4,0,-1,-1
1570541811.0,2019-10-08,15:36:51.000,14.0,9.0,16.9699993133545,-4.3,22.1,8.6,-11.9,-16.5,121.0,-2.84176,21.6821,7.71862,-11.1472,3.45441,0.664891,-9.89644,-11.9106,117.139,-0.236126,-0.152584,0.179201,249.2,8.1,52.1701,4.42721,-0.6,0.288123,165.762,4.28551,93.6381,60.0428,211.113,1.08586,-0.143297,238.625,4.17794,3.84282,-13.77197265625,21.9994239807129,-13.7149133682251,22.0,1921380.0,123.058,pp-riro,4,0,-1,-1
1570541811.1,2019-10-08,15:36:51.100,14.0,11.0,16.8600006103516,-4.7,22.0,8.5,-13.8,-16.7,123.0,-3.51011,21.6097,7.95538,-6.38395,-4.41636,1.02891,-11.7327,-11.4358,118.636,-0.36506,-0.0608236,0.214456,249.2,8.1,52.17,4.42721,-0.7,0.292001,169.972,4.28545,95.9162,59.2829,210.113,1.07826,-0.126703,238.458,4.192019999999999,3.84554,-13.676399230957,21.9994239807129,-13.7631893157959,22.0,1921420.0,338.409,pp-riro,4,0,-1,-1
1570541811.2,2019-10-08,15:36:51.200,14.0,10.0,16.9699993133545,-5.9,21.9,8.4,-15.6,-16.2,125.0,-3.68726,21.5466,8.00813,-5.608219999999999,-4.76541,-0.534717,-12.6157,-11.5639,119.667,-0.29699,-0.0819029,0.242825,249.2,8.1,52.17,4.42721,-0.7,0.299759,178.207,4.28545,99.129,58.5229,208.713,1.06677,-0.10637,238.354,4.2079,3.8764,-13.701995849609402,21.9994239807129,-13.441987991333,22.0,1921460.0,430.703,pp-riro,4,0,-1,-1
1570541811.3,2019-10-08,15:36:51.300,14.0,10.0,17.0699996948242,-6.3,22.0,8.6,-16.1,-16.4,125.5,-4.22262,21.3529,7.792039999999999,-12.8116,1.48816,-2.4531,-14.2301,-11.8856,121.455,-0.333271,-0.071598,0.0427796,249.2,8.1,52.17,4.42721,-0.7,0.330233,202.775,4.285419999999999,100.297,58.1429,208.213,1.06275,-0.0983967,238.313,4.206840000000001,3.88161,-13.6934661865234,21.9994239807129,-13.4307250976562,22.0,1921450.0,-338.409,pp-riro,4,0,-1,-1
1570541811.4,2019-10-08,15:36:51.400,14.0,11.0,17.0699996948242,-7.2,21.9,8.9,-16.9,-17.0,127.3,-4.22262,21.3529,7.792039999999999,-12.8116,1.48816,-2.4531,-14.2301,-11.8856,121.455,-0.333271,-0.071598,0.0427796,249.2,8.1,52.17,4.42721,-0.7,0.400602,233.801,4.2853900000000005,102.459,57.7629,207.213,1.05452,-0.086358,238.268,4.21833,3.90175,-13.6030044555664,21.9994239807129,-13.333703994751,22.0,1921460.0,430.703,pp-riro,4,0,-1,-1
1570541811.5,2019-10-08,15:36:51.500,14.0,14.0,17.0100002288818,-7.9,22.1,8.7,-17.9,-17.7,129.4,-6.125380000000001,21.4534,8.44002,-12.2277,-1.02007,1.47519,-16.9206,-12.2658,124.059,-0.159683,-0.1741859999999999,0.225097,249.8,8.5,52.17,4.42721,-0.7,0.408913,236.048,4.28538,104.62,57.0029,206.213,1.04689,-0.0718747,238.157,4.23104,3.91648,-13.4425659179688,21.9994239807129,-13.2691097259521,22.0,1921500.0,584.525,pp-riro,4,0,-1,-1
1570541811.6,2019-10-08,15:36:51.600,14.0,9.0,16.9599990844727,-9.1,21.9,8.7,-17.1,-17.6,130.6,-7.970460000000001,21.4815,8.33495,-15.0624,-3.60518,6.976139999999999,-18.3858,-13.0838,127.896,-0.121748,-0.117865,0.195889,249.8,8.5,52.17,4.42721,-0.7,0.4216569999999999,252.378,4.2854,106.84,55.8629,205.213,1.03962,-0.0547794,238.008,4.23456,3.94678,-13.3384552001953,21.9994239807129,-12.831729888916,22.0,1921570.0,769.112,pp-riro,4,0,-1,-1
1570541811.7,2019-10-08,15:36:51.700,14.0,10.0,17.370000839233402,-10.4,21.4,9.1,-17.1,-18.4,132.2,-9.34067,21.0286,8.75924,-11.0215,-3.82937,4.17898,-18.6783,-13.577,129.454,-0.0573891,-0.196078,0.0815703,249.8,8.5,52.17,4.42721,-0.7,0.493133,279.213,4.28541,109.059,55.1029,204.213,1.0316,-0.0408611999999999,237.978,4.23899,3.97962,-13.3043212890625,21.9994239807129,-12.4982452392578,22.0,1921590.0,522.996,pp-riro,4,0,-1,-1
1570541811.8,2019-10-08,15:36:51.800,14.0,13.0,17.7199993133545,-11.1,21.5,8.6,-17.6,-19.1,134.0,-9.34067,21.0286,8.75924,-11.0215,-3.82937,4.17898,-18.6783,-13.577,129.454,-0.0573891,-0.196078,0.0815703,249.8,8.5,52.17,4.42721,-0.7,0.479835,275.56,4.285419999999999,111.192,53.9629,203.213,1.02437,-0.0248594,237.847,4.24516,3.99642,-12.9885635375977,21.9994239807129,-12.4064235687256,22.0,1921790.0,2061.22,pp-riro,4,0,-1,-1
1570541811.9,2019-10-08,15:36:51.900,14.0,9.0,18.1200008392334,-11.8,21.1,8.4,-16.9,-18.3,135.2,-9.34067,21.0286,8.75924,-11.0215,-3.82937,4.17898,-18.6783,-13.577,129.454,-0.0573891,-0.196078,0.0815703,249.8,8.5,52.17,4.42721,-0.7,0.490917,295.445,4.28543,113.265,52.8229,202.213,1.01721,-0.00941881,237.717,4.25597,4.01475,-12.6011276245117,21.9994239807129,-12.3206329345703,22.0,1921880.0,369.174,pp-riro,4,0,-1,-1
1570541812.0,2019-10-08,15:36:52.000,14.0,7.0,18.9699993133545,-12.3,20.0,9.1,-17.1,-18.1,137.2,-10.1632,20.8302,8.4956,-1.72015,4.65929,-4.07245,-18.7313,-14.6158,131.327,-0.184346,-0.0950536,0.654575,249.8,8.5,52.17,4.42721,-0.7,0.5452170000000001,308.632,4.28544,115.397,51.6829,201.313,1.00998,0.00586845,237.728,4.27327,4.02154,-12.3894882202148,21.9994239807129,35.0,22.0,1921900.0,492.232,pp-riro,4,0,-1,-1
1570541812.1,2019-10-08,15:36:52.100,14.0,9.0,19.7000007629395,-12.4,19.4,8.9,-18.1,-17.5,139.3,-10.1632,20.8302,8.4956,-1.72015,4.65929,-4.07245,-18.7313,-14.6158,131.327,-0.184346,-0.0950536,0.654575,249.8,8.5,52.17,4.4272,-0.8,0.495904,256.625,4.28545,117.296,50.5429,200.313,1.00318,0.0200796,237.568,4.296469999999999,4.02442,-12.3980178833008,21.9994239807129,35.0,22.0,1922210.0,4030.15,pp-riro,4,0,-1,-1
1570541812.2,2019-10-08,15:36:52.200,14.0,9.0,20.229999542236303,-11.9,19.1,8.0,-18.1,-16.4,141.7,-11.353,19.6017,8.74071,-2.3424400000000003,-11.6985,4.4988,-19.1696,-14.5072,134.704,0.230304,-0.1108339999999999,0.335783,249.8,8.5,52.17,4.4272,-0.8,0.626113,217.663,4.28546,119.165,49.403,199.413,0.996605,0.0339191,237.501,4.328930000000001,4.01518,-12.2444076538086,21.9994239807129,35.0,22.0,1921450.0,-14859.2,pp-riro,4,0,-1,-1
1570541812.3,2019-10-08,15:36:52.300,14.0,8.0,20.3999996185303,-12.1,18.6,7.3,-18.1,-13.6,142.9,-10.9283,18.35,7.36763,-3.2886,-3.69841,-5.20915,-19.4559,-11.3812,139.562,-0.0185474999999999,0.295109,0.302966,249.8,8.5,52.17,4.4272,-0.8,1.02671,172.882,4.28547,121.064,47.8829,198.613,0.990571,0.0502788,237.479,4.3581,4.028569999999999,-11.7460327148438,21.9994239807129,35.0,22.0,1919990.0,-8152.59,pp-riro,4,0,-1,-1
1570541812.4,2019-10-08,15:36:52.400,14.0,8.0,20.1399993896484,-12.3,17.8,7.1,-18.7,-13.1,144.3,-11.1881,17.8916,6.86598,-5.7055,-7.2135,-4.18973,-19.5577,-9.46752,141.014,0.303754,-0.148469,0.251113,249.8,8.5,52.17,4.4272,-0.8,0.8228120000000001,157.276,4.285480000000001,122.816,46.7429,197.913,0.984656,0.0632453,237.568,4.37191,4.04177,-10.9028854370117,21.9994239807129,35.0,22.0,1921560.0,12090.4,pp-riro,4,0,-1,-1
1570541812.5,2019-10-08,15:36:52.500,14.0,7.0,19.6499996185303,-12.6,17.2,7.0,-18.9,-12.6,145.7,-11.1881,17.8916,6.86598,-5.7055,-7.2135,-4.18973,-19.5577,-9.46752,141.014,0.303754,-0.148469,0.251113,249.8,8.4,52.17,4.4272,-0.8,0.903708,194.416,4.28549,124.539,45.983,197.213,0.978308,0.073198,237.734,4.38822,4.0567400000000005,-9.69789886474609,21.9994239807129,35.0,22.0,1920890.0,-8767.88,pp-riro,4,0,-1,-1
1570541812.6,2019-10-08,15:36:52.600,14.0,10.0,19.2900009155273,-12.8,17.2,7.0,-19.0,-10.8,146.6,-11.6385,16.8753,6.932410000000001,-5.58752,-5.77726,-3.33389,-19.5474,-8.952210000000001,143.47899999999998,-0.0964881,0.139513,0.0936442,249.8,8.4,52.17,4.4272,-0.8,0.990699,234.528,4.2855,126.263,44.0829,196.513,0.973245,0.0909859,237.704,4.40344,4.04902,-8.15497589111328,21.9994239807129,35.0,22.0,1921090.0,2307.34,pp-riro,4,0,-1,-1
1570541812.7,2019-10-08,15:36:52.700,14.0,10.0,18.8199996948242,-13.4,17.4,7.3,-19.0,-9.9,147.5,-11.9989,16.8464,6.836760000000001,-1.97621,-0.771411,-1.19691,-19.7694,-7.700539999999999,144.42600000000002,-0.0731718,0.0349288,0.195785,249.8,8.4,52.17,4.4272,-0.8,1.004,234.849,4.28551,127.927,42.9429,195.813,0.967397,0.103017,237.807,4.41499,4.05044,-6.23143768310547,21.9994239807129,35.0,22.0,1921090.0,-92.2935,pp-riro,4,0,-1,-1
1570541812.8,2019-10-08,15:36:52.800,14.0,10.0,18.590000152587898,-14.1,17.6,7.8,-19.3,-9.8,148.5,-11.9989,16.8464,6.836760000000001,-1.97621,-0.771411,-1.19691,-19.7694,-7.700539999999999,144.42600000000002,-0.0731718,0.0349288,0.195785,249.8,8.4,52.17,4.4272,-0.8,1.02284,255.466,4.28552,129.651,41.803,195.113,0.961296,0.114969,237.962,4.4204300000000005,4.05089,-4.11845397949219,21.9994239807129,35.0,22.0,1921380.0,984.464,pp-riro,4,0,-1,-1
1570541812.9,2019-10-08,15:36:52.900,14.0,11.0,18.2999992370605,-14.2,17.4,8.1,-20.4,-10.6,149.6,-13.3789,17.4301,7.599,-0.0441258,-1.83368,7.127000000000001,-21.5673,-7.974889999999999,146.93200000000002,-0.0280295,-0.324771,0.246315,249.8,8.4,52.17,4.4272,-0.8,1.0699299999999998,266.088,4.28552,131.403,40.2829,194.213,0.954941,0.129401,237.925,4.41642,4.04026,-2.01229095458984,21.9994239807129,35.0,22.0,1921390.0,861.4060000000001,pp-riro,4,0,-1,-1
1570541813.0,2019-10-08,15:36:53.000,14.0,11.0,18.2000007629395,-14.6,17.7,8.3,-21.6,-10.6,149.6,-13.5932,17.4284,7.78593,-1.27056,-5.04076,2.63213,-21.9113,-8.7856,147.66,-0.011382,-0.420146,0.134014,249.8,8.4,52.17,4.4272,-0.8,1.07049,266.067,4.2855300000000005,133.097,38.7629,193.313,0.948679,0.1434619999999999,237.881,4.40492,4.03266,0.0953750610351559,21.9994239807129,35.0,22.0,1921590.0,3907.09,pp-riro,4,0,-1,-1
1570541813.1,2019-10-08,15:36:53.100,14.0,11.0,18.2000007629395,-14.5,17.5,9.1,-22.7,-11.4,149.8,-13.9185,17.6468,7.94871,-5.93966,3.14691,-0.968514,-22.9406,-9.92516,148.421,-0.266575,-0.1323619999999999,-0.0832828999999999,249.8,8.4,52.17,4.4272,-1.0,1.04445,258.379,4.28554,134.791,37.2429,192.413,0.942324,0.157275,237.863,4.38858,4.00697,2.1936492919921897,21.9994239807129,35.0,22.0,1921930.0,2522.69,pp-riro,4,0,-1,-1
1570541813.2,2019-10-08,15:36:53.200,14.0,10.0,18.3500003814697,-13.9,17.6,10.0,-24.5,-13.4,150.4,-14.146,17.7343,8.558819999999999,1.14086,1.18502,10.2819,-24.3537,-10.6237,148.666,-0.228717,-0.312444,-0.0123408999999999,249.8,8.4,52.17,4.4272,-1.0,1.03226,244.998,4.28555,136.602,36.1029,191.413,0.93492,0.168457,237.913,4.36786,3.96053,4.293617248535161,21.9994239807129,35.0,22.0,1922380.0,3722.5,pp-riro,4,0,-1,-1
1570541813.3,2019-10-08,15:36:53.300,14.0,9.0,18.2999992370605,-12.9,17.6,10.3,-25.8,-14.5,149.8,-14.146,17.7343,8.558819999999999,1.14086,1.18502,10.2819,-24.3537,-10.6237,148.666,-0.228717,-0.312444,-0.0123408999999999,249.8,8.4,52.17,4.4272,-1.0,1.01563,234.746,4.28555,138.267,34.963,190.313,0.927686,0.179161,237.822,4.33971,3.91294,5.87584686279297,21.9994239807129,35.0,22.0,1922550.0,3291.8,pp-riro,4,0,-1,-1
1570541813.4,2019-10-08,15:36:53.400,14.0,9.0,18.3899993896484,-12.2,17.8,10.5,-26.9,-15.9,148.6,-12.6044,18.1632,10.1574,11.1426,-3.2798300000000005,4.49635,-27.3563,-14.5699,148.519,-0.299768,0.169962,-0.320386,249.8,8.4,52.17,4.4272,-1.0,0.975185,205.873,4.28556,139.99,33.443000000000005,189.313,0.920754,0.192331,237.813,4.298430000000001,3.87162,8.51911926269531,21.9994239807129,35.0,22.0,1922890.0,3722.5,pp-riro,4,0,-1,-1
1570541813.5,2019-10-08,15:36:53.500,14.0,8.0,18.4899997711182,-11.6,17.8,11.0,-27.7,-18.0,146.1,-12.3051,18.2553,10.4288,-4.2859,6.96088,2.67354,-27.5339,-15.1914,147.81799999999998,-0.00681146,-0.370383,-0.290193,247.6,8.4,52.17,4.4272,-1.0,0.928642,191.514,4.28558,141.77200000000002,32.303000000000004,188.213,0.913015,0.202783,237.838,4.234719999999999,3.83359,10.6293106079102,21.9994239807129,35.0,22.0,1923280.0,3261.04,pp-riro,4,0,-1,-1
1570541813.6,2019-10-08,15:36:53.600,14.0,8.0,18.6800003051758,-10.5,17.7,11.6,-28.1,-20.5,143.1,-11.4894,18.3656,11.3763,2.7382,-1.81998,8.82311,-29.4421,-21.7656,146.255,-0.429431,-0.372193,-0.797285,247.6,8.4,52.17,4.4272,-1.0,0.940278,209.505,4.28559,143.495,31.163,187.113,0.905415,0.212946,237.852,4.16107,3.77682,12.7446136474609,21.9994239807129,35.0,22.0,1923290.0,-799.877,pp-riro,4,0,-1,-1
1570541813.7,2019-10-08,15:36:53.700,14.0,9.0,18.729999542236303,-9.4,18.1,12.0,-27.5,-22.4,139.3,-10.4715,18.6637,12.0716,14.9653,0.8244889999999999,2.9269,-29.674,-24.5253,143.347,-0.209882,0.0914524999999999,-0.7599020000000001,247.6,8.4,52.17,4.4272,-1.0,0.994578,225.467,4.28561,145.218,30.023000000000003,186.013,0.897767,0.222912,237.888,4.0833900000000005,3.71676,14.8462905883789,21.9994239807129,35.0,22.0,1923230.0,61.529,pp-riro,4,0,-1,-1
1570541813.8,2019-10-08,15:36:53.800,14.0,12.0,18.8700008392334,-8.2,18.8,12.7,-27.0,-24.9,134.6,-9.56172,19.4834,12.6411,9.47568,5.905390000000001,10.3875,-28.9333,-26.659,138.591,-0.232369,0.072535,-0.8524579999999999,247.6,8.4,52.17,4.4272,-1.0,0.989591,219.625,4.28562,147.058,29.263,184.813,0.8891950000000001,0.2303469999999999,237.988,3.99071,3.64875,16.9377517700195,21.9994239807129,35.0,22.0,1923570.0,4030.15,pp-riro,4,0,-1,-1
1570541813.9,2019-10-08,15:36:53.900,14.0,10.0,18.770000457763697,-6.9,19.2,14.2,-25.8,-28.0,129.4,-8.90621,19.6786,13.1708,18.854,10.4274,12.4626,-29.1233,-28.2968,136.546,-0.424875,-0.363954,-0.721205,247.6,8.4,52.17,4.4272,-1.0,0.976847,238.094,4.28563,148.92700000000002,28.503,183.613,0.8805120000000001,0.237655,238.13,3.88758,3.57267,19.0496444702148,21.9994239807129,35.0,22.0,1923730.0,153.822,pp-riro,4,0,-1,-1
1570541814.0,2019-10-08,15:36:54.000,14.0,10.0,18.6700000762939,-5.1,19.5,15.3,-24.0,-31.9,123.5,-8.31045,20.0774,13.9316,17.389,10.916,18.3635,-29.1638,-30.3782,134.61700000000002,-0.108102,-0.3144889999999999,-0.840377,247.6,8.4,52.17,4.4272,-1.0,1.06938,281.581,4.28565,150.855,27.7431,182.113,0.870819,0.244869,238.101,3.77133,3.48595,21.1581344604492,21.9994239807129,35.0,22.0,1923490.0,-1845.87,pp-riro,4,0,-1,-1
1570541814.1,2019-10-08,15:36:54.100,14.0,12.0,18.5799999237061,-3.0,19.5,16.1,-21.1,-35.1,116.7,-5.69203,20.8611,16.1173,25.6508,9.97819,14.0541,-27.5376,-36.1452,127.38,-0.201214,-0.178554,-0.951907,247.6,8.4,52.17,4.4272,-1.3,1.12202,294.198,4.28566,152.754,27.3631,180.613,0.860979,0.249477,238.125,3.65454,3.39529,23.2734375,21.9994239807129,35.0,22.0,1923630.0,2861.1,pp-riro,4,0,-1,-1
1570541814.2,2019-10-08,15:36:54.200,14.0,11.0,18.5799999237061,-1.9,19.5,16.4,-19.1,-36.5,113.1,-3.44917,21.0332,17.0761,30.5504,-1.7689,10.4499,-24.7729,-40.3639,120.712,-0.264009,-0.100838,-1.13194,247.6,8.4,52.17,4.4272,-1.3,1.09487,285.891,4.28567,154.65200000000002,27.3632,179.91299999999998,0.853132,0.2515949999999999,238.82,3.59651,3.3492800000000003,25.3853378295898,21.9994239807129,35.0,22.0,1924060.0,3907.09,pp-riro,4,0,-1,-1
1570541814.3,2019-10-08,15:36:54.300,14.0,11.0,18.8099994659424,1.1,19.5,17.5,-11.8,-39.9,100.2,-0.964905,21.2343,17.8905,25.5423,1.0784,6.5252,-20.9631,-43.9603,112.201,-0.329409,-0.1945849999999999,-1.5599299999999998,247.6,8.4,52.17,4.4272,-1.3,1.09542,287.536,4.28569,156.52100000000002,27.3632,177.41299999999998,0.840406,0.253631,238.166,3.4086,3.22844,27.490417480468803,21.9994239807129,35.0,22.0,1924340.0,2553.45,pp-riro,4,0,-1,-1
1570541814.4,2019-10-08,15:36:54.400,14.0,12.0,18.8099994659424,3.6,18.9,17.8,-5.4,-42.1,89.6,1.30145,21.3028,18.7669,26.743,-3.03277,3.719980000000001,-15.5828,-47.9717,103.064,-0.271373,-0.453751,-1.35879,247.6,8.4,52.17,4.4272,-1.3,1.10595,297.347,4.2857,158.44899999999998,27.3633,175.713,0.8297040000000001,0.255681,238.18,3.26305,3.12896,29.5699462890625,21.9994239807129,23.0,22.0,1924580.0,2307.34,pp-riro,4,0,-1,-1
1570541814.5,2019-10-08,15:36:54.500,14.0,13.0,18.8099994659424,6.0,17.8,18.2,1.4,-43.7,78.6,4.18993,20.728,19.1724,35.6256,-10.9543,9.96184,-8.72103,-51.1267,91.6403,-0.651832,-0.156914,-1.23179,243.8,7.7,52.17,4.4272,-1.3,1.1608,324.456,4.28573,160.26,27.7433,174.013,0.8191579999999999,0.255242,238.188,3.12167,3.03139,30.0451354980469,21.9994239807129,23.0,22.0,1924740.0,892.17,pp-ro,1,1,-1,-1
1570541814.6,2019-10-08,15:36:54.600,14.0,14.0,18.6700000762939,8.6,16.6,17.5,9.2,-43.8,66.9,8.545919999999999,19.01,19.241,23.0821,-7.244739999999999,-2.75583,4.64974,-53.8027,71.4777,-0.424581,-0.1114839999999999,-1.66111,243.8,7.7,52.17,4.4272,-1.3,1.16967,322.187,4.28576,161.983,28.5034,172.313,0.808678,0.252449,238.207,2.977,2.92139,32.09912109375,21.9994239807129,23.0,22.0,1924930.0,3599.45,pp-ro,1,1,-1,-1
1570541814.7,2019-10-08,15:36:54.700,14.0,16.0,18.8500003814697,10.9,15.5,17.1,16.4,-41.8,55.2,11.5645,17.8725,18.4656,27.7854,-16.3457,-1.79835,14.2554,-52.4827,56.5988,-0.240586,-0.0140004999999999,-1.40654,243.8,7.7,52.17,4.4272,-1.3,1.14196,310.164,4.28578,163.618,29.2635,170.713,0.7987489999999999,0.2496239999999999,238.265,2.82531,2.82274,33.359451293945305,21.9994239807129,23.0,22.0,1925460.0,5660.67,pp-ro,1,1,-1,-1
1570541814.8,2019-10-08,15:36:54.800,14.0,16.0,19.1299991607666,12.2,14.7,17.2,22.9,-39.3,44.4,11.5645,17.8725,18.4656,27.7854,-16.3457,-1.79835,14.2554,-52.4827,56.5988,-0.240586,-0.0140004999999999,-1.40654,243.8,7.7,52.17,4.4272,-1.3,1.13642,314.711,4.28581,165.108,30.4035,169.113,0.789046,0.2444739999999999,238.294,2.67964,2.76983,34.2518920898438,21.9994239807129,23.0,22.0,1925740.0,1476.7,pp-ro,1,1,-1,-1
1570541814.9,2019-10-08,15:36:54.900,14.0,14.0,19.3099994659424,15.0,12.3,16.0,29.2,-36.3,33.8,14.2136,16.2083,18.3537,26.9396,-11.0025,-8.716610000000001,22.3238,-50.1974,43.084,-0.6492319999999999,-0.620262,-1.57524,243.8,7.7,52.17,4.4272,-1.3,1.15637,318.801,4.28584,166.451,31.9236,167.513,0.779547,0.237062,238.298,2.53103,2.62505,34.7832641601562,21.9994239807129,23.0,22.0,1926170.0,3845.56,pp-ro,1,1,-1,-1
1570541815.0,2019-10-08,15:36:55.000,14.0,12.0,19.3099994659424,16.7,10.4,14.7,33.9,-32.0,24.3,16.6811,14.4604,17.5085,32.5405,-18.7339,-3.90821,29.8572,-47.2781,30.7597,-0.158066,-0.174718,-1.23914,243.8,7.7,52.17,4.4272,-1.3,1.14584,310.418,4.28586,167.649,33.0637,166.213,0.77156,0.231816,238.382,2.37889,2.51623,34.972320556640604,21.9994239807129,22.3898277282715,22.0,1926570.0,4153.21,pp-ro,1,1,-1,-1
1570541815.1,2019-10-08,15:36:55.100,14.0,12.0,19.2099990844727,17.5,9.3,14.2,35.6,-30.1,20.1,16.6811,14.4604,17.5085,32.5405,-18.7339,-3.90821,29.8572,-47.2781,30.7597,-0.158066,-0.174718,-1.23914,243.8,7.7,52.17,4.4272,-1.6,1.13421,306.773,4.28589,168.174,33.8237,165.513,0.767513,0.2280219999999999,238.372,2.31137,2.46152,34.8803558349609,21.9994239807129,21.428623199462898,22.0,1926800.0,4430.09,pp-ro,1,1,-1,-1
1570541815.2,2019-10-08,15:36:55.200,14.0,12.0,19.159999847412102,18.5,7.5,12.5,38.6,-25.4,12.1,18.6668,12.2981,15.9398,14.101,-25.404,-15.5293,35.0948,-42.6901,20.2546,-0.299032,-0.222859,-1.4872299999999998,243.8,7.7,52.17,4.4272,-1.6,1.12368,299.701,4.28592,169.08,35.7238,164.41299999999998,0.760496,0.218263,238.528,2.17069,2.3622,34.371124267578104,21.9994239807129,19.6517009735107,22.0,1927100.0,2614.98,pp-ro,1,1,-1,-1
1570541815.3,2019-10-08,15:36:55.300,14.0,13.0,19.25,19.1,5.6,10.7,40.8,-20.8,5.4,21.0851,9.02659,13.6039,10.3514,-14.347,-17.4239,40.3558,-35.4529,7.06018,-0.403957,0.0758303999999999,-1.55744,243.8,7.7,52.17,4.4272,-1.6,1.10927,286.371,4.28595,169.868,37.6239,163.41299999999998,0.754075,0.2084739999999999,238.694,2.04394,2.26007,33.509323120117195,21.9994239807129,17.8020133972168,22.0,1927560.0,4891.55,pp-ro,1,1,-1,-1
1570541815.4,2019-10-08,15:36:55.400,14.0,13.0,19.2999992370605,19.5,3.3,8.2,42.8,-13.5,-3.4,21.8309,6.91122,11.5693,8.22892,-13.6404,-10.2925,41.8702,-29.7303,-0.239917,-0.346629,0.00776905,-1.44159,243.8,7.7,52.17,4.4272,-1.6,1.08212,277.757,4.28597,170.68599999999998,40.2839,162.213,0.746429,0.194646,238.892,1.85964,2.1236200000000003,31.9202880859375,21.9994239807129,15.2995195388794,22.0,1928000.0,2061.22,pp-ro,1,1,-1,-1
1570541815.5,2019-10-08,15:36:55.500,14.0,13.0,19.340000152587898,19.6,2.1,6.7,43.6,-8.5,-8.6,22.194000000000003,4.8257900000000005,9.63619,1.88847,-14.8102,-25.0499,42.6591,-24.8339,-6.3323,-0.210492,-0.0627798,-1.2608,241.0,8.0,52.17,4.4272,-1.6,1.08434,278.203,4.28598,171.095,42.56399999999999,161.713,0.742243,0.182585,239.241,1.7432299999999998,2.04548,30.251220703125,21.9994239807129,13.8385486602783,22.0,1928160.0,2830.33,pp-ro,1,1,-1,-1
1570541815.6,2019-10-08,15:36:55.600,14.0,14.0,19.1499996185303,19.5,1.4,5.9,44.0,-6.0,-11.2,22.194000000000003,4.8257900000000005,9.63619,1.88847,-14.8102,-25.0499,42.6591,-24.8339,-6.3323,-0.210492,-0.0627798,-1.2608,241.0,8.0,52.17,4.4272,-1.6,1.07049,266.435,4.28595,171.241,43.324,161.41299999999998,0.740397,0.178638,239.279,1.68334,2.00012,28.2466125488281,21.9994239807129,12.9875545501709,22.0,1928590.0,2922.63,pp-ro,1,1,-1,-1
1570541815.7,2019-10-08,15:36:55.700,14.0,13.0,18.8299999237061,19.1,0.2,4.5,44.2,-1.3,-16.1,22.0278,0.654994,5.27735,-2.52444,-18.5402,-18.3858,43.1281,-10.5457,-19.2583,-0.435242,0.172671,-1.1407200000000002,241.0,8.0,52.17,4.4272,-1.6,1.04389,252.955,4.28592,171.445,45.6041,161.013,0.736995,0.16649,239.58,1.57348,1.92285,26.1364212036133,21.9994239807129,11.5200290679932,22.0,1928990.0,4214.73,pp-ro,1,1,-1,-1
1570541815.8,2019-10-08,15:36:55.800,14.0,13.0,18.4500007629395,18.6,-0.6,2.9,44.1,2.8,-20.0,22.0278,0.654994,5.27735,-2.52444,-18.5402,-18.3858,43.1281,-10.5457,-19.2583,-0.435242,0.172671,-1.1407200000000002,241.0,8.0,52.17,4.4272,-1.6,1.03226,249.165,4.28589,171.533,47.1241,160.813,0.735028,0.158388,239.802,1.48024,1.84386,24.0415573120117,21.9994239807129,9.98278331756592,22.0,1929160.0,3168.74,pp-ro,1,1,-1,-1
1570541815.9,2019-10-08,15:36:55.900,14.0,12.0,18.2600002288818,18.3,-1.7,1.5,44.1,7.3,-23.4,20.6089,-1.66566,1.90691,-2.03391,-9.19377,-19.5421,42.2954,-0.177742,-27.3468,-0.291671,0.265252,-1.19087,241.0,8.0,52.17,4.4272,-1.6,1.02616,248.111,4.28586,171.562,49.4042,160.613,0.732608,0.146145,240.147,1.39065,1.7574299999999998,21.9330673217773,21.9994239807129,8.2987003326416,22.0,1929360.0,1753.58,pp-ro,1,1,-1,-1
1570541816.0,2019-10-08,15:36:56.000,14.0,11.0,18.1200008392334,17.9,-2.6,0.5,44.1,10.8,-26.9,20.4163,-2.30108,1.1775799999999998,0.721178,-9.29581,-14.0116,42.013000000000005,2.42716,-28.854,0.147966,0.212256,-0.97911,241.0,8.0,52.17,4.4272,-1.6,1.0339200000000002,249.886,4.285830000000001,171.47400000000002,50.9242,160.513,0.731346,0.137873,240.335,1.31042,1.68819,19.8279800415039,21.9994239807129,6.93011331558228,22.0,1929570.0,2461.16,pp-ro,1,1,-1,-1
1570541816.1,2019-10-08,15:36:56.100,14.0,10.0,18.1200008392334,17.2,-3.3,-0.4,43.8,13.9,-30.4,20.1493,-2.84103,0.595283,-6.09951,-9.005180000000001,-11.0498,41.8728,4.70614,-30.6216,0.00819892,0.194301,-0.819792,241.0,8.0,52.17,4.4272,-1.7,1.0339200000000002,250.449,4.2858,171.27,52.8243,160.41299999999998,0.730051,0.127415,240.533,1.23716,1.62701,17.7194976806641,21.9994239807129,5.716087818145749,22.0,1929890.0,1784.34,pp-ro,1,1,-1,-1
1570541816.2,2019-10-08,15:36:56.200,14.0,10.0,18.020000457763697,16.7,-3.8,-1.3,43.9,16.8,-33.4,18.7706,-4.15742,-1.01454,-10.6069,-3.18753,-5.34842,41.3776,9.924,-35.6848,0.150771,0.0592679,-0.818311,241.0,8.0,52.17,4.4272,-1.7,1.02893,241.42,4.285769999999999,170.977,54.7243,160.41299999999998,0.729245,0.11685,240.75,1.17275,1.57145,16.6635437011719,21.9994239807129,4.59337043762207,22.0,1930170.0,3384.09,pp-ro,1,1,-1,-1
1570541816.3,2019-10-08,15:36:56.300,14.0,10.0,17.9200000762939,16.2,-4.4,-2.3,44.1,19.2,-36.1,18.7706,-4.15742,-1.01454,-10.6069,-3.18753,-5.34842,41.3776,9.924,-35.6848,0.150771,0.0592679,-0.818311,241.0,8.0,52.17,4.4272,-1.7,1.0173,238.127,4.28575,170.627,56.6243,160.41299999999998,0.728539,0.106219,240.94,1.11856,1.5053,14.0338897705078,21.9994239807129,3.25652861595154,22.0,1930370.0,3722.5,pp-ro,1,1,-1,-1
1570541816.4,2019-10-08,15:36:56.400,14.0,10.0,17.8199996948242,15.8,-5.0,-2.8,44.3,21.2,-38.6,17.5041,-5.37179,-2.88401,-7.87599,-8.53796,-2.7808200000000003,41.2756,16.8338,-40.9705,0.0503186,0.268152,-0.599405,241.0,8.0,52.17,4.4272,-1.7,1.00511,242.039,4.28572,170.218,58.1444,160.513,0.728579,0.0974971,241.08,1.07072,1.46025,11.3940277099609,21.9994239807129,2.31427407264709,22.0,1930560.0,984.464,pp-ro,1,1,-1,-1
1570541816.5,2019-10-08,15:36:56.500,14.0,10.0,17.5799999237061,15.3,-5.6,-3.1,44.5,22.3,-41.5,17.5041,-5.37179,-2.88401,-7.87599,-8.53796,-2.7808200000000003,41.2756,16.8338,-40.9705,0.0503186,0.268152,-0.599405,242.6,7.8,52.17,4.4272,-1.7,1.03669,247.403,4.28568,169.72099999999998,60.0444,160.613,0.7284609999999999,0.0866651,241.262,1.03088,1.42269,9.27531433105469,21.9994239807129,1.5216900110244798,22.0,1930780.0,2984.16,pp-ro,1,1,-1,-1
1570541816.6,2019-10-08,15:36:56.600,14.0,10.0,17.270000457763697,15.1,-5.9,-3.8,45.1,23.6,-43.8,16.5054,-6.336130000000001,-3.61939,-7.7651,-9.13973,-4.76532,41.3223,20.2453,-44.6256,0.2472869999999999,0.0022965999999999,-0.564713,242.6,7.8,52.17,4.4272,-1.7,1.02616,243.496,4.28565,169.166,61.5644,160.813,0.729104,0.0777128,241.388,0.994444,1.38256,7.20088195800781,21.9994239807129,0.6462278962135309,22.0,1930960.0,3476.39,pp-ro,1,1,-1,-1
1570541816.7,2019-10-08,15:36:56.700,14.0,11.0,16.8600006103516,14.9,-6.5,-4.3,45.6,24.9,-45.8,16.5054,-6.336130000000001,-3.61939,-7.7651,-9.13973,-4.76532,41.3223,20.2453,-44.6256,0.2472869999999999,0.0022965999999999,-0.564713,242.6,7.8,52.17,4.4272,-1.7,1.0112,240.153,4.28561,168.553,62.7044,161.113,0.730533,0.0706258,241.453,0.960428,1.34075,5.30699157714844,21.9994239807129,-0.298658221960068,22.0,1931220.0,2338.1,pp-ro,1,1,-1,-1
1570541816.8,2019-10-08,15:36:56.800,14.0,13.0,16.6599998474121,14.4,-7.1,-4.2,46.0,25.1,-48.0,16.0003,-6.9472,-4.48554,-2.09757,-7.78412,-2.59026,42.4403,23.6019,-47.1376,0.0390235,0.219883,-0.303661,242.6,7.8,52.17,4.4272,-1.7,1.0283799999999998,253.044,4.28557,167.88099999999997,64.6044,161.313,0.731028,0.0594598,241.61900000000003,0.939753,1.3199,3.61066436767578,21.9994239807129,-0.791948854923248,22.0,1931340.0,830.6410000000001,pp-ro,1,1,-1,-1
1570541816.9,2019-10-08,15:36:56.900,14.0,13.0,16.6000003814697,14.0,-7.5,-4.5,46.5,24.9,-49.6,15.8716,-7.22435,-4.73665,-2.0221,-6.09011,-5.70729,42.6952,24.3744,-47.9536,0.235442,-0.0303989,-0.340961,242.6,7.8,52.17,4.4272,-1.7,1.0522,258.185,4.28554,167.209,66.1245,161.613,0.732154,0.0502465,241.765,0.929305,1.289,2.0778350830078103,21.9994239807129,-1.51440024375916,22.0,1931460.0,1692.05,pp-ro,1,1,-1,-1
1570541817.0,2019-10-08,15:36:57.000,14.0,14.0,16.7600002288818,13.7,-7.6,-4.9,47.3,24.8,-50.3,15.8716,-7.22435,-4.73665,-2.0221,-6.09011,-5.70729,42.6952,24.3744,-47.9536,0.235442,-0.0303989,-0.340961,242.6,7.8,52.17,4.4272,-1.7,1.03336,241.632,4.2855,166.421,67.6445,162.014,0.7338439999999999,0.0408179,241.909,0.928528,1.26565,0.7595977783203121,21.9994239807129,-2.1223590373992898,22.0,1931820.0,4060.91,pp-ro,1,1,-1,-1
1570541817.1,2019-10-08,15:36:57.100,14.0,13.0,17.020000457763697,13.5,-8.2,-4.8,47.9,24.3,-51.1,14.4365,-8.25508,-5.12544,-4.51355,0.0688906,0.5007199999999999,44.592,26.7756,-51.4358,0.1133339999999999,-0.0719894,-0.139098,242.6,7.8,52.17,4.4272,-1.7,0.995686,234.923,4.28547,165.632,69.1645,162.414,0.735486,0.0313545,242.066,0.93111,1.2525,-0.372077941894531,21.9994239807129,-2.5273468494415297,22.0,1932260.0,1292.11,pp-ro,1,1,-1,-1
1570541817.2,2019-10-08,15:36:57.200,14.0,14.0,17.129999160766598,13.3,-8.3,-4.6,48.3,23.4,-51.6,14.4365,-8.25508,-5.12544,-4.51355,0.0688906,0.5007199999999999,44.592,26.7756,-51.4358,0.1133339999999999,-0.0719894,-0.139098,242.6,7.8,52.17,4.4272,-1.7,1.01342,234.904,4.28543,164.785,70.3045,162.714,0.73734,0.0236965999999999,242.018,0.940574,1.25688,-0.8841094970703121,21.9994239807129,-2.5902042388916,22.0,1932370.0,1538.22,pp-ro,1,1,-1,-1
1570541817.3,2019-10-08,15:36:57.300,14.0,13.0,17.1800003051758,13.2,-8.2,-4.5,48.7,22.6,-51.6,13.8957,-8.66796,-4.74627,-0.584992,3.6295,1.05445,46.2757,25.1881,-52.4056,0.193183,-0.00553222,0.105795,242.6,7.8,52.17,4.4272,-1.7,0.992916,222.876,4.2853900000000005,163.967,71.8245,163.114,0.7389720000000001,0.0141295999999999,242.178,0.956335,1.26724,-1.75456237792969,21.9994239807129,-2.5332612991333,22.0,1932720.0,3968.62,pp-ro,1,1,-1,-1
1570541817.4,2019-10-08,15:36:57.400,14.0,16.0,17.229999542236303,13.3,-8.3,-4.2,49.4,21.7,-51.1,13.8957,-8.66796,-4.74627,-0.584992,3.6295,1.05445,46.2757,25.1881,-52.4056,0.193183,-0.00553222,0.105795,242.6,7.8,52.17,4.4272,-1.7,0.96632,208.39,4.28536,163.12,72.9645,163.414,0.7407590000000001,0.00640272,242.149,0.978107,1.28593,-2.32804107666016,21.9994239807129,-2.31477546691895,22.0,1932980.0,2368.87,pp-ro,1,1,-1,-1
1570541817.5,2019-10-08,15:36:57.500,14.0,14.0,17.1800003051758,13.7,-8.3,-4.0,49.7,20.4,-51.0,13.7852,-8.5478,-4.59577,-2.82331,-0.901669,0.048464,46.6031,24.9162,-52.0808,0.0352591,-0.106372,0.203314,244.3,8.5,52.17,4.4272,-1.7,0.956346,203.408,4.28533,162.273,74.8645,163.714,0.741632,-0.00518803,242.362,1.00248,1.31494,-2.5499267578125,21.9994239807129,-1.8536673784256,22.0,1933110.0,2491.92,pp-ro,1,1,-1,-1
1570541817.6,2019-10-08,15:36:57.600,14.0,12.0,17.0799999237061,14.0,-8.3,-3.7,50.0,19.5,-51.0,14.3337,-8.709710000000001,-4.10009,3.9909,-0.285341,1.50334,47.5806,22.8525,-51.5051,0.00725118,-0.1093369999999999,0.151923,244.3,8.5,52.17,4.4272,-1.7,0.950251,209.478,4.28531,161.42600000000002,76.0045,164.014,0.7433420000000001,-0.0129602999999999,242.354,1.01832,1.34218,-2.37071228027344,21.9994239807129,-1.46824264526367,22.0,1933280.0,1199.82,pp-ro,1,1,-1,-1
1570541817.7,2019-10-08,15:36:57.700,14.0,12.0,16.8199996948242,14.1,-8.5,-3.2,50.3,18.6,-50.9,14.3337,-8.709710000000001,-4.10009,3.9909,-0.285341,1.50334,47.5806,22.8525,-51.5051,0.00725118,-0.1093369999999999,0.151923,244.3,8.5,52.17,4.4272,-1.7,0.984604,229.155,4.28529,160.55,77.1446,164.31400000000002,0.745096,-0.0208373,242.336,1.03551,1.36589,-1.9030532836914096,21.9994239807129,-1.16178786754608,22.0,1933270.0,-276.88,pp-ro,1,1,-1,-1
1570541817.8,2019-10-08,15:36:57.800,14.0,12.0,16.7099990844727,14.2,-8.4,-3.3,50.5,18.3,-50.1,14.6734,-8.93473,-3.29023,5.98844,-3.08009,1.35966,47.9368,20.6224,-51.6461,0.125381,-0.00358958,-0.00444395,244.3,8.5,52.17,4.4272,-1.7,0.995132,219.466,4.28527,159.674,79.0446,164.514,0.745575,-0.0325526,242.505,1.05714,1.37532,-1.4422225952148402,21.9994239807129,-1.0764843225479102,22.0,1933580.0,3568.68,pp-ro,1,1,-1,-1
1570541817.9,2019-10-08,15:36:57.900,14.0,12.0,16.770000457763697,14.4,-8.5,-3.2,51.0,17.4,-49.5,14.7331,-8.88013,-3.21208,-1.7614,-0.981378,-1.3296,48.099,20.1207,-50.8937,-0.0987507,0.0498746,0.0861045,244.3,8.5,52.17,4.4272,-1.7,0.975185,212.83900000000003,4.28525,158.827,80.1846,164.81400000000002,0.7471770000000001,-0.040389,242.526,1.08057,1.38746,-1.26813507080078,21.9994239807129,-1.0000206232070898,22.0,1933790.0,3968.62,pp-ro,1,1,-1,-1
1570541818.0,2019-10-08,15:36:58.000,14.0,10.0,16.8199996948242,14.6,-8.6,-2.9,51.1,16.3,-49.7,14.9669,-9.05023,-3.0973900000000003,0.919071,-3.81725,-0.3004179999999999,48.3514,19.078,-50.507,-0.0226299,-0.0551725,0.325356,244.3,8.5,52.17,4.4272,-1.7,0.978509,227.215,4.28523,157.921,81.7046,165.014,0.748103,-0.0502974,242.578,1.09812,1.40922,-1.09745788574219,21.9994239807129,-0.6977587342262271,22.0,1933920.0,-646.054,pp-ro,1,1,-1,-1
1570541818.1,2019-10-08,15:36:58.100,14.0,9.0,16.9200000762939,14.7,-8.5,-2.7,51.1,15.7,-49.7,14.9669,-9.05023,-3.0973900000000003,0.919071,-3.81725,-0.3004179999999999,48.3514,19.078,-50.507,-0.0226299,-0.0551725,0.325356,244.3,8.5,52.17,4.4272,-2.0,1.02339,247.555,4.28521,157.016,83.2246,165.21400000000003,0.748979,-0.0602119,242.644,1.1122299999999998,1.43008,-1.08721923828125,21.9994239807129,-0.413431882858276,22.0,1933970.0,922.935,pp-ro,1,1,-1,-1
1570541818.2,2019-10-08,15:36:58.200,14.0,9.0,17.0300006866455,14.9,-8.5,-2.4,51.6,15.9,-49.2,15.2931,-9.07412,-2.58578,5.00626,-0.619255,-3.841930000000001,48.1984,17.3498,-50.7062,-0.00306797,0.0854378,0.0555752,244.3,8.5,52.17,4.4272,-2.0,1.03447,252.946,4.2852,156.139,84.3646,165.41400000000002,0.750242,-0.0681874,242.608,1.12152,1.45325,-0.8414382934570309,21.9994239807129,-0.10601481795311,22.0,1934050.0,1599.75,pp-ro,1,1,-1,-1
1570541818.3,2019-10-08,15:36:58.300,14.0,10.0,17.1800003051758,14.8,-8.6,-2.2,51.6,16.0,-48.9,15.2931,-9.07412,-2.58578,5.00626,-0.619255,-3.841930000000001,48.1984,17.3498,-50.7062,-0.00306797,0.0854378,0.0555752,244.3,8.5,52.17,4.4272,-2.0,1.03946,251.511,4.28518,155.263,86.2646,165.614,0.750438,-0.079926,242.85,1.1322,1.46405,-0.459121704101562,21.9994239807129,0.012798835523427,22.0,1934250.0,2399.63,pp-ro,1,1,-1,-1
1570541818.4,2019-10-08,15:36:58.400,14.0,10.0,17.6800003051758,14.7,-8.6,-2.0,51.6,15.6,-48.9,15.4743,-9.11014,-2.54323,2.52596,-2.48691,2.1595,48.342,17.5486,-50.3454,-0.00733753,0.214796,0.0217175,244.3,8.5,52.17,4.4272,-2.0,1.02893,247.078,4.285159999999999,154.329,87.4046,165.71400000000003,0.751463,-0.0880859,242.73,1.14268,1.47569,-0.148490905761719,21.9994239807129,0.0992026105523109,22.0,1934530.0,2584.22,pp-ro,1,1,-1,-1
1570541818.5,2019-10-08,15:36:58.500,14.0,8.0,17.8299999237061,14.6,-8.5,-1.9,51.5,15.2,-48.7,15.4743,-9.11014,-2.54323,2.52596,-2.48691,2.1595,48.342,17.5486,-50.3454,-0.00733753,0.214796,0.0217175,243.8,8.0,52.17,4.4272,-2.0,1.02062,237.679,4.28515,153.482,89.3047,165.81400000000002,0.75117,-0.0997337,242.953,1.15809,1.48861,0.0,21.9994239807129,0.300647646188736,22.0,1934790.0,2861.1,pp-ro,1,1,-1,-1
1570541818.6,2019-10-08,15:36:58.600,14.0,10.0,18.0300006866455,14.6,-8.5,-1.8,51.3,15.0,-48.2,15.1928,-9.2368,-1.95159,2.89467,0.4753819999999999,2.36705,48.4215,16.9535,-50.5539,0.051537,-0.152767,0.106607,243.8,8.0,52.17,4.4272,-2.0,0.994578,228.134,4.2851300000000005,152.605,90.4447,165.91400000000002,0.751972,-0.1077549999999999,242.891,1.17213,1.49843,0.090263366699219,21.9994239807129,0.36412525177002,22.0,1935100.0,2830.33,pp-ro,1,1,-1,-1
1570541818.7,2019-10-08,15:36:58.700,14.0,8.0,17.8799991607666,14.6,-8.6,-1.7,51.3,14.6,-48.1,15.1104,-9.12849,-1.7959200000000002,1.97987,-0.189993,-3.65729,48.5402,16.5861,-49.733,0.0198429,0.000527481,0.14667,243.8,8.0,52.17,4.4272,-2.0,0.996794,234.942,4.28512,151.7,91.9647,166.114,0.752559,-0.117722,243.031,1.18511,1.5063,0.258872985839844,21.9994239807129,0.390216290950775,22.0,1935260.0,1292.11,pp-ro,1,1,-1,-1
1570541818.8,2019-10-08,15:36:58.800,14.0,11.0,17.979999542236303,14.9,-9.0,-1.4,51.7,14.3,-47.7,15.1104,-9.12849,-1.7959200000000002,1.97987,-0.189993,-3.65729,48.5402,16.5861,-49.733,0.0198429,0.000527481,0.14667,243.8,8.0,52.17,4.4272,-2.0,1.04334,260.476,4.28511,150.79399999999998,93.4847,166.21400000000003,0.752796,-0.127681,243.116,1.20049,1.52006,0.352546691894531,21.9994239807129,0.564838111400604,22.0,1935350.0,461.467,pp-ro,1,1,-1,-1
1570541818.9,2019-10-08,15:36:58.900,14.0,13.0,18.0300006866455,15.1,-9.0,-1.0,51.7,14.4,-48.1,15.0919,-9.37541,-1.60193,2.7415,-1.7048299999999998,5.03802,48.5627,16.0698,-49.3866,-0.135365,-0.0475408,-0.00147093,243.8,8.0,52.17,4.4272,-2.0,1.05608,262.161,4.2851,149.86,95.0047,166.21400000000003,0.752753,-0.137725,243.128,1.20139,1.54809,0.3917236328125,21.9994239807129,1.05136656761169,22.0,1935410.0,1292.11,pp-ro,1,1,-1,-1
1570541819.0,2019-10-08,15:36:59.000,14.0,9.0,18.1299991607666,15.4,-9.1,-0.4,52.0,14.7,-49.0,15.6495,-9.85888,-0.955241,3.19207,-0.161645,5.12011,48.6725,15.8992,-49.4322,0.158015,-0.00875513,-0.0440815,243.8,8.0,52.17,4.4272,-2.0,1.0317,244.641,4.28509,148.925,96.5247,166.31400000000002,0.752959,-0.147767,243.22,1.19381,1.58276,0.553520202636719,21.9994239807129,1.64300107955933,22.0,1935950.0,3814.8,pp-ro,1,1,-1,-1
1570541819.1,2019-10-08,15:36:59.100,14.0,10.0,17.9300003051758,15.4,-8.9,-0.1,52.2,14.7,-50.2,15.6495,-9.85888,-0.955241,3.19207,-0.161645,5.12011,48.6725,15.8992,-49.4322,0.158015,-0.00875513,-0.0440815,243.8,8.0,52.17,4.4272,-2.1,1.01452,235.991,4.285069999999999,148.02,98.0447,166.21400000000003,0.752446,-0.157712,243.207,1.18623,1.60841,0.9248046875,21.9994239807129,2.13481450080872,22.0,1936120.0,3291.8,pp-ro,1,1,-1,-1
1570541819.2,2019-10-08,15:36:59.200,14.0,10.0,17.7900009155273,15.2,-8.7,0.0,52.2,15.1,-51.3,15.9323,-9.93586,-0.234986,2.09992,-0.228557,2.8101,49.0282,15.7766,-50.9196,0.192045,-0.114338,-0.122672,243.8,8.0,52.17,4.4272,-2.1,0.991807,224.154,4.28506,147.143,99.1847,166.21400000000003,0.752714,-0.1657829999999999,243.138,1.17366,1.62092,1.42212677001953,21.9994239807129,2.28958487510681,22.0,1936400.0,2584.22,pp-ro,1,1,-1,-1
1570541819.3,2019-10-08,15:36:59.300,14.0,9.0,17.5400009155273,15.1,-8.7,0.1,52.2,15.3,-51.6,15.9323,-9.93586,-0.234986,2.09992,-0.228557,2.8101,49.0282,15.7766,-50.9196,0.192045,-0.114338,-0.122672,243.8,8.0,52.17,4.4272,-2.1,0.981834,221.566,4.28505,146.64700000000002,100.325,166.21400000000003,0.752069,-0.172653,243.305,1.17238,1.62784,1.95520782470703,21.9994239807129,2.4518382549285898,22.0,1936630.0,2153.51,pp-ro,1,1,-1,-1
1570541819.4,2019-10-08,15:36:59.400,14.0,9.0,17.3899993896484,14.6,-9.1,0.1,52.0,15.3,-52.4,15.532,-9.64767,0.208253,-3.55801,-3.2932,-0.444026,49.2818,16.3458,-53.821000000000005,0.109108,-0.0847855,-0.0377567,243.8,8.0,52.17,4.4272,-2.1,0.982388,217.83,4.28504,145.274,102.225,166.114,0.751894,-0.185833,243.205,1.17185,1.61319,2.2736968994140603,21.9994239807129,-35.0,22.0,1936870.0,1907.4,pp-ro,1,1,-1,-1
1570541819.5,2019-10-08,15:36:59.500,14.0,9.0,17.2900009155273,14.5,-9.2,0.0,51.9,15.1,-52.6,15.532,-9.64767,0.208253,-3.55801,-3.2932,-0.444026,49.2818,16.3458,-53.821000000000005,0.109108,-0.0847855,-0.0377567,241.6,7.3,52.17,4.4272,-2.1,0.967982,211.503,4.28504,144.80700000000002,102.985,166.114,0.751733,-0.190841,243.246,1.17534,1.60688,2.43549346923828,21.9994239807129,-35.0,22.0,1937140.0,2830.33,pp-ro,1,1,-1,-1
1570541819.6,2019-10-08,15:36:59.600,14.0,9.0,17.229999542236303,14.0,-9.1,0.1,51.5,14.0,-53.6,14.462,-9.69049,0.047941,-1.02323,1.77403,-1.1997799999999998,48.9607,15.7352,-55.0731,-0.289145,-0.0301694,0.0719651,241.6,7.3,52.17,4.4272,-2.1,0.960779,208.911,4.28503,143.405,105.265,166.114,0.751175,-0.205848,243.392,1.18709,1.61398,2.27539825439453,21.9994239807129,-35.0,22.0,1937250.0,2030.46,pp-ro,1,1,-1,-1
1570541819.7,2019-10-08,15:36:59.700,14.0,10.0,17.229999542236303,13.8,-9.0,0.0,51.3,13.9,-53.6,14.3612,-9.63249,0.034983,0.399704,0.0739636,1.16323,48.6432,15.5413,-55.32,-0.136182,-0.11213,-0.0429128,241.6,7.3,52.17,4.4272,-2.1,0.955792,205.126,4.285019999999999,142.967,106.025,166.115,0.750898,-0.21074,243.46400000000003,1.19172,1.6119,1.7337951660156203,21.9994239807129,-35.0,22.0,1937410.0,1722.81,pp-ro,1,1,-1,-1
1570541819.8,2019-10-08,15:36:59.800,14.0,9.0,17.0799999237061,13.7,-9.0,0.2,50.9,13.7,-54.0,14.174,-9.59277,0.140817,-1.00685,-0.7694380000000001,-1.7707700000000002,48.2909,15.4529,-55.3069,-0.336082,-0.112062,0.00144444,241.6,7.3,52.17,4.4272,-2.1,0.951359,201.145,4.285019999999999,142.032,107.545,166.115,0.75044,-0.220712,243.584,1.1962700000000002,1.62534,0.827728271484375,21.9994239807129,-35.0,22.0,1937600.0,2030.46,pp-ro,1,1,-1,-1
1570541819.9,2019-10-08,15:36:59.900,14.0,9.0,16.979999542236303,13.7,-9.0,0.5,50.3,12.9,-54.6,14.1104,-9.58243,0.23892,1.90907,-1.632,0.949729,48.1767,15.2913,-55.5582,-0.262629,-0.112852,-0.108973,241.6,7.3,52.17,4.4272,-2.1,0.935291,195.146,4.28501,141.127,108.685,166.115,0.750518,-0.228877,243.563,1.20446,1.6443,-0.436935424804688,21.9994239807129,-35.0,22.0,1937900.0,1692.05,pp-ro,1,1,-1,-1
1570541820.0,2019-10-08,15:37:00.000,14.0,10.0,16.979999542236303,13.7,-8.8,0.7,50.1,12.3,-55.2,14.1104,-9.58243,0.23892,1.90907,-1.632,0.949729,48.1767,15.2913,-55.5582,-0.262629,-0.112852,-0.108973,241.6,7.3,52.17,4.4272,-2.1,0.936399,192.817,4.285,140.221,109.825,166.015,0.750262,-0.2370429999999999,243.484,1.21022,1.666,-2.05496215820312,21.9994239807129,-35.0,22.0,1938040.0,1568.99,pp-ro,1,1,-1,-1
1570541820.1,2019-10-08,15:37:00.100,14.0,9.0,16.9300003051758,13.9,-8.7,0.8,49.8,11.6,-55.5,14.0189,-9.25188,0.808262,-2.31392,2.34009,1.46636,47.7645,14.6123,-55.9471,0.0484204,0.0306000999999999,0.00310973,241.6,7.3,52.17,4.4272,-2.2,0.934737,192.636,4.285,139.316,111.725,166.015,0.748946,-0.24854,243.828,1.22327,1.6860700000000002,-4.027992248535161,21.9994239807129,-35.0,22.0,1938140.0,1968.93,pp-ro,1,1,-1,-1
1570541820.2,2019-10-08,15:37:00.200,14.0,8.0,16.9300003051758,14.1,-8.7,1.1,50.1,11.0,-55.5,14.0189,-9.25188,0.808262,-2.31392,2.34009,1.46636,47.7645,14.6123,-55.9471,0.0484204,0.0306000999999999,0.00310973,241.6,7.3,52.17,4.4272,-2.2,0.930858,194.79,4.2849900000000005,138.41,112.865,165.915,0.74861,-0.256685,243.769,1.23638,1.70882,-6.14097595214844,21.9994239807129,-35.0,22.0,1938280.0,1138.29,pp-ro,1,1,-1,-1
1570541820.3,2019-10-08,15:37:00.300,14.0,9.0,16.870000839233402,14.4,-8.8,1.6,50.5,9.7,-55.6,14.4419,-9.20017,1.57635,-1.11562,0.926417,7.63324,48.2747,13.8972,-54.9859,0.1168559999999999,0.165369,0.1082299999999999,241.6,7.3,52.17,4.4272,-2.2,0.946927,198.298,4.28498,137.534,114.385,165.915,0.7478020000000001,-0.266362,243.982,1.25806,1.7389,-8.25225830078125,21.9994239807129,-35.0,22.0,1938430.0,1322.87,pp-ro,1,1,-1,-1
1570541820.4,2019-10-08,15:37:00.400,14.0,10.0,16.8199996948242,14.8,-8.6,1.9,51.0,8.4,-55.2,14.4419,-9.20017,1.57635,-1.11562,0.926417,7.63324,48.2747,13.8972,-54.9859,0.1168559999999999,0.165369,0.1082299999999999,241.6,7.3,52.17,4.4272,-2.2,0.944156,195.574,4.28498,136.687,115.525,165.715,0.7469680000000001,-0.274277,243.907,1.28469,1.77112,-10.3635406494141,21.9994239807129,-35.0,22.0,1938540.0,2122.75,pp-ro,1,1,-1,-1
