time,date,time_of_day,airspeed_temperature,airspeed_angle_of_attack,airspeed_apparent_windspeed,kite_0_vx,kite_0_vy,kite_0_vz,kite_0_roll,kite_0_pitch,kite_0_yaw,kite_1_vx,kite_1_vy,kite_1_vz,kite_1_ax,kite_1_ay,kite_1_az,kite_1_roll,kite_1_pitch,kite_1_yaw,kite_1_roll_rate,kite_1_pitch_rate,kite_1_yaw_rate,ground_upwind_direction,ground_wind_velocity,ground_pos_latitude,ground_pos_longitude,ground_pos_altitude,ground_tether_reelout_speed,ground_tether_force,est_upwind_direction,kite_pos_east,kite_pos_north,kite_height,kite_elevation,kite_azimuth,kite_distance,kite_heading,kite_course,kite_actual_steering,kite_actual_depower,kite_set_steering,kite_set_depower,ground_mech_energy,ground_mech_power,flight_phase,flight_phase_index,phase,pattern,pattern_section
1570542844.9,2019-10-08,15:54:04.900,14.0,8.0,15.359999656677198,10.2,-4.6,2.9,19.1,-3.8,-77.8,8.62754,-4.06714,3.1311,7.98517,7.50292,5.22581,20.9049,10.7571,-82.184,0.160654,0.125151,0.926191,248.2,5.2,52.1701,4.42718,3.6,-2.53216,97.804,4.27002,50.1201,19.381,241.344,1.35171,0.0733871,247.254,0.601377,1.57377,-34.490524291992195,22.0081768035889,-35.0,22.0,2375280.0,-3261.04,pp-riro,4,0,-1,-1
1570542845.0,2019-10-08,15:54:05.000,14.0,8.0,14.9499998092651,11.3,-3.7,3.2,20.6,-5.6,-72.6,9.73399,-3.42875,3.43952,11.4124,5.729080000000001,4.17367,22.7577,9.57865,-76.5146,0.117317,0.265825,0.962013,248.2,5.2,52.1701,4.42718,3.6,-2.54268,89.9569,4.26999,49.682,20.521,241.144,1.3514700000000002,0.0506971,247.063,0.721637,1.70236,-34.900146484375,22.0009689331055,-35.0,22.0,2374950.0,-6460.54,pp-riro,4,0,-1,-1
1570542845.1,2019-10-08,15:54:05.100,14.0,7.0,14.7700004577637,12.3,-2.9,3.4,22.1,-6.8,-67.7,11.1507,-2.10472,3.7597,9.003960000000001,8.25344,3.46955,25.3757,7.43953,-67.9847,0.2008309999999999,0.15355,0.834651,248.2,5.2,52.1701,4.42719,3.3,-2.59588,80.6528,4.26996,49.3315,21.6611,240.944,1.35081,0.028687,246.895,0.834648,1.80587,-34.970123291015604,21.997879028320305,-35.0,22.0,2373590.0,-15689.9,pp-riro,4,0,-1,-1
1570542845.2,2019-10-08,15:54:05.200,14.0,7.0,14.710000038147,13.2,-2.2,3.8,23.3,-8.2,-62.6,11.6268,-1.723,3.90051,8.20917,6.37366,1.13751,26.2321,6.6136,-65.3873,0.142463,0.1912049999999999,0.945602,248.2,5.2,52.1701,4.42719,3.3,-2.7244200000000003,90.9466,4.26993,49.0394,22.8011,240.74400000000003,1.34982,0.00723483,246.74400000000003,0.95126,1.89376,-34.973541259765604,21.997879028320305,-35.0,22.0,2371130.0,-14305.5,pp-riro,4,0,-1,-1
1570542845.3,2019-10-08,15:54:05.300,14.0,8.0,14.5900001525879,14.2,-1.5,4.1,24.5,-9.9,-57.6,12.1005,-1.36945,4.08994,10.5109,6.20891,2.99352,26.9054,5.90589,-62.7506,0.117664,0.17417,0.948077,248.2,5.2,52.1701,4.42719,3.3,-2.75767,94.0628,4.26989,48.8057,24.3211,240.444,1.34778,-0.0198092,246.55,1.07297,1.97824,-34.975250244140604,21.997879028320305,-35.0,22.0,2370540.0,-11075.2,pp-riro,4,0,-1,-1
1570542845.4,2019-10-08,15:54:05.400,14.0,9.0,14.3999996185303,15.0,-0.6,4.5,25.4,-11.5,-52.5,13.7934,0.0870271,4.906619999999999,8.12957,7.81952,4.67389,29.1864,2.55815,-51.2529,0.155226,0.181142,0.972381,248.2,5.2,52.1701,4.42719,3.3,-2.79756,90.7607,4.26986,48.6597,25.4612,240.144,1.34597,-0.0395601,246.344,1.1885,2.0623400000000003,-34.9906158447266,21.997879028320305,-35.0,22.0,2369460.0,-11229.0,pp-riro,4,0,-1,-1
1570542845.5,2019-10-08,15:54:05.500,14.0,9.0,14.1599998474121,15.8,0.3,4.8,26.2,-13.4,-47.7,14.6182,0.958178,5.24704,6.59784,8.3595,3.00704,29.9524,0.576774,-45.8513,0.190279,0.151743,0.92077,248.2,5.2,52.1701,4.42719,3.3,-2.8485400000000003,82.5511,4.2698,48.6304,26.9812,239.74400000000003,1.34286,-0.0639444,246.11,1.3047799999999998,2.14313,-34.9923248291016,21.997879028320305,-35.0,22.0,2368050.0,-16243.6,pp-riro,4,0,-1,-1
1570542845.6,2019-10-08,15:54:05.600,14.0,9.0,14.0299997329712,16.6,1.3,5.1,26.8,-14.9,-42.6,14.9713,1.45599,5.3684400000000005,4.99761,8.17497,2.8716,30.0864,-0.4499039999999999,-43.1643,0.1106559999999999,0.212653,0.967193,227.9,4.9,52.1701,4.42719,3.3,-2.93719,83.1437,4.26973,48.6596,28.8813,239.444,1.33873,-0.0929929,246.04,1.42904,2.22816,-34.9957275390625,21.997879028320305,-35.0,22.0,2366200.0,-19197.0,pp-riro,4,0,-1,-1
1570542845.7,2019-10-08,15:54:05.700,14.0,9.0,14.0900001525879,17.2,2.3,5.5,27.4,-16.5,-37.4,15.2966,1.98539,5.56021,7.837610000000001,10.0417,2.06305,30.4369,-1.38842,-40.5256,0.0837322,0.158956,0.906074,227.9,4.9,52.1701,4.42719,3.3,-3.01476,89.9175,4.26957,48.8348,30.0214,239.044,1.33543,-0.108379,245.822,1.54114,2.29717,-34.9940185546875,21.997879028320305,-35.0,22.0,2364400.0,-17012.8,pp-riro,4,0,-1,-1
1570542845.8,2019-10-08,15:54:05.800,14.0,9.0,14.1599998474121,17.7,3.4,6.0,27.6,-18.3,-32.3,16.1423,3.33731,6.09518,4.64647,10.8284,4.1262300000000005,30.9616,-3.9303,-32.6553,0.214813,0.1875099999999999,0.965826,227.9,4.9,52.1701,4.42719,3.3,-3.0879,91.9396,4.269419999999999,49.0977,31.9214,238.544,1.33006,-0.133515,245.628,1.66178,2.37813,-34.9991455078125,21.997879028320305,-35.0,22.0,2362470.0,-11413.6,pp-riro,4,0,-1,-1
1570542845.9,2019-10-08,15:54:05.900,14.0,9.0,14.1499996185303,18.1,4.5,6.4,27.5,-20.1,-26.7,16.1423,3.33731,6.09518,4.64647,10.8284,4.1262300000000005,30.9616,-3.9303,-32.6553,0.214813,0.1875099999999999,0.965826,227.9,4.9,52.1701,4.42719,3.3,-3.1034200000000003,90.256,4.26926,49.4482,33.8215,237.944,1.32415,-0.156763,245.37,1.78808,2.45324,-34.9991455078125,21.9983940124512,-35.0,22.0,2361750.0,-13690.2,pp-riro,4,0,-1,-1
1570542846.0,2019-10-08,15:54:06.000,14.0,10.0,14.0900001525879,18.5,5.7,6.6,27.4,-21.6,-21.0,17.118,6.017530000000001,7.01438,4.74303,10.0382,3.25137,30.2972,-8.5043,-18.4854,0.0110731,0.298535,1.01532,227.9,4.9,52.1701,4.42719,3.3,-3.15661,89.5995,4.2691,49.9154,35.7216,237.444,1.3178299999999998,-0.177861,245.25,1.91137,2.5255,-35.0025634765625,21.997879028320305,-35.0,22.0,2360310.0,-14428.5,pp-riro,4,0,-1,-1
1570542846.1,2019-10-08,15:54:06.100,14.0,9.0,14.2799997329712,18.9,7.0,7.1,27.1,-23.0,-15.5,17.3458,6.58299,7.14243,4.996090000000001,11.2946,2.47427,30.1339,-9.29719,-15.5804,0.0402642,0.289271,0.903375,227.9,4.9,52.1701,4.42719,3.1,-3.22254,98.1648,4.26895,50.4996,37.2416,236.844,1.31182,-0.191987,245.015,2.0228900000000003,2.59342,-35.0025634765625,21.9983940124512,-35.0,22.0,2358190.0,-12675.0,pp-riro,4,0,-1,-1
1570542846.2,2019-10-08,15:54:06.200,14.0,8.0,14.460000038147,19.1,8.2,7.7,26.8,-24.6,-9.8,17.7299,8.26528,7.87759,1.54093,11.5208,4.92422,29.1241,-11.4177,-6.553839999999999,0.0908973999999999,0.241787,0.938162,227.9,4.9,52.1701,4.42719,3.1,-3.22919,105.655,4.26879,51.2005,39.5217,236.144,1.30345,-0.213772,244.842,2.14485,2.66439,-35.0042724609375,21.997879028320305,-35.0,22.0,2357590.0,-3937.85,pp-riro,4,0,-1,-1
1570542846.3,2019-10-08,15:54:06.300,14.0,9.0,14.640000343322802,19.2,9.6,8.1,26.0,-26.1,-4.1,17.7299,8.26528,7.87759,1.54093,11.5208,4.92422,29.1241,-11.4177,-6.553839999999999,0.0908973999999999,0.241787,0.938162,227.9,4.9,52.1701,4.42719,3.1,-3.22753,109.558,4.26863,52.0183,41.0418,235.444,1.29647,-0.224234,244.59,2.2539700000000003,2.7298,-35.0059814453125,21.9983940124512,-35.0,22.0,2357480.0,-2122.75,pp-riro,4,0,-1,-1
1570542846.4,2019-10-08,15:54:06.400,14.0,10.0,14.8199996948242,19.2,11.0,8.6,25.4,-27.2,1.8,17.7299,8.26528,7.87759,1.54093,11.5208,4.92422,29.1241,-11.4177,-6.553839999999999,0.0908973999999999,0.241787,0.938162,227.9,4.9,52.1701,4.42719,3.1,-3.17545,115.718,4.26848,53.0113,43.3219,234.644,1.28691,-0.2412409999999999,244.428,2.36954,2.80015,-35.0059814453125,21.9983940124512,-23.0,22.0,2357480.0,2122.75,pp-riro,4,0,-1,-1
1570542846.5,2019-10-08,15:54:06.500,14.0,10.0,15.0600004196167,19.1,12.5,9.1,24.4,-28.3,7.8,17.7082,10.8682,8.80228,-0.093639,11.5566,4.18389,27.0683,-14.1494,5.5345,0.137261,0.279993,0.990458,227.9,4.9,52.1701,4.42719,3.1,-3.06241,122.015,4.26832,54.1212,44.8419,233.74400000000003,1.27871,-0.2478389999999999,244.082,2.47545,2.86266,-35.0059814453125,21.997879028320305,-23.0,22.0,2358360.0,8091.06,pp-riro,4,0,-1,-1
1570542846.6,2019-10-08,15:54:06.600,14.0,10.0,15.289999961853,18.9,13.9,9.6,23.8,-29.5,13.8,17.6271,12.2885,9.26121,-2.58513,15.6707,3.05613,25.9964,-15.2728,11.8848,-0.150444,0.253861,1.03251,239.1,4.9,52.1701,4.42719,3.1,-2.95548,132.368,4.26819,55.3479,47.122,232.944,1.26832,-0.261094,244.022,2.58642,2.92678,-34.9189300537109,21.997879028320305,-23.0,22.0,2359210.0,10490.7,pp-riro,4,0,-1,-1
1570542846.7,2019-10-08,15:54:06.700,14.0,10.0,15.5799999237061,18.5,15.4,10.1,23.1,-30.5,19.9,17.337,14.3033,10.0353,-5.446330000000001,13.2577,4.74775,24.1675,-16.8159,20.9794,0.179792,0.259162,0.99498,239.1,4.9,52.1701,4.42719,3.1,-2.88234,139.36700000000002,4.26809,56.7498,48.6421,231.944,1.25906,-0.26432,243.69,2.68761,2.98619,-34.6151275634766,21.9983940124512,-23.0,22.0,2359990.0,14582.4,pp-riro,4,0,-1,-1
1570542846.8,2019-10-08,15:54:06.800,14.0,11.0,15.8000001907349,18.1,16.9,10.7,22.0,-31.4,26.3,17.337,14.3033,10.0353,-5.446330000000001,13.2577,4.74775,24.1675,-16.8159,20.9794,0.179792,0.259162,0.99498,239.1,4.9,52.1701,4.42719,3.1,-2.68231,154.139,4.26799,58.2977,50.5421,230.944,1.24836,-0.26986,243.492,2.79382,3.04449,-33.652496337890604,21.9983940124512,-23.0,22.0,2362080.0,23473.3,pp-riro,4,0,-1,-1
1570542846.9,2019-10-08,15:54:06.900,14.0,11.0,16.0799999237061,17.6,18.3,11.2,20.7,-32.0,33.0,16.7555,16.3652,10.7905,-5.06295,13.8978,4.59938,21.9771,-18.5952,30.5831,0.0583645,0.2067159999999999,0.949985,239.1,4.9,52.1701,4.42719,3.1,-2.43242,165.63099999999997,4.26789,59.9625,52.4422,229.844,1.23717,-0.274092,243.257,2.90141,3.09816,-32.488479614257805,21.9983940124512,-23.0,22.0,2364720.0,27534.2,pp-riro,4,0,-1,-1
1570542847.0,2019-10-08,15:54:07.000,14.0,11.0,16.4099998474121,16.8,19.7,11.6,19.1,-32.9,39.5,16.2393,17.75,11.2618,-6.9702,11.2619,2.37923,20.2128,-19.696,36.9902,0.081505,0.178425,1.02612,239.1,4.9,52.1701,4.42719,3.1,-1.94594,175.11700000000002,4.26779,61.7733,54.3423,228.74400000000003,1.22553,-0.276887,243.09,3.0037700000000003,3.15567,-30.9626159667969,21.9983940124512,-23.0,22.0,2369050.0,28395.6,pp-riro,4,0,-1,-1
1570542847.1,2019-10-08,15:54:07.100,14.0,11.0,16.6700000762939,15.8,20.9,11.9,17.0,-33.6,46.1,16.2393,17.75,11.2618,-6.9702,11.2619,2.37923,20.2128,-19.696,36.9902,0.081505,0.178425,1.02612,239.1,4.9,52.1701,4.42719,3.0,-1.7769400000000002,175.986,4.26769,63.7302,55.4824,227.644,1.21538,-0.27162,242.82,3.09892,3.20457,-29.5869598388672,21.9994239807129,-22.698232650756804,22.0,2370270.0,25842.2,pp-riro,4,0,-1,-1
1570542847.2,2019-10-08,15:54:07.200,14.0,9.0,16.9300003051758,14.8,22.1,12.0,15.4,-33.8,52.6,14.075,20.7677,11.9173,-8.92728,13.0339,-1.29041,15.7338,-22.7496,52.5196,0.0891313,0.186052,1.04256,239.1,4.9,52.1701,4.42719,3.0,-1.2322799999999998,173.196,4.26759,65.8331,57.3824,226.444,1.20271,-0.2721179999999999,242.701,3.19625,3.25735,-27.170166015625,21.9994239807129,-22.2366600036621,22.0,2373450.0,18212.6,pp-riro,4,0,-1,-1
1570542847.3,2019-10-08,15:54:07.300,14.0,10.0,17.1399993896484,13.5,23.0,12.1,13.5,-33.6,58.7,14.075,20.7677,11.9173,-8.92728,13.0339,-1.29041,15.7338,-22.7496,52.5196,0.0891313,0.186052,1.04256,239.1,4.9,52.1701,4.42719,3.0,-1.0655,171.21,4.26749,68.0528,58.9025,225.24400000000003,1.19065,-0.268544,242.56,3.28379,3.30801,-25.5521392822266,21.9994239807129,-21.7025928497314,22.0,2374200.0,14859.2,pp-riro,4,0,-1,-1
1570542847.4,2019-10-08,15:54:07.400,14.0,9.0,17.3999996185303,12.3,23.9,12.0,11.8,-33.4,64.5,12.4866,22.1593,12.001,-7.675910000000001,3.27545,-0.414606,12.9908,-23.5894,61.5878,0.0238069,0.0454924,0.976008,239.1,4.9,52.1701,4.42719,3.0,-0.716983,166.47099999999998,4.26739,70.3309,60.4226,224.044,1.1784,-0.26476,242.473,3.3664300000000003,3.35551,-24.1457595825195,21.9994239807129,-21.2494487762451,22.0,2375280.0,9506.23,pp-riro,4,0,-1,-1
1570542847.5,2019-10-08,15:54:07.500,14.0,8.0,17.6000003814697,10.9,24.5,11.8,9.7,-33.3,70.3,11.2312,23.0004,11.9505,-13.4432,6.646319999999999,-2.54357,11.3369,-23.8678,66.9181,-0.0990931,0.0906238,0.838233,239.1,4.9,52.1701,4.42719,3.0,-0.248229,163.519,4.26728,72.7843,61.5627,222.844,1.16657,-0.2569599999999999,242.378,3.4451400000000003,3.40055,-22.961257934570305,21.9994239807129,-20.7436656951904,22.0,2376030.0,2891.86,pp-riro,4,0,-1,-1
1570542847.6,2019-10-08,15:54:07.600,14.0,8.0,17.7000007629395,9.5,24.9,11.6,8.2,-32.5,75.7,10.0269,23.555,11.7185,-16.8388,6.6597800000000005,-0.463071,9.81542,-24.0214,72.2363,0.13533,0.190109,0.708946,245.0,5.4,52.1701,4.42719,3.0,0.0376776,164.808,4.26722,75.1793,62.3227,221.74400000000003,1.1559700000000002,-0.247004,242.294,3.51793,3.4412,-22.1829681396484,21.9994239807129,-20.2277946472168,22.0,2376070.0,-553.761,pp-riro,4,0,-1,-1
1570542847.7,2019-10-08,15:54:07.700,14.0,8.0,17.7900009155273,8.3,25.3,11.4,6.6,-32.0,80.5,8.20774,24.1511,11.3813,-13.7689,2.18704,-3.4477300000000004,7.38555,-23.032,79.8065,0.231208,0.0501705999999999,0.799293,245.0,5.4,52.1701,4.42719,3.0,0.176198,164.484,4.267180000000001,77.6326,63.0828,220.644,1.14515,-0.237159,242.26,3.5812800000000005,3.47626,-21.2339935302734,21.9994239807129,-19.8520450592041,22.0,2375940.0,-2461.16,pp-riro,4,0,-1,-1
1570542847.8,2019-10-08,15:54:07.800,14.0,8.0,17.840000152587898,6.9,25.5,11.2,4.7,-31.5,85.5,8.20774,24.1511,11.3813,-13.7689,2.18704,-3.4477300000000004,7.38555,-23.032,79.8065,0.231208,0.0501705999999999,0.799293,245.0,5.4,52.1701,4.42719,3.0,0.331895,162.884,4.26714,80.2613,64.2228,219.544,1.1329,-0.229598,242.417,3.64939,3.5179,-20.5376358032227,21.9994239807129,-19.490427017211896,22.0,2375850.0,2830.33,pp-riro,4,0,-1,-1
1570542847.9,2019-10-08,15:54:07.900,14.0,8.0,17.9899997711182,5.7,25.8,11.1,3.4,-30.3,89.7,8.20774,24.1511,11.3813,-13.7689,2.18704,-3.4477300000000004,7.38555,-23.032,79.8065,0.231208,0.0501705999999999,0.799293,245.0,5.4,52.1701,4.42719,3.0,0.2449039999999999,170.108,4.2671,82.773,64.9829,218.444,1.12186,-0.220282,242.47,3.70773,3.55256,-19.9641571044922,21.9994239807129,-19.180593490600604,22.0,2375940.0,-492.232,pp-riro,4,0,-1,-1
1570542848.0,2019-10-08,15:54:08.000,14.0,10.0,18.1399993896484,4.5,26.1,11.4,1.5,-29.2,93.9,5.71941,24.6754,11.0267,-9.10479,2.8586400000000003,-2.3024400000000003,4.10085,-22.1501,88.7909,0.167469,0.202761,0.783408,245.0,5.4,52.1701,4.42719,3.0,0.336882,193.996,4.26706,85.3432,65.3629,217.444,1.11166,-0.208256,242.565,3.76401,3.5822,-19.7303314208984,21.9994239807129,-18.880300521850604,22.0,2375880.0,399.9380000000001,pp-riro,4,0,-1,-1
1570542848.1,2019-10-08,15:54:08.100,14.0,11.0,18.1800003051758,3.3,26.3,11.5,-0.1,-28.4,98.0,4.49719,25.0745,11.137,-12.2794,4.68791,2.41572,2.3835,-20.8978,93.1438,-0.252513,0.201854,0.5997399999999999,245.0,5.4,52.1701,4.42719,3.0,0.366803,208.594,4.26701,87.8842,65.743,216.24400000000003,1.10113,-0.196885,242.502,3.81817,3.61261,-19.3565444946289,21.9994239807129,-18.6162242889404,22.0,2375910.0,61.529,pp-riro,4,0,-1,-1
1570542848.2,2019-10-08,15:54:08.200,14.0,11.0,18.3299999237061,2.2,26.6,11.4,-2.1,-27.4,102.5,3.96799,25.1651,11.2325,-11.0773,3.74872,0.5711189999999999,1.29523,-20.5016,95.325,-0.0796411,0.137758,0.78198,245.0,5.4,52.1701,4.42719,3.0,0.364586,218.23,4.26697,90.6297,66.123,215.044,1.08994,-0.184897,242.548,3.87904,3.64111,-19.0134811401367,21.9994239807129,-18.435379028320305,22.0,2375990.0,615.29,pp-riro,4,0,-1,-1
1570542848.3,2019-10-08,15:54:08.300,14.0,10.0,18.3700008392334,0.8,26.8,11.5,-4.0,-25.8,106.3,2.2617700000000003,25.5209,11.0668,-8.79815,2.92072,-0.324782,-1.96956,-19.7406,101.382,-0.233436,0.0256584999999999,0.5126850000000001,245.0,5.4,52.1701,4.42719,3.0,0.376222,224.295,4.26693,93.2875,66.5031,213.844,1.07896,-0.173861,242.599,3.93475,3.67789,-18.6533508300781,21.9994239807129,-18.119806289672898,22.0,2375990.0,0.0,pp-riro,4,0,-1,-1
1570542848.4,2019-10-08,15:54:08.400,14.0,11.0,18.5100002288818,-0.5,26.7,11.7,-6.0,-25.3,110.1,0.2672449999999999,25.7798,11.2041,-16.5718,-4.07456,1.75791,-5.21734,-18.0,107.074,-0.0956631,0.0926781,0.499129,245.0,5.4,52.1701,4.42719,3.0,0.409467,240.586,4.26687,95.9453,66.5031,212.644,1.06873,-0.16058,242.581,3.98177,3.70705,-18.4519500732422,21.9994239807129,-17.8868522644043,22.0,2376060.0,584.525,pp-riro,4,0,-1,-1
1570542848.5,2019-10-08,15:54:08.500,14.0,11.0,18.7000007629395,-1.7,26.6,11.4,-8.4,-24.4,114.0,-1.00624,25.6068,11.1401,-14.1382,-4.230980000000001,-0.0802391,-7.685389999999999,-17.5228,110.718,-0.190619,0.054535,0.538643,245.0,5.4,52.1701,4.42719,3.0,0.428306,246.372,4.26685,98.6324,66.1231,211.344,1.05889,-0.145039,242.418,4.03117,3.735630000000001,-18.1959381103516,21.9994239807129,-17.617805480957,22.0,2376120.0,707.5830000000001,pp-riro,4,0,-1,-1
1570542848.6,2019-10-08,15:54:08.600,14.0,11.0,18.840000152587898,-3.0,26.5,11.3,-10.3,-22.8,117.4,-1.57751,25.4996,11.0226,-10.6017,-4.61762,-7.847989999999999,-8.9001,-17.313,112.53,-0.152191,0.0309348999999999,0.4975,232.9,4.7,52.1701,4.42719,3.0,0.434401,256.187,4.26679,101.261,66.1232,210.144,1.0485799999999998,-0.132883,242.459,4.0816300000000005,3.76897,-17.8170318603516,21.9994239807129,-17.37912940979,22.0,2376210.0,707.5830000000001,pp-riro,4,0,-1,-1
1570542848.7,2019-10-08,15:54:08.700,14.0,11.0,19.0699996948242,-4.4,26.3,11.5,-12.3,-21.2,120.8,-2.20775,25.496,10.8495,-10.514,-1.65806,3.03786,-10.1781,-16.7401,114.187,-0.329931,0.208261,0.643888,232.9,4.7,52.1701,4.42719,3.0,0.44659,262.526,4.2667,104.006,65.7432,208.743,1.03817,-0.1180089999999999,242.308,4.1304300000000005,3.80017,-17.5576019287109,21.9994239807129,-17.1654014587402,22.0,2376230.0,461.467,pp-riro,4,0,-1,-1
1570542848.8,2019-10-08,15:54:08.800,14.0,12.0,19.159999847412102,-5.9,25.9,11.2,-14.1,-20.4,124.1,-2.8536900000000003,25.4983,10.879,-14.7818,-5.32241,2.11499,-11.2843,-15.8422,115.782,-0.256387,0.320528,0.429047,232.9,4.7,52.1701,4.42719,3.0,0.4754029999999999,276.967,4.26662,106.606,65.3632,207.443,1.02831,-0.104245,242.219,4.17267,3.84145,-17.3050003051758,21.9994239807129,-16.765182495117198,22.0,2376360.0,1076.76,pp-riro,4,0,-1,-1
1570542848.9,2019-10-08,15:54:08.900,14.0,11.0,19.2099990844727,-7.3,25.7,10.8,-15.5,-19.3,126.8,-5.70247,24.9528,10.7282,-15.5865,1.22941,-6.53498,-15.7284,-13.8879,122.735,-0.3946989999999999,-0.118864,0.469948,232.9,4.7,52.1701,4.42719,3.0,0.482606,283.725,4.26653,109.176,64.6033,206.243,1.01936,-0.0884589,242.135,4.20723,3.87886,-17.0523986816406,21.9994239807129,-16.373348236084002,22.0,2376410.0,984.464,pp-riro,4,0,-1,-1
1570542849.0,2019-10-08,15:54:09.000,14.0,12.0,19.2600002288818,-8.1,25.7,10.8,-16.6,-17.7,129.4,-6.4177,24.8445,10.5544,-13.157,-8.88224,-3.64958,-16.5016,-13.4096,123.935,-0.0977653,-0.0486971999999999,0.298198,232.9,4.7,52.1701,4.42719,3.0,0.531365,311.16200000000003,4.26644,111.746,64.2233,205.043,1.00962,-0.0756778,242.187,4.24737,3.8937,-16.8783111572266,21.9994239807129,-16.574481964111303,22.0,2376510.0,738.3480000000001,pp-riro,4,0,-1,-1
1570542849.1,2019-10-08,15:54:09.100,14.0,11.0,19.4400005340576,-9.5,25.2,11.0,-17.0,-17.3,131.1,-8.59411,24.3986,10.5276,-15.2082,-3.27944,0.862477,-19.0931,-11.5262,128.215,-0.257378,-0.0460563,0.405828,232.9,4.7,52.1701,4.42719,3.1,0.5607310000000001,324.472,4.2663400000000005,113.031,63.0833,204.443,1.00636,-0.0629959,241.977,4.2648,3.92728,-16.4413757324219,21.9994239807129,-15.940826416015598,22.0,2376620.0,1261.34,pp-riro,4,0,-1,-1
1570542849.2,2019-10-08,15:54:09.200,14.0,10.0,19.7099990844727,-11.2,24.4,10.6,-18.8,-16.2,135.7,-9.7987,23.8352,10.5721,-10.4593,-6.13945,-0.44982,-20.3826,-11.0477,131.39600000000002,-0.0273694,-0.1048099999999999,0.509987,232.9,4.7,52.1701,4.42719,3.1,0.566272,328.655,4.26626,116.828,61.9433,202.543,0.992408,-0.0413954,241.888,4.32205,3.97288,-16.193893432617198,21.9994239807129,-15.7879934310913,22.0,2376700.0,1599.75,pp-riro,4,0,-1,-1
1570542849.3,2019-10-08,15:54:09.300,14.0,9.0,20.1000003814697,-11.7,24.2,10.4,-19.2,-15.3,137.0,-10.3629,23.492,10.3955,-13.0104,-7.51002,-6.60572,-20.8596,-10.8003,132.921,-0.114618,-0.0482268,0.437503,232.9,4.7,52.1701,4.42719,3.1,0.574583,326.265,4.26618,117.967,61.5633,202.043,0.988401,-0.0347742,241.925,4.343319999999999,3.98718,-15.8986206054688,21.9994239807129,-15.7313690185547,22.0,2376860.0,1815.1,pp-riro,4,0,-1,-1
1570542849.4,2019-10-08,15:54:09.400,14.0,10.0,20.409999847412102,-12.7,23.6,10.2,-19.8,-13.3,141.8,-10.3629,23.492,10.3955,-13.0104,-7.51002,-6.60572,-20.8596,-10.8003,132.921,-0.114618,-0.0482268,0.437503,232.9,4.7,52.1701,4.42719,3.1,0.553528,319.465,4.26609,120.333,60.4233,200.243,0.978807,-0.0190949,241.306,4.41725,4.0128,-15.7381820678711,21.9994239807129,-15.8060808181763,22.0,2377180.0,1815.1,pp-riro,4,0,-1,-1
1570542849.5,2019-10-08,15:54:09.500,14.0,9.0,20.6200008392334,-13.5,22.4,9.7,-20.2,-13.0,143.5,-12.1655,22.1525,9.83465,-8.52892,-9.38939,-3.6471,-22.8488,-8.28439,139.096,-0.0410303,0.0127785,0.6082390000000001,232.9,4.7,52.1701,4.42719,3.1,0.555191,319.492,4.266,122.728,58.9033,199.643,0.972339,-0.00108876,241.639,4.42925,4.042330000000001,-15.681854248046902,21.9994239807129,-15.5586585998535,22.0,2377260.0,1538.22,pp-riro,4,0,-1,-1
1570542849.6,2019-10-08,15:54:09.600,14.0,8.0,20.7900009155273,-14.3,21.4,9.1,-20.4,-11.7,146.1,-13.0415,21.0862,9.36269,-11.5381,-13.1896,-4.5101,-23.2169,-7.50104,142.292,-0.0519766999999999,0.1496019999999999,0.410471,242.0,5.2,52.1701,4.42719,3.1,0.556299,317.71,4.26593,124.89,57.3833,198.643,0.965526,0.0157339,241.556,4.46469,4.074380000000001,-15.7262344360352,21.9994239807129,35.0,22.0,2377510.0,1753.58,pp-riro,4,0,-1,-1
1570542849.7,2019-10-08,15:54:09.700,14.0,9.0,20.9599990844727,-15.0,20.3,8.6,-20.6,-10.2,148.9,-13.0415,21.0862,9.36269,-11.5381,-13.1896,-4.5101,-23.2169,-7.50104,142.292,-0.0519766999999999,0.1496019999999999,0.410471,242.0,5.2,52.1701,4.42719,3.1,0.7324970000000001,313.266,4.26589,126.934,55.8633,197.643,0.958941,0.0319105,241.445,4.50565,4.1057,-15.7415924072266,21.9994239807129,35.0,22.0,2376490.0,-18243.3,pp-riro,4,0,-1,-1
1570542849.8,2019-10-08,15:54:09.800,14.0,9.0,21.1200008392334,-15.5,19.4,7.6,-20.5,-9.0,151.6,-14.4097,19.0798,8.066889999999999,-10.3031,-7.75436,-9.85141,-23.3787,-4.42755,147.752,0.229992,0.0499398,0.6841689999999999,242.0,5.2,52.1701,4.42719,3.1,1.2079,297.151,4.26585,128.94899999999998,54.3433,196.743,0.952563,0.0476957,241.431,4.54265,4.13968,-15.371223449707,21.9994239807129,35.0,22.0,2374580.0,-15259.2,pp-riro,4,0,-1,-1
1570542849.9,2019-10-08,15:54:09.900,14.0,10.0,21.2099990844727,-16.0,18.5,6.7,-20.4,-7.5,153.5,-14.7795,18.1651,7.078239999999999,0.521533,-4.99601,-7.77354,-23.1822,-3.56235,150.329,0.2061599999999999,-0.00367872,0.525782,242.0,5.2,52.1701,4.42719,3.1,1.05996,271.002,4.26579,130.819,53.2033,196.043,0.94653,0.0603298,241.613,4.57411,4.17685,-14.628776550293,21.9994239807129,35.0,22.0,2376530.0,20181.5,pp-riro,4,0,-1,-1
1570542850.0,2019-10-08,15:54:10.000,14.0,8.0,21.2900009155273,-16.4,17.5,6.3,-20.2,-6.2,155.6,-14.7795,18.1651,7.078239999999999,0.521533,-4.99601,-7.77354,-23.1822,-3.56235,150.329,0.2061599999999999,-0.00367872,0.525782,242.0,5.2,52.1701,4.42719,3.1,1.06439,290.17,4.26577,132.571,51.3033,195.343,0.941719,0.0773835,241.591,4.60297,4.20135,-13.5313186645508,21.9994239807129,35.0,22.0,2376130.0,-9906.17,pp-riro,4,0,-1,-1
1570542850.1,2019-10-08,15:54:10.100,14.0,10.0,21.3700008392334,-17.1,16.9,5.9,-20.4,-4.9,157.9,-14.7795,18.1651,7.078239999999999,0.521533,-4.99601,-7.77354,-23.1822,-3.56235,150.329,0.2061599999999999,-0.00367872,0.525782,242.0,5.2,52.1701,4.4272,3.1,1.16911,326.24,4.2657300000000005,134.35299999999998,49.7833,194.743,0.936487,0.0917865,241.772,4.63684,4.22986,-12.0822677612305,21.9994239807129,35.0,22.0,2376150.0,3722.5,pp-riro,4,0,-1,-1
1570542850.2,2019-10-08,15:54:10.200,14.0,10.0,21.3700008392334,-17.2,16.1,5.7,-20.5,-4.0,160.3,-14.7795,18.1651,7.078239999999999,0.521533,-4.99601,-7.77354,-23.1822,-3.56235,150.329,0.2061599999999999,-0.00367872,0.525782,242.0,5.2,52.1701,4.4272,3.1,1.1846299999999998,336.07,4.265680000000001,135.93,47.8833,194.143,0.932226,0.108014,241.788,4.66661,4.24077,-10.278205871582,21.9994239807129,35.0,22.0,2376610.0,2768.8,pp-riro,4,0,-1,-1
1570542850.3,2019-10-08,15:54:10.300,14.0,9.0,21.409999847412102,-17.6,15.5,5.6,-21.3,-3.0,162.0,-16.0473,15.7262,5.655869999999999,-1.15206,-11.6402,-4.67561,-23.4933,-0.612909,157.6,0.0776617,-0.179857,0.558728,242.0,5.2,52.1701,4.4272,3.1,1.18574,336.82300000000004,4.26564,137.47799999999998,46.3633,193.543,0.927533,0.1214819999999999,241.886,4.68984,4.25633,-8.18057250976562,21.9994239807129,35.0,22.0,2376820.0,3999.38,pp-riro,4,0,-1,-1
1570542850.4,2019-10-08,15:54:10.400,14.0,10.0,21.409999847412102,-17.5,15.0,5.4,-22.1,-1.5,163.3,-16.6228,14.8814,5.41595,1.93363,-5.20554,-3.3073300000000003,-24.5066,0.211511,161.036,-0.0244103,0.0148159,0.227554,242.0,5.2,52.1701,4.4272,3.1,1.15249,305.193,4.2656,138.968,44.0833,192.843,0.923457,0.139587,241.751,4.70913,4.25507,-6.07099914550781,21.9994239807129,35.0,22.0,2377510.0,5876.02,pp-riro,4,0,-1,-1
1570542850.5,2019-10-08,15:54:10.500,14.0,8.0,21.4500007629395,-17.3,14.6,5.3,-23.1,-1.1,164.5,-16.4966,14.1932,5.09698,-2.82983,-4.7154,-4.24672,-25.5713,1.0263799999999998,163.385,-0.0890356,-0.0204923,0.0603133,242.0,5.2,52.1701,4.4272,3.1,1.08988,283.262,4.26556,140.37,42.5632,192.243,0.919029,0.152417,241.811,4.71973,4.25122,-3.963134765625,21.9994239807129,35.0,22.0,2378120.0,5476.08,pp-riro,4,0,-1,-1
1570542850.6,2019-10-08,15:54:10.600,14.0,9.0,21.2000007629395,-17.2,14.3,5.4,-24.1,-0.8,165.2,-16.4966,14.1932,5.09698,-2.82983,-4.7154,-4.24672,-25.5713,1.0263799999999998,163.385,-0.0890356,-0.0204923,0.0603133,248.7,6.9,52.1701,4.4272,3.1,1.08268,277.747,4.26556,141.859,40.6632,191.643,0.914595,0.167667,241.877,4.72039,4.2412,-1.85868072509766,21.9994239807129,35.0,22.0,2378390.0,2461.16,pp-riro,4,0,-1,-1
1570542850.7,2019-10-08,15:54:10.700,14.0,10.0,20.909999847412102,-16.7,14.0,5.5,-25.0,-0.7,164.9,-16.4966,14.1932,5.09698,-2.82983,-4.7154,-4.24672,-25.5713,1.0263799999999998,163.385,-0.0890356,-0.0204923,0.0603133,248.7,6.9,52.1701,4.4272,3.1,1.08379,277.955,4.26556,143.174,39.1432,191.043,0.910279,0.179955,241.926,4.70752,4.22242,0.2503662109375,21.9994239807129,35.0,22.0,2378540.0,3076.45,pp-riro,4,0,-1,-1
1570542850.8,2019-10-08,15:54:10.800,14.0,10.0,20.479999542236303,-16.6,14.0,5.7,-26.5,-1.8,164.0,-16.3854,13.7455,5.48296,4.1599900000000005,0.714516,7.0804100000000005,-28.918000000000003,-1.56482,164.99400000000003,-0.0884875,-0.151371,0.00822459,248.7,6.9,52.1701,4.4272,3.1,1.08323,280.671,4.265569999999999,144.576,37.2432,190.343,0.905671,0.194704,241.908,4.67166,4.2031,2.35033416748047,21.9994239807129,35.0,22.0,2378830.0,2768.8,pp-riro,4,0,-1,-1
1570542850.9,2019-10-08,15:54:10.900,14.0,10.0,20.1299991607666,-16.6,14.1,6.4,-28.0,-3.1,162.8,-16.3854,13.7455,5.48296,4.1599900000000005,0.714516,7.0804100000000005,-28.918000000000003,-1.56482,164.99400000000003,-0.0884875,-0.151371,0.00822459,248.7,6.9,52.1701,4.4272,3.1,1.10983,295.381,4.265569999999999,145.91899999999998,35.7232,189.643,0.900852,0.206721,241.936,4.63171,4.17465,4.457122802734379,21.9994239807129,35.0,22.0,2379110.0,1538.22,pp-riro,4,0,-1,-1
1570542851.0,2019-10-08,15:54:11.000,14.0,10.0,19.8199996948242,-16.3,14.4,7.2,-29.3,-4.5,161.1,-16.5953,14.056,6.44333,-0.0667441,7.73946,9.54932,-30.7503,-4.39407,163.52200000000002,0.0110637999999999,-0.169838,-0.304618,248.7,6.9,52.1701,4.4272,3.1,1.11814,296.004,4.26558,147.35,33.8232,188.843,0.8957069999999999,0.2211719999999999,241.904,4.58201,4.1291,6.56221008300781,21.9994239807129,35.0,22.0,2379390.0,3168.74,pp-riro,4,0,-1,-1
1570542851.1,2019-10-08,15:54:11.100,14.0,12.0,19.5100002288818,-15.7,15.0,8.0,-30.1,-6.6,159.1,-16.4222,14.6323,7.221830000000001,7.1075800000000005,13.0567,15.3287,-32.0597,-5.7323900000000005,161.59,-0.316562,0.206069,-0.345075,248.7,6.9,52.1701,4.42719,2.9,1.11038,290.98,4.26559,148.781,32.3032,188.043,0.890202,0.232998,241.95,4.52281,4.07083,8.66728973388672,21.9994239807129,35.0,22.0,2379590.0,3814.8,pp-riro,4,0,-1,-1
1570542851.2,2019-10-08,15:54:11.200,14.0,11.0,19.2399997711182,-15.1,15.5,9.1,-31.1,-9.4,156.8,-16.2373,14.9203,7.69713,-2.67403,5.867290000000001,9.19734,-32.4636,-7.00962,160.59,-0.2802469999999999,-0.1773549999999999,-0.5014350000000001,248.7,6.9,52.1701,4.42719,2.9,1.09819,290.335,4.2656,150.27100000000002,30.7832,187.043,0.883926,0.244734,241.897,4.4522,4.00949,10.7757797241211,21.9994239807129,35.0,22.0,2380080.0,2830.33,pp-riro,4,0,-1,-1
1570542851.3,2019-10-08,15:54:11.300,14.0,10.0,19.1399993896484,-14.1,15.8,10.2,-31.8,-13.0,154.0,-15.3881,15.8052,9.50066,4.8638900000000005,5.0336,16.2343,-34.1088,-12.3798,157.691,-0.0539103,-0.322799,-0.662357,248.7,6.9,52.1701,4.42719,2.9,1.10872,290.616,4.26561,151.761,29.2632,186.043,0.8775809999999999,0.256295,241.867,4.366709999999999,3.94019,12.8808670043945,21.9994239807129,35.0,22.0,2380310.0,2215.04,pp-riro,4,0,-1,-1
1570542851.4,2019-10-08,15:54:11.400,14.0,10.0,19.0,-13.0,16.4,11.2,-32.0,-16.3,150.4,-13.9002,16.7601,11.2777,15.7629,6.32986,10.8437,-34.9945,-18.4746,153.518,-0.267283,-0.3357429999999999,-0.68455,248.7,6.9,52.1701,4.42719,2.9,1.1026200000000002,282.105,4.265619999999999,153.338,28.1232,184.943,0.870416,0.265382,241.883,4.27636,3.86696,15.0029754638672,21.9994239807129,35.0,22.0,2380490.0,3660.97,pp-riro,4,0,-1,-1
1570542851.5,2019-10-08,15:54:11.500,14.0,11.0,18.9599990844727,-11.4,16.9,12.2,-32.1,-19.9,146.7,-12.4388,17.4695,12.3925,13.364,4.99559,8.69951,-35.1697,-22.7526,150.136,-0.420804,-0.218609,-0.953963,248.7,6.9,52.1701,4.42719,2.9,1.06328,259.091,4.265619999999999,154.915,26.6032,183.743,0.8631469999999999,0.276701,241.801,4.18084,3.77684,17.1080627441406,21.9994239807129,35.0,22.0,2380980.0,4983.85,pp-riro,4,0,-1,-1
1570542851.6,2019-10-08,15:54:11.600,14.0,11.0,18.8199996948242,-9.8,17.5,13.3,-31.8,-23.5,142.4,-11.5442,17.8141,13.0111,15.8363,7.394660000000001,12.1413,-35.2646,-24.7404,148.414,-0.112521,-0.389159,-0.951289,247.3,6.7,52.1701,4.42719,2.9,1.02727,248.448,4.265630000000001,156.667,25.4632,182.543,0.855083,0.2856329999999999,241.899,4.08068,3.686830000000001,19.2267684936523,21.9994239807129,35.0,22.0,2381430.0,1815.1,pp-riro,4,0,-1,-1
1570542851.7,2019-10-08,15:54:11.700,14.0,11.0,18.7199993133545,-8.1,18.0,14.3,-30.7,-26.9,137.3,-10.7164,18.2584,13.6185,24.6792,2.3017,9.75497,-35.0403,-26.5238,146.27100000000002,0.0806173999999999,0.00147339,-0.808024,247.3,6.7,52.1701,4.42719,2.9,1.03226,250.426,4.26564,158.361,24.7032,181.243,0.8467120000000001,0.292002,241.945,3.97587,3.5996300000000003,21.3386688232422,21.9994239807129,35.0,22.0,2381530.0,1876.63,pp-riro,4,0,-1,-1
1570542851.8,2019-10-08,15:54:11.800,14.0,11.0,18.5799999237061,-6.3,18.3,15.3,-28.7,-30.6,131.1,-9.01601,18.9725,14.7654,14.8151,2.52281,17.8815,-34.5568,-30.4609,141.716,-0.2929719999999999,0.0319552,-0.811038,247.3,6.7,52.1701,4.42719,2.9,1.03946,254.42,4.26565,160.114,24.3233,179.843,0.8376979999999999,0.295982,242.015,3.85821,3.51401,23.4505615234375,21.9994239807129,35.0,22.0,2381760.0,2430.39,pp-riro,4,0,-1,-1
1570542851.9,2019-10-08,15:54:11.900,14.0,10.0,18.4400005340576,-4.4,18.6,16.2,-25.6,-34.5,124.3,-6.98995,19.5443,16.0504,14.3263,6.0353900000000005,15.2228,-33.3331,-34.913000000000004,136.30200000000002,0.275753,-0.218665,-1.33169,247.3,6.7,52.1701,4.42719,2.9,1.05054,262.645,4.26565,161.866,23.1833,178.44299999999998,0.829015,0.304478,242.033,3.73147,3.42444,25.5624618530273,21.9994239807129,35.0,22.0,2382060.0,1753.58,pp-riro,4,0,-1,-1
1570542852.0,2019-10-08,15:54:12.000,14.0,10.0,18.340000152587898,-2.3,18.7,16.8,-21.4,-38.1,116.0,-3.72044,20.1399,17.5804,24.976,3.5138199999999995,12.4833,-29.9241,-42.9712,126.978,-0.147578,-0.1730259999999999,-1.39374,247.3,6.7,52.1701,4.42719,2.9,1.06605,270.654,4.26566,163.67700000000002,22.8033,176.94299999999998,0.8195309999999999,0.308301,242.113,3.5963800000000004,3.3352699999999995,27.6641464233398,21.9994239807129,35.0,22.0,2382260.0,1999.69,pp-riro,4,0,-1,-1
1570542852.1,2019-10-08,15:54:12.100,14.0,11.0,18.340000152587898,0.2,18.6,17.5,-15.9,-41.1,106.6,-1.18959,20.2828,18.418,27.4299,2.34374,11.712,-25.2058,-47.2963,117.688,0.0509295,-0.138345,-1.30692,247.3,6.7,52.1701,4.42719,2.6,1.07104,275.876,4.26567,165.576,22.8034,175.243,0.809064,0.3098619999999999,242.168,3.45868,3.23333,29.7317504882812,21.9994239807129,35.0,22.0,2382370.0,2091.99,pp-riro,4,0,-1,-1
1570542852.2,2019-10-08,15:54:12.200,14.0,12.0,18.3899993896484,2.7,18.1,18.2,-9.3,-43.3,95.7,1.59377,20.0143,19.309,28.7009,-4.28961,11.0778,-18.9789,-51.5077,106.9,-0.258137,-0.369628,-1.23002,247.3,6.7,52.1701,4.42719,2.6,1.09099,287.494,4.26567,167.357,22.8034,173.543,0.798944,0.311294,242.168,3.3118,3.13262,31.477478027343803,21.9994239807129,23.0,22.0,2382510.0,1292.11,pp-riro,4,0,-1,-1
1570542852.3,2019-10-08,15:54:12.300,14.0,12.0,18.5300006866455,5.1,17.5,18.4,-1.9,-44.8,84.3,1.59377,20.0143,19.309,28.7009,-4.28961,11.0778,-18.9789,-51.5077,106.9,-0.258137,-0.369628,-1.23002,247.3,6.7,52.1701,4.42719,2.6,1.10927,290.307,4.265680000000001,169.08,23.1835,171.743,0.788553,0.310444,242.118,3.1676900000000003,3.0381,32.8791656494141,21.9994239807129,23.0,22.0,2382750.0,2922.63,pp-ro,1,1,-1,-1
1570542852.4,2019-10-08,15:54:12.400,14.0,12.0,18.7099990844727,7.8,16.7,18.4,5.5,-44.9,72.6,4.56461,19.6956,19.8815,37.0909,-8.740210000000001,1.15284,-10.858,-54.3515,94.45,0.00221045,-0.00895708,-1.42036,247.3,6.7,52.1701,4.42719,2.6,1.09154,282.018,4.265680000000001,170.803,23.5636,169.942,0.778158,0.309615,242.094,3.02386,2.93097,33.9214782714844,21.9994239807129,23.0,22.0,2383130.0,3722.5,pp-ro,1,1,-1,-1
1570542852.5,2019-10-08,15:54:12.500,14.0,13.0,18.7600002288818,10.3,15.6,18.1,13.0,-44.1,61.2,7.63652,18.9166,19.8516,33.9045,-10.1596,4.248880000000001,-1.3501,-55.5922,79.916,-0.0937491999999999,-0.0564678999999999,-1.18051,247.3,6.7,52.1701,4.42719,2.6,1.08489,282.055,4.2657,172.41,24.7036,168.24200000000002,0.768087,0.304373,242.159,2.8856,2.82971,34.602752685546896,21.9994239807129,23.0,22.0,2383430.0,2891.86,pp-ro,1,1,-1,-1
1570542852.6,2019-10-08,15:54:12.600,14.0,13.0,18.7999992370605,12.5,14.2,17.7,19.8,-42.3,50.3,11.9033,17.2038,19.4576,27.384,-21.0693,1.94455,13.3136,-55.1628,57.9915,-0.7637,-0.285438,-1.37828,250.7,6.4,52.1701,4.42719,2.6,1.10041,294.692,4.26574,173.928,25.8437,166.442,0.757955,0.299145,242.12,2.74781,2.73355,34.9297485351562,21.9994239807129,23.0,22.0,2383640.0,1907.4,pp-ro,1,1,-1,-1
1570542852.7,2019-10-08,15:54:12.700,14.0,13.0,18.8500003814697,14.5,12.6,16.7,26.6,-39.7,39.1,14.5804,15.7019,18.8618,34.8031,-16.1858,-9.6428,22.6475,-53.099,43.9997,-0.776907,-0.160218,-1.17951,250.7,6.4,52.1701,4.42719,2.6,1.12756,299.068,4.26579,175.33,26.9838,164.74200000000002,0.7484350000000001,0.2938969999999999,242.093,2.59895,2.63194,34.955291748046896,21.9994239807129,23.0,22.0,2383960.0,3168.74,pp-ro,1,1,-1,-1
1570542852.8,2019-10-08,15:54:12.800,14.0,13.0,18.8899993896484,16.2,11.1,15.7,32.2,-36.1,29.7,17.0124,14.0307,17.8956,15.2857,-22.0762,-12.8081,30.0834,-49.2555,32.1096,-0.304357,0.0371276,-1.24301,250.7,6.4,52.1701,4.42719,2.6,1.1026200000000002,286.092,4.26584,176.528,28.5039,163.24200000000002,0.739905,0.28646,242.121,2.46104,2.54011,34.577194213867195,21.9994239807129,23.0,22.0,2384400.0,4368.56,pp-ro,1,1,-1,-1
1570542852.9,2019-10-08,15:54:12.900,14.0,13.0,18.840000152587898,17.5,9.7,14.3,37.0,-31.7,20.4,18.8984,12.3313,16.4668,14.3058,-14.4544,-18.4312,36.1387,-44.8341,21.7109,-0.278487,-0.119762,-1.44477,250.7,6.4,52.1701,4.42719,2.6,1.08212,280.117,4.26589,177.667,30.0239,161.74200000000002,0.731511,0.279087,242.131,2.31249,2.45236,33.838043212890604,21.9994239807129,22.9972667694092,22.0,2384750.0,3261.04,pp-ro,1,1,-1,-1
1570542853.0,2019-10-08,15:54:13.000,14.0,13.0,18.7000007629395,18.5,8.2,13.0,40.3,-26.5,12.8,19.7534,11.6958,15.9028,11.1681,-19.1708,-15.1887,38.7281,-41.9897,16.6657,-0.472886,0.0507795,-1.53346,250.7,6.4,52.1701,4.42719,2.6,1.086,283.151,4.26595,178.601,31.924,160.542,0.7243890000000001,0.269566,242.263,2.17195,2.37012,32.729278564453104,21.9994239807129,21.5554580688477,22.0,2384860.0,2091.99,pp-ro,1,1,-1,-1
1570542853.1,2019-10-08,15:54:13.100,14.0,12.0,18.5599994659424,19.7,6.7,11.4,43.1,-21.4,5.9,21.1425,9.77794,14.2057,12.1894,-10.1038,-10.552,42.0464,-36.2769,8.00121,0.109605,-0.0733048999999999,-1.48,250.7,6.4,52.1701,4.42718,2.6,1.0993,291.332,4.26601,179.44799999999998,33.8241,159.442,0.717775,0.260078,242.42,2.03744,2.27263,31.262878417968803,21.9994239807129,19.7977066040039,22.0,2385050.0,1753.58,pp-ro,1,1,-1,-1
1570542853.2,2019-10-08,15:54:13.200,14.0,14.0,18.5100002288818,20.3,5.1,10.0,44.1,-16.2,0.0,21.7269,8.88235,13.3858,10.0674,-16.4629,-10.5377,43.3091,-33.3896,4.6816,-0.2236469999999999,0.239154,-1.35758,250.7,6.4,52.1701,4.42718,2.6,1.11204,297.203,4.26605,179.828,34.9641,159.042,0.7149409999999999,0.254302,242.6,1.90832,2.18526,29.4507446289062,21.9994239807129,18.1265029907227,22.0,2385450.0,3014.92,pp-ro,1,1,-1,-1
1570542853.3,2019-10-08,15:54:13.300,14.0,13.0,18.6900005340576,20.6,4.5,9.2,46.1,-13.8,-3.0,23.2329,6.07255,10.7365,0.863826,-19.3731,-21.02,45.1593,-24.0105,-4.9442900000000005,-0.220692,-0.0520486,-1.35496,250.7,6.4,52.1701,4.42718,2.6,1.11537,300.814,4.2661,180.47,36.8642,158.24200000000002,0.709749,0.244815,242.836,1.84965,2.14733,27.3626861572266,21.9994239807129,17.5179653167725,22.0,2385580.0,2399.63,pp-ro,1,1,-1,-1
1570542853.4,2019-10-08,15:54:13.400,14.0,13.0,18.9699993133545,20.9,3.3,7.4,47.2,-8.6,-8.0,23.7391,4.48065,8.91058,1.59128,-10.7853,-17.5054,46.3496,-18.4295,-10.4783,-0.146389,0.394403,-1.2548,250.7,6.4,52.1701,4.42718,2.6,1.12534,303.197,4.26616,180.967,39.1442,157.542,0.705005,0.233207,243.106,1.73252,2.06339,25.2644119262695,21.9994239807129,15.9704599380493,22.0,2385810.0,2738.04,pp-ro,1,1,-1,-1
1570542853.5,2019-10-08,15:54:13.500,14.0,13.0,19.25,21.3,1.3,5.3,48.5,-1.9,-14.3,24.0167,2.8725,7.03558,-0.424774,-19.7442,-14.5871,46.6346,-12.1514,-15.0124,0.227595,0.1904,-1.02761,250.7,6.4,52.1701,4.42718,2.6,1.1297700000000002,307.951,4.26621,181.492,42.1843,156.74200000000002,0.699367,0.217803,243.489,1.58253,1.94259,23.1593322753906,21.9994239807129,13.7160120010376,22.0,2386120.0,3168.74,pp-ro,1,1,-1,-1
1570542853.6,2019-10-08,15:54:13.600,14.0,13.0,19.4699993133545,21.3,0.7,4.3,48.4,0.0,-16.2,23.8269,2.10881,6.16786,0.0603946,-10.2833,-11.8592,46.9443,-9.72011,-17.5053,0.184137,0.0331905,-1.12689,245.5,7.0,52.1701,4.42718,2.6,1.1513799999999998,321.525,4.26625,181.58,43.3244,156.542,0.697823,0.211917,243.626,1.5396,1.89503,21.0474319458008,21.9994239807129,12.8061800003052,22.0,2386490.0,2307.34,pp-ro,1,1,-1,-1
1570542853.7,2019-10-08,15:54:13.700,14.0,13.0,19.6499996185303,21.3,-0.3,2.7,49.2,4.1,-19.6,23.9162,0.598427,4.4744,-3.4925900000000003,-21.8966,-26.7585,46.6143,-4.92443,-21.3326,-0.281879,0.341302,-0.8881399999999999,245.5,7.0,52.1701,4.42718,2.6,1.16136,324.69,4.26628,181.755,45.2244,156.24200000000002,0.6952470000000001,0.202237,243.909,1.45292,1.81558,18.9696044921875,21.9994239807129,11.2907247543335,22.0,2386610.0,2368.87,pp-ro,1,1,-1,-1
1570542853.8,2019-10-08,15:54:13.800,14.0,12.0,19.8299999237061,21.1,-1.9,0.9,49.8,9.7,-24.4,23.6471,-0.790744,2.74344,2.64887,-11.4229,-8.79918,46.9896,0.300383,-24.1365,0.1461569999999999,0.1457369999999999,-0.877634,245.5,7.0,52.1701,4.42718,2.6,1.17188,332.485,4.26631,181.726,48.2645,156.042,0.692707,0.18648,244.342,1.33474,1.71249,16.9122009277344,21.9994239807129,9.29147243499756,22.0,2386950.0,3722.5,pp-ro,1,1,-1,-1
1570542853.9,2019-10-08,15:54:13.900,14.0,11.0,20.0,20.8,-2.8,-0.3,50.5,12.7,-27.7,23.3019,-2.06705,1.28525,2.55548,-6.75955,-12.7776,47.2769,4.8946,-27.4797,0.118341,0.0454029,-0.838884,245.5,7.0,52.1701,4.42718,2.6,1.18574,342.74300000000005,4.2663400000000005,181.58,50.9245,155.942,0.690932,0.172619,244.709,1.26707,1.64907,15.018310546875,21.9994239807129,8.06704902648926,22.0,2387190.0,1968.93,pp-ro,1,1,-1,-1
1570542854.0,2019-10-08,15:54:14.000,14.0,11.0,20.1800003051758,20.7,-3.8,-1.3,50.7,14.3,-29.0,22.8829,-3.20715,-0.0604345,-8.049489999999999,-11.3468,-18.4668,47.3202,8.63701,-30.6455,0.399631,0.0465875,-0.663957,245.5,7.0,52.1701,4.42718,2.6,1.21233,356.561,4.266369999999999,181.463,51.6846,155.942,0.6906869999999999,0.168545,244.781,1.23412,1.58426,13.1482620239258,21.9994239807129,6.77361059188843,22.0,2387480.0,3322.56,pp-ro,1,1,-1,-1
1570542854.1,2019-10-08,15:54:14.100,14.0,11.0,20.3099994659424,20.3,-4.2,-1.7,51.2,16.6,-31.8,22.19,-4.74538,-1.81856,0.559936,-11.3235,-9.37878,48.0208,13.784,-35.033,0.228267,0.125584,-0.565933,245.5,7.0,52.1701,4.42718,2.9,1.255,380.103,4.2664,181.171,53.9646,155.942,0.689758,0.156493,245.057,1.18053,1.5618299999999998,11.3735885620117,21.9994239807129,6.34463167190552,22.0,2387860.0,2153.51,pp-ro,1,1,-1,-1
1570542854.2,2019-10-08,15:54:14.200,14.0,12.0,20.3899993896484,20.1,-5.1,-2.8,52.0,18.7,-34.4,21.6327,-5.71591,-2.88627,-0.1052869999999999,-9.70933,-7.386239999999999,48.47,16.537,-37.2331,0.185924,0.0731855,-0.6932189999999999,245.5,7.0,52.1701,4.42718,2.9,1.27827,398.318,4.266430000000001,180.732,55.8646,155.942,0.6894140000000001,0.146176,245.159,1.13092,1.49925,9.74197387695312,21.9994239807129,5.093716144561769,22.0,2388260.0,4122.44,pp-ro,1,1,-1,-1
1570542854.3,2019-10-08,15:54:14.300,14.0,12.0,20.479999542236303,19.7,-6.2,-3.5,52.7,20.3,-36.7,21.6327,-5.71591,-2.88627,-0.1052869999999999,-9.70933,-7.386239999999999,48.47,16.537,-37.2331,0.185924,0.0731855,-0.6932189999999999,245.5,7.0,52.1701,4.42718,2.9,1.29157,408.598,4.26646,180.236,58.1447,156.042,0.689176,0.133871,245.387,1.09258,1.4452200000000002,8.26194000244141,21.9994239807129,4.009802341461181,22.0,2388410.0,2738.04,pp-ro,1,1,-1,-1
1570542854.4,2019-10-08,15:54:14.400,14.0,12.0,20.6100006103516,19.4,-7.0,-4.2,52.9,21.7,-38.8,21.1488,-6.6506,-3.77144,-8.122489999999999,-6.752460000000001,-3.12039,48.8093,19.2095,-39.3095,-0.1277319999999999,-0.0870705,-0.62946,245.5,7.0,52.1701,4.42718,2.9,1.33534,425.15,4.2664800000000005,179.622,60.4247,156.24200000000002,0.689466,0.1214119999999999,245.615,1.0593,1.40141,7.55173492431641,21.9994239807129,3.1100172996521,22.0,2388700.0,3968.62,pp-ro,1,1,-1,-1
1570542854.5,2019-10-08,15:54:14.500,14.0,12.0,20.8199996948242,19.0,-7.7,-4.9,53.2,22.6,-41.1,20.6369,-7.623460000000001,-4.53405,-2.99805,-4.6833,-4.63352,49.3564,20.9682,-41.269,0.194073,-0.0561489,-0.531594,245.5,7.0,52.1701,4.42718,2.9,1.3442,431.282,4.26651,178.951,62.3247,156.542,0.6904600000000001,0.1107349999999999,245.791,1.029,1.35778,6.23009490966797,21.9994239807129,2.1840238571167,22.0,2389180.0,5106.91,pp-ro,1,1,-1,-1
1570542854.6,2019-10-08,15:54:14.600,14.0,11.0,21.1100006103516,18.6,-8.5,-5.4,53.5,23.8,-42.6,20.6369,-7.623460000000001,-4.53405,-2.99805,-4.6833,-4.63352,49.3564,20.9682,-41.269,0.194073,-0.0561489,-0.531594,240.6,5.7,52.1701,4.42718,2.9,1.36304,444.451,4.26653,178.162,64.6048,156.942,0.69166,0.097984,246.062,1.00538,1.32049,4.69386291503906,21.9994239807129,1.37475347518921,22.0,2389640.0,4153.21,pp-ro,1,1,-1,-1
1570542854.7,2019-10-08,15:54:14.700,14.0,11.0,21.3999996185303,18.1,-9.2,-5.8,53.5,24.3,-44.3,19.6515,-8.958639999999999,-5.85353,-8.89317,-4.04073,-10.2423,49.5667,24.19,-44.7361,0.0739909,0.00811702,-0.339905,240.6,5.7,52.1701,4.42718,2.9,1.38465,453.485,4.26655,177.28599999999997,66.1248,157.342,0.693684,0.0888332,246.088,0.985913,1.28506,3.5289077758789102,21.9994239807129,0.563218355178833,22.0,2390060.0,4491.62,pp-ro,1,1,-1,-1
1570542854.8,2019-10-08,15:54:14.800,14.0,10.0,21.850000381469695,17.5,-9.3,-6.1,53.0,24.6,-45.9,19.6515,-8.958639999999999,-5.85353,-8.89317,-4.04073,-10.2423,49.5667,24.19,-44.7361,0.0739909,0.00811702,-0.339905,240.6,5.7,52.1701,4.42718,2.9,1.38631,447.087,4.26655,176.322,68.4048,157.74200000000002,0.695167,0.0757644,246.275,0.972569,1.26633,2.4559326171875,21.9994239807129,0.1105055361986159,22.0,2390670.0,6983.54,pp-ro,1,1,-1,-1
1570542854.9,2019-10-08,15:54:14.900,14.0,10.0,22.25,17.2,-9.7,-6.2,53.0,24.9,-46.7,18.3077,-9.9728,-6.59552,-7.829339999999999,-1.27511,-4.94705,48.9708,25.8773,-48.43,-0.197815,0.169723,-0.299557,240.6,5.7,52.1701,4.42718,2.9,1.35695,435.698,4.26655,175.387,69.9248,158.24200000000002,0.6975399999999999,0.0664627,246.355,0.965832,1.25251,1.50898742675781,21.9994239807129,-0.291140049695969,22.0,2391450.0,7321.95,pp-ro,1,1,-1,-1
1570542855.0,2019-10-08,15:54:15.000,14.0,10.0,22.6399993896484,16.9,-9.8,-6.2,52.4,25.0,-47.9,18.0279,-10.0808,-6.562530000000001,-7.72565,-2.07231,-0.826724,48.8711,26.2652,-48.8836,0.0358267,-0.163176,-0.208841,240.6,5.7,52.1701,4.42718,2.9,1.34864,428.4980000000001,4.26656,174.394,72.2048,158.642,0.6989449999999999,0.0532874,246.565,0.959512,1.251,0.664230346679688,21.9994239807129,-0.3973588347435,22.0,2392000.0,5537.61,pp-ro,1,1,-1,-1
1570542855.1,2019-10-08,15:54:15.100,14.0,9.0,22.9500007629395,16.5,-9.7,-6.2,51.9,25.0,-49.0,17.5763,-10.2131,-6.47681,0.794139,5.71732,-1.40994,48.6657,26.4316,-50.0923,-0.112716,-0.0431251,-0.219051,240.6,5.7,52.1701,4.42718,3.0,1.33478,424.49,4.26656,173.40099999999998,73.7248,159.142,0.7013510000000001,0.0438115,246.636,0.953068,1.24885,0.05450439453125,21.9994239807129,-0.573170006275177,22.0,2392640.0,6122.13,pp-ro,1,1,-1,-1
1570542855.2,2019-10-08,15:54:15.200,14.0,10.0,23.0599994659424,16.3,-9.9,-6.1,51.7,25.1,-49.9,17.4834,-10.2243,-6.47,-6.66812,0.1297859999999999,0.8258840000000001,48.4985,26.7689,-50.3266,0.0569446,0.129187,0.00750334,240.6,5.7,52.1701,4.42718,3.0,1.33922,426.477,4.26657,172.37900000000002,75.6248,159.642,0.703383,0.0323916,246.818,0.948987,1.25004,-0.389144897460938,21.9994239807129,-0.6641579270362851,22.0,2393360.0,5353.02,pp-ro,1,1,-1,-1
1570542855.3,2019-10-08,15:54:15.300,14.0,10.0,23.0599994659424,16.1,-10.0,-6.1,51.5,25.4,-50.7,17.4834,-10.2243,-6.47,-6.66812,0.1297859999999999,0.8258840000000001,48.4985,26.7689,-50.3266,0.0569446,0.129187,0.00750334,240.6,5.7,52.1701,4.42718,3.0,1.33811,427.734,4.26657,171.356,77.1449,160.142,0.705757,0.0227932,246.9,0.942465,1.24865,-0.549583435058594,21.9994239807129,-0.830420792102814,22.0,2393630.0,5353.02,pp-ro,1,1,-1,-1
1570542855.4,2019-10-08,15:54:15.400,14.0,9.0,22.9500007629395,16.2,-10.1,-5.9,51.4,25.4,-51.1,17.0941,-10.5901,-6.129580000000001,-1.2144,-3.94011,2.72281,47.9609,26.8349,-51.7828,0.00191296,-0.0175957999999999,-0.0916668,240.6,5.7,52.1701,4.42718,3.0,1.34697,429.224,4.26658,170.334,79.0449,160.642,0.7076640000000001,0.0113288,247.11900000000003,0.945386,1.2638200000000002,-0.648574829101562,21.9994239807129,-0.64084655046463,22.0,2394420.0,6337.48,pp-ro,1,1,-1,-1
1570542855.5,2019-10-08,15:54:15.500,14.0,9.0,22.7999992370605,16.2,-10.4,-5.7,51.7,25.2,-51.8,17.0941,-10.5901,-6.129580000000001,-1.2144,-3.94011,2.72281,47.9609,26.8349,-51.7828,0.00191296,-0.0175957999999999,-0.0916668,240.6,5.7,52.1701,4.42718,3.0,1.34143,431.489,4.26659,169.253,80.5649,161.042,0.709766,0.00153733,247.128,0.946107,1.27089,-0.8090133666992191,21.9994239807129,-0.6288750767707819,22.0,2394710.0,5691.43,pp-ro,1,1,-1,-1
1570542855.6,2019-10-08,15:54:15.600,14.0,9.0,22.6100006103516,16.0,-10.5,-5.4,51.4,25.2,-52.7,17.1546,-11.0224,-5.5527,-0.915143,1.3071,2.89352,47.8721,26.624,-52.9815,-0.041638,-0.139469,-0.0712534,237.4,5.0,52.1701,4.42718,3.0,1.35529,431.654,4.26658,168.173,82.0849,161.542,0.7121270000000001,-0.00827263,247.216,0.942135,1.2806799999999998,-0.6946563720703121,21.9994239807129,-0.583216369152069,22.0,2395140.0,4799.26,pp-ro,1,1,-1,-1
1570542855.7,2019-10-08,15:54:15.700,14.0,12.0,22.4899997711182,15.8,-10.5,-5.2,51.4,25.1,-53.3,17.1546,-11.0224,-5.5527,-0.915143,1.3071,2.89352,47.8721,26.624,-52.9815,-0.041638,-0.139469,-0.0712534,237.4,5.0,52.1701,4.42718,3.0,1.33645,420.025,4.26654,167.03400000000002,83.6049,161.942,0.714271,-0.0182249,247.215,0.942941,1.28918,-0.621269226074219,21.9994239807129,-0.5541099309921259,22.0,2395860.0,7537.3,pp-ro,1,1,-1,-1
1570542855.8,2019-10-08,15:54:15.800,14.0,11.0,22.3700008392334,15.7,-10.7,-5.4,51.9,25.2,-53.4,16.8139,-11.1146,-5.211130000000001,-6.582210000000001,-3.58956,1.86369,48.0823,26.5532,-54.1168,0.133711,-0.0076,0.00471344,237.4,5.0,52.1701,4.42718,3.0,1.30985,402.092,4.26655,165.953,85.1249,162.342,0.7162270000000001,-0.028112,247.268,0.947149,1.28112,-0.595664978027344,21.9994239807129,-0.8481948971748349,22.0,2396510.0,6091.37,pp-ro,1,1,-1,-1
1570542855.9,2019-10-08,15:54:15.900,14.0,10.0,22.3700008392334,15.4,-11.1,-5.3,51.6,24.5,-54.0,16.8139,-11.1146,-5.211130000000001,-6.582210000000001,-3.58956,1.86369,48.0823,26.5532,-54.1168,0.133711,-0.0076,0.00471344,237.4,5.0,52.1701,4.42718,3.0,1.28381,398.317,4.26653,164.81400000000002,87.0249,162.842,0.718104,-0.0399571999999999,247.497,0.956304,1.27554,-0.568359375,21.9994239807129,-1.09117412567139,22.0,2397140.0,5906.78,pp-ro,1,1,-1,-1
1570542856.0,2019-10-08,15:54:16.000,14.0,10.0,22.2999992370605,15.3,-10.9,-5.2,51.8,23.7,-54.3,16.6487,-11.1401,-5.18516,-4.417680000000001,2.08325,-2.65557,47.8941,26.6464,-54.5031,0.0121303,-0.105889,-0.0682677,237.4,5.0,52.1701,4.42718,3.0,1.29932,403.06,4.26652,163.675,88.5449,163.24200000000002,0.720087,-0.0500233,247.543,0.968961,1.28736,-0.7646331787109379,21.9994239807129,-0.998511016368866,22.0,2397470.0,2861.1,pp-ro,1,1,-1,-1
1570542856.1,2019-10-08,15:54:16.100,14.0,10.0,22.219999313354503,15.2,-11.0,-4.9,52.0,23.3,-54.2,16.635,-11.1474,-5.25352,-0.942927,-2.98787,-1.15219,47.9001,26.5628,-54.8425,0.0547105,-0.121929,-0.12105,237.4,5.0,52.1701,4.42718,3.0,1.29101,401.14,4.2665,162.565,90.0649,163.642,0.72195,-0.0600434999999999,247.624,0.98159,1.30014,-1.05137634277344,21.9994239807129,-0.8828307390213009,22.0,2398280.0,5353.02,pp-ro,1,1,-1,-1
1570542856.2,2019-10-08,15:54:16.200,14.0,10.0,22.1800003051758,15.2,-10.9,-4.5,52.1,22.5,-54.6,16.635,-11.1474,-5.25352,-0.942927,-2.98787,-1.15219,47.9001,26.5628,-54.8425,0.0547105,-0.121929,-0.12105,237.4,5.0,52.1701,4.42718,3.0,1.29489,398.384,4.26649,161.39600000000002,91.5849,164.042,0.723897,-0.0702443,247.682,0.993212,1.3242,-1.01211547851562,21.9994239807129,-0.553477585315704,22.0,2398490.0,3937.85,pp-ro,1,1,-1,-1
1570542856.3,2019-10-08,15:54:16.300,14.0,11.0,22.100000381469695,15.3,-10.6,-4.1,52.2,22.2,-54.9,15.977,-11.4463,-4.76715,-2.38017,-4.20886,4.25439,48.0519,24.6548,-55.777,0.101023,-0.0740154,0.110195,237.4,5.0,52.1701,4.42718,3.0,1.28215,387.481,4.26647,160.287,93.1049,164.342,0.725355,-0.0803166,247.727,1.00002,1.35587,-0.8175430297851559,21.9994239807129,-0.037616409361363,22.0,2399090.0,7045.07,pp-ro,1,1,-1,-1
1570542856.4,2019-10-08,15:54:16.400,14.0,11.0,22.100000381469695,15.2,-10.4,-3.7,52.3,22.0,-55.0,16.0197,-11.2962,-4.09844,3.268,8.0917,6.22699,48.2111,23.3127,-56.5093,0.214383,-0.211523,0.1676619999999999,237.4,5.0,52.1701,4.42718,3.0,1.25721,378.619,4.26646,159.20600000000002,94.625,164.642,0.726693,-0.0903364,247.805,1.00798,1.38024,-0.4796066284179689,21.9994239807129,0.338828414678574,22.0,2399630.0,4183.97,pp-ro,1,1,-1,-1
1570542856.5,2019-10-08,15:54:16.500,14.0,11.0,22.0200004577637,15.3,-10.5,-3.4,52.9,21.9,-54.7,16.0682,-11.103,-3.7686,2.63458,5.10836,3.2828800000000005,48.3737,22.6632,-56.9506,0.0359519,-0.27299,0.0695551,237.4,5.0,52.1701,4.42718,3.0,1.25832,380.701,4.26644,158.096,96.145,164.942,0.7280479999999999,-0.10044,247.879,1.01954,1.39885,-0.039253234863281,21.9994239807129,0.59500652551651,22.0,2400110.0,4953.08,pp-ro,1,1,-1,-1
1570542856.6,2019-10-08,15:54:16.600,14.0,11.0,21.9099998474121,15.2,-10.5,-3.3,52.7,21.6,-54.9,16.0682,-11.103,-3.7686,2.63458,5.10836,3.2828800000000005,48.3737,22.6632,-56.9506,0.0359519,-0.27299,0.0695551,245.4,4.5,52.1701,4.42718,3.0,1.26719,389.343,4.26642,157.015,97.665,165.24200000000002,0.7292850000000001,-0.110475,247.986,1.02755,1.40687,0.352546691894531,21.9994239807129,0.6466468572616579,22.0,2400480.0,2891.86,pp-ro,1,1,-1,-1
1570542856.7,2019-10-08,15:54:16.700,14.0,11.0,21.8299999237061,14.8,-10.7,-3.2,53.4,20.9,-54.4,16.005,-10.9202,-3.5620199999999995,-7.47284,2.28524,0.365217,48.7312,22.2357,-56.9106,0.300306,-0.0893177,0.263897,245.4,4.5,52.1701,4.42718,3.0,1.29101,398.406,4.26642,155.905,99.185,165.542,0.730536,-0.1206309999999999,248.09,1.0487,1.40202,0.573959350585938,21.9994239807129,0.435801833868027,22.0,2400840.0,4276.26,pp-ro,1,1,-1,-1
1570542856.8,2019-10-08,15:54:16.800,14.0,11.0,21.5799999237061,14.7,-10.7,-3.0,52.9,20.0,-54.5,15.4926,-11.1403,-3.01928,-4.2756,-2.1802,2.7718,49.3418,20.4094,-57.1176,-0.161359,-0.203249,0.141793,245.4,4.5,52.1701,4.42718,3.0,1.28935,393.886,4.26642,154.795,100.705,165.842,0.731734,-0.130801,248.207,1.06525,1.4141,0.616539001464844,21.9994239807129,0.5651900172233579,22.0,2401570.0,5137.67,pp-ro,1,1,-1,-1
1570542856.9,2019-10-08,15:54:16.900,14.0,10.0,21.4200000762939,14.6,-10.8,-3.0,52.8,19.8,-54.8,15.4926,-11.1403,-3.01928,-4.2756,-2.1802,2.7718,49.3418,20.4094,-57.1176,-0.161359,-0.203249,0.141793,245.4,4.5,52.1701,4.42718,3.0,1.27494,389.682,4.26641,153.715,102.225,166.042,0.732516,-0.140893,248.291,1.07095,1.4156,0.521156311035156,21.9994239807129,0.522497653961182,22.0,2402140.0,5291.49,pp-ro,1,1,-1,-1
1570542857.0,2019-10-08,15:54:17.000,14.0,10.0,21.2600002288818,14.2,-11.2,-2.8,52.2,19.0,-55.6,15.4926,-11.1403,-3.01928,-4.2756,-2.1802,2.7718,49.3418,20.4094,-57.1176,-0.161359,-0.203249,0.141793,245.4,4.5,52.1701,4.42718,3.0,1.26829,380.088,4.26641,152.546,103.365,166.342,0.7343149999999999,-0.149554,248.243,1.07696,1.40848,0.493911743164062,21.9994239807129,0.194948792457581,22.0,2402610.0,4799.26,pp-ro,1,1,-1,-1
1570542857.1,2019-10-08,15:54:17.100,14.0,12.0,21.2600002288818,13.9,-10.8,-2.9,52.1,18.5,-55.3,15.4926,-11.1403,-3.01928,-4.2756,-2.1802,2.7718,49.3418,20.4094,-57.1176,-0.161359,-0.203249,0.141793,245.4,4.5,52.1701,4.42718,3.0,1.2622,374.86300000000006,4.26641,151.437,104.885,166.642,0.7353649999999999,-0.159764,248.402,1.09353,1.41296,0.526275634765625,21.9994239807129,0.174877732992172,22.0,2402930.0,6122.13,pp-ro,1,1,-1,-1
1570542857.2,2019-10-08,15:54:17.200,14.0,12.0,21.2999992370605,13.8,-11.1,-2.7,51.7,18.0,-55.8,14.8527,-11.4402,-2.74186,-2.85355,7.088089999999999,-0.953032,48.6798,18.4079,-58.4991,-0.0900406999999999,-0.104246,0.0225797,245.4,4.5,52.1701,4.42718,3.0,1.23394,364.9980000000001,4.2664,150.298,106.025,166.842,0.7367199999999999,-0.168379,248.328,1.09948,1.41649,0.333816528320312,21.9994239807129,0.09433476626873,22.0,2403460.0,4491.62,pp-ro,1,1,-1,-1
1570542857.3,2019-10-08,15:54:17.300,14.0,11.0,21.4200000762939,13.4,-11.0,-2.5,51.4,17.1,-56.5,14.4321,-11.2942,-2.75331,-4.54252,0.76752,-3.07594,48.3956,18.2288,-58.1649,-0.0219069,-0.13874,0.325954,245.4,4.5,52.1701,4.42718,3.0,1.22563,356.24800000000005,4.2664,149.188,107.925,167.142,0.737069,-0.180284,248.679,1.11016,1.42379,0.189048767089844,21.9994239807129,0.208711862564087,22.0,2403940.0,5014.61,pp-ro,1,1,-1,-1
1570542857.4,2019-10-08,15:54:17.400,14.0,11.0,21.3799991607666,13.2,-10.7,-2.4,50.7,16.6,-56.8,14.4321,-11.2942,-2.75331,-4.54252,0.76752,-3.07594,48.3956,18.2288,-58.1649,-0.0219069,-0.13874,0.325954,245.4,4.5,52.1701,4.42718,3.0,1.19959,343.022,4.2664,148.049,109.065,167.342,0.7383350000000001,-0.18894,248.63,1.1185200000000002,1.4359,0.136253356933594,21.9994239807129,-35.0,22.0,2404630.0,4030.15,pp-ro,1,1,-1,-1
1570542857.5,2019-10-08,15:54:17.500,14.0,12.0,21.2999992370605,13.0,-10.5,-2.1,51.0,16.3,-56.6,14.0098,-11.2892,-2.41186,-4.98276,-1.81505,-3.29157,47.8361,17.0259,-59.2775,0.1738559999999999,-0.270135,0.1041119999999999,245.4,4.5,52.1701,4.42718,3.0,1.19239,336.043,4.2664,146.968,110.205,167.542,0.739437,-0.197424,248.627,1.13038,1.45415,0.158393859863281,21.9994239807129,-35.0,22.0,2404860.0,4430.09,pp-ro,1,1,-1,-1
1570542857.6,2019-10-08,15:54:17.600,14.0,11.0,21.0100002288818,13.1,-10.2,-1.8,51.1,16.2,-56.9,14.0098,-11.2892,-2.41186,-4.98276,-1.81505,-3.29157,47.8361,17.0259,-59.2775,0.1738559999999999,-0.270135,0.1041119999999999,250.9,4.8,52.1701,4.42718,3.0,1.16246,319.066,4.266380000000001,145.916,111.725,167.74200000000002,0.7398140000000001,-0.207454,248.82,1.1349,1.48546,0.1771240234375,21.9994239807129,-35.0,22.0,2405380.0,5229.96,pp-ro,1,1,-1,-1
1570542857.7,2019-10-08,15:54:17.700,14.0,12.0,20.6700000762939,13.1,-9.9,-1.7,51.4,15.8,-56.8,13.5843,-10.5028,-1.7643099999999998,-2.5784700000000003,6.42475,2.32648,48.3226,16.3082,-59.3965,0.34499,0.129799,-0.0170349999999999,250.9,4.8,52.1701,4.42718,3.0,1.13864,314.67900000000003,4.266380000000001,144.836,112.865,167.942,0.740837,-0.2159579999999999,248.838,1.1468,1.50449,-0.1740875244140619,21.9994239807129,-35.0,22.0,2405790.0,3261.04,pp-ro,1,1,-1,-1
1570542857.8,2019-10-08,15:54:17.800,14.0,10.0,20.2900009155273,13.2,-10.1,-1.6,52.3,15.9,-56.9,13.5843,-10.5028,-1.7643099999999998,-2.5784700000000003,6.42475,2.32648,48.3226,16.3082,-59.3965,0.34499,0.129799,-0.0170349999999999,250.9,4.8,52.1701,4.42718,3.0,1.1513799999999998,317.425,4.266380000000001,143.843,114.005,168.142,0.741637,-0.22418,248.917,1.15001,1.5114,-0.89776611328125,21.9994239807129,-35.0,22.0,2406050.0,3107.21,pp-ro,1,1,-1,-1
1570542857.9,2019-10-08,15:54:17.900,14.0,12.0,20.020000457763697,13.3,-10.1,-1.4,52.3,15.8,-57.7,13.5843,-10.5028,-1.7643099999999998,-2.5784700000000003,6.42475,2.32648,48.3226,16.3082,-59.3965,0.34499,0.129799,-0.0170349999999999,250.9,4.8,52.1701,4.42718,3.0,1.16579,328.972,4.266369999999999,142.791,115.525,168.24200000000002,0.741582,-0.2342179999999999,249.08,1.1485299999999998,1.52975,-1.9610824584960904,21.9994239807129,-35.0,22.0,2406460.0,1661.28,pp-ro,1,1,-1,-1
1570542858.0,2019-10-08,15:54:18.000,14.0,11.0,19.979999542236303,13.4,-10.0,-0.8,52.9,14.6,-58.3,13.5843,-10.5028,-1.7643099999999998,-2.5784700000000003,6.42475,2.32648,48.3226,16.3082,-59.3965,0.34499,0.129799,-0.0170349999999999,250.9,4.8,52.1701,4.42718,3.0,1.17853,331.852,4.266369999999999,141.71,116.665,168.342,0.7421939999999999,-0.242746,249.062,1.16182,1.5677299999999998,-3.3862457275390603,21.9994239807129,-35.0,22.0,2406790.0,3691.74,pp-ro,1,1,-1,-1
1570542858.1,2019-10-08,15:54:18.100,14.0,10.0,19.979999542236303,13.7,-9.8,-0.2,53.5,13.7,-58.2,13.6293,-10.37,-1.69944,-0.607934,-5.74183,1.77797,48.7428,16.6411,-58.9144,-0.150776,0.328723,-0.084884,250.9,4.8,52.1701,4.42718,3.1,1.17355,328.80400000000003,4.266369999999999,140.688,118.565,168.442,0.741323,-0.254247,249.447,1.18208,1.61566,-5.17835998535156,21.9994239807129,-35.0,22.0,2407010.0,4337.79,pp-ro,1,1,-1,-1
1570542858.2,2019-10-08,15:54:18.200,14.0,10.0,20.020000457763697,13.8,-9.6,0.0,53.9,11.9,-58.1,13.7697,-9.93248,-0.152764,2.46047,2.95267,7.51589,51.0247,14.9923,-59.4173,0.0412514999999999,-0.119395,0.295438,250.9,4.8,52.1701,4.42718,3.1,1.15083,316.281,4.26636,139.754,119.705,168.442,0.7412529999999999,-0.262256,249.466,1.2110299999999998,1.63877,-7.2657470703125,21.9994239807129,-35.0,22.0,2407640.0,4491.62,pp-ro,1,1,-1,-1
1570542858.3,2019-10-08,15:54:18.300,14.0,9.0,19.8899993896484,14.3,-9.4,0.7,54.1,10.8,-57.9,13.7697,-9.93248,-0.152764,2.46047,2.95267,7.51589,51.0247,14.9923,-59.4173,0.0412514999999999,-0.119395,0.295438,250.9,4.8,52.1701,4.42718,3.1,1.1475,318.782,4.26636,139.22799999999998,120.085,168.442,0.741662,-0.26568,249.355,1.22943,1.68911,-9.36679077148438,21.9994239807129,-35.0,22.0,2407960.0,2491.92,pp-ro,1,1,-1,-1
1570542858.4,2019-10-08,15:54:18.400,14.0,12.0,19.6700000762939,14.7,-9.0,1.6,55.0,8.2,-56.5,13.7697,-9.93248,-0.152764,2.46047,2.95267,7.51589,51.0247,14.9923,-59.4173,0.0412514999999999,-0.119395,0.295438,250.9,4.8,52.1701,4.42718,3.1,1.1536,319.434,4.26636,138.264,121.985,168.342,0.739952,-0.276895,249.673,1.28681,1.7564400000000002,-11.4797744750977,21.9994239807129,-35.0,22.0,2408080.0,2491.92,pp-ro,1,1,-1,-1
1570542858.5,2019-10-08,15:54:18.500,14.0,11.0,19.7199993133545,15.4,-8.6,2.6,55.9,4.7,-54.9,13.7697,-9.93248,-0.152764,2.46047,2.95267,7.51589,51.0247,14.9923,-59.4173,0.0412514999999999,-0.119395,0.295438,250.9,4.8,52.1701,4.42718,3.1,1.15637,320.608,4.26635,137.388,123.125,168.142,0.739083,-0.284667,249.614,1.35586,1.82825,-13.5859375,21.9994239807129,-35.0,22.0,2408430.0,3691.74,pp-ro,1,1,-1,-1
