time,date,time_of_day,airspeed_temperature,airspeed_angle_of_attack,airspeed_apparent_windspeed,kite_0_vx,kite_0_vy,kite_0_vz,kite_0_roll,kite_0_pitch,kite_0_yaw,kite_1_vx,kite_1_vy,kite_1_vz,kite_1_ax,kite_1_ay,kite_1_az,kite_1_roll,kite_1_pitch,kite_1_yaw,kite_1_roll_rate,kite_1_pitch_rate,kite_1_yaw_rate,ground_upwind_direction,ground_wind_velocity,ground_pos_latitude,ground_pos_longitude,ground_pos_altitude,ground_tether_reelout_speed,ground_tether_force,est_upwind_direction,kite_pos_east,kite_pos_north,kite_height,kite_elevation,kite_azimuth,kite_distance,kite_heading,kite_course,kite_actual_steering,kite_actual_depower,kite_set_steering,kite_set_depower,ground_mech_energy,ground_mech_power,flight_phase,flight_phase_index,phase,pattern,pattern_section
1570533381.5,2019-10-08,13:16:21.500,14.0,9.0,15.2399997711182,12.5,-0.3,3.8,19.9,-8.3,-44.6,11.1702,-0.0976771,4.24037,7.966819999999999,10.7096,2.33477,22.5227,5.87289,-47.2134,0.00898969,0.122325,0.95006,270.0,4.7,52.1701,4.42726,-1.5,-3.31397,98.9708,4.60676,34.2313,3.42024,233.441,1.42448,0.00609765,235.962,0.914126,1.68959,-34.968414306640604,22.008691787719695,-35.0,22.0,-953442.0,-8890.94,pp-riro,4,0,-1,-1
1570533381.6,2019-10-08,13:16:21.600,14.0,8.0,15.0600004196167,13.2,0.8,4.1,21.3,-9.6,-39.3,11.1702,-0.0976771,4.24037,7.966819999999999,10.7096,2.33477,22.5227,5.87289,-47.2134,0.00898969,0.122325,0.95006,270.0,4.7,52.1701,4.42726,-1.5,-3.31785,100.432,4.60686,34.2021,4.5602800000000006,233.141,1.42386,-0.0269719,235.68,1.0437299999999998,1.80602,-34.970123291015604,22.0009689331055,-35.0,22.0,-954144.0,-6983.54,pp-riro,4,0,-1,-1
1570533381.7,2019-10-08,13:16:21.700,14.0,9.0,14.890000343322802,13.5,1.4,4.3,22.4,-11.2,-34.2,11.4465,0.41298,4.399380000000001,7.29922,11.6024,2.0111,23.2705,5.167269999999999,-44.3609,0.215482,0.0526955,0.947588,270.0,4.7,52.1701,4.42726,-1.5,-3.3112,100.402,4.60696,34.2605,6.0803400000000005,232.841,1.42245,-0.0701677,235.426,1.18076,1.89136,-34.971832275390604,22.0009689331055,-35.0,22.0,-954726.0,-5660.67,pp-riro,4,0,-1,-1
1570533381.8,2019-10-08,13:16:21.800,14.0,9.0,14.710000038147,14.2,3.2,4.7,23.3,-13.0,-28.7,12.7245,2.5788,5.03563,3.8803,9.60888,4.00108,25.7036,2.3947700000000003,-32.6286,0.126938,0.178708,1.0288,270.0,4.7,52.1701,4.42726,-1.5,-3.3089800000000005,95.2619,4.607069999999999,34.4941,7.600389999999999,232.441,1.41999,-0.111499,235.109,1.32348,2.04814,-34.9923248291016,22.0009689331055,-35.0,22.0,-955623.0,-9167.82,pp-riro,4,0,-1,-1
1570533381.9,2019-10-08,13:16:21.900,14.0,8.0,14.5299997329712,14.6,4.5,5.0,24.2,-14.7,-23.5,12.7245,2.5788,5.03563,3.8803,9.60888,4.00108,25.7036,2.3947700000000003,-32.6286,0.126938,0.178708,1.0288,257.4,4.1,52.1701,4.42726,-1.5,-3.33281,91.4797,4.60717,34.8154,9.12045,232.141,1.41698,-0.150937,234.914,1.4586,2.16245,-34.9923248291016,22.0009689331055,-35.0,22.0,-956860.0,-14213.2,pp-riro,4,0,-1,-1
1570533382.0,2019-10-08,13:16:22.000,14.0,8.0,14.460000038147,14.9,5.7,5.2,24.7,-16.2,-18.4,13.4956,5.0191300000000005,5.57158,3.88745,13.3658,2.19861,27.4356,-1.20674,-21.3306,0.0557273,0.139194,0.920882,257.4,4.1,52.1701,4.42726,-1.5,-3.37935,90.9846,4.60721,35.2535,10.6405,231.741,1.41321,-0.187933,234.648,1.58874,2.26286,-34.9940185546875,22.0009689331055,-35.0,22.0,-958355.0,-15351.5,pp-riro,4,0,-1,-1
1570533382.1,2019-10-08,13:16:22.100,14.0,8.0,14.3999996185303,15.0,7.1,5.6,25.0,-17.0,-15.8,13.4956,5.0191300000000005,5.57158,3.88745,13.3658,2.19861,27.4356,-1.20674,-21.3306,0.0557273,0.139194,0.920882,257.4,4.1,52.1701,4.42726,-1.5,-3.4386400000000004,89.8653,4.60725,35.5163,11.4005,231.541,1.41107,-0.205445,234.526,1.65367,2.35532,-34.9974365234375,22.0009689331055,-35.0,22.0,-960658.0,-16582.1,pp-riro,4,0,-1,-1
1570533382.2,2019-10-08,13:16:22.200,14.0,9.0,14.3999996185303,15.0,8.3,5.9,25.3,-19.5,-7.7,13.800999999999998,6.79851,5.96365,2.1914,13.3243,3.78403,28.2653,-3.80581,-12.7711,0.083611,0.1711619999999999,0.993691,257.4,4.1,52.1701,4.42726,-1.5,-3.49183,88.4665,4.60729,36.5094,13.6806,230.841,1.4034799999999998,-0.253402,234.11,1.84868,2.464,-34.9974365234375,22.0009689331055,-35.0,22.0,-962189.0,-15474.5,pp-riro,4,0,-1,-1
1570533382.3,2019-10-08,13:16:22.300,14.0,9.0,14.3400001525879,15.0,8.9,6.0,25.6,-20.4,-4.8,13.800999999999998,6.79851,5.96365,2.1914,13.3243,3.78403,28.2653,-3.80581,-12.7711,0.083611,0.1711619999999999,0.993691,257.4,4.1,52.1701,4.42726,-1.5,-3.53726,87.6506,4.60733,36.9475,14.4407,230.641,1.40047,-0.267509,234.028,1.9151,2.50671,-35.0059814453125,22.0009689331055,-35.0,22.0,-964032.0,-18427.9,pp-riro,4,0,-1,-1
1570533382.4,2019-10-08,13:16:22.400,14.0,9.0,14.3400001525879,14.8,10.2,6.3,25.2,-21.8,0.6,13.7817,8.5883,6.41774,-2.51691,12.636,3.64975,28.4274,-6.2072400000000005,-4.11578,0.1865349999999999,0.213689,0.985253,257.4,4.1,52.1701,4.42726,-1.5,-3.57439,88.4517,4.60737,37.8237,15.5807,230.141,1.39489,-0.2857099999999999,233.749,2.02941,2.59033,-35.0059814453125,22.0009689331055,-35.0,22.0,-965067.0,-18612.5,pp-riro,4,0,-1,-1
1570533382.5,2019-10-08,13:16:22.500,14.0,9.0,14.3999996185303,14.6,11.5,6.6,25.0,-23.1,6.1,13.7817,8.5883,6.41774,-2.51691,12.636,3.64975,28.4274,-6.2072400000000005,-4.11578,0.1865349999999999,0.213689,0.985253,257.4,4.1,52.1701,4.42726,-1.3,-3.6165,92.8638,4.60741,38.8459,17.4808,229.541,1.38731,-0.317859,233.46,2.15789,2.68293,-35.0042724609375,22.0009689331055,-35.0,22.0,-966682.0,-15505.3,pp-riro,4,0,-1,-1
1570533382.6,2019-10-08,13:16:22.600,14.0,9.0,14.5200004577637,14.3,12.7,7.0,24.7,-24.2,12.0,13.7817,8.5883,6.41774,-2.51691,12.636,3.64975,28.4274,-6.2072400000000005,-4.11578,0.1865349999999999,0.213689,0.985253,257.4,4.1,52.1701,4.42726,-1.3,-3.64919,97.311,4.60745,40.0142,19.0008,228.941,1.3796700000000002,-0.338371,233.187,2.27999,2.75998,-35.0076751708984,22.0009689331055,-35.0,22.0,-968072.0,-11721.3,pp-riro,4,0,-1,-1
1570533382.7,2019-10-08,13:16:22.700,14.0,10.0,14.640000343322802,14.0,14.0,7.3,24.0,-25.5,17.8,12.8533,13.1946,7.58345,-3.64635,11.3449,1.87814,26.6718,-11.6315,19.4003,0.0457659,0.231758,0.999565,257.4,4.1,52.1701,4.42726,-1.3,-3.65694,102.161,4.60749,41.2701,20.5209,228.241,1.37154,-0.356517,232.849,2.39752,2.8340400000000003,-35.0042724609375,22.0009689331055,-23.0044822692871,22.0,-969580.0,-7198.89,pp-riro,4,0,-1,-1
1570533382.8,2019-10-08,13:16:22.800,14.0,10.0,14.7600002288818,13.5,15.2,7.6,23.4,-26.5,23.6,12.8533,13.1946,7.58345,-3.64635,11.3449,1.87814,26.6718,-11.6315,19.4003,0.0457659,0.231758,0.999565,257.4,4.1,52.1701,4.42726,-1.3,-3.64919,104.409,4.607530000000001,42.6721,22.041,227.541,1.36278,-0.371901,232.555,2.51038,2.90532,-35.0059814453125,22.0009689331055,-23.0044822692871,22.0,-969864.0,-5383.79,pp-riro,4,0,-1,-1
1570533382.9,2019-10-08,13:16:22.900,14.0,10.0,14.9399995803833,13.0,16.3,8.0,22.4,-27.2,29.8,11.9616,15.4721,8.0976,-4.56102,9.50443,3.37186,24.6651,-13.5023,31.6563,0.0373560999999999,0.36525,0.972775,264.4,4.8,52.1701,4.42726,-1.3,-3.62647,110.871,4.60757,44.1908,23.181,226.842,1.35426,-0.378272,232.266,2.6192900000000003,2.96208,-34.8114013671875,22.0009689331055,-23.0044822692871,22.0,-970227.0,-1138.29,pp-riro,4,0,-1,-1
1570533383.0,2019-10-08,13:16:23.000,14.0,10.0,15.119999885559098,12.4,17.7,8.3,21.4,-28.1,36.4,11.9616,15.4721,8.0976,-4.56102,9.50443,3.37186,24.6651,-13.5023,31.6563,0.0373560999999999,0.36525,0.972775,264.4,4.8,52.1701,4.42726,-1.3,-3.56884,121.414,4.6076,45.9433,24.7011,226.042,1.344,-0.388503,231.982,2.73752,3.03055,-34.229400634765604,22.0009689331055,-23.0044822692871,22.0,-970041.0,3014.92,pp-riro,4,0,-1,-1
1570533383.1,2019-10-08,13:16:23.100,14.0,10.0,15.4099998474121,11.6,18.8,8.7,20.1,-28.8,42.7,11.431,16.5129,8.43272,-6.5918600000000005,11.0077,5.33072,23.4842,-14.4801,38.0189,0.0257743,0.318841,1.03016,264.4,4.8,52.1701,4.42726,-1.3,-3.4585800000000004,130.188,4.60762,47.6665,25.8411,225.142,1.33447,-0.391993,231.579,2.84296,3.08892,-33.2872467041016,22.0009689331055,-23.0044822692871,22.0,-968912.0,11136.7,pp-riro,4,0,-1,-1
1570533383.2,2019-10-08,13:16:23.200,14.0,10.0,15.630000114440902,10.7,19.9,9.0,19.0,-29.1,49.0,10.8251,17.5143,8.807160000000001,-5.3729,8.98926,3.56862,22.0478,-15.2662,44.2264,0.159268,0.277876,1.04143,264.4,4.8,52.1701,4.42726,-1.3,-3.22864,137.205,4.60765,49.5649,27.3612,224.242,1.32349,-0.399647,231.278,2.95062,3.15195,-31.9935150146484,22.0009689331055,-22.500028610229503,22.0,-966549.0,17689.6,pp-riro,4,0,-1,-1
1570533383.3,2019-10-08,13:16:23.300,14.0,11.0,15.9700002670288,9.7,21.0,9.2,17.4,-29.1,55.5,10.0113,18.6289,9.0576,-10.2923,8.26699,4.47691,20.7036,-16.0008,50.4012,-0.0459321,0.2959239999999999,0.923431,264.4,4.8,52.1701,4.42726,-1.3,-3.14276,140.735,4.60766,51.6679,28.5013,223.342,1.3125,-0.3993489999999999,231.005,3.05318,3.2084,-30.3447723388672,22.0009689331055,-21.763355255127,22.0,-965431.0,20581.4,pp-riro,4,0,-1,-1
1570533383.4,2019-10-08,13:16:23.400,14.0,11.0,16.2999992370605,8.7,22.0,9.4,16.2,-28.8,61.6,8.81198,20.0895,9.41258,-9.60068,9.94891,0.161916,18.5562,-17.0924,59.1944,-0.0764859,0.231523,0.8775649999999999,264.4,4.8,52.1701,4.42726,-1.3,-2.93608,150.032,4.60768,53.7416,29.2613,222.442,1.30235,-0.393878,230.705,3.14423,3.25566,-28.351257324218803,22.0009689331055,-21.0654048919678,22.0,-963283.0,24334.7,pp-riro,4,0,-1,-1
1570533383.5,2019-10-08,13:16:23.500,14.0,10.0,16.5100002288818,7.6,22.9,9.8,15.0,-28.8,67.4,8.81198,20.0895,9.41258,-9.60068,9.94891,0.161916,18.5562,-17.0924,59.1944,-0.0764859,0.231523,0.8775649999999999,264.4,4.8,52.1701,4.42726,-1.2,-2.56263,162.069,4.6077,55.9613,30.0213,221.442,1.29151,-0.387696,230.368,3.22961,3.3017800000000004,-26.8236923217773,22.0009689331055,-20.4067611694336,22.0,-959213.0,28272.6,pp-riro,4,0,-1,-1
1570533383.6,2019-10-08,13:16:23.600,14.0,10.0,16.729999542236303,6.5,23.6,9.9,13.6,-29.0,73.0,6.94199,21.8852,9.82206,-5.90829,4.76743,-0.00462718,15.5859,-18.2712,70.4786,0.134189,0.157064,0.955834,264.4,4.8,52.1701,4.42726,-1.2,-2.2556700000000003,164.842,4.60772,58.2395,31.1614,220.442,1.27967,-0.386621,230.125,3.31577,3.3487,-25.0093841552734,22.0009689331055,-19.8990802764893,22.0,-956351.0,27811.1,pp-riro,4,0,-1,-1
1570533383.7,2019-10-08,13:16:23.700,14.0,10.0,16.9300003051758,5.2,24.2,9.8,11.9,-28.6,78.2,6.94199,21.8852,9.82206,-5.90829,4.76743,-0.00462718,15.5859,-18.2712,70.4786,0.134189,0.157064,0.955834,264.4,4.8,52.1701,4.42726,-1.2,-2.10828,164.72400000000002,4.60774,60.6052,31.9215,219.442,1.26823,-0.380132,229.884,3.3911,3.39604,-23.4050140380859,22.0009689331055,-19.2500114440918,22.0,-955035.0,26303.6,pp-riro,4,0,-1,-1
1570533383.8,2019-10-08,13:16:23.800,14.0,9.0,17.0900001525879,4.1,24.7,9.8,10.6,-27.9,83.4,5.82598,22.486,9.85994,-14.4154,9.22334,1.21062,14.0491,-18.7393,75.8061,0.0568817999999999,0.0943388,0.80714,264.4,4.8,52.1701,4.42726,-1.2,-1.78913,161.359,4.60777,63.0002,32.3015,218.442,1.25737,-0.369138,229.629,3.46301,3.42976,-22.0242385864258,22.0009689331055,-18.753345489502,22.0,-952730.0,21689.0,pp-riro,4,0,-1,-1
1570533383.9,2019-10-08,13:16:23.900,14.0,9.0,17.1900005340576,2.8,25.0,9.8,9.0,-27.5,88.0,5.25178,22.7533,9.81432,-13.7023,3.03694,-0.894958,13.3027,-18.7877,78.4066,-0.172699,0.128791,0.6909810000000001,258.9,5.0,52.1701,4.42726,-1.2,-1.37745,158.76,4.6077900000000005,65.4536,32.6815,217.442,1.24624,-0.358481,229.419,3.52539,3.46896,-20.5547027587891,22.0009689331055,-18.175228118896506,22.0,-950131.0,15105.4,pp-riro,4,0,-1,-1
1570533384.0,2019-10-08,13:16:24.000,14.0,10.0,17.3400001525879,1.6,25.1,9.6,7.5,-27.0,92.6,4.19401,23.254,9.70855,-7.54978,3.53702,-4.61974,11.8102,-18.7787,83.1753,0.210608,-0.0293235,0.846374,258.9,5.0,52.1701,4.42726,-1.2,-1.08877,159.764,4.60778,67.9947,32.6816,216.442,1.23541,-0.343443,229.213,3.58419,3.50003,-19.5954895019531,22.0009689331055,-17.6532516479492,22.0,-948842.0,12213.5,pp-riro,4,0,-1,-1
1570533384.1,2019-10-08,13:16:24.100,14.0,10.0,17.4899997711182,0.5,25.3,9.5,6.3,-26.3,96.8,2.00243,23.7994,9.47481,-8.71175,1.6553400000000005,-1.12375,8.95271,-18.5119,91.9145,-0.00288348,0.186297,0.680712,258.9,5.0,52.1701,4.42726,-1.2,-0.954684,160.123,4.60778,70.5065,33.0616,215.442,1.22395,-0.333864,229.084,3.64233,3.53241,-18.7216262817383,22.0009689331055,-17.2711353302002,22.0,-948294.0,10859.9,pp-riro,4,0,-1,-1
1570533384.2,2019-10-08,13:16:24.200,14.0,9.0,17.5900001525879,-0.4,25.3,9.3,4.8,-25.6,100.8,2.00243,23.7994,9.47481,-8.71175,1.6553400000000005,-1.12375,8.95271,-18.5119,91.9145,-0.00288348,0.186297,0.680712,258.9,5.0,52.1701,4.42726,-1.2,-0.521392,159.511,4.60777,72.9891,33.0616,214.542,1.21336,-0.320705,229.017,3.69447,3.5540800000000004,-17.9894180297852,22.0009689331055,-16.9918479919434,22.0,-947170.0,5906.78,pp-riro,4,0,-1,-1
1570533384.3,2019-10-08,13:16:24.300,14.0,9.0,17.5900001525879,-1.4,25.3,9.2,3.3,-24.9,104.6,-0.0583293999999999,24.0165,9.08816,-10.3379,0.012787,-1.41288,6.25857,-17.7192,99.882,-0.0797258999999999,0.0970828,0.531458,258.9,5.0,52.1701,4.42726,-1.2,-0.38675,158.13,4.60777,75.6177,33.0617,213.542,1.202,-0.307558,228.935,3.74369,3.5790300000000004,-17.3886337280273,22.0009689331055,-16.6922950744629,22.0,-946948.0,4122.44,pp-riro,4,0,-1,-1
1570533384.4,2019-10-08,13:16:24.400,14.0,9.0,17.4899997711182,-2.3,25.1,9.0,1.8,-24.3,108.2,-0.0583293999999999,24.0165,9.08816,-10.3379,0.012787,-1.41288,6.25857,-17.7192,99.882,-0.0797258999999999,0.0970828,0.531458,258.9,5.0,52.1701,4.42726,-1.2,-0.104167,156.335,4.60776,78.0711,32.6817,212.542,1.19184,-0.291826,228.774,3.78738,3.59877,-16.9670562744141,22.0009689331055,-16.3925895690918,22.0,-946779.0,984.464,pp-riro,4,0,-1,-1
1570533384.5,2019-10-08,13:16:24.500,14.0,9.0,17.4400005340576,-3.2,25.1,8.8,0.5,-23.4,111.6,-1.86349,23.9017,8.62407,-8.69482,1.02095,-0.189344,3.3554,-16.7021,106.961,-0.0478159,0.176052,0.560642,258.9,5.0,52.1701,4.42726,-1.1,0.141845,155.727,4.60776,80.583,32.6817,211.642,1.18095,-0.280668,228.81,3.83352,3.62279,-16.6154632568359,22.0009689331055,-16.161762237548803,22.0,-946870.0,-1568.99,pp-riro,4,0,-1,-1
1570533384.6,2019-10-08,13:16:24.600,14.0,9.0,17.4400005340576,-4.1,24.7,8.7,-0.8,-22.6,114.9,-2.26792,23.8267,8.50703,-11.6529,-2.75991,2.03257,2.71855,-16.3665,108.541,-0.147911,0.2503329999999999,0.449991,258.9,5.0,52.1701,4.42726,-1.1,0.341315,155.7,4.60775,83.1824,32.3018,210.742,1.17026,-0.265768,228.856,3.87462,3.64403,-16.3321380615234,22.0009689331055,-15.9016609191895,22.0,-947030.0,-30.7645,pp-riro,4,0,-1,-1
1570533384.7,2019-10-08,13:16:24.700,14.0,9.0,17.2800006866455,-5.0,24.5,8.7,-2.1,-22.2,117.6,-2.66148,23.719,8.39461,-9.87411,-0.14047,-1.1605299999999998,2.14801,-16.0306,110.199,0.118479,0.129048,0.600302,258.9,5.0,52.1701,4.42726,-1.1,0.231606,162.125,4.60775,85.6066,31.9218,209.842,1.16015,-0.252282,228.87,3.90588,3.66561,-16.2160797119141,22.0009689331055,-15.6527605056763,22.0,-946809.0,1138.29,pp-riro,4,0,-1,-1
1570533384.8,2019-10-08,13:16:24.800,14.0,9.0,17.3299999237061,-5.9,24.3,8.8,-3.5,-21.5,120.4,-4.07102,23.4849,8.25548,-8.04525,-3.66934,-0.768744,-0.149357,-15.6472,114.601,-0.279959,0.166238,0.382195,258.9,5.0,52.1701,4.42726,-1.1,0.330233,184.549,4.60774,88.06,31.5418,208.842,1.1497,-0.239306,228.833,3.94079,3.68695,-16.021507263183597,22.0009689331055,-15.4522886276245,22.0,-946965.0,-1753.58,pp-riro,4,0,-1,-1
1570533384.9,2019-10-08,13:16:24.900,14.0,10.0,17.2800006866455,-6.9,24.0,9.1,-4.7,-21.0,123.3,-4.07102,23.4849,8.25548,-8.04525,-3.66934,-0.768744,-0.149357,-15.6472,114.601,-0.279959,0.166238,0.382195,254.9,5.0,52.1701,4.42726,-1.1,0.324138,197.634,4.60774,90.601,30.4018,207.842,1.13982,-0.219104,228.76,3.96993,3.70423,-15.6801528930664,22.0009689331055,-15.1458835601807,22.0,-946823.0,153.822,pp-riro,4,0,-1,-1
1570533385.0,2019-10-08,13:16:25.000,14.0,10.0,17.3299999237061,-7.7,23.9,9.3,-6.3,-20.9,126.2,-4.8683,23.2103,8.37195,-7.044339999999999,1.01672,0.2813,-1.56208,-15.1471,117.448,-0.182307,0.206929,0.392638,254.9,5.0,52.1701,4.42726,-1.1,0.360154,206.15,4.60763,93.0252,30.0218,206.842,1.12932,-0.2074619999999999,228.777,4.00427,3.72136,-15.468505859375,22.0009689331055,-15.095846176147498,22.0,-946806.0,646.054,pp-riro,4,0,-1,-1
1570533385.1,2019-10-08,13:16:25.100,14.0,10.0,17.4300003051758,-8.7,23.6,9.3,-7.9,-20.4,129.1,-4.8683,23.2103,8.37195,-7.044339999999999,1.01672,0.2813,-1.56208,-15.1471,117.448,-0.182307,0.206929,0.392638,254.9,5.0,52.1701,4.42726,-1.1,0.358491,211.82,4.607559999999999,95.4787,29.2619,205.742,1.11892,-0.1926,228.697,4.03814,3.7458,-15.2090835571289,22.0009689331055,-14.8361654281616,22.0,-946762.0,861.4060000000001,pp-riro,4,0,-1,-1
1570533385.2,2019-10-08,13:16:25.200,14.0,12.0,17.4899997711182,-9.8,23.4,9.5,-9.1,-20.0,131.7,-7.0457600000000005,22.7833,8.7049,-13.3232,-7.698589999999999,2.09165,-5.80191,-14.2683,124.487,-0.0205199,0.0468924,0.394076,254.9,5.0,52.1701,4.42726,-1.1,0.380101,221.499,4.60746,97.8445,28.1219,204.642,1.10917,-0.174946,228.567,4.06446,3.76811,-15.0145111083984,22.0009689331055,-14.5344924926758,22.0,-946741.0,92.2935,pp-riro,4,0,-1,-1
1570533385.3,2019-10-08,13:16:25.300,14.0,12.0,17.479999542236303,-10.8,22.9,9.7,-10.7,-19.9,134.2,-8.5655,22.42,8.883410000000001,-12.4978,-5.84937,1.00302,-8.68995,-14.3175,128.534,-0.152471,-0.0579221,0.326807,254.9,5.0,52.1701,4.42726,-1.1,0.395615,231.875,4.60737,100.181,27.3619,203.542,1.09901,-0.161625,228.505,4.09089,3.7936,-14.7311859130859,22.0009689331055,-14.315409660339402,22.0,-946680.0,646.054,pp-riro,4,0,-1,-1
1570533385.4,2019-10-08,13:16:25.400,14.0,10.0,17.5300006866455,-11.7,22.4,9.7,-11.9,-19.9,136.8,-9.11081,22.278,8.96499,-10.1759,-6.43503,0.724171,-9.40329,-14.098,129.89,-0.0732688,-0.0995289999999999,0.2922369999999999,254.9,5.0,52.1701,4.42726,-1.1,0.417778,238.533,4.60728,102.547,25.8419,202.442,1.0894,-0.141799,228.4,4.11236,3.81205,-14.5912246704102,22.0009689331055,-14.0728149414062,22.0,-946591.0,861.4060000000001,pp-riro,4,0,-1,-1
1570533385.5,2019-10-08,13:16:25.500,14.0,11.0,17.6800003051758,-12.5,21.8,9.8,-13.3,-19.8,139.1,-9.95346,21.7583,9.08602,-6.17747,-6.47808,0.295905,-10.8872,-14.1102,132.33100000000002,-0.0273005,-0.147023,0.421757,254.9,5.0,52.1701,4.42726,-0.8,0.408913,237.02,4.60719,104.737,25.0819,201.243,1.07941,-0.129894,228.249,4.13668,3.83468,-14.3488616943359,22.0009689331055,-13.9794425964355,22.0,-946487.0,922.935,pp-riro,4,0,-1,-1
1570533385.6,2019-10-08,13:16:25.600,14.0,9.0,18.020000457763697,-13.1,21.2,9.7,-13.9,-19.5,141.3,-9.95346,21.7583,9.08602,-6.17747,-6.47808,0.295905,-10.8872,-14.1102,132.33100000000002,-0.0273005,-0.147023,0.421757,254.9,5.0,52.1701,4.42726,-0.8,0.408359,231.9,4.6071,106.899,23.9419,200.143,1.06999,-0.115087,228.161,4.15843,3.85087,-14.0860214233398,22.0009689331055,-13.9345464706421,22.0,-946398.0,984.464,pp-riro,4,0,-1,-1
1570533385.7,2019-10-08,13:16:25.700,14.0,8.0,18.3700008392334,-13.7,20.5,9.6,-15.0,-18.9,143.6,-10.4335,21.4821,9.15085,-9.34621,-1.01255,0.389452,-11.6822,-14.3829,133.519,-0.117743,-0.11814,0.53183,254.9,5.0,52.1701,4.42726,-0.8,0.400047,227.192,4.60701,109.031,22.0419,199.043,1.06118,-0.0941362,228.017,4.17879,3.86379,-13.9699630737305,22.0009689331055,-13.7992763519287,22.0,-946339.0,1107.52,pp-riro,4,0,-1,-1
1570533385.8,2019-10-08,13:16:25.800,14.0,9.0,18.7900009155273,-14.3,20.0,9.6,-15.7,-18.2,145.7,-10.4335,21.4821,9.15085,-9.34621,-1.01255,0.389452,-11.6822,-14.3829,133.519,-0.117743,-0.11814,0.53183,254.9,5.0,52.1701,4.42726,-0.8,0.381209,220.136,4.60691,111.075,20.9019,198.043,1.05219,-0.0805736,228.025,4.20334,3.879280000000001,-13.8334197998047,22.0009689331055,-13.8203954696655,22.0,-946240.0,953.699,pp-riro,4,0,-1,-1
1570533385.9,2019-10-08,13:16:25.900,14.0,9.0,19.1200008392334,-14.8,19.3,9.5,-16.4,-17.7,147.8,-12.2177,19.9337,9.12083,-3.18235,-10.5775,-3.39184,-14.5049,-13.9162,139.02,-0.144585,-0.200296,0.177676,267.9,4.8,52.1701,4.42726,-0.8,0.381209,220.09,4.60682,113.003,19.3819,197.043,1.04381,-0.0643433,227.972,4.22415,3.89429,-13.800994873046902,22.0009689331055,-13.7746343612671,22.0,-946139.0,707.5830000000001,pp-riro,4,0,-1,-1
1570533386.0,2019-10-08,13:16:26.000,14.0,8.0,19.479999542236303,-15.1,18.7,9.4,-16.6,-17.2,149.9,-13.3517,18.8303,8.978010000000001,-4.06096,-1.96097,-3.9296,-15.9843,-13.5145,143.226,-0.0625902,-0.140057,0.291506,267.9,4.8,52.1701,4.42726,-0.8,0.381209,219.768,4.60681,114.989,17.8619,195.943,1.03488,-0.0485305,227.893,4.24528,3.90223,-13.797576904296902,22.0009689331055,-13.9528017044067,22.0,-946067.0,707.5830000000001,pp-riro,4,0,-1,-1
1570533386.1,2019-10-08,13:16:26.100,14.0,8.0,19.5300006866455,-15.6,18.1,9.2,-16.8,-16.6,151.9,-13.7782,18.227,8.94175,-3.1234900000000003,-8.50427,0.7844770000000001,-16.3411,-12.7552,145.403,0.0480224,0.0374253,0.474367,267.9,4.8,52.1701,4.42726,-0.8,0.379546,219.061,4.6068,116.771,15.9619,195.043,1.02725,-0.0302653,227.886,4.2638300000000005,3.9162,-13.8078155517578,22.0009689331055,-13.889180183410598,22.0,-945991.0,738.3480000000001,pp-riro,4,0,-1,-1
1570533386.2,2019-10-08,13:16:26.200,14.0,7.0,19.3899993896484,-16.1,17.4,9.0,-16.7,-15.9,153.9,-14.1275,17.6315,8.84325,-0.972041,-7.08625,1.04049,-16.6427,-12.2047,147.416,0.0488995,-0.0943001,0.257332,267.9,4.8,52.1701,4.42726,-0.8,0.381763,223.642,4.6067800000000005,118.553,14.8219,194.043,1.0189,-0.0187782999999999,227.875,4.28895,3.93854,-13.9238739013672,22.0009689331055,-13.8940448760986,22.0,-945923.0,615.29,pp-riro,4,0,-1,-1
1570533386.3,2019-10-08,13:16:26.300,14.0,9.0,19.25,-16.6,16.6,9.0,-17.1,-15.2,156.0,-14.1275,17.6315,8.84325,-0.972041,-7.08625,1.04049,-16.6427,-12.2047,147.416,0.0488995,-0.0943001,0.257332,267.9,4.8,52.1701,4.42726,-0.8,0.388412,228.493,4.60677,120.217,13.3019,193.143,1.01132,-0.00458638,227.889,4.3134,3.95827,-13.7788009643555,22.0009689331055,-13.864757537841802,22.0,-945899.0,461.467,pp-riro,4,0,-1,-1
1570533386.4,2019-10-08,13:16:26.400,14.0,9.0,18.9300003051758,-17.0,16.1,8.9,-17.3,-14.6,158.2,-15.2714,16.2839,8.59079,-2.22479,-8.51525,0.679133,-17.1257,-11.1101,151.525,-0.157893,-0.128532,0.424622,267.9,4.8,52.1701,4.42726,-0.8,0.415008,239.397,4.60676,121.824,11.4018,192.243,1.00399,0.0123061,227.878,4.33622,3.96824,-13.6695709228516,22.0009689331055,35.0,22.0,-945818.0,830.6410000000001,pp-riro,4,0,-1,-1
1570533386.5,2019-10-08,13:16:26.500,14.0,9.0,18.7800006866455,-17.4,15.5,8.7,-17.6,-14.0,160.6,-15.2714,16.2839,8.59079,-2.22479,-8.51525,0.679133,-17.1257,-11.1101,151.525,-0.157893,-0.128532,0.424622,267.9,4.8,52.1701,4.42726,-0.8,0.548542,241.103,4.60674,123.372,9.88183,191.343,0.996651,0.0257017,227.882,4.36485,3.98531,-13.7429580688477,22.0009689331055,35.0,22.0,-946483.0,-13198.0,pp-riro,4,0,-1,-1
1570533386.6,2019-10-08,13:16:26.600,14.0,9.0,18.7399997711182,-17.6,15.0,8.3,-17.9,-12.9,163.0,-16.3428,14.8629,8.28065,-0.595658,-6.5173,-4.25105,-18.0902,-9.4774,157.371,-0.0343445,-0.1023,0.509108,267.9,4.8,52.1701,4.42726,-0.8,1.0655,232.32,4.606730000000001,124.861,7.98181,190.443,0.989533,0.0418158,227.865,4.39593,3.99589,-13.77197265625,22.0009689331055,35.0,22.0,-948661.0,-25073.1,pp-riro,4,0,-1,-1
1570533386.7,2019-10-08,13:16:26.700,14.0,7.0,18.7800006866455,-17.3,14.3,7.7,-18.4,-11.9,165.2,-16.3428,14.8629,8.28065,-0.595658,-6.5173,-4.25105,-18.0902,-9.4774,157.371,-0.0343445,-0.1023,0.509108,267.9,4.8,52.1701,4.42726,-0.8,0.8721260000000001,188.033,4.60671,126.263,6.4618,189.643,0.982794,0.0545346,227.922,4.426130000000001,4.00432,-13.416961669921902,22.0009689331055,35.0,22.0,-947049.0,4060.91,pp-riro,4,0,-1,-1
1570533386.8,2019-10-08,13:16:26.800,14.0,6.0,18.9200000762939,-17.3,13.6,7.5,-18.7,-10.7,167.1,-16.3958,14.283,7.72935,2.45096,-7.814010000000001,-4.64726,-18.3915,-8.78646,159.664,-0.125356,-0.0507384,0.429877,267.9,4.8,52.1701,4.42726,-0.8,0.958008,205.973,4.6067,127.636,4.56177,188.843,0.976143,0.0699557,227.977,4.45186,4.01316,-12.6967086791992,22.0009689331055,35.0,22.0,-947422.0,-2122.75,pp-riro,4,0,-1,-1
1570533386.9,2019-10-08,13:16:26.900,14.0,7.0,19.0100002288818,-17.2,12.8,7.5,-19.3,-9.9,169.2,-16.2285,13.6913,7.30167,-0.0473534,-9.34411,-2.20093,-18.7913,-8.56113,161.955,0.11579,-0.0740675,0.312663,261.5,4.9,52.1701,4.42726,-0.8,0.978509,216.306,4.60669,128.921,3.04176,188.143,0.969922,0.0821047,228.096,4.4794,4.021719999999999,-11.624847412109402,22.0009689331055,35.0,22.0,-947324.0,1845.87,pp-riro,4,0,-1,-1
1570533387.0,2019-10-08,13:16:27.000,14.0,8.0,18.9699993133545,-17.2,12.4,7.3,-19.8,-9.4,171.3,-16.2547,13.3366,7.22458,-3.4227,-9.85795,0.495303,-18.8912,-7.979439999999999,163.036,0.1214819999999999,0.23806,0.419835,261.5,4.9,52.1701,4.42726,-0.8,0.967982,213.319,4.60668,130.148,1.14174,187.443,0.963865,0.0969324,228.199,4.50183,4.02447,-10.2014007568359,22.0009689331055,35.0,22.0,-947131.0,1630.52,pp-riro,4,0,-1,-1
1570533387.1,2019-10-08,13:16:27.100,14.0,9.0,18.9200000762939,-17.3,12.1,7.1,-20.1,-8.3,172.6,-16.3148,13.0159,7.289439999999999,-1.32238,-7.443589999999999,0.216129,-19.3064,-7.33033,164.153,0.191803,0.0541371,0.47795,261.5,4.9,52.1701,4.42726,-0.8,0.952468,209.819,4.606669999999999,131.316,-0.378274,186.643,0.957677,0.108597,228.21,4.52144,4.03027,-8.40928649902344,22.0009689331055,35.0,22.0,-946818.0,2091.99,pp-riro,4,0,-1,-1
1570533387.2,2019-10-08,13:16:27.200,14.0,9.0,18.729999542236303,-17.4,11.8,7.1,-20.4,-7.9,172.9,-16.3148,13.0159,7.289439999999999,-1.32238,-7.443589999999999,0.216129,-19.3064,-7.33033,164.153,0.191803,0.0541371,0.47795,261.5,4.9,52.1701,4.42726,-0.8,0.960225,213.194,4.60666,131.959,-1.51829,186.343,0.95459,0.1172329999999999,228.34,4.52257,4.03464,-6.32701873779297,22.0009689331055,35.0,22.0,-946797.0,369.174,pp-riro,4,0,-1,-1
1570533387.3,2019-10-08,13:16:27.300,14.0,9.0,18.6800003051758,-17.6,11.3,7.3,-21.4,-7.3,173.7,-16.3466,11.928,6.906339999999999,-0.185637,-7.7784,-5.69366,-20.098,-6.31754,168.25799999999998,-0.103824,-0.32579,0.186433,261.5,4.9,52.1701,4.42726,-0.8,0.981834,222.176,4.60665,133.565,-4.178319999999999,185.243,0.945865,0.137016,228.412,4.52366,4.0346,-4.214027404785161,22.0009689331055,35.0,22.0,-946692.0,1538.22,pp-riro,4,0,-1,-1
1570533387.4,2019-10-08,13:16:27.400,14.0,10.0,18.5400009155273,-17.6,11.3,7.4,-21.8,-7.0,174.1,-16.3466,11.928,6.906339999999999,-0.185637,-7.7784,-5.69366,-20.098,-6.31754,168.25799999999998,-0.103824,-0.32579,0.186433,261.5,4.9,52.1701,4.42726,-0.8,0.989037,227.308,4.60663,134.179,-4.9383300000000006,184.943,0.94283,0.142536,228.544,4.527830000000001,4.02809,-2.11640167236328,22.0009689331055,35.0,22.0,-946562.0,984.464,pp-riro,4,0,-1,-1
1570533387.5,2019-10-08,13:16:27.500,14.0,10.0,18.4400005340576,-17.6,11.4,7.7,-22.6,-7.3,174.3,-16.9963,11.2663,6.856510000000001,-4.00355,-0.240617,-2.37712,-21.5622,-6.652,170.715,-0.127273,-0.0933151999999999,0.214321,261.5,4.9,52.1701,4.42726,-0.8,0.994578,229.359,4.60662,135.31799999999998,-6.83835,184.143,0.936452,0.156252,228.61900000000003,4.51644,4.00798,-0.017066955566406,22.0009689331055,35.0,22.0,-946281.0,2368.87,pp-riro,4,0,-1,-1
1570533387.6,2019-10-08,13:16:27.600,14.0,10.0,18.2999992370605,-17.7,11.6,8.2,-23.9,-7.6,173.9,-17.1816,11.232,7.12363,-2.41578,3.72783,3.31624,-22.4184,-6.76094,171.47799999999998,0.0246489,-0.2351349999999999,0.00465906,261.5,4.9,52.1701,4.42726,-0.8,0.997902,232.831,4.60662,136.428,-8.358360000000001,183.343,0.930177,0.166958,228.686,4.49911,3.98647,2.09316253662109,22.0009689331055,35.0,22.0,-946134.0,1261.34,pp-riro,4,0,-1,-1
1570533387.7,2019-10-08,13:16:27.700,14.0,10.0,18.1499996185303,-17.6,11.7,8.7,-24.9,-8.4,173.3,-17.1816,11.232,7.12363,-2.41578,3.72783,3.31624,-22.4184,-6.76094,171.47799999999998,0.0246489,-0.2351349999999999,0.00465906,261.5,4.9,52.1701,4.42726,-0.8,1.00289,232.957,4.6066,137.53799999999998,-10.2584,182.443,0.923492,0.180229,228.708,4.47187,3.96053,4.188026428222661,22.0009689331055,35.0,22.0,-946068.0,1292.11,pp-riro,4,0,-1,-1
1570533387.8,2019-10-08,13:16:27.800,14.0,10.0,18.0100002288818,-17.3,12.0,9.3,-26.4,-9.8,172.4,-17.5165,11.9853,8.865260000000001,1.87767,7.005439999999999,7.39108,-26.6095,-10.8963,170.955,-0.189435,-0.212984,-0.261418,261.5,4.9,52.1701,4.42726,-0.8,0.999565,227.94,4.60659,138.70600000000002,-12.1584,181.443,0.916258,0.193224,228.711,4.43454,3.92214,6.30332946777344,22.0009689331055,35.0,22.0,-945828.0,2614.98,pp-riro,4,0,-1,-1
1570533387.9,2019-10-08,13:16:27.900,14.0,10.0,18.0100002288818,-16.9,12.5,10.0,-27.4,-11.5,170.8,-17.5165,11.9853,8.865260000000001,1.87767,7.005439999999999,7.39108,-26.6095,-10.8963,170.955,-0.189435,-0.212984,-0.261418,262.5,4.3,52.1701,4.42726,-0.8,0.980172,221.884,4.60658,139.874,-14.0584,180.443,0.908945,0.205973,228.741,4.38475,3.87454,8.41522979736328,22.0009689331055,35.0,22.0,-945506.0,1630.52,pp-riro,4,0,-1,-1
1570533388.0,2019-10-08,13:16:28.000,14.0,10.0,17.9500007629395,-16.4,13.0,10.8,-28.4,-13.3,168.9,-17.4412,12.1771,9.16403,-0.482196,1.84872,8.57518,-27.2317,-11.7911,170.453,-0.379469,-0.2486139999999999,-0.311071,262.5,4.3,52.1701,4.42726,-0.8,0.986821,223.803,4.6066,141.13,-15.5784,179.343,0.901132,0.215736,228.746,4.33235,3.82557,10.516906738281198,22.0009689331055,35.0,22.0,-945363.0,1538.22,pp-riro,4,0,-1,-1
1570533388.1,2019-10-08,13:16:28.100,14.0,10.0,17.9500007629395,-15.7,13.6,11.7,-29.2,-15.6,166.2,-17.1841,12.7044,9.88576,3.07497,7.361219999999999,7.4417,-28.2844,-14.0089,169.22400000000002,-0.2862409999999999,-0.28949,-0.464387,262.5,4.3,52.1701,4.42726,-0.8,0.987929,225.06,4.60662,142.386,-17.4784,178.243,0.893119,0.2279219999999999,228.801,4.2623,3.76561,12.625396728515598,22.0009689331055,35.0,22.0,-945179.0,1815.1,pp-riro,4,0,-1,-1
1570533388.2,2019-10-08,13:16:28.200,14.0,10.0,17.8500003814697,-14.9,14.3,12.5,-29.9,-18.1,163.1,-16.1246,14.1058,11.7925,4.28014,1.33194,8.22667,-30.3105,-19.9393,165.06799999999998,-0.297683,-0.27958,-0.800145,262.5,4.3,52.1701,4.42726,-0.8,0.987375,225.006,4.6066400000000005,143.73,-18.6184,177.043,0.884806,0.234582,228.8,4.18965,3.70745,14.73388671875,22.0009689331055,35.0,22.0,-945018.0,1507.46,pp-riro,4,0,-1,-1
1570533388.3,2019-10-08,13:16:28.300,14.0,9.0,17.8500003814697,-13.9,15.1,13.4,-29.7,-20.8,159.1,-15.7373,14.5063,12.2819,9.40343,3.62721,8.06807,-30.7696,-21.5312,163.80200000000002,-0.184928,-0.335492,-0.663183,262.5,4.3,52.1701,4.42726,-0.8,0.989591,224.689,4.60665,145.161,-20.5184,175.84400000000002,0.8758309999999999,0.246163,228.94,4.09981,3.63701,16.8423690795898,22.0009689331055,35.0,22.0,-944931.0,1630.52,pp-riro,4,0,-1,-1
1570533388.4,2019-10-08,13:16:28.400,14.0,10.0,17.8999996185303,-12.7,15.8,14.2,-29.6,-23.8,154.9,-15.3053,14.931,12.7815,7.862999999999999,5.27619,6.50084,-31.0491,-23.2411,162.38,-0.231767,-0.335499,-0.72985,262.5,4.3,52.1701,4.42726,-0.8,0.988483,226.354,4.606669999999999,146.621,-21.6584,174.544,0.8668,0.252381,228.981,4.00967,3.56889,18.9593811035156,22.0009689331055,35.0,22.0,-944731.0,2091.99,pp-riro,4,0,-1,-1
1570533388.5,2019-10-08,13:16:28.500,14.0,10.0,17.8999996185303,-11.4,16.6,15.1,-28.3,-27.2,150.0,-15.3053,14.931,12.7815,7.862999999999999,5.27619,6.50084,-31.0491,-23.2411,162.38,-0.231767,-0.335499,-0.72985,262.5,4.3,52.1701,4.42726,-0.9,1.004,236.496,4.60669,148.19899999999998,-22.7984,173.144,0.857087,0.258347,229.044,3.90836,3.49643,20.5415954589844,22.0009689331055,35.0,22.0,-944557.0,892.17,pp-riro,4,0,-1,-1
1570533388.6,2019-10-08,13:16:28.600,14.0,10.0,17.8999996185303,-9.9,17.3,15.9,-26.4,-30.5,144.0,-11.6312,17.5616,15.8208,14.7807,0.715654,11.2629,-30.3679,-34.7208,150.264,-0.374007,-0.2366,-1.06979,262.5,4.3,52.1701,4.42726,-0.9,1.0184,241.653,4.60671,149.834,-23.9384,171.644,0.8468870000000001,0.264115,229.096,3.79591,3.42165,22.655197143554695,22.0009689331055,35.0,22.0,-944371.0,2307.34,pp-riro,4,0,-1,-1
1570533388.7,2019-10-08,13:16:28.700,14.0,11.0,17.9500007629395,-8.2,18.0,16.7,-23.5,-33.7,137.3,-10.8884,18.0004,16.3371,13.6073,8.15428,9.52222,-29.5866,-36.8302,147.612,-0.725932,-0.309851,-1.06299,262.5,4.3,52.1701,4.42726,-0.9,1.01674,244.12,4.606730000000001,151.528,-25.0783,170.144,0.8364889999999999,0.269686,229.213,3.67827,3.3419300000000005,24.761985778808604,22.0009689331055,35.0,22.0,-944257.0,2153.51,pp-riro,4,0,-1,-1
1570533388.8,2019-10-08,13:16:28.800,14.0,11.0,18.0400009155273,-6.1,18.6,17.4,-19.9,-36.8,129.3,-8.97423,18.9401,17.2578,18.3863,5.6698,4.96386,-27.265,-40.783,141.119,-0.099563,-0.2958989999999999,-1.15535,262.5,4.3,52.1701,4.42726,-0.9,1.03004,251.166,4.60675,153.398,-25.4583,168.44400000000002,0.8253469999999999,0.2701159999999999,229.243,3.55209,3.2553400000000003,26.8636627197266,22.0009689331055,35.0,22.0,-944139.0,1045.99,pp-riro,4,0,-1,-1
1570533388.9,2019-10-08,13:16:28.900,14.0,12.0,18.1399993896484,-3.9,19.2,18.1,-14.4,-39.1,119.8,-5.7785,20.1153,18.4592,24.3171,7.0667800000000005,8.35953,-21.6812,-47.0003,128.815,-0.515311,-0.0240433,-1.03584,263.2,4.8,52.1701,4.42726,-0.9,1.04943,261.249,4.60676,155.296,-26.2182,166.74400000000003,0.813919,0.272884,229.364,3.4133400000000003,3.16594,28.982360839843803,22.0009689331055,35.0,22.0,-943894.0,1692.05,pp-riro,4,0,-1,-1
1570533389.0,2019-10-08,13:16:29.000,14.0,12.0,18.0400009155273,-1.5,19.4,18.5,-8.6,-41.3,110.4,-3.12456,20.527,19.1296,29.7738,6.0638,4.26133,-15.9359,-50.1074,118.341,-0.210167,-0.295544,-1.38504,263.2,4.8,52.1701,4.42726,-0.9,1.05331,262.746,4.60677,157.194,-26.2182,165.044,0.802898,0.270889,229.427,3.28464,3.07778,30.8626403808594,22.0009689331055,23.0044822692871,22.0,-943681.0,2153.51,pp-riro,4,0,-1,-1
1570533389.1,2019-10-08,13:16:29.100,14.0,13.0,17.9899997711182,0.8,19.5,18.8,-1.9,-42.5,99.8,-0.387763,20.8879,19.5498,43.9739,-0.346666,-0.513321,-8.95716,-52.7162,107.332,0.0655234,-0.0383265999999999,-1.19877,263.2,4.8,52.1701,4.42726,-0.9,1.05497,265.113,4.60677,159.093,-26.5981,163.244,0.791384,0.271271,229.492,3.14557,2.99327,32.397171020507805,22.0009689331055,23.0044822692871,22.0,-943564.0,2307.34,pp-ro,1,1,-1,-1
1570533389.2,2019-10-08,13:16:29.200,14.0,11.0,18.0400009155273,3.5,19.3,18.7,5.0,-42.8,88.6,-0.387763,20.8879,19.5498,43.9739,-0.346666,-0.513321,-8.95716,-52.7162,107.332,0.0655234,-0.0383265999999999,-1.19877,263.2,4.8,52.1701,4.42726,-0.9,1.07437,275.087,4.6067800000000005,161.079,-26.218000000000004,161.444,0.779992,0.266962,229.56,3.00556,2.8972900000000004,33.8056640625,22.0009689331055,23.0044822692871,22.0,-943304.0,1815.1,pp-ro,1,1,-1,-1
1570533389.3,2019-10-08,13:16:29.300,14.0,11.0,18.229999542236303,5.9,18.8,18.4,12.3,-42.1,77.6,-0.387763,20.8879,19.5498,43.9739,-0.346666,-0.513321,-8.95716,-52.7162,107.332,0.0655234,-0.0383265999999999,-1.19877,263.2,4.8,52.1701,4.42726,-0.9,1.07658,274.941,4.60679,162.977,-25.838,159.644,0.7688619999999999,0.262835,229.598,2.86721,2.81022,34.5363159179688,22.0019989013672,23.0092449188232,22.0,-943072.0,2368.87,pp-ro,1,1,-1,-1
1570533389.4,2019-10-08,13:16:29.400,14.0,12.0,18.3299999237061,8.4,18.2,17.9,18.8,-40.1,66.8,3.86858,20.797,19.658,21.1602,3.62377,2.89874,4.977069999999999,-54.5382,87.1661,-0.200041,-0.325965,-1.36703,263.2,4.8,52.1701,4.42726,-0.9,1.07215,270.731,4.60679,164.847,-25.4579,157.944,0.758131,0.258821,229.71400000000003,2.72432,2.71664,34.9127197265625,22.0019989013672,23.0092449188232,22.0,-942783.0,3199.51,pp-ro,1,1,-1,-1
1570533389.5,2019-10-08,13:16:29.500,14.0,12.0,18.3700008392334,10.6,17.5,17.2,24.8,-37.8,56.6,9.45989,19.5341,18.6404,25.4372,-16.3419,-7.84695,22.1287,-51.1618,60.0145,-0.122623,-0.0776094,-1.21822,263.2,4.8,52.1701,4.42726,-0.9,1.06495,268.376,4.6068,166.628,-24.6978,156.244,0.747827,0.252745,229.754,2.58648,2.63147,34.960403442382805,22.0009689331055,23.0044822692871,22.0,-942625.0,2984.16,pp-ro,1,1,-1,-1
1570533389.6,2019-10-08,13:16:29.600,14.0,12.0,18.3700008392334,12.4,16.4,16.0,30.2,-34.2,47.5,10.8082,19.0982,18.1764,23.5047,-9.53376,-3.94128,25.8052,-49.4048,54.0035,-0.298528,0.138506,-1.57122,263.2,4.8,52.1701,4.42726,-0.9,1.06439,267.613,4.6068,168.322,-23.1777,154.744,0.738716,0.242428,229.815,2.45129,2.55036,34.6470336914062,22.0009689331055,23.0044822692871,22.0,-942284.0,2215.04,pp-ro,1,1,-1,-1
1570533389.7,2019-10-08,13:16:29.700,14.0,12.0,18.3199996948242,14.2,15.2,14.8,34.3,-29.8,39.0,10.8082,19.0982,18.1764,23.5047,-9.53376,-3.94128,25.8052,-49.4048,54.0035,-0.298528,0.138506,-1.57122,263.2,4.8,52.1701,4.42726,-0.9,1.05719,260.504,4.60681,169.987,-22.0376,153.244,0.7295020000000001,0.234509,229.924,2.30998,2.4624,33.9521484375,22.0025119781494,23.0116176605225,22.0,-941991.0,3230.27,pp-ro,1,1,-1,-1
1570533389.8,2019-10-08,13:16:29.800,14.0,12.0,18.3099994659424,15.5,14.0,13.7,37.5,-25.8,32.1,15.0175,16.4257,15.5594,12.5374,-14.0319,-15.7166,36.2127,-40.7695,33.6746,-0.548666,-0.182476,-1.38161,263.2,4.8,52.1701,4.42726,-0.9,1.04334,255.101,4.60681,171.476,-20.8975,152.04399999999998,0.721747,0.22685,230.126,2.18894,2.3886700000000003,32.891082763671896,22.0025119781494,21.8023700714111,22.0,-941834.0,3199.51,pp-ro,1,1,-1,-1
1570533389.9,2019-10-08,13:16:29.900,14.0,12.0,18.3600006103516,16.4,12.8,12.4,39.7,-21.1,25.8,16.6267,14.9216,14.1533,17.6821,-15.7131,-9.99003,39.4676,-36.0593,25.4706,-0.355754,-0.0831513999999999,-1.4095799999999998,258.9,4.8,52.1701,4.42726,-0.9,1.03115,249.325,4.60682,172.84900000000002,-18.9974,150.844,0.714548,0.215042,230.199,2.06723,2.32202,31.4672546386719,22.0025119781494,20.6983661651611,22.0,-941450.0,2522.69,pp-ro,1,1,-1,-1
1570533390.0,2019-10-08,13:16:30.000,14.0,13.0,18.3099994659424,17.4,11.6,11.0,41.5,-16.5,20.3,16.6267,14.9216,14.1533,17.6821,-15.7131,-9.99003,39.4676,-36.0593,25.4706,-0.355754,-0.0831513999999999,-1.4095799999999998,258.9,4.8,52.1701,4.42726,-0.9,1.02727,248.012,4.6068,174.192,-17.4773,149.744,0.707593,0.2055789999999999,230.373,1.95263,2.24407,29.695983886718803,22.0025119781494,19.3787670135498,22.0,-941334.0,2215.04,pp-ro,1,1,-1,-1
1570533390.1,2019-10-08,13:16:30.100,14.0,12.0,18.020000457763697,18.2,10.5,9.6,42.8,-12.3,15.3,17.3287,14.4304,13.378,13.8381,-7.38858,-4.29906,40.8499,-33.5936,21.8035,-0.194253,0.217028,-1.17727,258.9,4.8,52.1701,4.42726,-0.9,1.0245,244.12,4.60679,175.361,-15.5773,148.844,0.701851,0.194194,230.54,1.84902,2.171,27.6283721923828,22.0019989013672,18.110332489013697,22.0,-941136.0,2184.28,pp-ro,1,1,-1,-1
1570533390.2,2019-10-08,13:16:30.200,14.0,15.0,17.520000457763697,19.0,9.4,8.3,43.6,-8.5,10.9,17.3287,14.4304,13.378,13.8381,-7.38858,-4.29906,40.8499,-33.5936,21.8035,-0.194253,0.217028,-1.17727,258.9,4.8,52.1701,4.42726,-0.9,1.02007,244.327,4.60677,176.412,-14.0572,147.944,0.696297,0.185122,230.665,1.75535,2.09606,26.5758361816406,22.0019989013672,16.8127517700195,22.0,-940899.0,2338.1,pp-ro,1,1,-1,-1
1570533390.3,2019-10-08,13:16:30.300,14.0,15.0,17.020000457763697,19.5,8.3,6.9,44.7,-4.8,7.0,19.5943,10.8454,9.41921,-0.309005,-12.6007,-11.0634,43.1398,-19.8252,8.35327,0.142889,0.227075,-1.01636,258.9,4.8,52.1701,4.42726,-0.9,1.02561,250.637,4.60675,177.405,-11.7771,147.144,0.691347,0.171932,230.787,1.6709200000000002,2.02516,23.946174621582,22.0019989013672,15.5703020095825,22.0,-940724.0,1692.05,pp-ro,1,1,-1,-1
1570533390.4,2019-10-08,13:16:30.400,14.0,13.0,16.6000003814697,20.3,7.4,5.7,45.4,-1.2,3.6,20.6594,8.80923,7.05437,5.22061,-13.3491,-12.2185,43.8771,-13.2433,2.14957,-0.130664,0.0589909,-0.906428,258.9,4.8,52.1701,4.42726,-0.9,1.0522,264.897,4.606730000000001,178.252,-10.257,146.54399999999998,0.687272,0.163125,230.985,1.59038,1.95449,21.9194412231445,22.0019989013672,14.3134479522705,22.0,-940652.0,246.116,pp-ro,1,1,-1,-1
1570533390.5,2019-10-08,13:16:30.500,14.0,15.0,16.4899997711182,20.7,6.5,4.6,46.6,1.7,0.2,21.4176,7.04056,4.94219,1.95472,-12.8222,-5.54376,44.3703,-6.15331,-2.7072700000000003,-0.00345143,0.190855,-0.8551059999999999,258.9,4.8,52.1701,4.42726,-0.9,1.06716,267.536,4.60672,178.982,-7.97695,146.04399999999998,0.683918,0.150201,231.143,1.52186,1.89668,20.0119171142578,22.0025119781494,13.2857532501221,22.0,-940440.0,2799.57,pp-ro,1,1,-1,-1
1570533390.6,2019-10-08,13:16:30.600,14.0,15.0,16.75,21.0,5.5,3.3,47.6,4.8,-3.3,21.7457,6.53541,4.29911,7.315410000000001,-10.8009,-12.8319,44.6683,-4.24316,-4.35519,0.484267,0.0952646,-0.844678,258.9,4.8,52.1701,4.42726,-0.9,1.05996,272.068,4.6067,179.71200000000002,-6.07688,145.54399999999998,0.680453,0.139472,231.336,1.44821,1.82833,18.2236251831055,22.0025119781494,12.0632085800171,22.0,-940162.0,2338.1,pp-ro,1,1,-1,-1
1570533390.7,2019-10-08,13:16:30.700,14.0,16.0,17.0699996948242,21.3,4.3,2.0,48.2,7.6,-6.5,21.7457,6.53541,4.29911,7.315410000000001,-10.8009,-12.8319,44.6683,-4.24316,-4.35519,0.484267,0.0952646,-0.844678,258.9,4.8,52.1701,4.42726,-0.9,1.08822,285.405,4.60669,180.267,-3.79681,145.244,0.678109,0.126754,231.531,1.3832799999999998,1.7544799999999998,16.1321640014648,22.0025119781494,10.6894788742065,22.0,-940096.0,553.761,pp-ro,1,1,-1,-1
1570533390.8,2019-10-08,13:16:30.800,14.0,15.0,17.3199996948242,21.6,3.5,0.8,49.6,9.9,-9.4,21.7457,6.53541,4.29911,7.315410000000001,-10.8009,-12.8319,44.6683,-4.24316,-4.35519,0.484267,0.0952646,-0.844678,258.9,4.8,52.1701,4.42726,-0.9,1.1065,294.181,4.606669999999999,180.676,-1.51675,144.944,0.676084,0.114106,231.635,1.32847,1.69502,14.5857086181641,22.0035419464111,9.59807872772217,22.0,-939840.0,3107.21,pp-ro,1,1,-1,-1
1570533390.9,2019-10-08,13:16:30.900,14.0,13.0,17.4699993133545,21.7,2.3,0.0,50.7,11.9,-12.0,21.7457,6.53541,4.29911,7.315410000000001,-10.8009,-12.8319,44.6683,-4.24316,-4.35519,0.484267,0.0952646,-0.844678,261.8,4.8,52.1701,4.42726,-0.9,1.12534,317.82,4.60665,181.055,0.383311,144.844,0.67474,0.103611,231.864,1.27975,1.63824,13.0290374755859,22.003026962280305,8.53517055511475,22.0,-939701.0,461.467,pp-ro,1,1,-1,-1
1570533391.0,2019-10-08,13:16:31.000,14.0,11.0,17.8199996948242,21.7,1.2,-0.5,51.9,13.8,-14.2,22.494,1.60953,-1.14543,-2.2614400000000003,-14.3261,-3.35364,47.8833,10.2967,-16.9783,0.116211,0.0213188,-0.710415,261.8,4.8,52.1701,4.42726,-0.9,1.20014,351.05400000000003,4.60671,181.289,2.66337,144.744,0.673723,0.0910155,231.999,1.2381799999999998,1.59647,11.557525634765598,22.003026962280305,7.76619577407837,22.0,-939756.0,-430.703,pp-ro,1,1,-1,-1
1570533391.1,2019-10-08,13:16:31.100,14.0,8.0,18.1100006103516,21.4,0.6,-0.9,53.0,15.6,-15.9,22.2705,0.674917,-1.6614,-1.22332,-9.12493,-5.7596300000000005,49.3199,12.6756,-18.8413,0.348661,0.18283,-0.53965,261.8,4.8,52.1701,4.42726,-0.9,1.21787,348.209,4.6067800000000005,181.435,4.94343,144.744,0.6732020000000001,0.0784036999999999,232.151,1.20356,1.57237,10.8694534301758,22.003026962280305,7.3342924118042,22.0,-939199.0,4860.79,pp-ro,1,1,-1,-1
1570533391.2,2019-10-08,13:16:31.200,14.0,9.0,18.4500007629395,21.1,0.2,-1.3,53.7,17.3,-17.5,22.2705,0.674917,-1.6614,-1.22332,-9.12493,-5.7596300000000005,49.3199,12.6756,-18.8413,0.348661,0.18283,-0.53965,261.8,4.8,52.1701,4.42726,-0.9,1.17355,325.435,4.60684,181.46400000000003,7.22348,144.744,0.6729189999999999,0.0657961,232.233,1.17147,1.55329,9.34173583984375,22.003026962280305,6.99785566329956,22.0,-938586.0,5937.55,pp-ro,1,1,-1,-1
1570533391.3,2019-10-08,13:16:31.300,14.0,10.0,18.6299991607666,20.7,-0.3,-1.8,54.0,17.8,-18.4,22.2705,0.674917,-1.6614,-1.22332,-9.12493,-5.7596300000000005,49.3199,12.6756,-18.8413,0.348661,0.18283,-0.53965,261.8,4.8,52.1701,4.42726,-0.9,1.1536,319.661,4.6069,181.46400000000003,9.50353,144.844,0.672975,0.0531961,232.378,1.1629,1.5263799999999998,8.13079833984375,22.0035419464111,6.49429702758789,22.0,-938324.0,4891.55,pp-ro,1,1,-1,-1
1570533391.4,2019-10-08,13:16:31.400,14.0,11.0,18.7800006866455,20.5,-1.0,-2.5,54.3,19.1,-20.1,22.0597,0.34957,-1.957,-7.120310000000001,-9.85285,-13.9053,49.3743,14.1176,-19.4617,0.175804,0.173113,-0.351551,261.8,4.8,52.1701,4.42726,-0.9,1.18795,349.465,4.60696,181.405,11.4036,144.945,0.673175,0.042678,232.48,1.13382,1.48452,7.732269287109379,22.003026962280305,5.682937145233151,22.0,-938050.0,769.112,pp-ro,1,1,-1,-1
1570533391.5,2019-10-08,13:16:31.500,14.0,12.0,19.0100002288818,20.5,-2.7,-3.5,54.1,20.4,-22.2,21.1667,-2.17632,-3.95177,-1.4622,-10.0229,-2.86097,51.1271,20.1214,-23.7848,-0.0345946999999999,-0.144181,-0.167494,261.8,4.8,52.1701,4.42726,-0.9,1.21178,361.427,4.60702,181.201,13.6836,145.445,0.67498,0.0299921,232.756,1.10181,1.4052,6.88580322265625,22.0035419464111,4.04795789718628,22.0,-938011.0,738.3480000000001,pp-ro,1,1,-1,-1
1570533391.6,2019-10-08,13:16:31.600,14.0,13.0,19.3299999237061,20.3,-3.4,-3.9,53.8,20.4,-23.6,21.1667,-2.17632,-3.95177,-1.4622,-10.0229,-2.86097,51.1271,20.1214,-23.7848,-0.0345946999999999,-0.144181,-0.167494,261.8,4.8,52.1701,4.42726,-0.9,1.2694,390.521,4.60709,180.909,15.5836,145.745,0.6763560000000001,0.019405,232.835,1.09306,1.3749,6.19091796875,22.0035419464111,3.40990543365479,22.0,-937634.0,3660.97,pp-ro,1,1,-1,-1
1570533391.7,2019-10-08,13:16:31.700,14.0,12.0,19.7800006866455,20.2,-3.8,-4.2,53.8,20.8,-24.1,20.9588,-3.4532,-4.71816,-8.13185,-11.4955,-7.41455,50.3236,20.7668,-26.021,0.195402,0.159511,-0.0594581,261.8,4.8,52.1701,4.42726,-0.9,1.2755,394.356,4.60715,180.763,16.7237,145.945,0.677145,0.0130177,232.926,1.08638,1.35536,5.383636474609379,22.003026962280305,3.00288057327271,22.0,-937462.0,3322.56,pp-ro,1,1,-1,-1
1570533391.8,2019-10-08,13:16:31.800,14.0,12.0,19.9599990844727,19.8,-4.9,-4.2,52.8,20.7,-25.3,20.6414,-4.853619999999999,-4.93759,-11.4779,-10.0717,-3.9771,49.6424,21.805,-26.923,-0.037999,-0.069594,0.111194,261.8,4.8,52.1701,4.42726,-0.9,1.27384,372.3130000000001,4.60721,180.325,18.6237,146.345,0.679158,0.00229641,232.982,1.08112,1.32571,4.351524353027339,22.003026962280305,2.3434534072876,22.0,-936998.0,6214.43,pp-ro,1,1,-1,-1
1570533391.9,2019-10-08,13:16:31.900,14.0,12.0,20.0400009155273,18.8,-4.9,-4.3,51.9,20.7,-26.9,20.1555,-5.12704,-4.8821,-6.90406,-2.63872,2.79048,49.3427,21.6274,-27.6899,0.104203,-0.306509,-0.14106,261.0,5.0,52.1701,4.42726,-0.9,1.19128,324.723,4.60727,179.828,20.9037,146.745,0.681154,-0.0105753,233.043,1.07144,1.3146799999999998,3.52550506591797,22.003026962280305,2.0683608055114697,22.0,-936076.0,10060.0,pp-ro,1,1,-1,-1
1570533392.0,2019-10-08,13:16:32.000,14.0,10.0,20.0,18.1,-4.7,-4.6,51.5,20.7,-27.2,20.1555,-5.12704,-4.8821,-6.90406,-2.63872,2.79048,49.3427,21.6274,-27.6899,0.104203,-0.306509,-0.14106,261.0,5.0,52.1701,4.42726,-0.9,1.07658,269.091,4.6073900000000005,179.361,22.4238,147.145,0.683249,-0.0193184,233.077,1.07357,1.30269,3.13378143310547,22.0019989013672,1.74582397937775,22.0,-935185.0,4214.73,pp-ro,1,1,-1,-1
1570533392.1,2019-10-08,13:16:32.100,14.0,9.0,19.8199996948242,17.9,-4.8,-4.6,51.4,21.1,-27.4,20.1555,-5.12704,-4.8821,-6.90406,-2.63872,2.79048,49.3427,21.6274,-27.6899,0.104203,-0.306509,-0.14106,261.0,5.0,52.1701,4.42726,-0.9,1.05276,268.375,4.60751,178.893,24.3238,147.545,0.6851689999999999,-0.0302038,233.161,1.0731,1.30293,2.34693145751953,22.0009689331055,1.68983232975006,22.0,-934842.0,2614.98,pp-ro,1,1,-1,-1
1570533392.2,2019-10-08,13:16:32.200,14.0,8.0,19.5599994659424,17.6,-4.9,-4.2,51.1,21.0,-28.6,18.5096,-4.99084,-4.51497,-0.439472,2.00085,-0.532944,47.6181,21.9709,-30.1776,-0.026185,-0.214191,-0.147722,261.0,5.0,52.1701,4.42726,-0.9,1.06218,273.074,4.60764,178.39700000000002,26.2238,148.045,0.6874399999999999,-0.0411379,233.303,1.06784,1.31718,1.87004852294922,22.0009689331055,1.89055001735687,22.0,-934791.0,953.699,pp-ro,1,1,-1,-1
1570533392.3,2019-10-08,13:16:32.300,14.0,9.0,19.2900009155273,17.4,-4.7,-4.2,50.7,20.9,-29.7,18.5096,-4.99084,-4.51497,-0.439472,2.00085,-0.532944,47.6181,21.9709,-30.1776,-0.026185,-0.214191,-0.147722,261.0,5.0,52.1701,4.42726,-0.9,1.08656,280.327,4.60776,177.9,28.1238,148.445,0.689321,-0.0520978,233.4,1.06368,1.32658,1.7167663574218797,22.0025119781494,2.02030301094055,22.0,-934647.0,1876.63,pp-ro,1,1,-1,-1
1570533392.4,2019-10-08,13:16:32.400,14.0,10.0,19.0100002288818,17.3,-4.6,-4.3,50.7,21.3,-29.9,18.1718,-4.82512,-4.24607,-2.08506,2.81884,3.44045,47.722,22.4081,-30.828000000000003,0.0273134999999999,0.0748599,-0.144183,261.0,5.0,52.1701,4.42726,-0.9,1.07824,282.687,4.607880000000001,177.46200000000002,29.6439,148.845,0.691156,-0.0609433999999999,233.509,1.06197,1.32936,1.87345886230469,22.0025119781494,2.00611448287964,22.0,-934205.0,2614.98,pp-ro,1,1,-1,-1
1570533392.5,2019-10-08,13:16:32.500,14.0,12.0,18.9699993133545,17.5,-5.0,-4.5,51.2,21.7,-30.7,18.1817,-4.87677,-4.27081,5.2047300000000005,2.44855,-1.34871,47.758,22.4982,-31.1506,0.0255872,-0.2144239999999999,-0.1337809999999999,261.0,5.0,52.1701,4.42726,-1.0,1.08933,291.698,4.6080000000000005,176.965,31.5439,149.345,0.693258,-0.0719461,233.7,1.05492,1.3197,1.97734832763672,22.0025119781494,1.73803687095642,22.0,-934154.0,953.699,pp-ro,1,1,-1,-1
1570533392.6,2019-10-08,13:16:32.600,14.0,11.0,19.2900009155273,17.5,-5.7,-4.5,50.8,21.4,-32.0,18.4638,-5.73024,-4.47146,-3.4191,-6.04737,1.26461,47.2252,22.4948,-33.0915,-0.236129,-0.219764,-0.154503,261.0,5.0,52.1701,4.42726,-1.0,1.13975,317.645,4.60812,176.41,33.4439,149.745,0.695127,-0.0830281,233.801,1.05105,1.30575,2.03354644775391,22.0019989013672,1.40221512317657,22.0,-934106.0,522.996,pp-ro,1,1,-1,-1
1570533392.7,2019-10-08,13:16:32.700,14.0,11.0,19.520000457763697,17.3,-5.9,-4.8,51.0,21.1,-32.8,18.4638,-5.73024,-4.47146,-3.4191,-6.04737,1.26461,47.2252,22.4948,-33.0915,-0.236129,-0.219764,-0.154503,261.0,5.0,52.1701,4.42726,-1.0,1.16745,327.376,4.60824,175.826,35.3439,150.145,0.697013,-0.0941651,233.897,1.05283,1.29113,1.82576751708984,22.0025119781494,1.05221247673035,22.0,-933914.0,2276.57,pp-ro,1,1,-1,-1
1570533392.8,2019-10-08,13:16:32.800,14.0,11.0,19.6900005340576,17.1,-6.3,-4.9,51.0,20.7,-33.7,18.4638,-5.73024,-4.47146,-3.4191,-6.04737,1.26461,47.2252,22.4948,-33.0915,-0.236129,-0.219764,-0.154503,261.0,5.0,52.1701,4.42726,-1.0,1.14196,310.983,4.60836,175.213,36.864,150.64600000000002,0.6994600000000001,-0.1032849999999999,233.993,1.05333,1.27717,1.4340438842773402,22.0025119781494,0.6508808135986329,22.0,-933243.0,4922.32,pp-ro,1,1,-1,-1
1570533392.9,2019-10-08,13:16:32.900,14.0,11.0,19.4699993133545,17.0,-6.5,-4.9,51.2,20.0,-34.5,17.8823,-6.68093,-4.77824,0.392941,-3.8164,4.04137,47.6608,21.5071,-35.1913,0.147602,-0.23701,0.111152,255.5,4.9,52.1701,4.42726,-1.0,1.1303299999999998,309.938,4.60848,174.541,38.764,151.046,0.7014699999999999,-0.11457,234.056,1.0601,1.27639,1.09341430664062,22.0025119781494,0.5661587715148929,22.0,-933050.0,3753.27,pp-ro,1,1,-1,-1
1570533393.0,2019-10-08,13:16:33.000,14.0,10.0,19.340000152587898,16.7,-6.5,-4.7,51.0,19.6,-35.5,17.8823,-6.68093,-4.77824,0.392941,-3.8164,4.04137,47.6608,21.5071,-35.1913,0.147602,-0.23701,0.111152,255.5,4.9,52.1701,4.42726,-1.0,1.13919,309.407,4.6085,173.86900000000003,40.284,151.446,0.703654,-0.12378,234.071,1.0594,1.2834299999999998,0.7936630249023441,22.0025119781494,0.6009591817855829,22.0,-932835.0,2122.75,pp-ro,1,1,-1,-1
1570533393.1,2019-10-08,13:16:33.100,14.0,10.0,19.520000457763697,16.6,-6.8,-4.7,51.1,19.8,-35.5,17.6032,-6.793419999999999,-4.59556,-8.00414,-1.8924,0.859017,47.856,21.183000000000003,-36.2627,0.174719,0.0307619,0.053063,255.5,4.9,52.1701,4.42726,-1.0,1.12645,294.23400000000004,4.60852,173.197,42.184,151.846,0.705549,-0.135034,234.166,1.06434,1.27967,0.56884765625,22.0025119781494,0.46441987156868,22.0,-932396.0,5229.96,pp-ro,1,1,-1,-1
1570533393.2,2019-10-08,13:16:33.200,14.0,10.0,19.6499996185303,16.3,-6.7,-4.7,51.3,19.1,-35.5,17.6032,-6.793419999999999,-4.59556,-8.00414,-1.8924,0.859017,47.856,21.183000000000003,-36.2627,0.174719,0.0307619,0.053063,255.5,4.9,52.1701,4.42726,-1.0,1.0716,269.045,4.60858,172.49599999999998,43.70399999999999,152.346,0.708043,-0.144286,234.253,1.07905,1.28162,0.580772399902344,22.0019989013672,0.360355317592621,22.0,-931906.0,4522.38,pp-ro,1,1,-1,-1
1570533393.3,2019-10-08,13:16:33.300,14.0,9.0,19.7000007629395,16.3,-6.5,-4.8,51.8,18.5,-35.7,16.9948,-6.953119999999999,-4.45578,-1.08786,-1.05567,-4.74307,48.3446,20.9906,-36.4747,0.118092,-0.0479129,0.0878704,255.5,4.9,52.1701,4.42726,-1.0,1.05276,264.302,4.60856,171.854,45.6041,152.746,0.709742,-0.1555869999999999,234.403,1.0916,1.29075,0.48028564453125,22.0019989013672,0.4988478720188139,22.0,-931557.0,3353.33,pp-ro,1,1,-1,-1
1570533393.4,2019-10-08,13:16:33.400,14.0,8.0,19.8799991607666,16.4,-6.7,-4.3,51.9,18.6,-35.9,16.9974,-6.79563,-4.3558900000000005,-0.8463209999999999,-1.48193,5.97492,48.4729,20.5222,-36.5271,0.0002266909999999,-0.0153197999999999,-0.0491584,255.5,4.9,52.1701,4.42726,-1.0,1.10539,297.953,4.60858,171.18200000000002,47.1241,153.14600000000002,0.7117359999999999,-0.164817,234.473,1.09412,1.3133,0.378097534179688,22.0025119781494,0.849425852298737,22.0,-931500.0,-92.2935,pp-ro,1,1,-1,-1
1570533393.5,2019-10-08,13:16:33.500,14.0,9.0,19.9200000762939,16.5,-6.8,-4.0,51.9,18.6,-36.2,17.1088,-7.13055,-3.85595,4.97032,0.502143,7.06624,48.8258,20.0748,-36.7601,-0.0186202,-0.0728159999999999,-0.1207299999999999,255.5,4.9,52.1701,4.42726,-1.2,1.12534,302.165,4.6086,170.51,49.0241,153.546,0.713395,-0.176167,234.635,1.0981299999999998,1.33201,0.592689514160156,22.0019989013672,1.1856427192688,22.0,-931431.0,1322.87,pp-ro,1,1,-1,-1
1570533393.6,2019-10-08,13:16:33.600,14.0,11.0,20.1000003814697,16.5,-6.6,-4.1,52.4,18.5,-36.2,17.0762,-6.922389999999999,-3.75426,-1.18993,2.53563,2.12284,48.8655,19.9745,-37.2273,0.167829,0.00353511,-0.143377,255.5,4.9,52.1701,4.42726,-1.2,1.12146,298.23400000000004,4.608619999999999,169.80900000000003,50.1641,153.946,0.715672,-0.183478,234.629,1.10416,1.33881,0.899261474609375,22.0019989013672,-35.0,22.0,-931042.0,4430.09,pp-ro,1,1,-1,-1
1570533393.7,2019-10-08,13:16:33.700,14.0,12.0,20.0100002288818,16.8,-7.0,-4.1,52.4,18.6,-36.4,17.1989,-6.930510000000001,-3.72342,8.63466,0.13201,3.10841,48.933,20.0569,-37.3121,-0.0504591,-0.0655311,-0.0826654,255.5,4.9,52.1701,4.42726,-1.2,1.10983,302.934,4.6086800000000006,169.108,52.0641,154.346,0.7173,-0.194909,234.8,1.10816,1.34099,1.12918853759766,22.0025119781494,-35.0,22.0,-930760.0,2030.46,pp-ro,1,1,-1,-1
1570533393.8,2019-10-08,13:16:33.800,14.0,10.0,20.0100002288818,16.7,-7.5,-4.1,52.2,18.0,-36.7,17.4408,-7.36981,-3.76138,4.06391,-7.35568,-0.231734,48.6286,19.8761,-37.7595,-0.2742469999999999,-0.120066,-0.050452,255.5,4.9,52.1701,4.42726,-1.2,1.15249,322.835,4.60866,168.378,53.5841,154.746,0.719263,-0.204402,234.88,1.11837,1.33051,1.25180816650391,22.003026962280305,-35.0,22.0,-930662.0,1138.29,pp-ro,1,1,-1,-1
1570533393.9,2019-10-08,13:16:33.900,14.0,11.0,20.1900005340576,16.7,-7.6,-4.1,52.3,17.3,-37.1,17.2227,-7.85015,-3.74523,-2.34453,0.8589479999999999,2.11392,48.5988,18.7327,-38.3699,-0.0147748999999999,0.0393677,0.0245247,253.0,4.8,52.1701,4.42726,-1.2,1.17687,338.279,4.6086800000000006,167.618,55.1042,155.14600000000002,0.721258,-0.213901,234.953,1.1287,1.33394,1.10704040527344,22.003026962280305,-35.0,22.0,-930459.0,1907.4,pp-ro,1,1,-1,-1
1570533394.0,2019-10-08,13:16:34.000,14.0,9.0,20.3600006103516,16.7,-7.6,-3.9,52.4,17.1,-37.6,17.2227,-7.85015,-3.74523,-2.34453,0.8589479999999999,2.11392,48.5988,18.7327,-38.3699,-0.0147748999999999,0.0393677,0.0245247,253.0,4.8,52.1701,4.42726,-1.2,1.19128,330.94300000000004,4.608619999999999,166.859,57.0042,155.546,0.722862,-0.225462,235.13,1.13305,1.34936,0.577369689941406,22.003026962280305,-35.0,22.0,-930131.0,4245.5,pp-ro,1,1,-1,-1
1570533394.1,2019-10-08,13:16:34.100,14.0,11.0,20.3600006103516,16.9,-7.7,-3.8,52.2,17.0,-38.5,17.2227,-7.85015,-3.74523,-2.34453,0.8589479999999999,2.11392,48.5988,18.7327,-38.3699,-0.0147748999999999,0.0393677,0.0245247,253.0,4.8,52.1701,4.42726,-1.2,1.15194,322.325,4.60856,166.041,58.5242,155.946,0.724909,-0.2350739999999999,235.189,1.13015,1.36122,-0.303802490234375,22.0025119781494,-35.0,22.0,-929556.0,4768.5,pp-ro,1,1,-1,-1
1570533394.2,2019-10-08,13:16:34.200,14.0,11.0,20.3999996185303,16.7,-7.6,-3.3,52.1,16.6,-39.3,17.4103,-8.09574,-3.6001199999999995,0.484356,3.91106,4.49816,48.7426,18.7945,-38.5082,0.105093,-0.0657083,0.0851658,253.0,4.8,52.1701,4.42726,-1.2,1.16634,331.976,4.6085,165.22299999999998,60.4242,156.247,0.726223,-0.246742,235.293,1.13353,1.38714,-1.91841888427734,22.003026962280305,-35.0,22.0,-929388.0,1169.05,pp-ro,1,1,-1,-1
1570533394.3,2019-10-08,13:16:34.300,14.0,11.0,20.3600006103516,16.9,-7.8,-3.1,52.4,16.0,-39.2,17.63,-8.03887,-3.23135,0.997577,3.34672,5.61381,48.6572,18.544,-39.8013,0.0945436,-0.0150757999999999,-0.0433517,253.0,4.8,52.1701,4.42726,-1.2,1.18961,338.353,4.60844,164.435,61.9442,156.64700000000002,0.728088,-0.256347,235.402,1.14862,1.39975,-3.16094970703125,22.003026962280305,-35.0,22.0,-929146.0,2861.1,pp-ro,1,1,-1,-1
1570533394.4,2019-10-08,13:16:34.400,14.0,12.0,20.659999847412102,17.3,-7.7,-2.8,52.8,14.9,-38.9,17.63,-8.03887,-3.23135,0.997577,3.34672,5.61381,48.6572,18.544,-39.8013,0.0945436,-0.0150757999999999,-0.0433517,253.0,4.8,52.1701,4.42726,-1.2,1.13809,304.79,4.60837,163.64600000000002,63.8442,156.947,0.729197,-0.26799,235.56,1.17373,1.43015,-5.13397979736328,22.0025119781494,-35.0,22.0,-928330.0,6368.25,pp-ro,1,1,-1,-1
1570533394.5,2019-10-08,13:16:34.500,14.0,11.0,20.75,17.9,-7.3,-2.4,53.4,13.2,-38.5,17.5579,-7.906860000000001,-2.5551,2.70264,0.616945,0.763854,49.6202,18.369,-38.3666,0.072992,0.0282796,0.337961,253.0,4.8,52.1701,4.42726,-1.5,1.1242299999999998,320.551,4.60831,162.916,65.3643,157.247,0.730485,-0.277508,235.671,1.20613,1.47483,-7.238433837890621,22.003026962280305,-35.0,22.0,-928031.0,1199.82,pp-ro,1,1,-1,-1
1570533394.6,2019-10-08,13:16:34.600,14.0,11.0,20.9200000762939,19.1,-7.4,-1.6,54.4,11.3,-38.0,18.3804,-7.503610000000001,-1.84473,2.71421,1.00726,3.00633,50.3518,16.3809,-37.3336,0.132995,0.0261822,0.339017,253.0,4.8,52.1701,4.42726,-1.5,1.20347,358.247,4.60825,162.127,67.6443,157.547,0.731055,-0.291164,235.97,1.2452299999999998,1.52977,-9.34288787841797,22.0035419464111,-35.0,22.0,-928128.0,-461.467,pp-ro,1,1,-1,-1
1570533394.7,2019-10-08,13:16:34.700,14.0,11.0,21.1700000762939,20.3,-6.9,-0.4,56.0,9.1,-37.2,19.3467,-7.45067,-0.795862,13.9986,0.609689,11.41,51.6831,14.4814,-35.9478,0.130134,-0.144404,0.395638,253.0,4.8,52.1701,4.42726,-1.5,1.25888,385.769,4.6081900000000005,161.368,69.1643,157.64700000000002,0.7316739999999999,-0.3007579999999999,235.957,1.28909,1.60859,-11.9679107666016,22.004056930542003,-35.0,22.0,-927970.0,2307.34,pp-ro,1,1,-1,-1
1570533394.8,2019-10-08,13:16:34.800,14.0,9.0,21.6200008392334,21.4,-6.1,0.9,58.0,6.7,-35.5,20.5248,-6.72425,0.537064,7.593719999999999,9.39951,14.0225,53.3718,12.3363,-34.6898,0.0856859,-0.0770366,0.397133,253.0,4.8,52.1701,4.42726,-1.5,1.27882,399.55,4.60813,160.725,71.4444,157.64700000000002,0.7307600000000001,-0.314051,236.198,1.34902,1.69504,-14.060417175293,22.004571914672898,-35.0,22.0,-927826.0,2738.04,pp-ro,1,1,-1,-1
1570533394.9,2019-10-08,13:16:34.900,14.0,6.0,22.1399993896484,21.9,-5.5,3.3,60.4,3.3,-34.1,21.197,-5.98044,2.31149,5.84259,7.011089999999999,21.0417,54.8223,9.58098,-33.0749,0.328126,0.0899766,0.704859,261.0,5.8,52.1701,4.42726,-1.5,1.32592,431.849,4.60807,160.112,73.7244,157.447,0.729054,-0.3272239999999999,236.348,1.41841,1.80245,-15.6443099975586,22.004056930542003,-35.0,22.0,-927695.0,492.232,pp-ro,1,1,-1,-1
1570533395.0,2019-10-08,13:16:35.000,14.0,7.0,22.4200000762939,22.3,-4.3,5.3,61.8,-0.3,-33.0,21.4861,-5.65871,3.49876,4.77665,9.76601,28.1271,55.9172,7.58898,-32.0578,0.1771569999999999,-0.0930498999999999,0.664774,261.0,5.8,52.1701,4.42726,-1.5,1.32259,384.866,4.60802,159.615,76.0044,157.047,0.726336,-0.340061,236.469,1.48706,1.90979,-17.7641220092773,22.003026962280305,-35.0,22.0,-926712.0,13167.2,pp-ro,1,1,-1,-1
1570533395.1,2019-10-08,13:16:35.100,14.0,8.0,22.5,22.0,-2.0,6.6,63.2,-5.2,-30.0,21.4861,-5.65871,3.49876,4.77665,9.76601,28.1271,55.9172,7.58898,-32.0578,0.1771569999999999,-0.0930498999999999,0.664774,261.0,5.8,52.1701,4.42726,-1.5,1.1802,330.37,4.60798,159.265,78.2845,156.447,0.722538,-0.352465,236.578,1.59501,2.02933,-19.8839416503906,22.0035419464111,-35.0,22.0,-925515.0,9752.34,pp-ro,1,1,-1,-1
1570533395.2,2019-10-08,13:16:35.200,14.0,7.0,22.649999618530305,21.8,-0.8,8.5,64.5,-10.5,-25.8,20.9944,-2.19509,7.08677,-4.72897,23.5917,10.7715,60.0041,-1.20578,-27.2973,-0.0166297,0.281051,1.06114,261.0,5.8,52.1701,4.42726,-1.5,1.14917,329.707,4.6079300000000005,159.118,80.1845,155.747,0.7183189999999999,-0.362353,236.655,1.72009,2.12916,-22.013992309570305,22.0035419464111,-35.0,22.0,-925273.0,4768.5,pp-ro,1,1,-1,-1
