time,date,time_of_day,airspeed_temperature,airspeed_angle_of_attack,airspeed_apparent_windspeed,kite_0_vx,kite_0_vy,kite_0_vz,kite_0_roll,kite_0_pitch,kite_0_yaw,kite_1_vx,kite_1_vy,kite_1_vz,kite_1_ax,kite_1_ay,kite_1_az,kite_1_roll,kite_1_pitch,kite_1_yaw,kite_1_roll_rate,kite_1_pitch_rate,kite_1_yaw_rate,ground_upwind_direction,ground_wind_velocity,ground_pos_latitude,ground_pos_longitude,ground_pos_altitude,ground_tether_reelout_speed,ground_tether_force,est_upwind_direction,kite_pos_east,kite_pos_north,kite_height,kite_elevation,kite_azimuth,kite_distance,kite_heading,kite_course,kite_actual_steering,kite_actual_depower,kite_set_steering,kite_set_depower,ground_mech_energy,ground_mech_power,flight_phase,flight_phase_index,phase,pattern,pattern_section
1570535805.4,2019-10-08,13:56:45.400,14.0,7.0,16.3099994659424,12.6,-1.7,2.0,23.4,-2.9,-53.1,11.4269,-1.40277,2.33172,9.999,9.40687,6.82672,24.9264,11.8195,-55.6492,0.243609,0.32352,0.889532,256.3,5.5,52.17,4.427169999999999,-0.8,-2.27395,120.322,4.51514,51.8143,-0.759758,237.674,1.3561299999999998,0.211878,243.258,0.647057,1.45871,-34.8045654296875,22.1111660003662,-35.0,22.0,-1057060.0,-3322.56,pp-riro,4,0,-1,-1
1570535805.5,2019-10-08,13:56:45.500,14.0,10.0,15.7600002288818,13.6,-1.0,2.8,24.2,-3.9,-50.6,11.8299,-0.99987,2.69668,7.45283,5.43013,6.10262,25.9322,11.3768,-52.7945,0.139682,0.29127,0.938057,256.3,5.5,52.17,4.427169999999999,-0.8,-2.11715,121.774,4.51508,51.7267,0.000269544,237.574,1.35641,0.197269,243.14,0.708617,1.54276,-34.978668212890604,22.055551528930696,-35.0,22.0,-1055760.0,10398.4,pp-riro,4,0,-1,-1
1570535805.6,2019-10-08,13:56:45.600,14.0,9.0,15.130000114440902,14.3,0.2,3.2,25.8,-6.3,-45.7,13.1008,0.4324479999999999,3.66055,8.18533,14.0632,2.6061,29.2472,9.04768,-43.3053,0.245131,0.170513,1.01441,256.3,5.5,52.17,4.427169999999999,-0.8,-2.0501,106.578,4.51503,51.639,1.14031,237.374,1.35654,0.175255,242.929,0.8242440000000001,1.65347,-34.982086181640604,22.0246562957764,-35.0,22.0,-1055500.0,5229.96,pp-riro,4,0,-1,-1
1570535805.7,2019-10-08,13:56:45.700,14.0,7.0,14.5299997329712,14.8,1.6,3.3,26.9,-8.5,-40.4,13.1008,0.4324479999999999,3.66055,8.18533,14.0632,2.6061,29.2472,9.04768,-43.3053,0.245131,0.170513,1.01441,256.3,5.5,52.17,4.427169999999999,-0.9,-2.03514,78.0529,4.51497,51.6682,3.04038,237.174,1.35594,0.138644,242.756,0.961967,1.77978,-34.9871978759766,22.0061168670654,-35.0,22.0,-1055950.0,-8860.17,pp-riro,4,0,-1,-1
1570535805.8,2019-10-08,13:56:45.800,14.0,6.0,14.2200002670288,15.2,2.8,3.4,28.3,-10.5,-35.4,13.9762,3.10376,3.94351,1.92877,10.3614,1.67223,32.1439,3.92685,-32.6465,0.127042,0.115907,0.910443,256.3,5.5,52.17,4.427169999999999,-0.9,-2.1443,75.3247,4.51491,51.8435,4.18042,236.974,1.35474,0.117017,242.615,1.07894,1.8727,-34.9871978759766,22.0009689331055,-35.0,22.0,-1057660.0,-18366.4,pp-riro,4,0,-1,-1
1570535805.9,2019-10-08,13:56:45.900,14.0,7.0,14.2200002670288,15.7,3.8,3.8,29.5,-12.1,-29.8,14.2965,4.0912,4.22671,0.5621149999999999,7.76651,5.32684,33.5303,1.66281,-27.4176,0.23234,0.328287,1.00334,256.3,5.5,52.17,4.427169999999999,-0.9,-2.29612,89.3511,4.51483,52.1063,6.0805,236.674,1.35267,0.0813912,242.419,1.21918,1.96389,-34.9871978759766,22.0009689331055,-35.0,22.0,-1059970.0,-12521.1,pp-riro,4,0,-1,-1
1570535806.0,2019-10-08,13:56:46.000,14.0,8.0,14.2200002670288,16.0,4.9,4.2,29.8,-14.2,-24.7,14.7396,4.9871300000000005,4.54397,3.5921,9.38592,4.74159,34.3303,-0.313808,-21.2081,0.117163,0.369164,1.16541,256.3,5.5,52.17,4.427169999999999,-0.9,-2.32881,86.8986,4.5147900000000005,52.486,7.22054,236.374,1.3503,0.0608834,242.239,1.33712,2.04449,-34.9889068603516,22.0009689331055,-35.0,22.0,-1060510.0,-10921.4,pp-riro,4,0,-1,-1
1570535806.1,2019-10-08,13:56:46.100,14.0,7.0,13.9700002670288,16.1,6.1,4.7,30.1,-16.4,-19.6,14.8838,6.13186,4.9103,0.439413,12.5288,4.5557,34.456,-2.58,-14.9883,0.0329383,0.197175,1.0860299999999998,263.5,5.4,52.17,4.427169999999999,-0.9,-2.3953,81.553,4.51474,52.9533,9.12062,236.074,1.347,0.0270593,242.112,1.46854,2.14381,-34.9940185546875,22.0009689331055,-35.0,22.0,-1061910.0,-15136.1,pp-riro,4,0,-1,-1
1570535806.2,2019-10-08,13:56:46.200,14.0,8.0,13.7799997329712,16.0,7.6,5.1,30.3,-18.8,-14.1,14.8011,6.73758,5.19701,-0.550392,13.2476,5.150469999999999,34.4334,-3.83735,-12.1494,0.0859123,0.145327,1.06989,263.5,5.4,52.17,4.427169999999999,-0.9,-2.53326,85.6752,4.5147,53.5958,10.6407,235.674,1.34297,0.00169964,241.926,1.59892,2.24888,-35.0025634765625,22.0009689331055,-35.0,22.0,-1064300.0,-15751.4,pp-riro,4,0,-1,-1
1570535806.3,2019-10-08,13:56:46.300,14.0,8.0,13.8400001525879,15.8,8.8,5.4,30.2,-20.5,-8.9,14.8011,6.73758,5.19701,-0.550392,13.2476,5.150469999999999,34.4334,-3.83735,-12.1494,0.0859123,0.145327,1.06989,263.5,5.4,52.17,4.427169999999999,-0.9,-2.56485,85.4328,4.51466,54.326,12.1607,235.274,1.33845,-0.0224905,241.771,1.7192,2.33588,-35.0059814453125,22.0009689331055,-35.0,22.0,-1065060.0,-14120.9,pp-riro,4,0,-1,-1
1570535806.4,2019-10-08,13:56:46.400,14.0,6.0,13.9700002670288,15.9,10.1,5.7,30.2,-21.8,-3.9,14.7294,9.28692,5.93807,0.7892819999999999,13.2666,1.95749,34.076,-7.90687,-1.62501,-0.0263079,0.277604,0.804303,263.5,5.4,52.17,4.427169999999999,-0.9,-2.64408,81.6604,4.51462,55.2314,13.6808,234.874,1.33312,-0.0450448,241.669,1.83191,2.41341,-35.0059814453125,22.0009689331055,-35.0,22.0,-1066600.0,-16520.5,pp-riro,4,0,-1,-1
1570535806.5,2019-10-08,13:56:46.500,14.0,5.0,14.2799997329712,15.8,11.3,6.2,29.8,-22.7,1.5,14.6672,10.4692,6.22541,-1.43876,10.0914,0.537261,33.7086,-9.17513,3.59331,0.178879,0.310393,0.863107,263.5,5.4,52.17,4.427169999999999,-0.9,-2.7305200000000003,81.0857,4.51455,56.2537,15.2009,234.375,1.32711,-0.0660733999999999,241.51,1.94701,2.48847,-35.0059814453125,22.0009689331055,-35.0,22.0,-1068390.0,-17843.4,pp-riro,4,0,-1,-1
1570535806.6,2019-10-08,13:56:46.600,14.0,7.0,14.3400001525879,15.6,12.4,6.8,29.5,-24.1,6.4,14.5032,12.1481,7.0114,-2.4246,10.5162,5.24856,32.9835,-10.9464,11.8172,-0.0679644,0.324452,0.906737,263.5,5.4,52.17,4.427169999999999,-0.9,-2.8502,95.9624,4.51454,57.3635,17.101,233.775,1.32013,-0.0918771999999999,241.316,2.05952,2.56434,-35.0059814453125,22.0009689331055,-35.0,22.0,-1070800.0,-13782.5,pp-riro,4,0,-1,-1
1570535806.7,2019-10-08,13:56:46.700,14.0,7.0,14.3999996185303,15.3,13.6,7.3,28.9,-25.5,11.9,14.2281,13.1759,7.50938,-1.97407,11.3474,3.92153,32.0998,-12.255,17.1894,0.136714,0.368086,0.8920620000000001,263.5,5.4,52.17,4.427169999999999,-1.1,-2.86959,103.669,4.5145,58.6194,18.621,233.075,1.31279,-0.109688,241.053,2.17303,2.63535,-35.0059814453125,22.0009689331055,-35.0,22.0,-1071720.0,-7691.12,pp-riro,4,0,-1,-1
1570535806.8,2019-10-08,13:56:46.800,14.0,8.0,14.460000038147,15.0,14.8,7.7,28.2,-26.8,17.5,14.0361,13.7289,7.72814,-3.9043,8.26993,3.24153,31.582,-12.9004,19.9821,0.0512192,0.274071,0.945398,263.5,5.4,52.17,4.427169999999999,-1.1,-2.85907,105.304,4.51446,59.9629,20.1411,232.375,1.30502,-0.126121,240.83,2.28501,2.7011,-35.0059814453125,22.0009689331055,-35.0,22.0,-1072000.0,-5506.84,pp-riro,4,0,-1,-1
1570535806.9,2019-10-08,13:56:46.900,14.0,10.0,14.710000038147,14.6,15.9,8.2,27.0,-28.0,23.5,13.4792,15.3682,8.3023,-4.43326,7.48422,3.45226,29.745,-14.8114,28.7955,0.170249,0.370919,1.01135,263.5,5.4,52.17,4.427169999999999,-1.1,-2.83635,108.63,4.514419999999999,61.4233,21.6612,231.575,1.29663,-0.141065,240.55900000000003,2.4001200000000003,2.76314,-35.0042724609375,22.0009689331055,-23.0044822692871,22.0,-1072410.0,-3507.15,pp-riro,4,0,-1,-1
1570535807.0,2019-10-08,13:56:47.000,14.0,10.0,15.119999885559098,14.1,17.2,8.7,26.0,-29.0,29.7,13.4792,15.3682,8.3023,-4.43326,7.48422,3.45226,29.745,-14.8114,28.7955,0.170249,0.370919,1.01135,263.5,5.4,52.17,4.427169999999999,-1.1,-2.79258,115.08,4.51438,63.0005,22.8012,230.775,1.28824,-0.1492619999999999,240.304,2.50991,2.82452,-35.0042724609375,22.0009689331055,-23.0044822692871,22.0,-1072490.0,584.525,pp-riro,4,0,-1,-1
1570535807.1,2019-10-08,13:56:47.100,14.0,9.0,15.5299997329712,13.5,18.4,9.2,24.2,-30.2,36.6,13.0233,16.4787,8.77476,-6.645969999999999,13.2761,2.89413,28.2467,-15.8948,35.0541,-0.0719472,0.302807,1.00412,249.8,4.9,52.17,4.427169999999999,-1.1,-2.72165,127.235,4.51429,64.7821,24.7013,229.875,1.27787,-0.166186,240.103,2.63771,2.89153,-34.963302612304695,22.0009689331055,-23.0044822692871,22.0,-1071900.0,7998.77,pp-riro,4,0,-1,-1
1570535807.2,2019-10-08,13:56:47.200,14.0,8.0,15.8100004196167,12.7,19.6,9.7,22.7,-31.2,43.6,13.0233,16.4787,8.77476,-6.645969999999999,13.2761,2.89413,28.2467,-15.8948,35.0541,-0.0719472,0.302807,1.00412,249.8,4.9,52.17,4.427169999999999,-1.1,-2.58313,142.102,4.51417,66.6221,25.8414,228.875,1.26817,-0.171796,239.771,2.75442,2.9516400000000003,-34.5775756835938,22.0009689331055,-22.841485977172898,22.0,-1070640.0,15413.0,pp-riro,4,0,-1,-1
1570535807.3,2019-10-08,13:56:47.300,14.0,10.0,16.0799999237061,11.5,20.9,10.1,21.0,-31.9,50.8,11.1573,19.1887,9.89104,-10.2908,10.8801,5.30435,22.7486,-18.5727,51.9486,-0.0507694,0.369192,1.08843,249.8,4.9,52.17,4.427169999999999,-1.1,-2.39142,154.394,4.51405,68.6082,27.3614,227.975,1.25747,-0.181137,239.642,2.8751900000000004,3.02741,-33.830001831054695,22.0009689331055,-22.01953125,22.0,-1068700.0,21073.7,pp-riro,4,0,-1,-1
1570535807.4,2019-10-08,13:56:47.400,14.0,9.0,16.520000457763697,10.2,22.1,10.5,19.0,-32.7,58.1,10.0473,20.4118,10.2723,-11.9199,10.8258,5.04971,20.5475,-19.4168,58.6093,-0.0215242,0.242423,1.1254,249.8,4.9,52.17,4.427169999999999,-1.1,-1.98306,166.585,4.51393,70.7695,28.5015,226.775,1.24626,-0.1844,239.264,2.99074,3.09595,-32.7291259765625,22.0009689331055,-21.2110805511475,22.0,-1065200.0,23811.7,pp-riro,4,0,-1,-1
1570535807.5,2019-10-08,13:56:47.500,14.0,9.0,16.9400005340576,8.7,23.2,10.7,17.2,-33.0,65.1,8.73788,21.3761,10.6023,-14.8281,9.84782,2.04497,18.2984,-20.2934,65.2728,-0.00491976,0.165356,1.01998,249.8,4.9,52.17,4.427169999999999,-1.1,-1.83789,170.798,4.5138,72.9601,29.2616,225.775,1.23575,-0.182836,239.068,3.09568,3.16244,-31.2732543945312,22.0009689331055,-20.2957782745361,22.0,-1063980.0,23811.7,pp-riro,4,0,-1,-1
1570535807.6,2019-10-08,13:56:47.600,14.0,10.0,17.3500003814697,7.0,24.1,10.9,15.5,-32.9,72.1,7.2387,22.3469,10.7386,-18.9309,10.2518,1.52266,16.3627,-21.0735,71.8574,0.175888,0.196774,1.0857,249.8,4.9,52.17,4.427169999999999,-1.1,-1.48272,179.002,4.51368,75.3258,30.0216,224.675,1.22443,-0.180553,238.86,3.19921,3.23035,-28.9554595947266,22.0009689331055,-19.382677078247102,22.0,-1061720.0,22150.4,pp-riro,4,0,-1,-1
1570535807.7,2019-10-08,13:56:47.700,14.0,5.0,17.7999992370605,5.2,24.7,10.9,13.3,-32.9,78.4,7.2387,22.3469,10.7386,-18.9309,10.2518,1.52266,16.3627,-21.0735,71.8574,0.175888,0.196774,1.0857,249.8,4.9,52.17,4.42718,-1.3,-1.12202,184.349,4.51356,77.7208,31.1617,223.575,1.21244,-0.182488,238.741,3.29529,3.30128,-26.8441696166992,22.0009689331055,-18.5728321075439,22.0,-1059770.0,18458.7,pp-riro,4,0,-1,-1
1570535807.8,2019-10-08,13:56:47.800,14.0,8.0,18.2900009155273,3.7,25.0,10.8,11.2,-32.3,84.6,4.73094,23.3572,10.9239,-17.7518,1.60393,1.6108,13.4524,-22.0472,81.2269,0.152336,0.17557,0.719553,249.8,4.9,52.17,4.42718,-1.3,-0.509756,184.503,4.5134300000000005,80.2034,31.5417,222.475,1.20121,-0.175738,238.584,3.38295,3.35094,-24.7499542236328,22.0009689331055,-17.931316375732397,22.0,-1058010.0,8583.29,pp-riro,4,0,-1,-1
1570535807.9,2019-10-08,13:56:47.900,14.0,7.0,18.6700000762939,2.3,25.1,10.5,9.5,-31.4,91.0,3.31027,23.485,10.6642,-10.0648,3.4577400000000003,-3.69838,11.3814,-22.4928,87.0844,0.197398,0.0140894,0.826937,249.8,4.9,52.17,4.42718,-1.3,-0.127993,178.11900000000003,4.51331,82.6568,31.9218,221.375,1.1900700000000002,-0.169474,238.449,3.4750400000000004,3.39705,-22.7991104125977,22.0009689331055,-17.386833190918,22.0,-1057680.0,1322.87,pp-riro,4,0,-1,-1
1570535808.0,2019-10-08,13:56:48.000,14.0,6.0,18.8199996948242,0.8,24.9,10.2,7.7,-30.4,97.0,1.94641,23.6012,10.2955,-11.9534,-0.714237,-3.24428,9.54608,-22.3672,92.9903,0.0265825,0.261261,0.742822,249.8,4.9,52.17,4.42718,-1.3,0.243242,167.69299999999998,4.51319,85.227,31.9218,220.375,1.17916,-0.159237,238.428,3.55859,3.44277,-21.1042861938477,22.0009689331055,-16.7462062835693,22.0,-1057930.0,-3722.5,pp-riro,4,0,-1,-1
1570535808.1,2019-10-08,13:56:48.100,14.0,5.0,18.909999847412102,-0.5,24.3,9.9,5.9,-29.5,101.9,0.616586,23.5072,9.9766,-7.25519,0.8981629999999999,-1.0470700000000002,7.93496,-21.8223,98.7311,0.253428,0.345823,0.898028,242.3,5.4,52.17,4.42718,-1.3,0.336882,160.19899999999998,4.51306,87.6804,31.9219,219.375,1.1686299999999998,-0.149821,238.395,3.6267,3.48286,-20.3464736938477,22.0009689331055,-16.2371616363525,22.0,-1058030.0,-1722.81,pp-riro,4,0,-1,-1
1570535808.2,2019-10-08,13:56:48.200,14.0,5.0,18.7199993133545,-1.7,23.7,9.4,5.1,-28.7,106.2,-0.6184810000000001,22.8901,9.60107,-5.58279,-7.162039999999999,-6.27446,6.66666,-21.015,104.117,0.227238,0.0239365,0.950705,242.3,5.4,52.17,4.42718,-1.3,0.237701,145.993,4.51291,90.0754,31.9219,218.475,1.15846,-0.141103,238.461,3.6864,3.52332,-18.6840744018555,22.0009689331055,-15.737904548645,22.0,-1057740.0,2645.75,pp-riro,4,0,-1,-1
1570535808.3,2019-10-08,13:56:48.300,14.0,5.0,18.5799999237061,-2.8,23.4,9.4,3.9,-27.6,110.3,-2.3793900000000003,22.2317,9.31275,-9.27886,-2.49074,3.45769,5.06237,-20.3455,109.901,-0.0587660999999999,0.277123,0.461255,242.3,5.4,52.17,4.42718,-1.3,0.246567,154.03799999999998,4.51277,92.4996,31.9219,217.575,1.14816,-0.132683,238.567,3.74504,3.5587800000000005,-17.5712585449219,22.0009689331055,-15.3713655471802,22.0,-1057810.0,-1261.34,pp-riro,4,0,-1,-1
1570535808.4,2019-10-08,13:56:48.400,14.0,6.0,18.3299999237061,-3.5,23.0,9.7,2.3,-26.6,113.9,-3.08826,22.0274,9.37985,-4.3401,-2.4013400000000003,0.7954869999999999,3.771830000000001,-19.1797,113.963,-0.0834056,0.255486,0.664304,242.3,5.4,52.17,4.42718,-1.3,0.284798,167.37599999999998,4.51262,94.8362,31.542,216.675,1.13862,-0.12139,238.614,3.79369,3.57475,-16.6700820922852,22.0009689331055,-15.2888498306274,22.0,-1057750.0,769.112,pp-riro,4,0,-1,-1
1570535808.5,2019-10-08,13:56:48.500,14.0,7.0,18.090000152587898,-3.9,22.7,9.5,0.5,-25.7,118.0,-3.08826,22.0274,9.37985,-4.3401,-2.4013400000000003,0.7954869999999999,3.771830000000001,-19.1797,113.963,-0.0834056,0.255486,0.664304,242.3,5.4,52.17,4.42718,-1.3,0.281474,163.024,4.51245,97.1144,31.162,215.775,1.12925,-0.110564,238.665,3.850330000000001,3.58324,-15.9276351928711,22.0009689331055,-15.375946044921902,22.0,-1057740.0,184.587,pp-riro,4,0,-1,-1
1570535808.6,2019-10-08,13:56:48.600,14.0,8.0,18.090000152587898,-4.6,22.6,9.2,-1.1,-24.5,121.8,-3.5517199999999995,21.5999,9.27167,-6.070819999999999,-5.02611,-1.65999,2.03904,-18.5314,117.789,-0.166211,0.1117819999999999,0.541053,242.3,5.4,52.17,4.42718,-1.3,0.279258,158.30200000000002,4.51233,99.4802,30.402,214.775,1.11976,-0.0965384,238.64,3.9016,3.60085,-15.3934097290039,22.0009689331055,-15.2160387039185,22.0,-1057690.0,707.5830000000001,pp-riro,4,0,-1,-1
1570535808.7,2019-10-08,13:56:48.700,14.0,8.0,18.1399993896484,-5.5,22.3,9.3,-2.8,-23.1,125.0,-4.15095,21.5092,8.92698,-7.35169,-0.241716,-7.72303,0.609838,-17.8734,121.361,-0.0891961,0.258528,0.555758,242.3,5.4,52.17,4.42718,-1.6,0.269838,163.388,4.51219,101.817,30.022,213.775,1.10991,-0.0865372,238.679,3.94902,3.62806,-15.3183135986328,22.0009689331055,-15.0203914642334,22.0,-1057650.0,153.822,pp-riro,4,0,-1,-1
1570535808.8,2019-10-08,13:56:48.800,14.0,8.0,18.2800006866455,-6.3,22.0,9.5,-4.5,-22.4,127.9,-5.43355,21.2129,8.92666,-11.4447,-0.646113,1.44938,-2.0989,-16.3367,125.991,-0.301459,0.123374,0.4885,242.3,5.4,52.17,4.42718,-1.6,0.303637,176.28400000000002,4.51204,104.066,29.6421,212.775,1.10034,-0.0771456,238.708,3.98852,3.65117,-15.3899993896484,22.0009689331055,-14.9277057647705,22.0,-1057650.0,92.2935,pp-riro,4,0,-1,-1
1570535808.9,2019-10-08,13:56:48.900,14.0,9.0,18.229999542236303,-7.0,21.7,9.4,-6.4,-21.5,130.5,-6.30162,20.9504,9.03148,-6.598669999999999,-5.27078,-0.8260120000000001,-4.04875,-15.6027,128.68,-0.20367,0.1497119999999999,0.509679,242.3,5.4,52.17,4.42718,-1.6,0.321368,185.915,4.5119,106.285,28.8821,211.775,1.09121,-0.0648441,238.704,4.0225,3.67065,-15.1442260742188,22.0009689331055,-14.819560050964402,22.0,-1057600.0,338.409,pp-riro,4,0,-1,-1
1570535809.0,2019-10-08,13:56:49.000,14.0,10.0,17.9400005340576,-7.7,21.0,9.4,-8.4,-20.4,133.1,-6.924760000000001,20.4531,8.79313,-9.12634,-7.245760000000001,-5.35019,-6.17309,-14.907,131.225,-0.249515,0.126544,0.376189,242.3,5.4,52.17,4.42718,-1.6,0.325246,185.344,4.51175,108.534,28.1221,210.675,1.08173,-0.0528980999999999,238.651,4.05839,3.69357,-14.8711395263672,22.0009689331055,-14.7019176483154,22.0,-1057570.0,492.232,pp-riro,4,0,-1,-1
1570535809.1,2019-10-08,13:56:49.100,14.0,10.0,17.7900009155273,-8.4,20.5,9.4,-10.2,-20.3,135.6,-7.21581,20.161,8.791310000000001,-11.3623,-5.06084,4.69643,-6.9564,-14.6483,132.445,-0.176612,0.0986481,0.391669,250.2,4.5,52.17,4.42718,-1.6,0.3180429999999999,186.13,4.51162,110.637,27.7421,209.575,1.07237,-0.0449187,238.604,4.08929,3.71891,-14.741424560546902,22.0009689331055,-14.6624736785889,22.0,-1057510.0,646.054,pp-riro,4,0,-1,-1
1570535809.2,2019-10-08,13:56:49.200,14.0,9.0,17.6399993896484,-9.2,19.9,9.4,-11.9,-19.3,137.7,-7.63581,19.9031,8.75038,-10.5084,-10.016,-6.024859999999999,-7.87052,-14.505999999999998,133.664,-0.115341,-0.0186543,0.417384,250.2,4.5,52.17,4.42718,-1.6,0.336882,191.807,4.51151,112.682,26.2221,208.575,1.06437,-0.027761,238.513,4.11294,3.74171,-14.6253662109375,22.0009689331055,-14.3491926193237,22.0,-1057460.0,369.174,pp-riro,4,0,-1,-1
1570535809.3,2019-10-08,13:56:49.300,14.0,11.0,17.4899997711182,-9.8,19.2,9.2,-14.1,-19.0,140.2,-8.651760000000001,18.9088,8.76805,-12.7705,-2.80684,-2.89143,-11.0959,-14.0697,136.814,-0.421015,-0.100532,0.4547,250.2,4.5,52.17,4.42718,-1.6,0.3341119999999999,188.4,4.5113900000000005,114.756,25.4621,207.375,1.05512,-0.0173498,238.373,4.14316,3.7673,-14.5605087280273,22.0009689331055,-14.2875480651855,22.0,-1057420.0,769.112,pp-riro,4,0,-1,-1
1570535809.4,2019-10-08,13:56:49.400,14.0,10.0,17.379999160766598,-10.3,18.7,9.1,-15.6,-18.5,142.2,-9.1895,18.3252,8.67174,-7.107989999999999,-5.906280000000001,1.60682,-12.8345,-13.5522,139.08700000000002,-0.326971,-0.0547815,0.223304,250.2,4.5,52.17,4.42718,-1.6,0.313611,181.864,4.51128,116.683,24.7022,206.275,1.04656,-0.00751254,238.274,4.16796,3.786480000000001,-14.3761749267578,22.0009689331055,-14.3460607528687,22.0,-1057340.0,738.3480000000001,pp-riro,4,0,-1,-1
1570535809.5,2019-10-08,13:56:49.500,14.0,9.0,17.1800003051758,-10.8,18.4,9.1,-16.9,-17.7,144.2,-9.75577,17.8448,8.50424,-10.7117,-8.48667,0.726693,-14.4859,-13.2177,141.13299999999998,-0.195405,0.2480909999999999,0.160422,250.2,4.5,52.17,4.42718,-1.6,0.315273,185.156,4.5111300000000005,118.582,23.1822,205.275,1.0388,0.00819796,238.195,4.19031,3.79665,-14.2891235351562,22.0009689331055,35.0,22.0,-1057310.0,215.351,pp-riro,4,0,-1,-1
1570535809.6,2019-10-08,13:56:49.600,14.0,12.0,17.1800003051758,-11.7,17.8,8.8,-17.5,-17.4,146.3,-10.2497,17.3739,8.62815,-9.48861,-7.76075,0.0626425999999999,-15.8457,-12.4662,143.064,0.056437,0.131899,0.305526,250.2,4.5,52.17,4.42718,-1.6,0.330787,189.2,4.51105,120.393,22.4222,204.175,1.03053,0.0172072,238.085,4.215730000000001,3.83682,-14.2925415039062,22.0009689331055,35.0,22.0,-1057270.0,461.467,pp-riro,4,0,-1,-1
1570535809.7,2019-10-08,13:56:49.700,14.0,12.0,17.129999160766598,-12.7,17.3,8.5,-18.3,-17.5,148.0,-11.2331,16.807000000000002,8.24325,-13.1194,-8.84975,-7.22315,-16.6551,-11.8934,144.91299999999998,-0.125489,-0.0221173,0.181796,250.2,4.5,52.17,4.42718,-1.8,0.628329,210.1,4.51093,122.174,21.2822,203.175,1.02278,0.0289909,238.033,4.22954,3.87687,-14.362518310546902,22.0009689331055,35.0,22.0,-1058320.0,-13874.8,pp-riro,4,0,-1,-1
1570535809.8,2019-10-08,13:56:49.800,14.0,11.0,17.1800003051758,-13.6,16.6,8.4,-18.5,-17.8,149.2,-12.3716,16.253,8.061580000000001,-7.515639999999999,-3.0468900000000003,-0.228712,-17.6788,-12.2877,146.578,-0.024273,-0.145817,0.360128,250.2,4.5,52.17,4.42718,-1.8,0.901492,220.15,4.51082,123.898,20.1422,202.175,1.01517,0.0403514,237.973,4.23453,3.91443,-14.1030883789062,22.0009689331055,35.0,22.0,-1059430.0,-21135.2,pp-riro,4,0,-1,-1
1570535809.9,2019-10-08,13:56:49.900,14.0,11.0,17.0699996948242,-13.7,16.1,7.9,-19.1,-17.3,150.7,-12.9318,15.5731,7.90418,1.31255,-9.8367,-2.34634,-17.9147,-12.5678,148.106,0.0635698,-0.0160894,0.306311,250.2,4.5,52.17,4.42718,-1.8,0.948035,191.0,4.5107,125.621,18.2422,201.175,1.00791,0.0574774,237.876,4.24606,3.92217,-13.4511032104492,22.0009689331055,35.0,22.0,-1058430.0,16397.5,pp-riro,4,0,-1,-1
1570535810.0,2019-10-08,13:56:50.000,14.0,10.0,17.0699996948242,-13.9,15.7,7.7,-18.7,-16.7,152.1,-12.9318,15.5731,7.90418,1.31255,-9.8367,-2.34634,-17.9147,-12.5678,148.106,0.0635698,-0.0160894,0.306311,250.2,4.5,52.17,4.42718,-1.8,0.8748959999999999,184.664,4.5105900000000005,127.198,17.1022,200.275,1.00089,0.0681492,237.87,4.26242,3.93245,-12.450927734375,22.0009689331055,35.0,22.0,-1058640.0,-7875.71,pp-riro,4,0,-1,-1
1570535810.1,2019-10-08,13:56:50.100,14.0,8.0,17.120000839233402,-14.4,15.1,7.9,-18.9,-16.7,153.8,-13.1068,14.7431,7.27849,-1.95428,-1.92911,-2.0525900000000004,-18.1584,-12.8587,150.436,-0.072533,-0.0846014,0.21028,265.9,4.8,52.17,4.42718,-1.8,0.98405,199.283,4.51052,128.717,15.5821,199.375,0.9942,0.0813971,237.826,4.2756300000000005,3.94878,-11.0923385620117,22.0009689331055,35.0,22.0,-1058590.0,5568.37,pp-riro,4,0,-1,-1
1570535810.2,2019-10-08,13:56:50.200,14.0,9.0,17.1700000762939,-14.5,14.6,7.9,-19.0,-16.8,155.3,-13.495,14.229,7.5104,-5.22175,-10.1635,0.00930199,-18.2523,-12.6122,152.151,0.207698,-0.2933139999999999,0.311687,265.9,4.8,52.17,4.42718,-1.8,0.912574,198.203,4.5105,130.17700000000002,14.4422,198.575,0.987718,0.0913986,237.88,4.28758,3.95565,-9.37190246582031,22.0009689331055,35.0,22.0,-1058240.0,-276.88,pp-riro,4,0,-1,-1
1570535810.3,2019-10-08,13:56:50.300,14.0,9.0,17.479999542236303,-14.5,14.5,7.6,-19.1,-16.0,156.0,-13.817,13.7597,7.477,-2.58563,-1.7557200000000002,-4.50407,-18.3546,-13.122,153.91,-0.176026,-0.2201679999999999,0.15275,265.9,4.8,52.17,4.42718,-1.8,0.940832,196.666,4.51048,131.579,12.9221,197.775,0.981528,0.104015,237.897,4.29425,3.95306,-7.32718658447266,22.0009689331055,35.0,22.0,-1058360.0,-2338.1,pp-riro,4,0,-1,-1
1570535810.4,2019-10-08,13:56:50.400,14.0,10.0,17.6800003051758,-14.6,14.4,7.8,-19.4,-15.2,156.4,-13.9044,13.5935,7.27612,-3.25675,-3.8386,2.79711,-18.8168,-13.6866,155.50799999999998,0.0333209,-0.0195265999999999,0.0916719,265.9,4.8,52.17,4.42718,-1.8,0.946927,196.79,4.51046,132.952,11.4021,196.975,0.975369,0.116378,237.919,4.2969800000000005,3.94495,-5.217613220214839,22.0009689331055,35.0,22.0,-1058070.0,4491.62,pp-riro,4,0,-1,-1
1570535810.5,2019-10-08,13:56:50.500,14.0,10.0,17.8700008392334,-14.7,14.3,8.1,-19.8,-15.1,156.8,-14.0987,13.5634,7.5967,-0.152374,-1.41056,4.41455,-19.2306,-13.614,156.485,-0.0975766999999999,-0.1925619999999999,0.139374,265.9,4.8,52.17,4.42718,-1.8,0.92975,193.014,4.51044,134.412,10.2621,196.475,0.969454,0.12575,238.274,4.29575,3.93754,-3.12169647216797,22.0009689331055,35.0,22.0,-1057920.0,492.232,pp-riro,4,0,-1,-1
1570535810.6,2019-10-08,13:56:50.600,14.0,10.0,17.7199993133545,-14.3,14.0,8.4,-20.1,-15.7,157.7,-13.8096,13.3913,8.021,4.9817800000000005,0.334987,-0.378596,-19.4382,-14.6332,157.715,0.0682445,-0.204016,0.1071579999999999,265.9,4.8,52.17,4.42718,-1.8,0.938616,190.385,4.51042,135.055,9.50212,195.675,0.965524,0.1317289999999999,237.947,4.29788,3.92076,-1.00870513916016,22.0009689331055,35.0,22.0,-1057760.0,2276.57,pp-riro,4,0,-1,-1
1570535810.7,2019-10-08,13:56:50.700,14.0,10.0,17.4699993133545,-13.8,14.2,8.5,-21.4,-15.2,158.5,-13.8096,13.3913,8.021,4.9817800000000005,0.334987,-0.378596,-19.4382,-14.6332,157.715,0.0682445,-0.204016,0.1071579999999999,265.9,4.8,52.17,4.42718,-2.1,0.903708,168.56400000000002,4.5104,137.099,7.222110000000001,194.275,0.955605,0.149362,237.889,4.29928,3.88214,1.09852600097656,22.0009689331055,35.0,22.0,-1057420.0,2184.28,pp-riro,4,0,-1,-1
1570535810.8,2019-10-08,13:56:50.800,14.0,10.0,17.4699993133545,-13.8,14.2,8.6,-21.6,-15.1,158.4,-13.4208,13.7136,8.05252,0.614477,1.04305,1.80573,-20.5184,-14.9718,158.62,0.171506,-0.0122839,-0.0188862999999999,265.9,4.8,52.17,4.42718,-2.1,0.8715719999999999,155.702,4.5104,137.83,6.46211,193.876,0.952262,0.155139,237.963,4.29405,3.87561,3.20531463623047,22.0009689331055,35.0,22.0,-1057160.0,2307.34,pp-riro,4,0,-1,-1
1570535810.9,2019-10-08,13:56:50.900,14.0,9.0,17.8199996948242,-13.9,14.2,8.9,-22.2,-15.5,157.7,-13.5037,13.8196,8.129610000000001,-3.13636,1.5727,0.6815859999999999,-20.891,-14.969,158.542,0.00809148,0.117919,-0.082339,265.9,4.8,52.17,4.42718,-2.1,0.861598,155.795,4.51036,139.202,4.9421,192.975,0.945588,0.166544,237.99400000000003,4.27104,3.86453,5.312103271484379,22.0009689331055,35.0,22.0,-1057090.0,1353.64,pp-riro,4,0,-1,-1
1570535811.0,2019-10-08,13:56:51.000,14.0,9.0,18.0699996948242,-13.6,14.4,9.3,-22.6,-16.7,156.2,-13.5037,13.8196,8.129610000000001,-3.13636,1.5727,0.6815859999999999,-20.891,-14.969,158.542,0.00809148,0.117919,-0.082339,265.9,4.8,52.17,4.42718,-2.1,0.906479,182.215,4.51034,140.575,3.8021,191.976,0.938574,0.175012,237.971,4.23161,3.83544,7.42399597167969,22.0009689331055,35.0,22.0,-1057120.0,0.0,pp-riro,4,0,-1,-1
1570535811.1,2019-10-08,13:56:51.100,14.0,9.0,18.1100006103516,-13.2,14.7,9.8,-23.0,-18.1,154.1,-13.7396,14.1725,9.05617,4.03969,5.69345,4.19266,-22.519,-18.289,157.476,-0.231254,-0.298496,-0.380128,273.3,4.7,52.17,4.42718,-2.1,0.933629,194.1,4.510330000000001,142.006,2.66211,190.976,0.93133,0.183315,238.001,4.182230000000001,3.79928,9.53078460693359,22.0009689331055,35.0,22.0,-1057070.0,646.054,pp-riro,4,0,-1,-1
1570535811.2,2019-10-08,13:56:51.200,14.0,12.0,17.9699993133545,-12.6,15.0,10.5,-23.6,-19.3,151.5,-13.7451,14.389,9.30805,0.214592,1.91076,7.623939999999999,-22.7522,-19.4144,156.688,-0.325501,-0.2826889999999999,-0.4616649999999999,273.3,4.7,52.17,4.42718,-2.1,0.93917,194.867,4.51034,143.408,1.14211,189.976,0.924166,0.194089,238.029,4.1260900000000005,3.75109,11.637565612793,22.0009689331055,35.0,22.0,-1057000.0,1322.87,pp-riro,4,0,-1,-1
1570535811.3,2019-10-08,13:56:51.300,14.0,12.0,17.8199996948242,-11.7,15.6,11.5,-24.4,-20.8,148.8,-13.2835,14.9047,9.9414,7.238119999999999,7.036789999999999,8.353480000000001,-23.4213,-21.3977,154.528,-0.144039,-0.00952506,-0.455176,273.3,4.7,52.17,4.42718,-2.1,0.933075,190.078,4.51034,144.839,0.00211338,188.776,0.916342,0.202031,237.938,4.06837,3.68482,13.7324371337891,22.0009689331055,35.0,22.0,-1056820.0,1968.93,pp-riro,4,0,-1,-1
1570535811.4,2019-10-08,13:56:51.400,14.0,13.0,17.8199996948242,-10.3,16.1,12.4,-24.7,-22.9,146.1,-13.2835,14.9047,9.9414,7.238119999999999,7.036789999999999,8.353480000000001,-23.4213,-21.3977,154.528,-0.144039,-0.00952506,-0.455176,273.3,4.7,52.17,4.42718,-2.1,0.907587,174.09,4.51035,146.446,-1.1378700000000002,187.576,0.907902,0.209809,237.975,4.0059,3.60456,15.844329833984402,22.0009689331055,35.0,22.0,-1056500.0,2091.99,pp-riro,4,0,-1,-1
1570535811.5,2019-10-08,13:56:51.500,14.0,10.0,17.8700008392334,-9.0,16.5,13.2,-25.5,-25.1,142.9,-10.6159,16.5883,12.3382,11.6859,9.39728,9.24716,-24.9136,-27.2956,148.27700000000002,0.1158829999999999,-0.429247,-0.6195229999999999,273.3,4.7,52.17,4.42718,-2.1,0.8953969999999999,167.69799999999998,4.51036,147.965,-2.27786,186.276,0.8994629999999999,0.217428,237.902,3.93657,3.53221,17.9596328735352,22.0009689331055,35.0,22.0,-1056390.0,2153.51,pp-riro,4,0,-1,-1
1570535811.6,2019-10-08,13:56:51.600,14.0,10.0,17.770000457763697,-7.6,16.7,13.7,-25.3,-27.2,139.1,-9.2765,17.1053,13.1955,16.5376,7.18863,8.31246,-25.6311,-30.3417,145.894,-0.2199989999999999,-0.318519,-0.564566,273.3,4.7,52.17,4.42718,-2.1,0.86326,148.25799999999998,4.51036,149.571,-3.03783,185.076,0.890998,0.222332,237.978,3.86298,3.4641800000000003,20.0783462524414,22.0009689331055,35.0,22.0,-1056110.0,1876.63,pp-riro,4,0,-1,-1
1570535811.7,2019-10-08,13:56:51.700,14.0,9.0,17.3099994659424,-6.1,17.0,14.1,-24.5,-29.7,134.7,-9.2765,17.1053,13.1955,16.5376,7.18863,8.31246,-25.6311,-30.3417,145.894,-0.2199989999999999,-0.318519,-0.564566,273.3,4.7,52.17,4.42718,-2.4,0.8477459999999999,149.55,4.51041,151.17700000000002,-3.79781,183.776,0.88226,0.227091,237.997,3.77936,3.3917,22.1936492919922,22.0009689331055,35.0,22.0,-1055960.0,1138.29,pp-riro,4,0,-1,-1
1570535811.8,2019-10-08,13:56:51.800,14.0,10.0,16.9500007629395,-4.6,17.6,14.6,-23.0,-31.8,129.3,-8.10298,17.5486,13.8413,11.6397,6.73002,1.41698,-26.0226,-33.6073,142.969,-0.653988,-0.0786148,-0.477533,273.3,4.7,52.17,4.42718,-2.4,0.856057,156.787,4.5103800000000005,152.871,-4.17776,182.376,0.8729959999999999,0.2293329999999999,238.008,3.68885,3.31905,24.2987365722656,22.0009689331055,35.0,22.0,-1055960.0,-153.822,pp-riro,4,0,-1,-1
1570535811.9,2019-10-08,13:56:51.900,14.0,9.0,16.8500003814697,-3.5,17.9,15.5,-20.6,-34.4,123.3,-8.10298,17.5486,13.8413,11.6397,6.73002,1.41698,-26.0226,-33.6073,142.969,-0.653988,-0.0786148,-0.477533,273.3,4.7,52.17,4.42718,-2.4,0.8942889999999999,175.16,4.51039,154.595,-4.55772,180.976,0.8636379999999999,0.231477,238.06,3.58902,3.2660400000000003,26.4106292724609,22.0009689331055,35.0,22.0,-1056010.0,-276.88,pp-riro,4,0,-1,-1
1570535812.0,2019-10-08,13:56:52.000,14.0,11.0,17.0,-1.8,18.0,15.9,-17.0,-37.6,115.5,-6.50084,18.1308,14.4053,11.9269,8.75104,8.85206,-25.7551,-37.2808,138.7,-0.6170359999999999,-0.124681,-1.01506,273.3,4.7,52.17,4.42718,-2.4,0.94471,207.14,4.51039,156.376,-4.93767,179.476,0.853822,0.233563,238.095,3.4656300000000004,3.19273,28.5140075683594,22.0009689331055,35.0,22.0,-1055970.0,123.058,pp-riro,4,0,-1,-1
1570535812.1,2019-10-08,13:56:52.100,14.0,12.0,17.1000003814697,0.0,18.1,16.4,-12.2,-39.8,106.4,-0.594422,19.6199,17.275,20.3362,8.213460000000001,2.90861,-16.3254,-49.68899999999999,114.154,-0.128157,-0.272271,-1.017,259.5,3.3,52.17,4.42718,-2.4,0.974077,212.013,4.51035,158.158,-4.93762,177.976,0.844046,0.233246,238.146,3.33667,3.11847,30.477722167968803,22.0009689331055,35.0,22.0,-1055930.0,922.935,pp-riro,4,0,-1,-1
1570535812.2,2019-10-08,13:56:52.200,14.0,12.0,17.2000007629395,2.0,18.1,16.4,-6.3,-41.6,96.5,-0.594422,19.6199,17.275,20.3362,8.213460000000001,2.90861,-16.3254,-49.68899999999999,114.154,-0.128157,-0.272271,-1.017,259.5,3.3,52.17,4.42718,-2.4,0.97186,206.821,4.510269999999999,159.91,-4.93756,176.476,0.834367,0.2329889999999999,238.2,3.20332,3.03704,32.0820922851562,22.0009689331055,23.0044822692871,22.0,-1055780.0,2768.8,pp-riro,4,0,-1,-1
1570535812.3,2019-10-08,13:56:52.300,14.0,10.0,17.25,4.3,17.1,16.3,0.0,-42.8,85.9,-0.594422,19.6199,17.275,20.3362,8.213460000000001,2.90861,-16.3254,-49.68899999999999,114.154,-0.128157,-0.272271,-1.017,259.5,3.3,52.17,4.42718,-2.4,0.948589,214.74400000000003,4.51013,161.692,-4.5574900000000005,174.77599999999998,0.824067,0.230433,238.142,3.06847,2.94115,33.335601806640604,22.0009689331055,23.0044822692871,22.0,-1055480.0,123.058,pp-ro,1,1,-1,-1
1570535812.4,2019-10-08,13:56:52.400,14.0,8.0,17.25,6.4,16.2,15.8,6.8,-42.5,75.9,5.54981,18.6282,17.2361,26.3806,-5.59783,-3.13616,1.47073,-55.6546,85.242,-0.6398229999999999,-0.209139,-1.02551,259.5,3.3,52.17,4.42718,-2.4,0.989037,215.18,4.5101,163.327,-4.17742,173.27599999999998,0.8147810000000001,0.227865,238.155,2.94244,2.84764,34.2314453125,22.0009689331055,23.0044822692871,22.0,-1055470.0,1322.87,pp-ro,1,1,-1,-1
1570535812.5,2019-10-08,13:56:52.500,14.0,10.0,17.2000007629395,8.3,15.4,14.8,12.9,-40.7,65.4,6.736960000000001,18.3034,16.9999,31.2959,-2.39206,-6.44158,5.58235,-55.249,78.8956,-0.746216,0.00220891,-1.00326,259.5,3.3,52.17,4.42718,-2.4,0.948035,194.704,4.51001,164.875,-3.79736,171.87599999999998,0.8060510000000001,0.225407,238.201,2.80382,2.7543900000000003,34.7764587402344,22.0009689331055,23.0044822692871,22.0,-1055040.0,4676.2,pp-ro,1,1,-1,-1
1570535812.6,2019-10-08,13:56:52.600,14.0,11.0,17.3500003814697,10.2,14.6,14.3,17.8,-37.9,56.7,10.2468,17.2103,15.5197,25.7153,-15.4498,-5.2416,16.7826,-50.5703,60.0221,-0.428593,0.356464,-1.26032,259.5,3.3,52.17,4.42718,-2.4,0.921993,194.54,4.50992,166.365,-3.03729,170.576,0.797812,0.2207199999999999,238.291,2.68015,2.66564,34.970626831054695,22.0009689331055,23.0044822692871,22.0,-1054880.0,3045.68,pp-ro,1,1,-1,-1
1570535812.7,2019-10-08,13:56:52.700,14.0,10.0,17.5,12.0,13.5,14.2,23.2,-34.5,46.9,12.4761,16.1529,15.2931,25.1457,-16.4914,1.72568,23.5792,-48.6986,48.2657,-0.590236,-0.125351,-1.26806,259.5,3.3,52.17,4.42718,-2.5,0.995686,234.587,4.5098400000000005,167.825,-1.5172,169.37599999999998,0.789976,0.2115909999999999,238.445,2.53678,2.5855900000000003,34.832672119140604,22.0009689331055,22.8110523223877,22.0,-1055080.0,-1722.81,pp-ro,1,1,-1,-1
1570535812.8,2019-10-08,13:56:52.800,14.0,13.0,17.6499996185303,13.5,12.2,13.2,27.8,-31.2,37.8,13.6236,15.5119,15.1882,22.4579,-10.5445,-1.5497299999999998,26.3048,-47.6368,43.1631,-0.102433,-0.23753,-1.12356,259.5,3.3,52.17,4.42718,-2.5,1.02616,240.778,4.50975,169.139,-0.377128,168.176,0.78254,0.204866,238.519,2.39785,2.49555,34.296173095703104,22.0009689331055,21.263652801513697,22.0,-1055050.0,707.5830000000001,pp-ro,1,1,-1,-1
1570535812.9,2019-10-08,13:56:52.900,14.0,13.0,17.75,14.8,10.9,12.0,30.9,-27.2,29.4,16.4095,13.4354,13.477,10.4799,-14.0716,-12.8773,33.544000000000004,-41.2862,27.8282,-0.00524661,-0.0906357,-1.25461,259.5,3.3,52.17,4.42718,-2.5,1.00898,229.189,4.50967,170.425,0.762946,166.976,0.775172,0.198245,238.592,2.25816,2.40439,33.3867034912109,22.0009689331055,19.6980571746826,22.0,-1054670.0,4368.56,pp-ro,1,1,-1,-1
1570535813.0,2019-10-08,13:56:53.000,14.0,12.0,17.75,15.9,9.8,11.2,33.4,-23.1,22.5,16.4095,13.4354,13.477,10.4799,-14.0716,-12.8773,33.544000000000004,-41.2862,27.8282,-0.00524661,-0.0906357,-1.25461,259.5,3.3,52.17,4.42718,-2.5,0.975185,222.266,4.509580000000001,171.53400000000002,2.28302,165.87599999999998,0.7685850000000001,0.1894559999999999,238.63,2.13484,2.33158,32.1178588867188,22.0009689331055,18.4525260925293,22.0,-1054380.0,1907.4,pp-ro,1,1,-1,-1
1570535813.1,2019-10-08,13:56:53.100,14.0,12.0,17.6499996185303,16.8,8.6,10.2,35.8,-19.0,15.5,16.4095,13.4354,13.477,10.4799,-14.0716,-12.8773,33.544000000000004,-41.2862,27.8282,-0.00524661,-0.0906357,-1.25461,269.8,3.5,52.17,4.42718,-2.5,0.992362,222.253,4.509530000000001,172.55599999999998,3.8031,164.87599999999998,0.762519,0.180823,238.693,2.0085900000000003,2.25592,31.3480377197266,22.0009689331055,17.136428833007802,22.0,-1054280.0,1322.87,pp-ro,1,1,-1,-1
1570535813.2,2019-10-08,13:56:53.200,14.0,12.0,17.4500007629395,17.5,7.3,8.7,37.6,-14.9,9.3,19.9137,8.99952,9.75634,3.49155,-8.15467,-11.3375,39.7358,-26.3045,5.9721,-0.277487,-0.134493,-1.3083,269.8,3.5,52.17,4.42718,-2.5,0.970752,212.205,4.50951,173.491,5.703180000000001,163.87599999999998,0.756636,0.170016,238.72,1.89219,2.16793,29.552917480468803,22.0009689331055,15.5565624237061,22.0,-1053950.0,3599.45,pp-ro,1,1,-1,-1
1570535813.3,2019-10-08,13:56:53.300,14.0,11.0,17.2900009155273,17.6,6.2,7.5,38.5,-11.2,4.4,20.16,8.258280000000001,8.88775,1.6463,-19.5665,-13.2188,39.894,-23.748,3.11026,-0.284227,0.0889638,-1.0324,269.8,3.5,52.17,4.42718,-2.5,0.95413,207.177,4.50949,174.30900000000003,7.22324,163.076,0.751689,0.161471,238.80900000000003,1.7937900000000002,2.10311,27.4750900268555,22.0009689331055,14.4231548309326,22.0,-1053790.0,1076.76,pp-ro,1,1,-1,-1
1570535813.4,2019-10-08,13:56:53.400,14.0,11.0,17.2399997711182,17.5,5.1,6.4,39.3,-7.6,0.2,20.2102,6.27269,6.763139999999999,-2.06277,-3.16356,-5.43231,40.891,-17.1142,-3.65038,0.2254449999999999,0.253453,-0.839424,269.8,3.5,52.17,4.42718,-2.5,0.956346,203.533,4.50948,174.98,9.12331,162.476,0.747684,0.150821,238.956,1.70579,2.04232,25.380226135253896,22.0009689331055,13.3190240859985,22.0,-1053540.0,2215.04,pp-ro,1,1,-1,-1
1570535813.5,2019-10-08,13:56:53.500,14.0,11.0,17.2399997711182,17.3,4.3,5.2,39.4,-3.7,-3.4,20.0484,5.12924,5.36235,-0.6758029999999999,-13.104,-13.5747,40.2762,-11.9673,-6.82425,0.0505585,0.102125,-0.998873,269.8,3.5,52.17,4.42718,-2.5,0.946927,196.517,4.50946,175.623,10.6434,161.876,0.743776,0.142401,239.083,1.61915,1.98322,23.2700347900391,22.0009689331055,12.266224861145,22.0,-1053420.0,2215.04,pp-ro,1,1,-1,-1
1570535813.6,2019-10-08,13:56:53.600,14.0,12.0,17.129999160766598,17.6,3.5,4.0,39.5,-0.4,-6.8,20.0227,4.62334,4.77752,2.77687,-16.2549,-15.0298,40.1656,-9.69518,-8.57582,-0.2143159999999999,0.0667043,-0.887336,269.8,3.5,52.17,4.42718,-2.5,0.904262,175.94,4.509440000000001,176.11900000000003,12.1634,161.476,0.740865,0.133995,239.25,1.54237,1.91084,21.1700592041016,22.0009689331055,10.9058036804199,22.0,-1053040.0,2461.16,pp-ro,1,1,-1,-1
1570535813.7,2019-10-08,13:56:53.700,14.0,11.0,16.979999542236303,17.7,2.9,3.1,40.3,2.3,-9.9,20.0227,4.62334,4.77752,2.77687,-16.2549,-15.0298,40.1656,-9.69518,-8.57582,-0.2143159999999999,0.0667043,-0.887336,269.8,3.5,52.17,4.42718,-2.4,0.906479,187.233,4.50942,176.616,14.4435,161.076,0.737754,0.121369,239.473,1.4797,1.86157,19.0649719238281,22.0009689331055,9.99819660186768,22.0,-1052970.0,0.0,pp-ro,1,1,-1,-1
1570535813.8,2019-10-08,13:56:53.800,14.0,11.0,16.870000839233402,17.7,2.2,2.3,40.6,5.1,-12.6,19.9317,3.36167,3.06806,-1.36453,-11.9497,-10.6662,40.5623,-4.55855,-13.1671,0.0469121,0.268428,-0.685339,269.8,3.5,52.17,4.42718,-2.4,0.946927,201.248,4.5094,176.995,15.9636,160.776,0.735401,0.1130359999999999,239.648,1.4175799999999998,1.80953,16.4455413818359,22.0009689331055,9.0287561416626,22.0,-1052990.0,399.9380000000001,pp-ro,1,1,-1,-1
1570535813.9,2019-10-08,13:56:53.900,14.0,10.0,16.870000839233402,17.8,1.6,1.6,41.2,7.3,-15.5,20.006,2.55782,2.29895,0.491964,-8.85993,-8.168989999999999,40.5588,-0.780798,-15.5198,0.0918906999999999,0.128515,-0.700569,269.8,3.5,52.17,4.42718,-2.4,0.951913,202.519,4.50939,177.34599999999998,17.8636,160.476,0.732993,0.102613,239.84,1.36232,1.76478,14.4596786499023,22.0009689331055,8.20200729370117,22.0,-1052820.0,1784.34,pp-ro,1,1,-1,-1
1570535814.0,2019-10-08,13:56:54.000,14.0,12.0,16.870000839233402,17.7,1.2,0.9,42.1,9.2,-18.0,19.8619,1.55304,1.17046,-1.0909,-4.51984,-7.67356,41.1775,3.84449,-19.7635,-0.0746642,0.168431,-0.68976,269.8,3.5,52.17,4.42718,-2.4,0.949697,201.811,4.50937,177.579,20.1437,160.276,0.73105,0.0900682,240.06,1.31714,1.72977,13.0818328857422,22.0009689331055,7.54199934005737,22.0,-1052730.0,1815.1,pp-ro,1,1,-1,-1
1570535814.1,2019-10-08,13:56:54.100,14.0,12.0,16.870000839233402,17.8,1.0,0.6,43.0,11.0,-20.4,19.8619,1.55304,1.17046,-1.0909,-4.51984,-7.67356,41.1775,3.84449,-19.7635,-0.0746642,0.168431,-0.68976,269.6,4.6,52.17,4.42718,-2.4,0.947481,205.139,4.50934,177.78400000000002,21.6637,160.076,0.729372,0.0817888999999999,240.21,1.27163,1.71475,11.431488037109402,22.0009689331055,7.29310417175293,22.0,-1052580.0,1261.34,pp-ro,1,1,-1,-1
1570535814.2,2019-10-08,13:56:54.200,14.0,10.0,16.8199996948242,17.9,0.3,0.1,44.2,12.7,-22.8,19.7491,0.971539,0.555318,-0.0409225,-3.92979,-6.3328,41.7479,6.6894100000000005,-22.0193,0.223017,0.104514,-0.6319020000000001,269.6,4.6,52.17,4.42718,-2.4,0.967982,208.895,4.50931,177.87099999999998,23.9438,159.876,0.727707,0.0692697,240.358,1.23038,1.6755400000000005,9.97019195556641,22.0009689331055,6.54695701599121,22.0,-1052410.0,1938.16,pp-ro,1,1,-1,-1
1570535814.3,2019-10-08,13:56:54.300,14.0,9.0,16.6599998474121,17.5,-0.4,-0.4,45.0,13.7,-24.7,19.5733,-0.0152067999999999,-0.0723028,-0.613384,-4.52764,-4.78359,43.1484,10.1215,-24.9231,0.0426698,0.0109009,-0.429962,269.6,4.6,52.17,4.42718,-2.4,0.961887,207.306,4.50928,177.959,25.4638,159.776,0.726579,0.0609872,240.513,1.20104,1.63312,8.79843139648438,22.0009689331055,5.72908067703247,22.0,-1052280.0,2584.22,pp-ro,1,1,-1,-1
1570535814.4,2019-10-08,13:56:54.400,14.0,10.0,16.6599998474121,17.3,-0.9,-0.8,46.2,14.4,-26.4,19.4308,-0.257882,-0.340024,-2.21046,-5.62666,-5.20199,43.9097,10.9615,-25.6425,0.0886978,0.0968088999999999,-0.317303,269.6,4.6,52.17,4.42718,-2.4,0.950805,206.668,4.50925,177.93,27.3639,159.67600000000002,0.725578,0.0505325,240.633,1.1793,1.60305,7.74248504638672,22.0009689331055,5.14683771133423,22.0,-1052110.0,1230.58,pp-ro,1,1,-1,-1
1570535814.5,2019-10-08,13:56:54.500,14.0,12.0,16.7199993133545,17.2,-1.7,-1.3,47.5,15.1,-27.2,18.7715,-1.09892,-1.03355,-10.4962,-8.78348,-7.493689999999999,45.468,13.2329,-28.0244,0.0660358,0.0939309,-0.228378,269.6,4.6,52.17,4.42718,-2.4,0.96632,214.204,4.50921,177.842,29.2639,159.67700000000002,0.7249939999999999,0.0400869,240.792,1.16825,1.55726,6.60137939453125,22.0009689331055,4.23022127151489,22.0,-1052020.0,953.699,pp-ro,1,1,-1,-1
1570535814.6,2019-10-08,13:56:54.600,14.0,12.0,16.979999542236303,17.4,-2.4,-1.7,48.7,15.7,-28.1,18.7715,-1.09892,-1.03355,-10.4962,-8.78348,-7.493689999999999,45.468,13.2329,-28.0244,0.0660358,0.0939309,-0.228378,269.6,4.6,52.17,4.42718,-2.4,0.98405,227.053,4.509180000000001,177.696,31.1639,159.67700000000002,0.724514,0.0295964999999999,240.922,1.15729,1.52254,5.68167877197266,22.0009689331055,3.53241991996765,22.0,-1051910.0,984.464,pp-ro,1,1,-1,-1
1570535814.7,2019-10-08,13:56:54.700,14.0,13.0,17.1800003051758,17.3,-3.0,-1.7,49.7,15.3,-29.6,18.5919,-2.25437,-1.67212,-1.17402,-7.398169999999999,-6.03826,46.6897,15.0832,-29.4538,0.1642829999999999,-0.14885,-0.173977,269.6,4.6,52.17,4.42718,-2.3,1.00621,239.405,4.50915,177.46200000000002,32.684,159.77700000000002,0.7247180000000001,0.021108,241.018,1.15025,1.50531,4.796043395996089,22.0009689331055,3.15114164352417,22.0,-1051830.0,769.112,pp-ro,1,1,-1,-1
1570535814.8,2019-10-08,13:56:54.800,14.0,13.0,17.2800006866455,17.2,-3.2,-1.8,50.1,15.2,-30.5,18.6254,-3.17794,-1.92469,-1.83647,-5.24106,-3.09059,48.26,15.3136,-30.9473,0.0637867,-0.135467,-0.0911863,269.6,4.6,52.17,4.42718,-2.3,1.02949,247.999,4.509119999999999,177.345,33.444,159.877,0.724962,0.0168815,241.103,1.14365,1.49555,4.193138122558589,22.0009689331055,2.92909526824951,22.0,-1051710.0,1507.46,pp-ro,1,1,-1,-1
1570535814.9,2019-10-08,13:56:54.900,14.0,15.0,17.229999542236303,17.0,-3.6,-1.9,51.1,15.2,-31.4,18.5053,-3.40145,-1.99723,-5.5604,-5.0846,-3.53594,48.615,15.3972,-31.4955,0.2924199999999999,-0.0330284,-0.093633,269.6,4.6,52.17,4.42718,-2.3,1.02949,246.051,4.50908,176.878,36.4841,159.977,0.7249140000000001,-0.000107467,241.266,1.14455,1.48566,3.5357208251953103,22.0009689331055,2.69098901748657,22.0,-1051470.0,2676.51,pp-ro,1,1,-1,-1
1570535815.0,2019-10-08,13:56:55.000,14.0,14.0,17.0799999237061,16.9,-4.0,-2.1,51.3,15.3,-31.7,18.2878,-3.72842,-1.9598,-0.884036,0.463506,-4.08479,49.1532,15.7124,-32.3775,-0.00779019,-0.00803948,-0.143515,269.6,4.6,52.17,4.42718,-2.3,1.01397,237.948,4.50905,176.52700000000002,38.3841,160.077,0.7250850000000001,-0.010768,241.371,1.14703,1.4685,3.06224822998047,22.0009689331055,2.3124780654907204,22.0,-1051190.0,2614.98,pp-ro,1,1,-1,-1
1570535815.1,2019-10-08,13:56:55.100,14.0,12.0,17.0300006866455,16.8,-4.2,-2.0,51.7,15.0,-31.9,18.1029,-4.02261,-2.2359400000000003,-7.2252,-4.2432,-1.92439,49.3815,15.9243,-32.774,0.147001,0.0787383,0.0525396999999999,269.3,4.9,52.17,4.42718,-2.3,1.00732,235.858,4.50903,176.32299999999998,39.1441,160.17700000000002,0.725496,-0.0151037,241.41,1.15131,1.4671299999999998,2.79656219482422,22.0009689331055,2.24817276000977,22.0,-1050960.0,2215.04,pp-ro,1,1,-1,-1
1570535815.2,2019-10-08,13:56:55.200,14.0,7.0,17.2399997711182,16.7,-4.3,-1.8,51.8,14.4,-32.6,18.1029,-4.02261,-2.2359400000000003,-7.2252,-4.2432,-1.92439,49.3815,15.9243,-32.774,0.147001,0.0787383,0.0525396999999999,269.3,4.9,52.17,4.42718,-2.3,1.00289,230.593,4.50903,175.885,40.6641,160.27700000000002,0.726057,-0.0238497999999999,241.408,1.15632,1.47653,2.5853729248046897,22.0009689331055,2.37954497337341,22.0,-1050760.0,2091.99,pp-ro,1,1,-1,-1
1570535815.3,2019-10-08,13:56:55.300,14.0,9.0,17.5400009155273,16.5,-3.9,-1.6,52.1,14.6,-33.1,18.1029,-4.02261,-2.2359400000000003,-7.2252,-4.2432,-1.92439,49.3815,15.9243,-32.774,0.147001,0.0787383,0.0525396999999999,269.3,4.9,52.17,4.42718,-2.3,0.989037,220.322,4.50903,175.476,42.5642,160.377,0.7262569999999999,-0.0346125,241.504,1.15523,1.50423,2.2907257080078103,22.0009689331055,2.89954113960266,22.0,-1050490.0,2984.16,pp-ro,1,1,-1,-1
1570535815.4,2019-10-08,13:56:55.400,14.0,7.0,17.840000152587898,16.6,-4.0,-1.5,52.0,15.0,-33.1,18.1029,-4.02261,-2.2359400000000003,-7.2252,-4.2432,-1.92439,49.3815,15.9243,-32.774,0.147001,0.0787383,0.0525396999999999,269.3,4.9,52.17,4.42718,-2.3,0.96909,215.662,4.509,175.067,44.0842,160.377,0.726346,-0.0432971,241.48,1.15624,1.51198,2.31456756591797,22.0009689331055,3.03407216072083,22.0,-1050250.0,2030.46,pp-ro,1,1,-1,-1
1570535815.5,2019-10-08,13:56:55.500,14.0,6.0,17.9400005340576,16.5,-4.4,-1.5,51.9,14.7,-32.8,17.7772,-4.4478800000000005,-1.88521,-3.5868900000000004,2.9881,-1.81385,50.2373,15.2459,-33.5431,0.0545513,-0.127058,-0.0488721,269.3,4.9,52.17,4.42718,-2.3,0.974077,218.262,4.50903,174.658,45.9842,160.477,0.726442,-0.0540838,241.605,1.17086,1.50313,2.67733764648438,22.0009689331055,2.83570551872253,22.0,-1050120.0,1384.4,pp-ro,1,1,-1,-1
1570535815.6,2019-10-08,13:56:55.600,14.0,7.0,18.1800003051758,15.9,-4.9,-1.6,51.0,13.8,-32.7,17.5254,-4.36439,-1.57116,-0.796434,-1.50175,1.65419,50.172,15.6495,-33.8814,0.0780268999999999,0.0186446,0.1284539999999999,269.3,4.9,52.17,4.42718,-2.3,0.978509,211.894,4.50907,174.16099999999997,47.5042,160.577,0.726988,-0.0629591999999999,241.607,1.18926,1.47746,2.97539520263672,22.0009689331055,2.27045965194702,22.0,-1049850.0,2461.16,pp-ro,1,1,-1,-1
1570535815.7,2019-10-08,13:56:55.700,14.0,10.0,17.8799991607666,15.6,-4.8,-1.9,50.8,12.5,-32.7,16.3845,-5.07735,-1.92401,10.0656,2.9272,-3.59461,49.4826,12.4292,-33.7247,-0.0742528,-0.084436,0.0107691,269.3,4.9,52.17,4.42718,-2.3,0.965766,206.329,4.50903,173.635,49.4043,160.67700000000002,0.727288,-0.0738474,241.676,1.21295,1.47,2.9668731689453103,22.0009689331055,2.08835792541504,22.0,-1049680.0,3353.33,pp-ro,1,1,-1,-1
1570535815.8,2019-10-08,13:56:55.800,14.0,13.0,17.7900009155273,15.6,-4.7,-2.0,50.9,12.0,-32.4,16.3845,-5.07735,-1.92401,10.0656,2.9272,-3.59461,49.4826,12.4292,-33.7247,-0.0742528,-0.084436,0.0107691,269.3,4.9,52.17,4.42718,-2.3,0.968536,221.499,4.50903,173.168,50.9243,160.877,0.727979,-0.0826558,241.789,1.22876,1.47504,2.5921783447265603,22.0009689331055,2.12704968452454,22.0,-1049530.0,-707.5830000000001,pp-ro,1,1,-1,-1
1570535815.9,2019-10-08,13:56:55.900,14.0,9.0,17.4400005340576,16.0,-5.3,-1.7,50.4,12.1,-32.7,16.3845,-5.07735,-1.92401,10.0656,2.9272,-3.59461,49.4826,12.4292,-33.7247,-0.0742528,-0.084436,0.0107691,269.3,4.9,52.17,4.42718,-2.3,0.992362,229.427,4.50903,172.642,52.8243,160.977,0.728171,-0.0935741,241.887,1.23136,1.4804700000000002,2.16299438476562,22.0009689331055,2.21596312522888,22.0,-1049530.0,-123.058,pp-ro,1,1,-1,-1
1570535816.0,2019-10-08,13:56:56.000,14.0,10.0,17.0799999237061,16.0,-5.5,-1.5,49.9,11.7,-33.5,16.8732,-6.04136,-1.58646,-0.173682,1.08286,1.42287,48.6077,12.1634,-33.971,0.164069,-0.168944,-0.0188225,269.3,4.9,52.17,4.42718,-2.3,1.00234,232.285,4.50903,172.08700000000002,54.3443,161.077,0.728696,-0.102528,241.895,1.23294,1.48803,2.0233306884765603,22.0009689331055,2.32115864753723,22.0,-1049230.0,2399.63,pp-ro,1,1,-1,-1
1570535816.1,2019-10-08,13:56:56.100,14.0,10.0,16.979999542236303,15.9,-5.3,-1.6,50.0,11.2,-34.1,16.8732,-6.04136,-1.58646,-0.173682,1.08286,1.42287,48.6077,12.1634,-33.971,0.164069,-0.168944,-0.0188225,263.0,5.1,52.17,4.42718,-2.3,0.998456,229.292,4.50903,171.503,55.8644,161.27700000000002,0.7295659999999999,-0.11154,241.96,1.2381799999999998,1.4952,2.2191925048828103,22.0009689331055,2.38750243186951,22.0,-1049120.0,2091.99,pp-ro,1,1,-1,-1
1570535816.2,2019-10-08,13:56:56.200,14.0,8.0,17.0300006866455,16.1,-5.7,-1.6,50.1,11.4,-34.5,16.9471,-6.06295,-1.5786,0.997554,-4.2175,-3.35912,48.11,11.9742,-35.459,-0.0596605,-0.0485261999999999,-0.1105,263.0,5.1,52.17,4.42718,-2.3,0.991253,224.99,4.509,170.94799999999998,57.3844,161.378,0.730011,-0.120471,241.99,1.23699,1.49021,2.29753875732422,22.0009689331055,2.250040769577029,22.0,-1048890.0,2430.39,pp-ro,1,1,-1,-1
1570535816.3,2019-10-08,13:56:56.300,14.0,9.0,17.1800003051758,16.1,-5.9,-1.2,50.3,11.7,-35.2,17.0804,-6.52084,-1.36585,-3.17933,-1.74507,-1.83957,48.1158,12.4505,-35.665,0.0116506,0.0494889,0.0182652999999999,263.0,5.1,52.17,4.42718,-2.3,0.977955,215.563,4.50896,170.30599999999998,58.9044,161.578,0.730952,-0.129564,242.035,1.23105,1.50657,2.33670806884766,22.0009689331055,2.49190974235535,22.0,-1048590.0,1876.63,pp-ro,1,1,-1,-1
1570535816.4,2019-10-08,13:56:56.400,14.0,9.0,17.2399997711182,15.8,-5.6,-1.1,50.0,11.7,-37.0,16.828,-6.42476,-1.07515,-1.42532,1.73098,3.4822900000000003,48.3078,12.5171,-37.4669,0.241886,-0.288966,-0.284144,263.0,5.1,52.17,4.42718,-2.3,0.961887,206.422,4.50892,169.692,60.8044,161.678,0.731116,-0.140601,242.141,1.21708,1.52429,2.28561401367188,22.0009689331055,2.84171652793884,22.0,-1048340.0,2614.98,pp-ro,1,1,-1,-1
1570535816.5,2019-10-08,13:56:56.500,14.0,9.0,17.1900005340576,15.5,-5.5,-1.2,50.0,11.9,-37.8,16.5538,-6.2744800000000005,-1.01901,-3.28924,2.57568,1.04645,48.0024,12.5035,-38.482,0.0979394,-0.151576,-0.2251179999999999,263.0,5.1,52.17,4.42718,-2.3,0.947481,202.609,4.50888,169.108,62.3244,161.778,0.7315050000000001,-0.149597,242.186,1.21116,1.52463,2.32479095458984,22.0009689331055,2.82194375991821,22.0,-1048140.0,1692.05,pp-ro,1,1,-1,-1
1570535816.6,2019-10-08,13:56:56.600,14.0,8.0,17.1900005340576,15.2,-5.7,-1.4,50.3,12.7,-38.1,16.5538,-6.2744800000000005,-1.01901,-3.28924,2.57568,1.04645,48.0024,12.5035,-38.482,0.0979394,-0.151576,-0.2251179999999999,263.0,5.1,52.17,4.42718,-2.3,0.946373,200.873,4.50885,168.524,64.2245,161.878,0.731482,-0.160565,242.342,1.20516,1.51026,2.67904663085938,22.0009689331055,2.56188058853149,22.0,-1048080.0,1199.82,pp-ro,1,1,-1,-1
1570535816.7,2019-10-08,13:56:56.700,14.0,8.0,17.3400001525879,14.9,-5.9,-1.4,50.1,12.7,-38.6,15.842,-6.43842,-1.28583,-3.86554,-4.21741,-0.8575950000000001,48.1552,13.8541,-39.5903,0.116657,-0.00714001,-0.1220079999999999,263.0,5.1,52.17,4.42718,-2.4,0.943602,195.163,4.50881,167.88099999999997,65.3645,161.97799999999998,0.732313,-0.167711,242.267,1.20404,1.5021,2.8902359008789102,22.0009689331055,2.32326364517212,22.0,-1047910.0,1938.16,pp-ro,1,1,-1,-1
1570535816.8,2019-10-08,13:56:56.800,14.0,9.0,17.4400005340576,14.6,-5.8,-1.5,50.3,12.9,-38.9,15.842,-6.43842,-1.28583,-3.86554,-4.21741,-0.8575950000000001,48.1552,13.8541,-39.5903,0.116657,-0.00714001,-0.1220079999999999,263.0,5.1,52.17,4.42718,-2.4,0.928642,193.564,4.508769999999999,167.239,67.2645,162.178,0.732646,-0.178789,242.477,1.20557,1.5027700000000002,2.70117950439453,22.0009689331055,2.33297181129456,22.0,-1047700.0,1845.87,pp-ro,1,1,-1,-1
1570535816.9,2019-10-08,13:56:56.900,14.0,10.0,17.6399993896484,14.7,-5.9,-1.5,49.8,13.0,-39.7,15.3299,-6.44921,-1.44498,2.68519,1.01371,1.09481,48.0836,14.1561,-40.6749,-0.0134226,-0.1497609999999999,-0.0331746999999999,263.0,5.1,52.17,4.42718,-2.4,0.938616,199.629,4.50873,166.625,68.7845,162.378,0.733244,-0.187845,242.615,1.20095,1.50709,2.3418197631835898,22.0009689331055,-35.0,22.0,-1047620.0,584.525,pp-ro,1,1,-1,-1
1570535817.0,2019-10-08,13:56:57.000,14.0,10.0,17.6399993896484,14.7,-6.1,-1.3,49.8,13.1,-40.1,15.3081,-6.4677,-1.41519,1.26682,-1.73268,1.2975,48.0251,13.9846,-41.1678,-0.0714253999999999,-0.0787348,-0.127274,263.0,5.1,52.17,4.42718,-2.4,0.959117,211.062,4.5087,166.012,69.9245,162.578,0.734208,-0.194957,242.654,1.19976,1.51378,2.26177215576172,22.0009689331055,-35.0,22.0,-1047540.0,861.4060000000001,pp-ro,1,1,-1,-1
1570535817.1,2019-10-08,13:56:57.100,14.0,11.0,17.5900001525879,14.7,-6.2,-1.4,49.6,13.1,-40.4,15.3132,-6.63055,-1.27307,0.228625,-1.53308,0.279844,47.8223,14.1649,-41.5194,-0.0415151,-0.0212411,-0.048461,254.1,3.8,52.17,4.42718,-2.4,0.973523,215.103,4.50865,165.36900000000003,71.8246,162.678,0.734082,-0.206008,242.837,1.20379,1.51282,2.13233184814453,22.0009689331055,-35.0,22.0,-1047340.0,1907.4,pp-ro,1,1,-1,-1
1570535817.2,2019-10-08,13:56:57.200,14.0,12.0,17.5400009155273,14.8,-6.4,-1.4,49.8,12.9,-40.8,15.2489,-6.87075,-1.33765,-1.02178,-1.90943,1.82654,47.6448,14.1098,-41.9271,-0.0222389,0.0353744,-0.0333512,254.1,3.8,52.17,4.42718,-2.4,0.969644,215.601,4.5086,164.668,72.9646,162.878,0.735201,-0.213312,242.835,1.2064700000000002,1.51247,1.63501739501953,22.0009689331055,-35.0,22.0,-1047250.0,1938.16,pp-ro,1,1,-1,-1
1570535817.3,2019-10-08,13:56:57.300,14.0,11.0,17.4899997711182,14.9,-6.5,-1.2,49.9,12.5,-41.7,15.2812,-6.988989999999999,-1.27485,0.0565281,1.99572,3.90243,47.8027,14.164,-41.887,0.0333732,-0.0738258,0.0285221,254.1,3.8,52.17,4.42718,-2.4,0.976847,220.183,4.50855,163.99599999999998,74.8646,162.97799999999998,0.735047,-0.224406,243.026,1.20832,1.52739,0.783447265625,22.0009689331055,-35.0,22.0,-1047120.0,1138.29,pp-ro,1,1,-1,-1
1570535817.4,2019-10-08,13:56:57.400,14.0,10.0,17.4899997711182,15.0,-6.6,-1.1,50.1,12.4,-42.2,15.2812,-6.988989999999999,-1.27485,0.0565281,1.99572,3.90243,47.8027,14.164,-41.887,0.0333732,-0.0738258,0.0285221,254.1,3.8,52.17,4.42718,-2.4,0.988483,226.603,4.5085,163.295,76.3846,163.078,0.735348,-0.2336389999999999,243.094,1.20992,1.53647,-0.419868469238281,22.0009689331055,-35.0,22.0,-1046980.0,1568.99,pp-ro,1,1,-1,-1
1570535817.5,2019-10-08,13:56:57.500,14.0,11.0,17.5400009155273,15.3,-6.8,-0.9,50.5,12.3,-42.5,15.5782,-7.29402,-0.951318,3.3877,0.907696,-0.800182,48.0566,14.4221,-42.941,-0.033798,0.00329333,0.044738,254.1,3.8,52.17,4.42718,-2.4,1.00455,233.216,4.50844,162.536,77.5246,163.178,0.736205,-0.241108,243.013,1.21269,1.5489700000000002,-1.9832763671875,22.0009689331055,-35.0,22.0,-1046790.0,1322.87,pp-ro,1,1,-1,-1
1570535817.6,2019-10-08,13:56:57.600,14.0,10.0,17.5400009155273,15.4,-6.9,-0.7,50.7,11.5,-43.0,15.6867,-7.36717,-0.842858,1.29294,-0.58416,1.014,48.282,14.3635,-43.0374,0.065997,-0.0377768,0.0181074,254.1,3.8,52.17,4.42718,-2.4,1.00234,231.741,4.50839,161.864,79.4246,163.278,0.735895,-0.252172,243.245,1.22431,1.56349,-3.9033966064453103,22.0009689331055,-35.0,22.0,-1046540.0,2768.8,pp-ro,1,1,-1,-1
1570535817.7,2019-10-08,13:56:57.700,14.0,10.0,17.6900005340576,15.6,-6.9,-0.4,51.1,10.3,-43.4,15.7532,-7.41401,-0.717477,2.58968,0.824095,3.31596,48.5278,14.238,-43.0514,0.165,-0.0527278,-0.0587829,254.1,3.8,52.17,4.42718,-2.3,0.992916,226.817,4.5083400000000005,161.134,80.9447,163.278,0.735835,-0.261472,243.261,1.24092,1.58636,-6.01808929443359,22.0009689331055,-35.0,22.0,-1046360.0,1661.28,pp-ro,1,1,-1,-1
1570535817.8,2019-10-08,13:56:57.800,14.0,10.0,17.7399997711182,15.7,-6.7,0.0,52.2,9.2,-42.9,15.7995,-7.2031,-0.0467636999999999,2.46868,0.773044,4.69384,49.9627,13.177,-42.0366,0.211203,0.0570868,0.235333,254.1,3.8,52.17,4.42718,-2.3,0.992916,222.694,4.508290000000001,160.404,82.4647,163.378,0.7360359999999999,-0.270768,243.356,1.26719,1.61885,-8.12425231933594,22.0009689331055,-35.0,22.0,-1046250.0,2030.46,pp-ro,1,1,-1,-1
1570535817.9,2019-10-08,13:56:57.900,14.0,10.0,17.9899997711182,16.1,-6.4,0.5,52.8,7.5,-42.5,15.7995,-7.2031,-0.0467636999999999,2.46868,0.773044,4.69384,49.9627,13.177,-42.0366,0.211203,0.0570868,0.235333,254.1,3.8,52.17,4.42718,-2.3,0.975185,215.554,4.50824,159.703,83.9847,163.379,0.735817,-0.279985,243.415,1.29986,1.6633099999999998,-10.2304153442383,22.0009689331055,-35.0,22.0,-1045950.0,3045.68,pp-ro,1,1,-1,-1
1570535818.0,2019-10-08,13:56:58.000,14.0,10.0,18.1800003051758,16.6,-6.1,1.1,53.9,5.8,-41.5,15.8769,-7.033760000000001,0.224596,-2.11232,3.72251,2.42152,50.4047,12.7819,-41.6376,0.0952666,-0.0952888,0.306561,254.1,3.8,52.17,4.42718,-2.3,0.967982,220.613,4.50818,159.06,85.8847,163.279,0.734613,-0.290891,243.59,1.34113,1.71294,-12.336578369140598,22.0009689331055,-35.0,22.0,-1045810.0,646.054,pp-ro,1,1,-1,-1
1570535818.1,2019-10-08,13:56:58.100,14.0,10.0,18.3799991607666,17.2,-6.0,1.9,55.0,3.2,-40.2,16.5567,-6.30044,1.52102,2.9860900000000004,3.22759,5.63276,52.2603,9.6389,-39.2054,0.182298,0.117775,0.446582,257.2,5.4,52.17,4.42718,-2.3,0.997902,228.542,4.5080800000000005,158.388,87.4047,163.179,0.733928,-0.2999469999999999,243.626,1.39631,1.76105,-14.441032409668,22.0009689331055,-35.0,22.0,-1045760.0,1015.23,pp-ro,1,1,-1,-1
1570535818.2,2019-10-08,13:56:58.200,14.0,9.0,18.520000457763697,17.7,-5.3,2.9,56.4,0.1,-38.5,16.8539,-6.14631,1.88568,5.3661,6.13665,6.45219,52.9294,8.69594,-38.12,0.253505,0.148822,0.590626,257.2,5.4,52.17,4.42718,-2.3,0.999011,234.086,4.50804,157.746,89.3048,162.97899999999998,0.732312,-0.310794,243.764,1.46418,1.83654,-16.5523147583008,22.0009689331055,-35.0,22.0,-1045530.0,2461.16,pp-ro,1,1,-1,-1
1570535818.3,2019-10-08,13:56:58.300,14.0,9.0,18.7600002288818,18.6,-4.7,3.9,57.8,-2.8,-35.9,16.9739,-5.910769999999999,2.36845,1.54554,5.50401,10.2403,53.9148,7.52044,-36.8043,0.318965,0.1474869999999999,0.593521,257.2,5.4,52.17,4.42718,-2.3,1.01231,243.96400000000003,4.50792,157.22,90.8248,162.679,0.73058,-0.319389,243.786,1.53864,1.90446,-18.6618881225586,22.0009689331055,-35.0,22.0,-1045440.0,584.525,pp-ro,1,1,-1,-1
1570535818.4,2019-10-08,13:56:58.400,14.0,8.0,19.1299991607666,19.0,-4.0,5.6,59.3,-6.6,-34.4,18.0388,-4.49809,4.54461,6.7698,5.01524,14.446,55.9734,1.77388,-31.2556,0.29829,0.0568808,0.6277550000000001,257.2,5.4,52.17,4.42718,-2.3,1.05442,268.23,4.50788,156.782,93.1048,162.279,0.7272430000000001,-0.331375,244.097,1.61444,1.99708,-20.7782897949219,22.0009689331055,-35.0,22.0,-1045250.0,1630.52,pp-ro,1,1,-1,-1
1570535818.5,2019-10-08,13:56:58.500,14.0,11.0,19.4500007629395,19.4,-2.9,7.3,60.7,-10.8,-32.0,18.2349,-4.13218,5.4137900000000005,1.02163,6.24241,17.0444,56.7414,-0.0746372,-29.7703,0.263915,0.130774,0.786251,257.2,5.4,52.17,4.42718,-2.3,1.0655,275.321,4.5078,156.344,94.6248,161.679,0.7243,-0.339671,244.002,1.7034599999999998,2.09565,-22.8929824829102,22.0009689331055,-35.0,22.0,-1045200.0,922.935,pp-ro,1,1,-1,-1
1570535818.6,2019-10-08,13:56:58.600,14.0,10.0,19.7600002288818,19.5,-1.6,8.9,61.6,-15.4,-29.1,18.2349,-4.13218,5.4137900000000005,1.02163,6.24241,17.0444,56.7414,-0.0746372,-29.7703,0.263915,0.130774,0.786251,257.2,5.4,52.17,4.42718,-2.3,1.08545,275.754,4.50772,156.08100000000002,96.9049,160.879,0.719222,-0.35095,244.2,1.80533,2.19636,-25.0145111083984,22.0009689331055,-35.0,22.0,-1044850.0,3876.33,pp-ro,1,1,-1,-1
1570535818.7,2019-10-08,13:56:58.700,14.0,8.0,20.020000457763697,19.3,-0.3,10.6,62.6,-20.7,-26.2,18.4143,-3.67172,6.2544,5.87059,12.4574,14.2941,57.3947,-2.11861,-28.3413,0.29752,0.0266526999999999,0.872358,257.2,5.4,52.17,4.427169999999999,-2.2,1.06661,272.372,4.50764,155.964,98.4249,159.97899999999998,0.714539,-0.358247,244.142,1.91329,2.2954,-26.0692977905273,22.0009689331055,-35.0,22.0,-1044530.0,2399.63,pp-ro,1,1,-1,-1
1570535818.8,2019-10-08,13:56:58.800,14.0,9.0,20.409999847412102,19.1,1.3,12.3,63.4,-26.3,-22.2,18.5157,-2.43339,7.833880000000001,0.119588,14.8665,15.1983,58.413,-6.201230000000001,-25.0685,0.0322453,0.0247334,0.891228,257.2,5.4,52.17,4.427169999999999,-2.2,1.0716,270.963,4.50752,155.964,100.705,158.97899999999998,0.70816,-0.368477,244.419,2.0378700000000003,2.40133,-28.175460815429695,22.0009689331055,-35.0,22.0,-1044310.0,2614.98,pp-ro,1,1,-1,-1
1570535818.9,2019-10-08,13:56:58.900,14.0,8.0,20.840000152587898,18.4,3.0,14.1,63.4,-32.1,-17.7,18.5157,-2.43339,7.833880000000001,0.119588,14.8665,15.1983,58.413,-6.201230000000001,-25.0685,0.0322453,0.0247334,0.891228,257.2,5.4,52.17,4.427169999999999,-2.2,1.07049,271.559,4.50744,156.11,102.225,157.779,0.7018989999999999,-0.374817,244.365,2.16552,2.51254,-30.189453125,22.0009689331055,-35.0,22.0,-1044160.0,2830.33,pp-ro,1,1,-1,-1
1570535819.0,2019-10-08,13:56:59.000,14.0,8.0,21.1700000762939,17.1,5.1,15.7,62.5,-38.5,-12.2,17.5552,2.00586,12.5842,-4.10139,17.0173,16.0938,58.1182,-21.3368,-11.1264,0.283583,0.286803,1.43672,257.2,5.4,52.17,4.427169999999999,-2.2,1.06772,270.791,4.5074,156.518,104.505,156.47899999999998,0.6936260000000001,-0.383719,244.755,2.30897,2.6417200000000003,-31.8467254638672,22.0009689331055,-35.0,22.0,-1043910.0,2461.16,pp-ro,1,1,-1,-1
