time,date,time_of_day,airspeed_temperature,airspeed_angle_of_attack,airspeed_apparent_windspeed,kite_0_vx,kite_0_vy,kite_0_vz,kite_0_roll,kite_0_pitch,kite_0_yaw,kite_1_vx,kite_1_vy,kite_1_vz,kite_1_ax,kite_1_ay,kite_1_az,kite_1_roll,kite_1_pitch,kite_1_yaw,kite_1_roll_rate,kite_1_pitch_rate,kite_1_yaw_rate,ground_upwind_direction,ground_wind_velocity,ground_pos_latitude,ground_pos_longitude,ground_pos_altitude,ground_tether_reelout_speed,ground_tether_force,est_upwind_direction,kite_pos_east,kite_pos_north,kite_height,kite_elevation,kite_azimuth,kite_distance,kite_heading,kite_course,kite_actual_steering,kite_actual_depower,kite_set_steering,kite_set_depower,ground_mech_energy,ground_mech_power,flight_phase,flight_phase_index,phase,pattern,pattern_section
1570537629.2,2019-10-08,14:27:09.200,15.0,8.0,14.4099998474121,11.5,-2.8,2.9,21.4,-3.5,-62.5,9.84828,-2.43432,3.08568,8.94078,8.4493,2.1999,23.8738,11.917,-64.4458,0.07889,0.1675859999999999,0.924843,247.0,6.6,52.1701,4.42721,1.7,-2.25955,87.895,4.46488,58.5611,15.5809,238.031,1.32151,-0.0125337,245.623,0.766301,1.6516400000000002,-34.973541259765604,22.0050868988037,-35.0,22.0,-585304.0,-6122.13,pp-riro,4,0,-1,-1
1570537629.3,2019-10-08,14:27:09.300,15.0,7.0,13.8500003814697,12.3,-1.8,3.2,23.1,-5.1,-57.2,9.84828,-2.43432,3.08568,8.94078,8.4493,2.1999,23.8738,11.917,-64.4458,0.07889,0.1675859999999999,0.924843,247.0,6.6,52.1701,4.42721,1.7,-2.3277,74.9346,4.46483,58.2982,16.721,237.831,1.32111,-0.0317647999999999,245.442,0.8846579999999999,1.76321,-34.973541259765604,22.0009689331055,-35.0,22.0,-586759.0,-16489.8,pp-riro,4,0,-1,-1
1570537629.4,2019-10-08,14:27:09.400,15.0,10.0,13.7200002670288,13.0,-1.0,3.6,24.6,-6.9,-52.3,11.4967,-0.105544,3.97008,7.82256,8.83884,1.91706,28.6882,7.930219999999999,-50.5121,0.0373195999999999,0.13781,0.965995,247.0,6.6,52.1701,4.42721,1.7,-2.51664,80.4867,4.46478,58.1229,17.861,237.631,1.32029,-0.0505324,245.287,0.996435,1.85138,-34.976959228515604,22.0009689331055,-35.0,22.0,-589665.0,-20273.8,pp-riro,4,0,-1,-1
1570537629.5,2019-10-08,14:27:09.500,15.0,10.0,13.7200002670288,13.7,-0.2,4.2,26.1,-8.6,-47.3,11.4967,-0.105544,3.97008,7.82256,8.83884,1.91706,28.6882,7.930219999999999,-50.5121,0.0373195999999999,0.13781,0.965995,247.0,6.6,52.1701,4.42721,1.7,-2.60862,86.3975,4.46473,58.0353,19.001,237.331,1.31895,-0.0687501,245.061,1.10919,1.93525,-34.9871978759766,22.0009689331055,-35.0,22.0,-591318.0,-14859.2,pp-riro,4,0,-1,-1
1570537629.6,2019-10-08,14:27:09.600,15.0,10.0,13.5900001525879,14.3,0.7,4.7,27.0,-10.7,-42.2,12.708,1.46094,4.97842,2.63675,9.3658,7.18704,31.3709,4.01246,-39.2682,0.102488,0.228906,0.945616,247.0,6.6,52.1701,4.42721,1.7,-2.68564,80.6651,4.46468,58.0353,20.9011,236.931,1.3161,-0.0980036999999999,244.829,1.23656,2.0285,-34.9889068603516,22.0009689331055,-35.0,22.0,-592817.0,-16059.1,pp-riro,4,0,-1,-1
1570537629.7,2019-10-08,14:27:09.700,15.0,11.0,13.3299999237061,14.7,1.8,5.1,28.0,-12.9,-36.9,12.708,1.46094,4.97842,2.63675,9.3658,7.18704,31.3709,4.01246,-39.2682,0.102488,0.228906,0.945616,247.0,6.6,52.1701,4.42721,1.7,-2.72719,75.4329,4.4646300000000005,58.1229,22.0412,236.631,1.31391,-0.114731,244.659,1.35503,2.11685,-34.9974365234375,22.0009689331055,-35.0,22.0,-593713.0,-17812.6,pp-riro,4,0,-1,-1
1570537629.8,2019-10-08,14:27:09.800,15.0,10.0,12.9899997711182,15.2,2.8,5.4,28.5,-14.8,-32.0,13.2231,3.00881,5.65837,3.74574,10.3278,4.48945,32.8296,0.4058469999999999,-31.1029,0.133566,0.139705,0.9004840000000001,247.0,6.6,52.1701,4.42721,1.5,-2.84466,68.0949,4.464580000000001,58.3565,23.9412,236.131,1.30977,-0.141512,244.41,1.4752299999999998,2.20039,-34.9974365234375,22.0009689331055,-35.0,22.0,-596108.0,-25565.3,pp-riro,4,0,-1,-1
1570537629.9,2019-10-08,14:27:09.900,15.0,10.0,12.9200000762939,15.5,3.2,5.5,28.8,-15.8,-29.5,13.4856,3.4738800000000003,5.77404,5.08904,8.32865,1.4280000000000002,33.066,-0.855192,-28.61,0.130441,0.128671,0.935185,247.0,6.6,52.1701,4.42721,1.5,-2.9998,73.0688,4.46453,58.4441,24.3212,235.931,1.30866,-0.14649,244.276,1.52771,2.22497,-35.0059814453125,22.0009689331055,-35.0,22.0,-599090.0,-28457.2,pp-riro,4,0,-1,-1
1570537630.0,2019-10-08,14:27:10.000,15.0,10.0,13.0600004196167,16.0,4.2,6.1,29.3,-17.5,-24.2,13.4856,3.4738800000000003,5.77404,5.08904,8.32865,1.4280000000000002,33.066,-0.855192,-28.61,0.130441,0.128671,0.935185,247.0,6.6,52.1701,4.42721,1.5,-3.1217,85.4176,4.46448,58.8238,25.8413,235.431,1.30438,-0.166039,244.04,1.64552,2.29762,-35.0059814453125,22.0009689331055,-35.0,22.0,-601429.0,-21627.4,pp-riro,4,0,-1,-1
1570537630.1,2019-10-08,14:27:10.100,15.0,10.0,13.2600002288818,16.3,5.3,6.7,29.2,-19.8,-19.0,14.5186,5.77979,6.83978,2.31149,8.19244,5.44022,33.6276,-5.92879,-14.9183,0.0731409,0.276988,1.02613,247.0,6.6,52.1701,4.42721,1.5,-3.20315,89.389,4.46443,59.2327,27.7414,234.931,1.29926,-0.190048,243.866,1.7681900000000002,2.37837,-35.0059814453125,22.0009689331055,-35.0,22.0,-603134.0,-16674.4,pp-riro,4,0,-1,-1
1570537630.2,2019-10-08,14:27:10.200,15.0,12.0,13.2600002288818,16.3,6.4,7.2,29.0,-22.4,-14.0,14.5186,5.77979,6.83978,2.31149,8.19244,5.44022,33.6276,-5.92879,-14.9183,0.0731409,0.276988,1.02613,247.9,6.2,52.1701,4.42721,1.5,-3.26022,87.7308,4.46438,59.8168,28.8814,234.331,1.2945799999999998,-0.201814,243.563,1.87626,2.44864,-35.0076751708984,22.0009689331055,-35.0,22.0,-604752.0,-16982.0,pp-riro,4,0,-1,-1
1570537630.3,2019-10-08,14:27:10.300,15.0,11.0,13.3299999237061,16.5,7.6,7.4,28.4,-24.0,-8.4,14.7801,7.86992,7.671689999999999,0.2215369999999999,11.892,1.87413,32.3094,-10.3764,-3.6766,0.0997716,0.235974,0.944608,247.9,6.2,52.1701,4.42721,1.5,-3.34832,89.3601,4.46434,60.4886,30.4015,233.631,1.28875,-0.21768,243.242,1.99187,2.51645,-35.0059814453125,22.0009689331055,-35.0,22.0,-607453.0,-18304.9,pp-riro,4,0,-1,-1
1570537630.4,2019-10-08,14:27:10.400,15.0,11.0,13.6499996185303,16.7,8.8,7.7,27.9,-25.3,-2.4,14.7801,7.86992,7.671689999999999,0.2215369999999999,11.892,1.87413,32.3094,-10.3764,-3.6766,0.0997716,0.235974,0.944608,247.9,6.2,52.1701,4.42721,1.5,-3.37436,93.0876,4.4643,61.2771,32.3015,232.931,1.28174,-0.237038,243.013,2.1143,2.5843,-35.0076751708984,22.0009689331055,-35.0,22.0,-608250.0,-15874.5,pp-riro,4,0,-1,-1
1570537630.5,2019-10-08,14:27:10.500,15.0,10.0,14.289999961853,16.6,10.6,8.7,27.2,-27.0,6.2,14.8281,8.92127,7.96368,1.32716,9.88628,4.11451,31.5525,-12.1139,1.63337,0.134369,0.238873,0.904089,247.9,6.2,52.1701,4.42721,1.5,-3.40207,111.327,4.46427,62.1825,33.8216,232.231,1.27494,-0.250031,242.779,2.2719,2.67784,-35.0059814453125,22.0009689331055,-35.0,22.0,-609460.0,-3107.21,pp-riro,4,0,-1,-1
1570537630.6,2019-10-08,14:27:10.600,15.0,10.0,14.289999961853,16.5,11.2,9.1,26.0,-28.6,9.1,14.8281,8.92127,7.96368,1.32716,9.88628,4.11451,31.5525,-12.1139,1.63337,0.134369,0.238873,0.904089,247.9,6.2,52.1701,4.42721,1.5,-3.33835,119.319,4.464230000000001,63.1756,35.7217,231.431,1.26691,-0.266453,242.544,2.34098,2.72078,-35.0042724609375,22.0009689331055,-35.0,22.0,-609299.0,3568.68,pp-riro,4,0,-1,-1
1570537630.7,2019-10-08,14:27:10.700,15.0,11.0,14.7799997329712,16.1,12.7,9.5,25.0,-30.1,15.3,14.9152,9.42925,8.18626,0.6279,10.7804,4.65956,31.1011,-12.902,4.51066,0.0849962,0.277709,1.0032,247.9,6.2,52.1701,4.42721,1.5,-3.30399,120.772,4.46419,64.4022,37.2418,230.531,1.25864,-0.276084,242.238,2.45348,2.79596,-35.0042724609375,22.0009689331055,-23.0044822692871,22.0,-608962.0,6337.48,pp-riro,4,0,-1,-1
1570537630.8,2019-10-08,14:27:10.800,15.0,11.0,14.7799997329712,15.8,14.2,9.8,24.1,-31.0,21.4,14.1762,13.7402,10.0108,-2.20114,15.4736,3.5499300000000003,26.2855,-17.7004,25.9344,0.0365616999999999,0.278767,0.96453,247.9,6.2,52.1701,4.42721,1.2,-3.20647,124.917,4.46415,65.6873,39.1418,229.631,1.24935,-0.289143,242.027,2.5634,2.8666,-34.9445190429688,22.0009689331055,-23.0044822692871,22.0,-608104.0,9352.4,pp-riro,4,0,-1,-1
1570537630.9,2019-10-08,14:27:10.900,15.0,10.0,15.359999656677198,15.4,15.7,10.4,23.2,-31.6,27.6,14.1762,13.7402,10.0108,-2.20114,15.4736,3.5499300000000003,26.2855,-17.7004,25.9344,0.0365616999999999,0.278767,0.96453,247.9,6.2,52.1701,4.42721,1.2,-2.99648,147.72299999999998,4.46411,67.1477,40.2819,228.631,1.24083,-0.292064,241.668,2.66345,2.9275900000000004,-34.52978515625,22.0009689331055,-23.0044822692871,22.0,-605806.0,19197.0,pp-riro,4,0,-1,-1
1570537631.0,2019-10-08,14:27:11.000,15.0,13.0,15.7600002288818,14.9,17.2,11.2,22.1,-32.5,33.7,13.7018,15.8358,10.9478,-5.55946,13.2756,8.44,24.3769,-19.0848,35.0578,0.1130589999999999,0.254139,0.98752,247.9,6.2,52.1701,4.42721,1.2,-2.7532400000000004,166.48,4.46407,68.75399999999999,42.182,227.631,1.23025,-0.301979,241.5,2.7679400000000003,2.99388,-33.7651519775391,22.0009689331055,-23.0044822692871,22.0,-603109.0,29749.3,pp-riro,4,0,-1,-1
1570537631.1,2019-10-08,14:27:11.100,15.0,14.0,16.1499996185303,14.1,18.7,11.7,20.9,-33.2,40.5,13.7018,15.8358,10.9478,-5.55946,13.2756,8.44,24.3769,-19.0848,35.0578,0.1130589999999999,0.254139,0.98752,247.9,6.2,52.1701,4.42721,1.2,-2.60197,172.877,4.46403,70.5648,43.702,226.431,1.21944,-0.30614,241.164,2.87601,3.05918,-32.643798828125,22.0009689331055,-23.0044822692871,22.0,-601250.0,34210.1,pp-riro,4,0,-1,-1
1570537631.2,2019-10-08,14:27:11.200,15.0,12.0,16.4200000762939,13.2,20.0,12.0,19.3,-34.2,47.4,13.0938,17.1626,11.5728,-7.09536,12.5798,4.96005,22.787,-20.0179,41.294,0.0498999,0.208734,0.962137,247.1,6.2,52.1701,4.42721,1.2,-2.27118,176.313,4.46398,72.4633,44.8421,225.231,1.20909,-0.305738,240.813,2.9806,3.11532,-31.1708526611328,22.0009689331055,-23.0044822692871,22.0,-597898.0,34425.5,pp-riro,4,0,-1,-1
1570537631.3,2019-10-08,14:27:11.300,15.0,12.0,16.9500007629395,12.1,21.2,12.3,17.5,-34.6,54.3,11.8436,18.9774,12.1344,-9.01328,10.7815,1.32138,20.2231,-22.0195,50.9243,0.1458,0.195515,1.1277,247.1,6.2,52.1701,4.42721,1.2,-1.8982900000000005,173.023,4.46392,74.4494,46.3622,224.031,1.19765,-0.308501,240.587,3.08569,3.17597,-29.3377685546875,22.0009689331055,-23.0044822692871,22.0,-594906.0,27964.9,pp-riro,4,0,-1,-1
1570537631.4,2019-10-08,14:27:11.400,15.0,10.0,17.8700008392334,10.8,22.1,12.4,15.5,-34.9,61.5,11.3847,19.5433,12.2486,-7.52112,10.5997,0.996216,19.1563,-22.6389,54.1195,0.0373192,0.102999,1.03317,247.1,6.2,52.1701,4.42721,1.2,-1.56639,167.37,4.46386,76.6691,47.5022,222.831,1.1862,-0.306163,240.392,3.18977,3.23129,-27.3988723754883,22.0009689331055,-23.0044822692871,22.0,-592496.0,21473.6,pp-riro,4,0,-1,-1
1570537631.5,2019-10-08,14:27:11.500,15.0,10.0,17.8700008392334,9.5,22.8,12.4,13.0,-35.4,68.1,9.22862,21.2877,12.441,-6.83425,7.06922,-2.3872,15.1514,-24.6797,66.9471,0.201783,0.118479,1.16111,247.1,6.2,52.1701,4.42721,1.2,-1.23339,160.722,4.46381,78.8596,48.2623,221.631,1.1755799999999998,-0.300615,240.142,3.2810900000000003,3.27986,-25.8183975219727,22.0009689331055,-23.0044822692871,22.0,-590864.0,15197.7,pp-riro,4,0,-1,-1
1570537631.6,2019-10-08,14:27:11.600,15.0,8.0,18.0100002288818,7.9,23.2,12.2,10.8,-35.3,74.2,9.22862,21.2877,12.441,-6.83425,7.06922,-2.3872,15.1514,-24.6797,66.9471,0.201783,0.118479,1.16111,247.1,6.2,52.1701,4.42721,1.2,-0.961333,154.149,4.46375,81.1085,49.4024,220.431,1.16399,-0.298434,240.019,3.36771,3.33762,-24.5912246704102,22.0009689331055,-23.0044822692871,22.0,-589757.0,10275.3,pp-riro,4,0,-1,-1
1570537631.7,2019-10-08,14:27:11.700,15.0,7.0,18.1100006103516,6.4,23.6,11.9,9.3,-35.0,80.2,9.22862,21.2877,12.441,-6.83425,7.06922,-2.3872,15.1514,-24.6797,66.9471,0.201783,0.118479,1.16111,247.1,6.2,52.1701,4.42721,1.2,-0.701468,147.029,4.46369,83.4451,50.1624,219.331,1.1530200000000002,-0.292558,239.97,3.4498900000000003,3.38985,-23.713943481445305,22.0009689331055,-22.4515686035156,22.0,-589021.0,6460.54,pp-riro,4,0,-1,-1
1570537631.8,2019-10-08,14:27:11.800,15.0,7.0,18.1100006103516,5.0,23.8,11.6,7.2,-33.9,86.2,9.22862,21.2877,12.441,-6.83425,7.06922,-2.3872,15.1514,-24.6797,66.9471,0.201783,0.118479,1.16111,247.1,6.2,52.1701,4.4272,0.8,-0.489255,146.014,4.46363,85.8692,50.9225,218.131,1.1415799999999998,-0.286544,239.891,3.5344,3.437,-23.1114501953125,22.0009689331055,-21.9429740905762,22.0,-588566.0,3753.27,pp-riro,4,0,-1,-1
1570537631.9,2019-10-08,14:27:11.900,15.0,6.0,18.25,3.6,23.8,11.4,6.0,-33.3,91.2,6.555110000000001,22.1654,11.9615,-14.4041,-1.95797,-2.75639,11.547,-25.2585,78.9901,0.404705,0.3223789999999999,0.82505,247.1,6.2,52.1701,4.4272,0.8,-0.264851,150.863,4.46357,88.235,51.3025,217.031,1.13121,-0.277836,239.833,3.6011,3.4805,-22.5499267578125,22.0009689331055,-21.4069728851318,22.0,-588314.0,2245.81,pp-riro,4,0,-1,-1
1570537632.0,2019-10-08,14:27:12.000,15.0,6.0,18.25,2.3,23.9,11.1,4.2,-32.5,96.2,6.555110000000001,22.1654,11.9615,-14.4041,-1.95797,-2.75639,11.547,-25.2585,78.9901,0.404705,0.3223789999999999,0.82505,247.1,6.2,52.1701,4.4272,0.8,-0.0382316999999999,155.045,4.463509999999999,90.6008,51.6826,216.031,1.12098,-0.269527,239.894,3.66916,3.523,-22.0259399414062,22.0009689331055,-20.9045104980469,22.0,-588239.0,61.529,pp-riro,4,0,-1,-1
1570537632.1,2019-10-08,14:27:12.100,15.0,7.0,18.25,1.2,23.9,10.6,2.5,-30.9,101.4,5.87319,22.3316,11.8593,-7.80283,-0.7727510000000001,-4.08475,10.5081,-25.1344,81.7494,0.210532,0.253596,0.709697,247.1,6.2,52.1701,4.4272,0.8,0.214984,156.841,4.46345,93.0834,51.6826,214.931,1.11087,-0.257914,239.856,3.74183,3.5565900000000004,-21.7682189941406,22.0009689331055,-20.5177097320557,22.0,-588408.0,-2338.1,pp-riro,4,0,-1,-1
1570537632.2,2019-10-08,14:27:12.200,15.0,8.0,18.25,0.0,23.8,10.2,0.6,-29.6,106.3,3.25413,22.5689,11.2161,-12.9084,1.66314,-5.07111,7.573810000000001,-23.7389,92.512,-0.000652103,0.1415789999999999,0.86305,249.2,6.2,52.1701,4.4272,0.8,0.252107,162.109,4.46339,95.4491,51.6826,214.031,1.10145,-0.247267,239.981,3.81043,3.59462,-21.230583190918,22.0009689331055,-20.0390033721924,22.0,-588323.0,1938.16,pp-riro,4,0,-1,-1
1570537632.3,2019-10-08,14:27:12.300,15.0,10.0,18.2900009155273,-0.9,23.7,10.1,-1.1,-28.1,111.0,1.46814,22.4853,10.5935,-13.0803,-4.48316,-4.27406,4.916869999999999,-22.569000000000003,99.8297,-0.268652,0.20733,0.687771,249.2,6.2,52.1701,4.4272,0.8,0.259311,169.542,4.4633400000000005,97.8149,51.6827,213.131,1.09201,-0.237042,240.133,3.87837,3.62011,-20.6792984008789,22.0009689331055,-19.8352451324463,22.0,-588355.0,-615.29,pp-riro,4,0,-1,-1
1570537632.4,2019-10-08,14:27:12.400,15.0,10.0,18.3899993896484,-2.1,23.5,10.1,-3.1,-26.6,115.5,-0.0725487,22.4677,10.0103,-8.8171,-1.4452,-7.42301,2.17207,-20.6706,107.171,0.00509679,0.1374,0.873964,249.2,6.2,52.1701,4.4272,0.8,0.3357739999999999,193.74,4.46329,100.151,51.6827,212.131,1.08244,-0.227306,240.21,3.9446,3.65677,-20.1706771850586,22.0009689331055,-19.438943862915,22.0,-588400.0,123.058,pp-riro,4,0,-1,-1
1570537632.5,2019-10-08,14:27:12.500,15.0,11.0,18.479999542236303,-3.2,23.1,9.9,-5.3,-25.4,120.1,-0.0725487,22.4677,10.0103,-8.8171,-1.4452,-7.42301,2.17207,-20.6706,107.171,0.00509679,0.1374,0.873964,249.2,6.2,52.1701,4.4272,0.8,0.364032,208.93400000000003,4.46324,102.459,51.6828,211.231,1.07313,-0.2180349999999999,240.39,4.01126,3.69255,-19.7798233032227,22.0009689331055,-19.068677902221697,22.0,-588361.0,92.2935,pp-riro,4,0,-1,-1
1570537632.6,2019-10-08,14:27:12.600,15.0,11.0,18.6299991607666,-4.3,22.9,9.7,-7.3,-23.8,124.1,-2.14616,22.07,9.73553,-10.5185,-5.28255,-1.53447,-2.2858400000000003,-18.0641,116.473,-0.16143,0.158721,0.7068810000000001,249.2,6.2,52.1701,4.4272,0.8,0.369573,210.862,4.46319,104.795,51.3028,210.131,1.06392,-0.206058,240.352,4.0703,3.7265,-19.5818405151367,22.0009689331055,-18.692470550537102,22.0,-588319.0,799.877,pp-riro,4,0,-1,-1
1570537632.7,2019-10-08,14:27:12.700,15.0,11.0,18.5799999237061,-5.6,22.8,9.5,-9.2,-21.9,127.7,-3.75712,21.8853,9.34705,-12.9715,1.28959,-4.65022,-5.756880000000001,-16.1088,122.68,0.0328409,0.265942,0.717708,249.2,6.2,52.1701,4.4272,0.8,0.366803,217.58,4.46314,107.103,50.9228,209.131,1.05494,-0.194575,240.416,4.12689,3.76829,-19.1363677978516,22.0009689331055,-18.1713714599609,22.0,-588257.0,369.174,pp-riro,4,0,-1,-1
1570537632.8,2019-10-08,14:27:12.800,15.0,11.0,18.5799999237061,-6.9,22.5,9.4,-11.1,-20.4,131.4,-4.99538,21.7197,9.13842,-9.85782,-1.37921,-0.893511,-8.12992,-14.3449,126.292,-0.311731,0.1933359999999999,0.684149,249.2,6.2,52.1701,4.4272,0.5,0.391736,228.302,4.46309,109.469,50.1628,208.131,1.0463,-0.180388,240.454,4.1802,3.80728,-18.7762451171875,22.0009689331055,-17.654317855835,22.0,-588222.0,461.467,pp-riro,4,0,-1,-1
1570537632.9,2019-10-08,14:27:12.900,15.0,11.0,18.5300006866455,-8.2,22.0,9.3,-13.2,-19.1,134.6,-6.26412,21.4339,9.02656,-17.4343,-6.4781,-2.72586,-10.3291,-13.224,129.889,-0.0567774,0.173427,0.6557430000000001,249.2,6.2,52.1701,4.4272,0.5,0.4216569999999999,247.401,4.463019999999999,111.688,49.4028,207.031,1.03784,-0.167089,240.368,4.22573,3.84853,-18.303466796875,22.0009689331055,-17.1161842346191,22.0,-588146.0,369.174,pp-riro,4,0,-1,-1
1570537633.0,2019-10-08,14:27:13.000,15.0,12.0,18.479999542236303,-9.3,21.6,9.2,-15.1,-17.9,138.0,-6.26412,21.4339,9.02656,-17.4343,-6.4781,-2.72586,-10.3291,-13.224,129.889,-0.0567774,0.173427,0.6557430000000001,249.2,6.2,52.1701,4.4272,0.5,0.433846,252.012,4.4629900000000005,113.908,48.2629,206.031,1.03005,-0.151371,240.319,4.27162,3.87974,-17.6224594116211,22.0009689331055,-16.7146511077881,22.0,-588117.0,553.761,pp-riro,4,0,-1,-1
1570537633.1,2019-10-08,14:27:13.100,15.0,12.0,18.3799991607666,-10.3,21.1,9.0,-16.7,-16.3,141.1,-9.05246,20.2124,8.6939,-7.28909,-3.3368300000000004,-2.21021,-15.6169,-10.3967,138.009,-0.246337,0.0298602,0.54304,249.2,6.2,52.1701,4.4272,0.5,0.445482,256.082,4.462940000000001,116.069,47.5029,204.931,1.02161,-0.139018,240.261,4.31963,3.91287,-17.1206665039062,22.0009689331055,-16.394193649292,22.0,-588016.0,1169.05,pp-riro,4,0,-1,-1
1570537633.2,2019-10-08,14:27:13.200,15.0,11.0,18.4300003051758,-11.5,20.7,8.7,-18.1,-14.6,144.1,-9.05246,20.2124,8.6939,-7.28909,-3.3368300000000004,-2.21021,-15.6169,-10.3967,138.009,-0.246337,0.0298602,0.54304,241.3,6.7,52.1701,4.4272,0.5,0.447144,261.533,4.4629,118.172,46.7429,203.931,1.01352,-0.127172,240.286,4.36789,3.95391,-16.7963790893555,22.0009689331055,-15.9216823577881,22.0,-587924.0,799.877,pp-riro,4,0,-1,-1
1570537633.3,2019-10-08,14:27:13.300,15.0,11.0,18.6700000762939,-12.7,20.1,8.6,-19.4,-13.7,147.0,-10.7955,19.5376,8.28701,-10.588,-3.83826,-2.48808,-18.6557,-8.74095,142.376,-0.200482,0.0103744,0.4208119999999999,241.3,6.7,52.1701,4.4272,0.5,0.467091,272.418,4.46277,120.304,45.6029,202.931,1.00575,-0.112713,240.278,4.4056,3.99202,-16.4567337036133,22.0009689331055,-15.4672231674194,22.0,-587843.0,892.17,pp-riro,4,0,-1,-1
1570537633.4,2019-10-08,14:27:13.400,15.0,11.0,18.8500003814697,-13.4,19.0,8.3,-20.1,-12.9,149.8,-10.7955,19.5376,8.28701,-10.588,-3.83826,-2.48808,-18.6557,-8.74095,142.376,-0.200482,0.0103744,0.4208119999999999,241.3,6.7,52.1701,4.4272,0.5,0.487038,284.369,4.46274,122.261,44.0829,201.931,0.998922,-0.0964,240.14,4.43945,4.02311,-16.055641174316403,22.0009689331055,-15.085376739502,22.0,-587769.0,646.054,pp-riro,4,0,-1,-1
1570537633.5,2019-10-08,14:27:13.500,15.0,10.0,19.0400009155273,-14.1,18.3,7.9,-20.7,-11.7,152.5,-11.9636,18.8835,8.25875,-7.62311,-10.8126,-1.71607,-20.4787,-7.84205,145.442,-0.1418319999999999,-0.0636144,0.599884,241.3,6.7,52.1701,4.4272,0.5,0.503107,286.491,4.46265,124.16,42.5629,200.931,0.992159,-0.0805179,240.001,4.47607,4.05149,-15.6187057495117,22.0009689331055,-14.7847652435303,22.0,-587647.0,1568.99,pp-riro,4,0,-1,-1
1570537633.6,2019-10-08,14:27:13.600,15.0,10.0,19.0400009155273,-14.8,17.3,7.5,-21.1,-10.5,154.5,-13.4065,17.0386,7.5582,-7.338030000000001,-1.59956,-6.56175,-22.3041,-6.24486,150.822,-0.264501,0.0375135,0.323711,241.3,6.7,52.1701,4.4272,0.5,0.4770649999999999,270.598,4.46257,126.0,41.0429,200.031,0.9857,-0.0650823,239.943,4.50314,4.086880000000001,-15.0657119750977,22.0009689331055,-14.354229927063,22.0,-587397.0,1692.05,pp-riro,4,0,-1,-1
1570537633.7,2019-10-08,14:27:13.700,15.0,9.0,19.1800003051758,-15.1,16.3,7.0,-21.5,-9.8,157.0,-13.4065,17.0386,7.5582,-7.338030000000001,-1.59956,-6.56175,-22.3041,-6.24486,150.822,-0.264501,0.0375135,0.323711,241.3,6.7,52.1701,4.4272,0.5,0.458226,265.757,4.46249,127.694,39.9029,199.131,0.979223,-0.0529769,239.898,4.5354,4.11618,-14.884796142578098,22.0009689331055,-14.1144227981567,22.0,-587237.0,1415.17,pp-riro,4,0,-1,-1
1570537633.8,2019-10-08,14:27:13.800,15.0,8.0,19.270000457763697,-15.6,15.5,6.6,-21.3,-8.3,158.7,-13.4065,17.0386,7.5582,-7.338030000000001,-1.59956,-6.56175,-22.3041,-6.24486,150.822,-0.264501,0.0375135,0.323711,241.3,6.7,52.1701,4.42721,0.2,0.457672,264.8,4.46241,129.27100000000002,38.3829,198.431,0.973909,-0.038648,239.915,4.56233,4.145569999999999,-14.5127105712891,22.0009689331055,-13.7799549102783,22.0,-587190.0,953.699,pp-riro,4,0,-1,-1
1570537633.9,2019-10-08,14:27:13.900,15.0,9.0,19.3600006103516,-15.8,14.7,6.3,-21.3,-7.6,161.4,-13.4065,17.0386,7.5582,-7.338030000000001,-1.59956,-6.56175,-22.3041,-6.24486,150.822,-0.264501,0.0375135,0.323711,241.3,6.7,52.1701,4.42721,0.2,0.457118,258.291,4.462330000000001,130.819,36.4828,197.631,0.968716,-0.0219508,239.797,4.5938300000000005,4.16285,-14.1321029663086,22.0009689331055,-13.6786775588989,22.0,-587064.0,1445.93,pp-riro,4,0,-1,-1
1570537634.0,2019-10-08,14:27:14.000,15.0,9.0,19.3600006103516,-16.1,13.9,5.9,-20.7,-6.7,163.3,-14.4783,14.6918,6.55165,-0.114068,-10.3345,-4.64533,-22.8117,-4.24792,156.605,0.0975661,0.1220329999999999,0.4633899999999999,241.3,6.7,52.1701,4.42721,0.2,0.436617,255.042,4.46225,132.192,34.9628,196.931,0.963878,-0.00842373,239.748,4.61859,4.18945,-13.8692626953125,22.0009689331055,-13.4214992523193,22.0,-586885.0,799.877,pp-riro,4,0,-1,-1
1570537634.1,2019-10-08,14:27:14.100,15.0,11.0,19.4500007629395,-16.5,13.0,5.4,-20.6,-5.0,165.0,-15.0839,13.0183,5.93015,-2.3988400000000003,-6.53214,-4.09745,-22.3843,-2.2162900000000003,161.016,-0.289441,0.0215685999999999,0.536717,241.3,6.7,52.1701,4.42721,0.2,0.44382,256.474,4.46217,133.565,33.4428,196.231,0.958956,0.0048796,239.718,4.64874,4.2255400000000005,-13.6183624267578,22.0009689331055,35.0,22.0,-586849.0,676.819,pp-riro,4,0,-1,-1
1570537634.2,2019-10-08,14:27:14.200,15.0,8.0,19.6299991607666,-16.7,12.3,5.1,-20.6,-4.3,167.1,-15.5854,11.8589,5.21734,-3.46137,-4.17812,-5.45491,-22.3679,-0.913055,163.991,-0.19196,0.000696661,0.408834,242.2,6.4,52.1701,4.42721,0.2,0.4476989999999999,257.465,4.46209,134.791,31.9228,195.731,0.954917,0.0177524,239.788,4.675009999999999,4.2474,-13.3145599365234,22.0009689331055,35.0,22.0,-586736.0,1230.58,pp-riro,4,0,-1,-1
1570537634.3,2019-10-08,14:27:14.300,15.0,10.0,19.7600002288818,-17.0,11.4,4.8,-20.8,-3.9,169.6,-15.7781,11.5062,5.01628,-1.49345,-1.58645,-1.91518,-22.2725,-0.484656,165.27700000000002,-0.249185,-0.0680867,0.570651,242.2,6.4,52.1701,4.42721,0.2,0.580124,264.28700000000003,4.46203,135.96,30.0228,195.131,0.951036,0.0330276,239.713,4.7019400000000005,4.27698,-12.7837524414062,22.0009689331055,35.0,22.0,-587365.0,-13813.3,pp-riro,4,0,-1,-1
1570537634.4,2019-10-08,14:27:14.400,15.0,9.0,19.8500003814697,-16.8,11.0,4.1,-20.9,-2.6,171.1,-15.7781,11.5062,5.01628,-1.49345,-1.58645,-1.91518,-22.2725,-0.484656,165.27700000000002,-0.249185,-0.0680867,0.570651,242.2,6.4,52.1701,4.42721,0.2,1.07049,255.287,4.46196,137.04,28.5028,194.531,0.947075,0.0453690999999999,239.656,4.72623,4.29176,-11.88427734375,22.0009689331055,35.0,22.0,-589530.0,-25134.6,pp-riro,4,0,-1,-1
1570537634.5,2019-10-08,14:27:14.500,15.0,9.0,19.5400009155273,-16.4,10.6,3.6,-20.9,-1.3,172.5,-15.8405,11.1168,4.9469,0.902606,-10.688,-0.3531019999999999,-22.2451,0.0986823999999999,166.265,0.0947462,-0.00204997,0.351688,242.2,6.4,52.1701,4.42721,0.2,0.883207,199.108,4.46189,138.063,26.6027,194.131,0.94397,0.0601483,239.7,4.74725,4.2951,-10.6349182128906,22.0009689331055,35.0,22.0,-587506.0,9813.87,pp-riro,4,0,-1,-1
1570537634.6,2019-10-08,14:27:14.600,15.0,9.0,19.5400009155273,-16.4,10.1,3.7,-21.4,-0.3,173.9,-15.8405,11.1168,4.9469,0.902606,-10.688,-0.3531019999999999,-22.2451,0.0986823999999999,166.265,0.0947462,-0.00204997,0.351688,242.2,6.4,52.1701,4.42721,0.2,0.990699,223.591,4.46182,139.085,25.0827,193.731,0.940539,0.0721453,239.803,4.767469999999999,4.29933,-9.02030944824219,22.0009689331055,35.0,22.0,-588183.0,-7506.54,pp-riro,4,0,-1,-1
1570537634.7,2019-10-08,14:27:14.700,15.0,10.0,19.0300006866455,-16.4,9.7,3.8,-22.0,0.2,175.3,-15.4756,9.76716,3.46282,-2.68969,-8.05906,-0.289157,-22.6027,1.60243,171.80700000000002,-0.080429,0.0150036,0.212959,242.2,6.4,52.1701,4.42721,0.2,1.03558,237.749,4.46175,140.02,23.1827,193.331,0.937544,0.0865568999999999,239.833,4.78064,4.2984800000000005,-7.06605529785156,22.0009689331055,35.0,22.0,-588043.0,2676.51,pp-riro,4,0,-1,-1
1570537634.8,2019-10-08,14:27:14.800,15.0,10.0,18.8899993896484,-16.1,9.5,3.6,-22.3,0.5,176.6,-15.5818,9.49593,3.6012,-3.57895,-3.9709,3.01376,-22.9315,1.87218,172.753,-0.128132,-0.0143271,0.44519,242.2,6.4,52.1701,4.42721,0.0,0.996794,227.46,4.46169,140.89600000000002,21.6626,192.931,0.934455,0.0981481999999999,239.882,4.79261,4.29371,-4.95818328857422,22.0009689331055,35.0,22.0,-587641.0,2676.51,pp-riro,4,0,-1,-1
1570537634.9,2019-10-08,14:27:14.900,15.0,9.0,18.6499996185303,-15.8,9.4,3.5,-23.0,1.2,177.0,-15.4183,9.0336,3.42939,0.4795609999999999,1.87466,-1.08757,-23.6272,2.61283,175.915,-0.122833,-0.152819,0.321611,242.2,6.4,52.1701,4.42721,0.0,0.975739,210.453,4.46162,141.77200000000002,20.5226,192.531,0.931124,0.106977,239.977,4.79827,4.28493,-2.8469009399414102,22.0009689331055,35.0,22.0,-587320.0,4060.91,pp-riro,4,0,-1,-1
1570537635.0,2019-10-08,14:27:15.000,15.0,9.0,18.6499996185303,-16.0,9.2,3.6,-23.9,1.6,176.5,-15.4183,9.0336,3.42939,0.4795609999999999,1.87466,-1.08757,-23.6272,2.61283,175.915,-0.122833,-0.152819,0.321611,242.2,6.4,52.1701,4.42721,0.0,0.952468,219.09,4.46155,142.619,18.6226,192.131,0.92819,0.120996,240.003,4.78417,4.28338,-0.7390365600585941,22.0009689331055,35.0,22.0,-587134.0,153.822,pp-riro,4,0,-1,-1
1570537635.1,2019-10-08,14:27:15.100,15.0,9.0,18.6499996185303,-16.0,9.2,4.1,-24.5,1.5,176.2,-15.4183,9.0336,3.42939,0.4795609999999999,1.87466,-1.08757,-23.6272,2.61283,175.915,-0.122833,-0.152819,0.321611,242.2,6.4,52.1701,4.42721,0.0,0.994024,220.913,4.46148,143.05700000000002,17.8626,191.831,0.926312,0.126685,239.966,4.7744,4.264469999999999,1.3642196655273402,22.0009689331055,35.0,22.0,-586911.0,4460.85,pp-riro,4,0,-1,-1
1570537635.2,2019-10-08,14:27:15.200,15.0,10.0,18.2199993133545,-15.5,9.7,4.6,-26.4,0.1,176.3,-15.5958,8.87412,3.4902800000000003,-5.07319,-6.07725,1.51499,-25.0711,2.23572,176.292,-0.0859378999999999,-0.1117119999999999,-0.0727414,244.6,6.5,52.1701,4.42721,0.0,0.959671,211.872,4.46143,144.401,15.2026,191.131,0.921127,0.14607,240.029,4.74555,4.20325,3.45567321777344,22.0009689331055,35.0,22.0,-586663.0,1445.93,pp-riro,4,0,-1,-1
1570537635.3,2019-10-08,14:27:15.300,15.0,10.0,18.2199993133545,-15.4,9.9,4.9,-26.9,0.1,175.8,-15.5958,8.87412,3.4902800000000003,-5.07319,-6.07725,1.51499,-25.0711,2.23572,176.292,-0.0859378999999999,-0.1117119999999999,-0.0727414,244.6,6.5,52.1701,4.42721,0.0,0.966874,211.69,4.46139,144.81,14.8226,190.831,0.919152,0.148996,240.013,4.736269999999999,4.18291,5.56757354736328,22.0009689331055,35.0,22.0,-586618.0,892.17,pp-riro,4,0,-1,-1
1570537635.4,2019-10-08,14:27:15.400,15.0,9.0,17.9300003051758,-15.0,10.1,5.7,-27.8,-1.0,174.1,-15.4268,9.46339,4.41018,1.54215,6.08176,6.55362,-27.7359,-0.192128,176.34900000000002,-0.4433539999999999,-0.0574606,-0.175353,244.6,6.5,52.1701,4.42721,0.0,0.964657,211.312,4.46135,145.774,13.3025,190.231,0.914943,0.160014,240.031,4.69226,4.133319999999999,7.67265319824219,22.0009689331055,35.0,22.0,-586315.0,1845.87,pp-riro,4,0,-1,-1
1570537635.5,2019-10-08,14:27:15.500,15.0,10.0,17.7800006866455,-14.7,10.5,6.4,-29.1,-2.7,172.2,-15.4268,9.46339,4.41018,1.54215,6.08176,6.55362,-27.7359,-0.192128,176.34900000000002,-0.4433539999999999,-0.0574606,-0.175353,244.6,6.5,52.1701,4.42721,0.0,0.956346,198.748,4.46132,146.708,11.7825,189.631,0.910773,0.170931,240.046,4.63928,4.083819999999999,9.79476928710938,22.0009689331055,35.0,22.0,-586104.0,2676.51,pp-riro,4,0,-1,-1
1570537635.6,2019-10-08,14:27:15.600,15.0,10.0,17.479999542236303,-13.7,11.3,7.3,-30.8,-5.9,168.6,-15.3959,10.0462,5.54046,-0.120816,0.0365689,7.798310000000001,-29.4808,-2.25347,174.382,-0.348575,-0.190444,-0.578132,244.6,6.5,52.1701,4.42721,0.0,0.941386,193.518,4.46128,148.227,9.8825,188.631,0.903694,0.184534,240.106,4.54485,3.992,11.8998565673828,22.0009689331055,35.0,22.0,-585925.0,3322.56,pp-riro,4,0,-1,-1
1570537635.7,2019-10-08,14:27:15.700,15.0,10.0,17.479999542236303,-13.5,11.7,7.7,-31.2,-7.3,167.1,-14.4217,11.6062,7.46873,3.97097,11.7254,11.1392,-32.4257,-9.65716,169.636,-0.346029,-0.0927617,-0.609271,244.6,6.5,52.1701,4.42721,0.0,0.924209,190.658,4.46125,148.782,9.1225,188.231,0.90101,0.189906,240.105,4.50514,3.95984,14.0032348632812,22.0009689331055,35.0,22.0,-585758.0,892.17,pp-riro,4,0,-1,-1
1570537635.8,2019-10-08,14:27:15.800,15.0,10.0,17.229999542236303,-12.8,12.3,8.7,-31.6,-10.1,164.0,-13.925,12.43,8.52576,5.96559,10.1674,9.10691,-33.2462,-12.9613,167.1,-0.139373,-0.2640409999999999,-0.599831,244.6,6.5,52.1701,4.42721,-0.2,0.933075,191.849,4.46121,149.892,7.60248,187.431,0.895601,0.200503,240.116,4.42469,3.88712,16.1134338378906,22.0009689331055,35.0,22.0,-585640.0,1507.46,pp-riro,4,0,-1,-1
1570537635.9,2019-10-08,14:27:15.900,15.0,10.0,16.9699993133545,-11.9,13.0,9.5,-31.8,-13.1,160.1,-13.6219,12.8507,9.07123,6.417999999999999,6.31803,9.86182,-33.3993,-14.605,165.625,-0.0234327,-0.238481,-0.7888430000000001,244.6,6.5,52.1701,4.42721,-0.2,0.929196,189.11900000000003,4.46117,151.119,6.46249,186.531,0.8894489999999999,0.208477,240.151,4.33377,3.81255,17.165969848632802,22.0009689331055,35.0,22.0,-585413.0,1476.7,pp-riro,4,0,-1,-1
1570537636.0,2019-10-08,14:27:16.000,15.0,10.0,16.379999160766598,-10.8,13.8,10.4,-32.2,-16.6,155.8,-13.1955,13.252,9.54546,9.49247,2.59593,10.4616,-33.6371,-16.6341,164.019,-0.0628802,-0.29441,-0.969281,244.6,6.5,52.1701,4.42721,-0.2,0.923101,187.261,4.46114,152.346,4.942480000000001,185.631,0.883309,0.21882,240.193,4.23117,3.72616,19.2880859375,22.0009689331055,35.0,22.0,-585244.0,1692.05,pp-riro,4,0,-1,-1
1570537636.1,2019-10-08,14:27:16.100,15.0,10.0,16.379999160766598,-9.8,14.5,11.5,-31.9,-20.1,151.2,-12.2341,14.1758,10.5626,9.92175,7.284160000000001,8.54216,-33.924,-20.9511,160.452,-0.1550079999999999,-0.406072,-0.737422,244.6,6.5,52.1701,4.42721,-0.2,0.920885,186.689,4.4611,153.689,4.1825,184.531,0.8761540000000001,0.2240619999999999,240.187,4.12971,3.649880000000001,21.3982849121094,22.0009689331055,35.0,22.0,-585174.0,1384.4,pp-riro,4,0,-1,-1
1570537636.2,2019-10-08,14:27:16.200,15.0,10.0,16.2199993133545,-8.4,15.2,12.3,-31.1,-23.7,146.3,-11.1349,15.1674,11.7792,8.34095,4.30354,9.90644,-33.902,-25.283,156.905,0.0958451,-0.233068,-0.962136,246.0,6.2,52.1701,4.42721,-0.2,0.923655,187.733,4.46106,155.091,3.42252,183.431,0.868801,0.229267,240.233,4.02492,3.5645,23.5016555786133,22.0009689331055,35.0,22.0,-585053.0,1199.82,pp-riro,4,0,-1,-1
1570537636.3,2019-10-08,14:27:16.300,15.0,11.0,16.2199993133545,-6.8,15.9,13.2,-29.5,-27.1,140.5,-8.10345,16.9624,13.7845,14.4202,7.89421,6.6985600000000005,-32.8713,-33.3498,147.27200000000002,-0.0939753999999999,-0.311589,-1.2691,246.0,6.2,52.1701,4.42721,-0.2,0.928088,191.666,4.46101,156.639,2.66255,182.131,0.8604350000000001,0.234378,240.239,3.91214,3.47258,25.6118545532227,22.0009689331055,35.0,22.0,-584853.0,1292.11,pp-riro,4,0,-1,-1
1570537636.4,2019-10-08,14:27:16.400,15.0,11.0,16.270000457763697,-5.2,16.4,14.1,-27.1,-30.6,133.8,-7.4456,17.2924,14.2803,5.61118,11.0911,6.82998,-32.3019,-35.9944,144.306,-1.03821,-0.393451,-1.2153,246.0,6.2,52.1701,4.42721,-0.2,0.936953,198.154,4.46098,158.187,1.90257,180.931,0.852331,0.239363,240.33900000000003,3.78925,3.38666,27.7220458984375,22.0009689331055,35.0,22.0,-584761.0,738.3480000000001,pp-riro,4,0,-1,-1
1570537636.5,2019-10-08,14:27:16.500,15.0,11.0,16.4300003051758,-3.4,16.7,14.9,-24.1,-34.0,127.1,-6.508430000000001,17.6183,14.8809,17.4175,6.71863,12.0997,-31.4763,-38.44,141.674,-0.369668,-0.176118,-0.8616879999999999,246.0,6.2,52.1701,4.42721,-0.2,0.945265,200.24,4.4609,159.764,1.1426,179.53099999999998,0.8435790000000001,0.244337,240.328,3.67085,3.29769,29.7862548828125,22.0009689331055,35.0,22.0,-584718.0,830.6410000000001,pp-riro,4,0,-1,-1
1570537636.6,2019-10-08,14:27:16.600,15.0,11.0,16.4300003051758,-1.4,17.0,15.4,-20.1,-37.1,118.4,-4.50778,18.1963,15.8311,23.6486,7.58695,6.997389999999999,-29.3897,-43.1161,135.734,-0.273767,-0.1032319999999999,-1.24583,246.0,6.2,52.1701,4.42721,-0.2,0.947481,197.537,4.46089,161.458,1.14266,178.03099999999998,0.8341649999999999,0.244426,240.344,3.53616,3.20779,31.5200500488281,22.0009689331055,35.0,22.0,-584522.0,2368.87,pp-riro,4,0,-1,-1
1570537636.7,2019-10-08,14:27:16.700,15.0,12.0,16.5900001525879,0.4,17.0,16.0,-15.6,-39.4,109.7,-3.5247300000000004,18.5102,16.2247,25.2203,7.322830000000001,2.96672,-27.4643,-44.8001,131.64600000000002,-0.3763,-0.1118329999999999,-1.09201,246.0,6.2,52.1701,4.42721,-0.2,0.93917,200.105,4.46084,163.094,0.7627,176.63099999999997,0.8252200000000001,0.2468699999999999,240.414,3.4087300000000003,3.12787,32.9132232666016,22.0009689331055,35.0,22.0,-584294.0,738.3480000000001,pp-riro,4,0,-1,-1
1570537636.8,2019-10-08,14:27:16.800,15.0,13.0,16.6399993896484,2.4,17.0,16.4,-9.7,-41.4,100.1,-0.152603,18.9449,17.1368,19.787,3.14659,7.61181,-20.6052,-50.3593,117.613,-0.2876329999999999,-0.0647848,-0.867843,246.0,6.2,52.1701,4.42721,-0.5,0.949697,203.999,4.4608,164.75799999999998,1.14277,175.03099999999998,0.8156100000000001,0.2446539999999999,240.38,3.27872,3.04532,33.9453277587891,22.0009689331055,23.0044822692871,22.0,-584258.0,707.5830000000001,pp-riro,4,0,-1,-1
1570537636.9,2019-10-08,14:27:16.900,15.0,12.0,16.9099998474121,4.6,16.8,16.6,-2.9,-42.8,88.8,3.3662400000000003,19.0778,17.9342,25.8272,-5.95076,9.42484,-10.5808,-54.8882,100.142,-0.4908479999999999,-0.00987764,-1.41487,246.0,6.2,52.1701,4.42721,-0.5,0.961333,210.534,4.46076,166.482,1.1428200000000002,173.43099999999998,0.805829,0.244747,240.408,3.13126,2.9541,34.616363525390604,22.0009689331055,23.0044822692871,22.0,-584097.0,1784.34,pp-ro,1,1,-1,-1
1570537637.0,2019-10-08,14:27:17.000,15.0,13.0,16.9599990844727,6.7,16.3,16.6,4.0,-43.0,77.8,5.92197,18.7454,18.0192,24.0694,-5.45409,0.4881399999999999,-1.03954,-56.1495,86.0855,-0.389144,-0.147191,-1.32292,246.0,6.2,52.1701,4.42721,-0.5,0.967428,215.186,4.46071,168.11700000000002,1.9029,171.831,0.796291,0.240336,240.402,2.9946,2.8690900000000004,34.939971923828104,22.0009689331055,23.0044822692871,22.0,-583982.0,1076.76,pp-ro,1,1,-1,-1
1570537637.1,2019-10-08,14:27:17.100,15.0,13.0,17.0599994659424,8.8,15.4,16.4,10.9,-42.5,67.1,8.47635,17.9639,17.9355,27.8385,-8.65976,-2.59715,8.66052,-56.3475,71.4492,-0.361329,-0.0888095,-1.23904,246.0,6.2,52.1701,4.42721,-0.5,0.979618,218.974,4.46067,169.665,2.66297,170.231,0.7870020000000001,0.236025,240.358,2.86175,2.77936,34.9416656494141,22.0009689331055,23.0044822692871,22.0,-583827.0,1999.69,pp-ro,1,1,-1,-1
1570537637.2,2019-10-08,14:27:17.200,15.0,13.0,17.1100006103516,10.8,14.5,15.9,17.2,-40.8,56.9,10.8527,17.1143,17.4672,12.4562,-8.92544,-2.9875,17.3395,-54.5429,58.2779,-0.520731,0.333099,-1.23866,243.7,7.3,52.1701,4.42721,-0.5,0.979064,220.311,4.46062,171.213,3.4230400000000003,168.63099999999997,0.777701,0.231783,240.338,2.72938,2.68977,34.5533447265625,22.0009689331055,23.0044822692871,22.0,-583649.0,1476.7,pp-ro,1,1,-1,-1
1570537637.3,2019-10-08,14:27:17.300,15.0,13.0,17.2099990844727,12.5,13.6,15.3,22.7,-38.8,47.8,10.8527,17.1143,17.4672,12.4562,-8.92544,-2.9875,17.3395,-54.5429,58.2779,-0.520731,0.333099,-1.23866,243.7,7.3,52.1701,4.42721,-0.5,0.977955,214.645,4.46054,172.673,4.56312,167.13099999999997,0.7689159999999999,0.225431,240.353,2.60862,2.61086,33.793746948242195,22.0009689331055,23.0044822692871,22.0,-583454.0,2245.81,pp-ro,1,1,-1,-1
1570537637.4,2019-10-08,14:27:17.400,15.0,13.0,17.3099994659424,14.1,12.6,14.6,27.2,-36.1,39.4,13.1213,16.0347,16.7703,18.4357,-6.4815,-0.184309,24.4541,-51.6492,46.3427,-0.179247,-0.00362067,-1.38006,243.7,7.3,52.1701,4.42721,-0.5,0.964657,213.406,4.460459999999999,174.017,6.08321,165.731,0.7607109999999999,0.216986,240.387,2.49035,2.53315,32.6867065429688,22.0009689331055,23.0044822692871,22.0,-583209.0,2338.1,pp-ro,1,1,-1,-1
1570537637.5,2019-10-08,14:27:17.500,15.0,14.0,17.4599990844727,15.3,11.7,13.9,30.8,-32.6,31.9,15.8835,14.4032,15.4385,14.0604,-1.46292,-11.2384,32.197,-46.1773,31.7993,-0.50495,0.288337,-1.6025200000000002,243.7,7.3,52.1701,4.42721,-0.5,0.974631,220.78,4.460380000000001,175.273,7.22328,164.331,0.752768,0.2108199999999999,240.36900000000003,2.37115,2.46844,31.2185974121094,22.0009689331055,22.0416793823242,22.0,-583118.0,553.761,pp-ro,1,1,-1,-1
1570537637.6,2019-10-08,14:27:17.600,15.0,14.0,17.659999847412102,16.7,10.8,13.0,34.5,-28.9,24.8,17.4168,13.1668,14.5495,20.108,-8.26326,-4.47043,35.802,-41.7242,23.7858,-0.736532,0.0671817,-1.52051,243.7,7.3,52.1701,4.42721,-0.5,0.991253,224.993,4.4603,176.44099999999997,9.12337,163.131,0.7455579999999999,0.200424,240.471,2.25486,2.39588,29.392822265625,22.0009689331055,20.820894241333,22.0,-582872.0,2338.1,pp-ro,1,1,-1,-1
1570537637.7,2019-10-08,14:27:17.700,15.0,14.0,17.659999847412102,17.7,9.9,12.0,37.2,-25.2,18.5,18.9064,12.0979,13.4705,11.0749,-6.81571,-12.1785,38.6388,-36.7649,16.9087,-0.139773,-0.00579553,-1.4241,243.7,7.3,52.1701,4.42721,-0.5,0.991807,232.521,4.46023,177.58,10.2634,162.031,0.7388170000000001,0.194432,240.612,2.14304,2.32965,27.3388366699219,22.0009689331055,19.7441062927246,22.0,-582693.0,1353.64,pp-ro,1,1,-1,-1
1570537637.8,2019-10-08,14:27:17.800,15.0,14.0,17.7999992370605,19.0,8.6,10.9,39.4,-21.7,12.9,20.1196,10.7121,12.3605,0.98646,-13.6791,-9.82502,40.8206,-32.1878,10.7471,-0.5509569999999999,0.110041,-1.25634,243.7,7.3,52.1701,4.42721,-0.7,1.00234,238.832,4.46015,178.602,12.1635,160.931,0.732251,0.184243,240.719,2.04315,2.2458,25.4006652832031,22.0009689331055,18.2890701293945,22.0,-582660.0,615.29,pp-ro,1,1,-1,-1
1570537637.9,2019-10-08,14:27:17.900,15.0,12.0,18.1900005340576,20.0,7.6,9.7,41.3,-18.1,8.7,20.1196,10.7121,12.3605,0.98646,-13.6791,-9.82502,40.8206,-32.1878,10.7471,-0.5509569999999999,0.110041,-1.25634,243.7,7.3,52.1701,4.42721,-0.7,1.03004,248.246,4.46007,179.56599999999997,14.0636,159.931,0.72611,0.1741599999999999,240.873,1.95688,2.17382,23.6191711425781,22.0009689331055,17.063196182251,22.0,-582562.0,1568.99,pp-ro,1,1,-1,-1
1570537638.0,2019-10-08,14:27:18.000,15.0,12.0,18.1900005340576,20.6,6.6,8.6,43.0,-14.7,4.5,20.6838,9.9165,11.7504,3.86773,-3.88232,-7.82303,41.7096,-30.0909,7.86648,-0.246996,0.0165544,-0.895027,243.7,7.3,52.1701,4.42721,-0.7,1.03281,250.86900000000003,4.45999,180.354,15.9637,159.031,0.7207180000000001,0.164115,240.984,1.87232,2.11254,21.9262542724609,22.0009689331055,16.0282764434814,22.0,-582333.0,2276.57,pp-ro,1,1,-1,-1
1570537638.1,2019-10-08,14:27:18.100,15.0,11.0,18.4300003051758,21.3,5.6,7.5,44.4,-11.4,1.1,22.6285,7.434130000000001,9.1831,0.297759,-16.1676,-13.6757,43.7319,-21.029,-0.416805,-0.0936576,0.147307,-0.8414729999999999,243.7,7.3,52.1701,4.42721,-0.7,1.03336,252.139,4.45991,181.084,18.2437,158.131,0.715336,0.152068,241.101,1.79888,2.04986,20.3116760253906,22.0009689331055,14.9664735794067,22.0,-582139.0,1845.87,pp-ro,1,1,-1,-1
1570537638.2,2019-10-08,14:27:18.200,15.0,11.0,18.520000457763697,21.4,4.7,6.4,45.8,-8.3,-1.8,22.6285,7.434130000000001,9.1831,0.297759,-16.1676,-13.6757,43.7319,-21.029,-0.416805,-0.0936576,0.147307,-0.8414729999999999,242.7,7.1,52.1701,4.42721,-0.7,1.04001,254.519,4.45985,181.727,20.5238,157.431,0.710751,0.1400819999999999,241.31,1.73327,1.99894,18.8026885986328,22.0009689331055,14.1157293319702,22.0,-581819.0,2461.16,pp-ro,1,1,-1,-1
1570537638.3,2019-10-08,14:27:18.300,15.0,10.0,18.5699996948242,21.7,3.7,5.4,47.0,-5.2,-4.9,23.3426,5.13172,6.753239999999999,-1.7956599999999998,-11.5743,-11.3066,45.6398,-13.1784,-6.84169,0.00197919,0.0432615,-0.795343,242.7,7.1,52.1701,4.42721,-0.7,1.04112,258.638,4.45977,182.34,22.4239,156.731,0.706308,0.13025,241.486,1.66373,1.94212,17.3039245605469,22.0009689331055,13.1569194793701,22.0,-581614.0,1815.1,pp-ro,1,1,-1,-1
1570537638.4,2019-10-08,14:27:18.400,15.0,10.0,18.5699996948242,21.8,2.9,4.6,48.3,-2.2,-7.0,23.5297,4.07501,5.5883,2.98657,-7.8554,-3.07297,47.0401,-9.73627,-9.37621,0.259515,0.152006,-0.697838,242.7,7.1,52.1701,4.42721,-0.7,1.04888,260.505,4.45971,182.778,25.084,156.131,0.702331,0.116263,241.69,1.60929,1.90162,15.6041946411133,22.0009689331055,12.5033569335938,22.0,-581542.0,1353.64,pp-ro,1,1,-1,-1
1570537638.5,2019-10-08,14:27:18.500,15.0,11.0,18.520000457763697,22.0,2.5,4.2,49.4,0.6,-9.3,23.6967,2.69935,4.16442,3.57432,-9.10865,-5.43013,48.2783,-4.14999,-12.3206,-0.0721472,0.115999,-0.856583,242.7,7.1,52.1701,4.42721,-0.7,1.05719,264.095,4.45964,183.187,27.364,155.531,0.698493,0.104469,241.86,1.55375,1.8827,14.456268310546902,22.0009689331055,12.291540145874,22.0,-581285.0,3137.98,pp-ro,1,1,-1,-1
1570537638.6,2019-10-08,14:27:18.600,15.0,10.0,18.4300003051758,22.3,1.3,3.1,50.8,3.2,-11.8,23.9607,1.7583099999999998,3.2924300000000004,-2.52708,-10.9106,-10.9155,48.984,-0.8456370000000001,-14.3134,0.180002,-0.0148627999999999,-0.525018,242.7,7.1,52.1701,4.42721,-0.7,1.09376,291.506,4.459569999999999,183.479,29.2641,155.031,0.6953729999999999,0.0946549999999999,241.983,1.49731,1.81572,13.3866958618164,22.0009689331055,11.095531463623,22.0,-581150.0,-153.822,pp-ro,1,1,-1,-1
1570537638.7,2019-10-08,14:27:18.700,15.0,10.0,18.3799991607666,22.7,0.3,2.6,52.0,5.3,-14.4,24.1917,0.6424770000000001,2.64348,-1.03771,-7.233739999999999,-10.5192,49.8262,1.68757,-17.0131,0.261415,-0.0232338,-0.7041470000000001,242.7,7.1,52.1701,4.42721,-0.7,1.13254,311.01,4.4595,183.683,31.9242,154.631,0.692415,0.0808054999999999,242.218,1.44908,1.77717,12.4704055786133,22.0009689331055,10.4681186676025,22.0,-580982.0,2307.34,pp-ro,1,1,-1,-1
1570537638.8,2019-10-08,14:27:18.800,15.0,12.0,18.3799991607666,22.9,-0.4,1.8,53.3,7.4,-16.6,24.1917,0.6424770000000001,2.64348,-1.03771,-7.233739999999999,-10.5192,49.8262,1.68757,-17.0131,0.261415,-0.0232338,-0.7041470000000001,242.7,7.1,52.1701,4.42721,-0.8,1.15305,322.878,4.45943,183.741,33.8242,154.231,0.6901109999999999,0.0709067,242.265,1.40284,1.7364400000000002,11.567741394043,22.0009689331055,9.77439212799072,22.0,-580778.0,1907.4,pp-ro,1,1,-1,-1
1570537638.9,2019-10-08,14:27:18.900,15.0,12.0,18.520000457763697,23.1,-1.5,1.3,53.7,9.0,-18.8,24.1917,0.6424770000000001,2.64348,-1.03771,-7.233739999999999,-10.5192,49.8262,1.68757,-17.0131,0.261415,-0.0232338,-0.7041470000000001,242.7,7.1,52.1701,4.42721,-0.8,1.16413,329.201,4.45937,183.741,36.4843,154.032,0.688164,0.057009,242.524,1.3659,1.69765,10.7945175170898,22.0009689331055,9.1137170791626,22.0,-580666.0,2184.28,pp-ro,1,1,-1,-1
1570537639.0,2019-10-08,14:27:19.000,15.0,12.0,18.7099990844727,23.1,-2.6,0.6,54.4,9.6,-21.1,24.5409,-1.88169,0.943769,-5.40137,-12.1307,-8.79556,51.6962,7.71214,-22.2346,0.166194,-0.182276,-0.376199,242.7,7.1,52.1701,4.42721,-0.8,1.18795,344.464,4.4593,183.712,37.6243,153.732,0.686693,0.0510834,242.485,1.33618,1.64785,10.4198226928711,22.0009689331055,8.20488452911377,22.0,-580398.0,2553.45,pp-ro,1,1,-1,-1
1570537639.1,2019-10-08,14:27:19.100,15.0,12.0,18.7099990844727,23.0,-3.1,0.2,55.0,10.5,-22.1,24.5426,-2.40735,0.59223,2.94391,-14.0132,-8.2773,52.0615,8.47284,-23.5246,0.0250567999999999,-0.0580793,-0.378112,242.7,7.1,52.1701,4.42721,-0.8,1.21122,354.051,4.459230000000001,183.508,39.9043,153.43200000000002,0.685028,0.0390386,242.505,1.32082,1.62824,9.78285217285156,22.0009689331055,7.92742395401001,22.0,-580134.0,3045.68,pp-ro,1,1,-1,-1
1570537639.2,2019-10-08,14:27:19.200,15.0,11.0,18.8500003814697,22.6,-4.0,-0.3,55.2,11.3,-24.0,23.9895,-3.89884,-0.555275,-0.244121,-2.2551,-3.62292,52.5096,10.5353,-26.1201,0.0870673,-0.0991691,-0.488733,238.5,6.8,52.1701,4.42721,-0.8,1.21898,349.935,4.45915,183.215,42.5644,153.332,0.6839310000000001,0.0249657,242.673,1.29811,1.59422,8.84782409667969,22.0009689331055,7.3466496467590305,22.0,-579730.0,4768.5,pp-ro,1,1,-1,-1
1570537639.3,2019-10-08,14:27:19.300,15.0,9.0,19.0400009155273,22.3,-4.6,-0.8,55.3,12.1,-25.7,23.6038,-4.65891,-1.18306,-5.25167,-4.83507,-12.4437,52.7047,11.5516,-27.7153,0.21639,-0.0669046,-0.205055,238.5,6.8,52.1701,4.42721,-0.8,1.1901700000000002,342.63199999999995,4.45904,182.836,44.8444,153.332,0.6835140000000001,0.0128212999999999,242.797,1.27642,1.5669799999999998,8.23298645019531,22.0009689331055,6.86712741851807,22.0,-579206.0,4430.09,pp-ro,1,1,-1,-1
1570537639.4,2019-10-08,14:27:19.400,15.0,10.0,19.2600002288818,21.8,-5.0,-1.3,55.3,13.1,-27.9,23.178,-5.19645,-1.5865200000000002,-2.99317,-9.14094,-10.1974,52.5053,12.9485,-29.6065,-0.150489,-0.204836,-0.469789,238.5,6.8,52.1701,4.42721,-0.8,1.19626,343.289,4.4589300000000005,182.397,47.1245,153.43200000000002,0.683491,0.000621505,242.963,1.24656,1.54301,7.64710998535156,22.0025119781494,6.43859767913818,22.0,-578889.0,3507.15,pp-ro,1,1,-1,-1
1570537639.5,2019-10-08,14:27:19.500,15.0,10.0,19.5400009155273,21.2,-5.7,-1.9,55.0,14.3,-29.3,22.8614,-5.46726,-1.79893,-8.38466,-2.94427,-6.55814,52.4809,13.6102,-30.6753,0.0779419,-0.107551,-0.416026,238.5,6.8,52.1701,4.42721,-0.8,1.19793,344.13300000000004,4.45883,181.901,49.4045,153.532,0.6835399999999999,-0.0116399,243.106,1.22306,1.50539,7.0816650390625,22.0025119781494,5.7409234046936,22.0,-578358.0,3045.68,pp-ro,1,1,-1,-1
1570537639.6,2019-10-08,14:27:19.600,15.0,10.0,19.8899993896484,20.6,-6.2,-2.1,54.1,15.7,-30.9,22.2817,-6.15979,-2.3214,-8.0725,-5.28607,-6.42721,52.036,15.3089,-31.9227,0.0989776999999999,-0.037167,-0.268571,238.5,6.8,52.1701,4.42721,-0.8,1.1990299999999998,337.04400000000004,4.45872,181.317,51.3045,153.632,0.684002,-0.0220742,243.127,1.19361,1.48485,6.46513366699219,22.0025119781494,5.356518745422361,22.0,-578149.0,4060.91,pp-ro,1,1,-1,-1
1570537639.7,2019-10-08,14:27:19.700,15.0,9.0,20.0699996948242,20.2,-6.3,-2.6,53.7,16.6,-32.4,21.7848,-6.53842,-2.58255,-5.5804800000000006,-5.16057,-8.0114,51.4022,16.0483,-33.6387,-0.296727,-0.0851253999999999,-0.193944,238.5,6.8,52.1701,4.42721,-0.8,1.16136,320.714,4.45861,180.732,53.5846,153.832,0.684449,-0.0344468,243.31,1.17311,1.46705,6.19944000244141,22.0025119781494,5.04542112350464,22.0,-577549.0,5999.08,pp-ro,1,1,-1,-1
1570537639.8,2019-10-08,14:27:19.800,15.0,10.0,19.9400005340576,19.8,-6.9,-2.9,53.2,18.4,-34.5,21.4311,-6.65465,-3.01667,0.149994,-5.36616,-2.77173,50.7326,17.4464,-35.1004,-0.0222007,0.0406561,-0.260092,238.5,6.8,52.1701,4.42721,-0.8,1.14806,323.808,4.4585,179.798,57.0046,154.232,0.685438,-0.0531311,243.648,1.13835,1.44641,5.64762115478516,22.0009689331055,4.695076942443849,22.0,-577216.0,2368.87,pp-ro,1,1,-1,-1
1570537639.9,2019-10-08,14:27:19.900,15.0,10.0,19.9400005340576,19.7,-7.1,-2.8,52.9,18.9,-35.2,21.313,-6.866789999999999,-3.11858,0.865224,-9.26733,-0.22814,50.4856,18.1983,-35.5774,0.0693163,0.244693,-0.3313239999999999,238.5,6.8,52.1701,4.42721,-0.8,1.19682,345.379,4.4583900000000005,179.447,57.7646,154.332,0.686022,-0.0574268,243.632,1.1269,1.44607,5.20820617675781,22.0009689331055,4.68020248413086,22.0,-576905.0,2768.8,pp-ro,1,1,-1,-1
1570537640.0,2019-10-08,14:27:20.000,15.0,11.0,19.8899993896484,19.0,-7.3,-3.0,52.2,19.7,-36.8,20.7401,-7.71842,-3.10668,-5.72858,-5.28005,0.455387,49.7162,19.8413,-37.8066,0.0624995999999999,-0.0504176999999999,-0.4330279999999999,238.5,6.8,52.1701,4.42721,-0.8,1.19294,331.566,4.45827,178.717,60.0447,154.532,0.686608,-0.0700108,243.773,1.10689,1.43055,4.89823913574219,22.0025119781494,4.43127489089966,22.0,-576473.0,5260.73,pp-ro,1,1,-1,-1
1570537640.1,2019-10-08,14:27:20.100,15.0,10.0,20.1100006103516,18.8,-7.4,-3.5,51.9,20.6,-37.8,20.1466,-7.691110000000001,-3.3876800000000005,-1.7789,-0.24013,-3.74649,49.0104,20.8041,-39.3283,0.147449,-0.0656293,-0.229613,238.5,6.8,52.1701,4.42721,-0.8,1.15249,320.971,4.45817,177.987,61.5647,154.832,0.688082,-0.0787925,243.808,1.08989,1.41155,4.705780029296879,22.0025119781494,4.02063274383545,22.0,-575884.0,5353.02,pp-ro,1,1,-1,-1
1570537640.2,2019-10-08,14:27:20.200,15.0,9.0,20.159999847412102,18.6,-7.8,-3.8,51.6,21.1,-39.1,19.7065,-8.36611,-3.90257,-4.23197,0.83915,-2.38804,48.5679,21.9525,-40.8003,0.2082119999999999,-0.0643019,-0.108661,246.2,6.8,52.1701,4.42721,-0.8,1.1475,326.105,4.45803,177.28599999999997,63.8447,155.132,0.6887770000000001,-0.0913017,244.074,1.0771,1.3943,4.39411163330078,22.0009689331055,3.74410653114319,22.0,-575742.0,2614.98,pp-ro,1,1,-1,-1
1570537640.3,2019-10-08,14:27:20.300,15.0,9.0,20.159999847412102,18.3,-8.3,-3.8,51.3,21.3,-40.5,19.7065,-8.36611,-3.90257,-4.23197,0.83915,-2.38804,48.5679,21.9525,-40.8003,0.2082119999999999,-0.0643019,-0.108661,246.2,6.8,52.1701,4.42721,-0.8,1.19239,348.06,4.45789,176.43900000000002,65.7447,155.532,0.6904100000000001,-0.102189,244.22,1.06595,1.3828,4.101165771484379,22.0009689331055,3.50011849403381,22.0,-575682.0,430.703,pp-ro,1,1,-1,-1
1570537640.4,2019-10-08,14:27:20.400,15.0,10.0,20.2000007629395,17.8,-8.4,-4.1,51.2,21.7,-41.6,19.7065,-8.36611,-3.90257,-4.23197,0.83915,-2.38804,48.5679,21.9525,-40.8003,0.2082119999999999,-0.0643019,-0.108661,246.2,6.8,52.1701,4.42721,-0.8,1.22175,350.00199999999995,4.45776,175.533,67.6447,155.832,0.691809,-0.113202,244.277,1.05571,1.36614,3.75713348388672,22.0009689331055,3.17798519134521,22.0,-575335.0,4676.2,pp-ro,1,1,-1,-1
1570537640.5,2019-10-08,14:27:20.500,15.0,10.0,20.3799991607666,17.5,-8.4,-4.2,51.5,22.0,-42.6,18.8036,-8.97114,-4.00611,-3.81517,1.12755,1.48312,48.1213,22.5806,-43.5734,-0.0204047,-0.1058279999999999,-0.356695,246.2,6.8,52.1701,4.42721,-0.8,1.18518,336.696,4.45763,174.68599999999998,69.1647,156.232,0.6936859999999999,-0.122241,244.351,1.04657,1.36195,3.51187896728516,22.0009689331055,3.0439455509185804,22.0,-574774.0,4860.79,pp-ro,1,1,-1,-1
1570537640.6,2019-10-08,14:27:20.600,15.0,10.0,20.5499992370605,17.0,-8.7,-4.1,51.7,22.4,-43.7,18.4131,-9.13848,-4.14495,-0.8817659999999999,-3.90409,-2.40707,47.9908,23.2346,-44.4883,-0.109838,-0.0902325,-0.319836,246.2,6.8,52.1701,4.42721,-0.8,1.17244,331.575,4.4575,173.81,71.4448,156.632,0.694837,-0.135173,244.638,1.03755,1.35542,3.1899871826171897,22.0009689331055,2.98308634757996,22.0,-574182.0,3845.56,pp-ro,1,1,-1,-1
1570537640.7,2019-10-08,14:27:20.700,15.0,10.0,20.6399993896484,16.7,-8.8,-4.2,51.7,22.4,-44.9,17.7968,-9.46645,-4.1062,5.98474,-0.4217079999999999,-7.75696,47.9561,23.5716,-46.5427,-0.118897,-0.164369,-0.178606,246.2,6.8,52.1701,4.42721,-0.8,1.16911,322.573,4.45737,172.90400000000002,72.9648,157.032,0.696751,-0.144301,244.702,1.02999,1.34818,2.9396209716796897,22.0009689331055,2.79147362709045,22.0,-573830.0,3753.27,pp-ro,1,1,-1,-1
1570537640.8,2019-10-08,14:27:20.800,15.0,10.0,20.5499992370605,16.3,-8.8,-4.4,51.7,22.6,-45.8,17.7968,-9.46645,-4.1062,5.98474,-0.4217079999999999,-7.75696,47.9561,23.5716,-46.5427,-0.118897,-0.164369,-0.178606,246.2,6.8,52.1701,4.42721,-0.7,1.1464,318.588,4.4572400000000005,172.028,74.8648,157.43200000000002,0.698153,-0.155382,244.915,1.02452,1.33799,2.82210540771484,22.0009689331055,2.62348651885986,22.0,-573335.0,4799.26,pp-ro,1,1,-1,-1
1570537640.9,2019-10-08,14:27:20.900,15.0,10.0,20.4599990844727,16.0,-9.0,-4.3,52.0,23.1,-46.4,17.5926,-9.40931,-4.20087,-0.6955720000000001,3.3132300000000003,-8.39184,48.2454,23.7229,-46.8427,0.05762,-0.00104423,-0.0270781,246.2,6.8,52.1701,4.42721,-0.7,1.14307,321.557,4.4571,171.06400000000002,76.3848,157.832,0.700109,-0.164678,244.967,1.01767,1.3356,2.72161865234375,22.0009689331055,2.5320312976837203,22.0,-573212.0,2338.1,pp-ro,1,1,-1,-1
1570537641.0,2019-10-08,14:27:21.000,15.0,10.0,20.4599990844727,15.5,-9.3,-4.5,51.7,23.0,-47.2,16.6433,-9.6906,-4.25232,-2.16699,-0.906617,3.96643,48.4214,24.3912,-48.4175,0.0746943,-0.0428623,-0.215574,246.2,6.8,52.1701,4.42721,-0.7,1.17743,326.671,4.45697,170.15900000000002,77.5248,158.332,0.702608,-0.172087,245.017,1.01468,1.31223,2.5189437866210898,22.0009689331055,1.92877948284149,22.0,-572843.0,4030.15,pp-ro,1,1,-1,-1
1570537641.1,2019-10-08,14:27:21.100,15.0,10.0,20.5100002288818,15.4,-9.5,-4.7,51.7,23.2,-47.5,16.6433,-9.6906,-4.25232,-2.16699,-0.906617,3.96643,48.4214,24.3912,-48.4175,0.0746943,-0.0428623,-0.215574,246.2,6.8,52.1701,4.42721,-0.7,1.16357,322.584,4.456840000000001,169.137,79.4248,158.732,0.704196,-0.183477,245.176,1.01631,1.30411,2.35714721679688,22.0009689331055,-35.0,22.0,-572549.0,5260.73,pp-ro,1,1,-1,-1
1570537641.2,2019-10-08,14:27:21.200,15.0,11.0,20.3799991607666,15.2,-9.7,-4.7,51.5,22.8,-48.3,16.0728,-9.94471,-4.52765,1.51839,-0.904549,-4.23281,48.2807,24.6345,-49.2073,0.0761866,-0.140106,-0.0298045,248.3,6.9,52.1701,4.42721,-0.7,1.15969,326.258,4.45671,168.173,80.9448,159.232,0.706324,-0.192909,245.335,1.01832,1.3000200000000002,2.08123779296875,22.0009689331055,-35.0,22.0,-572130.0,1968.93,pp-ro,1,1,-1,-1
1570537641.3,2019-10-08,14:27:21.300,15.0,11.0,20.25,15.1,-9.9,-4.6,51.6,22.6,-49.1,16.0728,-9.94471,-4.52765,1.51839,-0.904549,-4.23281,48.2807,24.6345,-49.2073,0.0761866,-0.140106,-0.0298045,248.3,6.9,52.1701,4.42721,-0.7,1.17798,335.787,4.456580000000001,167.15,82.8449,159.63299999999998,0.707788,-0.204337,245.53,1.01916,1.30384,1.47151184082031,22.0009689331055,-35.0,22.0,-571868.0,2430.39,pp-ro,1,1,-1,-1
1570537641.4,2019-10-08,14:27:21.400,15.0,11.0,20.1200008392334,15.1,-9.9,-4.5,51.4,22.4,-50.0,15.7549,-10.4534,-4.55121,2.20966,-2.40843,1.02833,48.1003,24.4297,-50.4836,-0.128125,-0.0778543,-0.147005,248.3,6.9,52.1701,4.42721,-0.7,1.18241,333.646,4.45645,166.157,83.9849,160.033,0.710026,-0.2120659999999999,245.504,1.01636,1.31294,0.507530212402344,22.0009689331055,-35.0,22.0,-571711.0,3107.21,pp-ro,1,1,-1,-1
1570537641.5,2019-10-08,14:27:21.500,15.0,10.0,20.0300006866455,15.2,-10.1,-4.4,51.4,22.1,-51.1,15.7549,-10.4534,-4.55121,2.20966,-2.40843,1.02833,48.1003,24.4297,-50.4836,-0.128125,-0.0778543,-0.147005,248.3,6.9,52.1701,4.42721,-0.7,1.1741,329.75800000000004,4.45633,165.077,85.8849,160.533,0.71182,-0.2236719999999999,245.758,1.015,1.32244,-0.8090133666992191,22.0009689331055,-35.0,22.0,-571270.0,4553.14,pp-ro,1,1,-1,-1
1570537641.6,2019-10-08,14:27:21.600,15.0,10.0,19.9500007629395,15.4,-10.2,-4.1,51.1,21.7,-51.8,15.718,-10.6032,-4.47725,5.14981,-1.37158,-0.12649,48.1594,24.4602,-50.9632,-0.0700813,-0.218669,-0.166813,248.3,6.9,52.1701,4.42721,-0.7,1.17743,330.728,4.4562,164.025,87.4049,160.933,0.713643,-0.233413,245.852,1.01821,1.34358,-2.4884796142578103,22.0009689331055,-35.0,22.0,-570844.0,2030.46,pp-ro,1,1,-1,-1
1570537641.7,2019-10-08,14:27:21.700,15.0,10.0,19.8600006103516,15.5,-10.2,-3.9,51.5,20.5,-52.2,15.7798,-10.789,-4.126,-0.487681,-2.898,6.81073,48.0434,24.3013,-52.1622,-0.0427188,0.0153048,0.0319995999999999,248.3,6.9,52.1701,4.42721,-0.7,1.17687,327.328,4.45607,162.944,88.9249,161.233,0.7151770000000001,-0.243251,245.875,1.0346799999999998,1.36053,-4.51612854003906,22.0009689331055,-35.0,22.0,-570608.0,4122.44,pp-ro,1,1,-1,-1
1570537641.8,2019-10-08,14:27:21.800,15.0,10.0,19.9500007629395,15.6,-10.1,-3.5,52.2,19.8,-51.8,15.7798,-10.789,-4.126,-0.487681,-2.898,6.81073,48.0434,24.3013,-52.1622,-0.0427188,0.0153048,0.0319995999999999,248.3,6.9,52.1701,4.4272,-0.6,1.14307,316.556,4.45595,161.864,90.4449,161.63299999999998,0.716968,-0.253112,245.978,1.05457,1.38782,-6.61887359619141,22.0014839172363,-35.0,22.0,-569957.0,3630.21,pp-ro,1,1,-1,-1
1570537641.9,2019-10-08,14:27:21.900,15.0,10.0,20.2600002288818,16.0,-10.2,-2.9,52.7,18.7,-51.3,15.7811,-10.7025,-3.66112,-2.25098,4.40825,3.60461,48.6922,23.9393,-52.0925,-0.191401,0.0637236,0.0198125999999999,248.3,6.9,52.1701,4.4272,-0.6,1.14861,310.91900000000004,4.45582,160.841,91.9649,161.933,0.718266,-0.262839,246.069,1.08051,1.42493,-8.72845458984375,22.0009689331055,-35.0,22.0,-569668.0,3414.86,pp-ro,1,1,-1,-1
1570537642.0,2019-10-08,14:27:22.000,15.0,10.0,20.2600002288818,16.4,-10.0,-2.2,53.8,16.8,-50.6,15.7811,-10.7025,-3.66112,-2.25098,4.40825,3.60461,48.6922,23.9393,-52.0925,-0.191401,0.0637236,0.0198125999999999,248.3,6.9,52.1701,4.4272,-0.6,1.12312,301.835,4.4557,159.79,93.8649,162.13299999999998,0.718763,-0.27443,246.233,1.12009,1.47406,-9.77982330322266,22.0009689331055,-35.0,22.0,-569210.0,4460.85,pp-ro,1,1,-1,-1
1570537642.1,2019-10-08,14:27:22.100,15.0,10.0,20.340000152587898,17.0,-9.6,-1.5,54.9,14.7,-49.1,16.2669,-10.3793,-2.2803400000000003,-0.2725869999999999,2.97891,4.43801,50.5266,21.6584,-50.1575,0.0938609,0.00288865,0.305618,248.3,6.9,52.1701,4.4272,-0.6,1.11149,291.164,4.45557,158.768,95.0049,162.333,0.720171,-0.282415,246.14,1.16936,1.52965,-11.8928146362305,22.0009689331055,-35.0,22.0,-568889.0,3414.86,pp-ro,1,1,-1,-1
1570537642.2,2019-10-08,14:27:22.200,15.0,10.0,20.3899993896484,17.6,-9.2,-0.3,56.1,12.1,-47.4,16.6311,-9.95858,-1.46652,5.693980000000001,4.22208,5.75283,51.9159,20.0182,-48.3184,-0.0994236999999999,0.1272059999999999,0.351017,249.0,7.1,52.1701,4.4272,-0.6,1.10595,289.23400000000004,4.45546,157.804,96.9049,162.433,0.720046,-0.2937869999999999,246.327,1.22993,1.605,-13.9921493530273,22.0009689331055,-35.0,22.0,-568684.0,4122.44,pp-ro,1,1,-1,-1
1570537642.3,2019-10-08,14:27:22.300,15.0,9.0,20.4699993133545,18.4,-8.7,0.8,57.6,8.7,-45.8,16.6311,-9.95858,-1.46652,5.693980000000001,4.22208,5.75283,51.9159,20.0182,-48.3184,-0.0994236999999999,0.1272059999999999,0.351017,249.0,7.1,52.1701,4.4272,-0.6,1.09764,293.894,4.45538,156.811,98.805,162.433,0.7196170000000001,-0.305246,246.448,1.29995,1.68,-16.1017227172852,22.0009689331055,-35.0,22.0,-568396.0,1907.4,pp-ro,1,1,-1,-1
1570537642.4,2019-10-08,14:27:22.400,15.0,10.0,20.5100002288818,19.1,-8.0,2.1,59.3,5.2,-43.8,16.6311,-9.95858,-1.46652,5.693980000000001,4.22208,5.75283,51.9159,20.0182,-48.3184,-0.0994236999999999,0.1272059999999999,0.351017,249.0,7.1,52.1701,4.4272,-0.6,1.12257,302.589,4.4553,155.964,100.705,162.333,0.71849,-0.316257,246.613,1.37616,1.7634599999999998,-18.2113037109375,22.0009689331055,-35.0,22.0,-568253.0,1599.75,pp-ro,1,1,-1,-1
1570537642.5,2019-10-08,14:27:22.500,15.0,9.0,20.6000003814697,19.9,-7.3,3.8,60.8,1.3,-41.5,18.8707,-7.559880000000001,3.56332,5.70499,5.5602,16.5813,58.0052,7.28633,-38.5895,0.289931,-0.0229963,0.829574,249.0,7.1,52.1701,4.4272,-0.6,1.13199,307.563,4.45522,155.14600000000002,102.605,162.033,0.7166279999999999,-0.327142,246.683,1.46139,1.85729,-20.3259963989258,22.0009689331055,-35.0,22.0,-567926.0,3722.5,pp-ro,1,1,-1,-1
1570537642.6,2019-10-08,14:27:22.600,15.0,10.0,20.6000003814697,20.5,-6.4,5.6,62.0,-3.4,-39.1,18.8707,-7.559880000000001,3.56332,5.70499,5.5602,16.5813,58.0052,7.28633,-38.5895,0.289931,-0.0229963,0.829574,249.0,7.1,52.1701,4.4272,-0.6,1.13199,311.495,4.45514,154.445,104.505,161.63299999999998,0.714145,-0.337634,246.779,1.55838,1.95375,-22.4458084106445,22.0009689331055,-35.0,22.0,-567670.0,2030.46,pp-ro,1,1,-1,-1
1570537642.7,2019-10-08,14:27:22.700,15.0,10.0,20.6000003814697,21.0,-5.0,7.5,63.4,-8.9,-36.3,18.8707,-7.559880000000001,3.56332,5.70499,5.5602,16.5813,58.0052,7.28633,-38.5895,0.289931,-0.0229963,0.829574,249.0,7.1,52.1701,4.4272,-0.6,1.14917,313.426,4.45506,153.773,106.405,161.033,0.710932,-0.347982,246.779,1.67074,2.06347,-24.5587997436523,22.0009689331055,-35.0,22.0,-567392.0,3568.68,pp-ro,1,1,-1,-1
1570537642.8,2019-10-08,14:27:22.800,15.0,10.0,20.729999542236303,21.0,-3.5,9.7,64.3,-14.9,-32.9,18.8707,-7.559880000000001,3.56332,5.70499,5.5602,16.5813,58.0052,7.28633,-38.5895,0.289931,-0.0229963,0.829574,249.0,7.1,52.1701,4.4272,-0.6,1.13698,313.21,4.45498,153.335,108.685,160.333,0.706278,-0.359245,247.044,1.797,2.18146,-26.666671752929695,22.0009689331055,-35.0,22.0,-567021.0,3322.56,pp-ro,1,1,-1,-1
1570537642.9,2019-10-08,14:27:22.900,15.0,11.0,20.770000457763697,20.9,-2.0,11.9,64.9,-21.7,-29.7,18.8707,-7.559880000000001,3.56332,5.70499,5.5602,16.5813,58.0052,7.28633,-38.5895,0.289931,-0.0229963,0.829574,249.0,7.1,52.1701,4.4272,-0.6,1.14695,314.438,4.4549,152.955,110.965,159.333,0.700521,-0.370129,247.175,1.93112,2.29385,-28.7813568115234,22.0009689331055,-35.0,22.0,-566737.0,3107.21,pp-ro,1,1,-1,-1
