time,date,time_of_day,airspeed_temperature,airspeed_angle_of_attack,airspeed_apparent_windspeed,kite_0_vx,kite_0_vy,kite_0_vz,kite_0_roll,kite_0_pitch,kite_0_yaw,kite_1_vx,kite_1_vy,kite_1_vz,kite_1_ax,kite_1_ay,kite_1_az,kite_1_roll,kite_1_pitch,kite_1_yaw,kite_1_roll_rate,kite_1_pitch_rate,kite_1_yaw_rate,ground_upwind_direction,ground_wind_velocity,ground_pos_latitude,ground_pos_longitude,ground_pos_altitude,ground_tether_reelout_speed,ground_tether_force,est_upwind_direction,kite_pos_east,kite_pos_north,kite_height,kite_elevation,kite_azimuth,kite_distance,kite_heading,kite_course,kite_actual_steering,kite_actual_depower,kite_set_steering,kite_set_depower,ground_mech_energy,ground_mech_power,flight_phase,flight_phase_index,phase,pattern,pattern_section
1570535933.2,2019-10-08,13:58:53.200,14.0,10.0,14.710000038147,13.6,-2.8,1.5,21.7,-5.7,-50.7,12.0253,-2.74546,2.18126,10.2621,12.6467,3.37637,23.685,9.98851,-49.9381,0.188596,0.0823899999999999,1.06877,263.3,9.2,52.1701,4.4272,6.1,-1.79634,121.577,4.53824,63.0009,-4.939780000000001,235.779,1.30893,0.252392,244.101,0.63981,1.32582,-34.970123291015604,22.0133266448975,-35.0,22.0,-1028900.0,9137.05,pp-riro,4,0,-1,-1
1570535933.3,2019-10-08,13:58:53.300,14.0,10.0,14.6499996185303,14.8,-1.4,1.6,23.9,-6.6,-44.9,12.9287,-1.2416,2.3164700000000003,8.23668,13.5536,-2.27482,25.8537,7.91105,-44.0872,0.25556,0.146914,0.909178,263.3,9.2,52.1701,4.4272,6.1,-1.70657,100.905,4.53838,62.738,-3.4197300000000004,235.779,1.31037,0.228528,244.007,0.770925,1.45452,-34.971832275390604,22.0009689331055,-35.0,22.0,-1028670.0,522.996,pp-riro,4,0,-1,-1
1570535933.4,2019-10-08,13:58:53.400,14.0,8.0,14.710000038147,15.6,0.0,2.2,26.4,-8.8,-40.0,14.3783,0.623324,2.88383,9.57893,9.11294,4.61189,29.564,5.00284,-36.0363,0.29524,0.0339616,1.01036,263.3,9.2,52.1701,4.4272,6.1,-1.7010299999999998,102.524,4.53852,62.6211,-2.27969,235.779,1.31103,0.210255,243.96400000000003,0.8844479999999999,1.57186,-34.971832275390604,21.9983940124512,-35.0,22.0,-1029060.0,-4399.32,pp-riro,4,0,-1,-1
1570535933.5,2019-10-08,13:58:53.500,14.0,7.0,14.6499996185303,16.3,1.3,2.9,28.2,-10.9,-35.6,14.808,1.28413,3.31353,7.460389999999999,14.0074,3.4745,30.4601,3.89099,-33.3029,0.0196374,0.0298863,0.981356,263.3,9.2,52.1701,4.4272,6.1,-1.6849599999999998,117.2,4.53866,62.6211,-0.379619,235.679,1.31109,0.17979,243.857,1.00167,1.6871200000000002,-34.973541259765604,21.9994239807129,-35.0,22.0,-1029140.0,522.996,pp-riro,4,0,-1,-1
1570535933.6,2019-10-08,13:58:53.600,14.0,7.0,14.5299997329712,16.7,3.0,3.5,29.8,-12.8,-30.9,15.3701,2.78729,3.8734,7.32995,17.5716,5.28235,32.4537,1.81895,-27.8181,0.135099,0.26011,0.965319,263.3,9.2,52.1701,4.4272,6.1,-1.58634,99.2018,4.5388,62.8255,1.14044,235.479,1.31003,0.155439,243.719,1.11748,1.81196,-34.9974365234375,21.9994239807129,-35.0,22.0,-1028730.0,1384.4,pp-riro,4,0,-1,-1
1570535933.7,2019-10-08,13:58:53.700,14.0,10.0,14.3400001525879,16.7,4.4,3.8,31.1,-15.1,-26.1,15.3775,3.53,4.17946,1.24194,16.4385,6.51085,33.2346,0.766145,-25.086,0.317119,0.148757,0.974037,263.3,9.2,52.1701,4.4272,6.3,-1.6046200000000002,70.9386,4.53894,63.0884,2.6605,235.279,1.30859,0.131304,243.605,1.23653,1.91477,-35.0076751708984,21.9994239807129,-35.0,22.0,-1029410.0,-10398.4,pp-riro,4,0,-1,-1
1570535933.8,2019-10-08,13:58:53.800,14.0,8.0,14.0900001525879,16.6,5.9,4.1,32.3,-17.0,-20.8,15.2895,5.0169,4.5490900000000005,-1.61507,14.0194,1.85796,34.6842,-1.60274,-20.0035,0.358301,0.23822,0.97685,263.3,9.2,52.1701,4.4272,6.3,-1.7437,67.3588,4.53908,63.5557,4.18056,235.079,1.30621,0.107629,243.555,1.36175,2.0203900000000004,-35.0059814453125,21.9994239807129,-35.0,22.0,-1031080.0,-18181.8,pp-riro,4,0,-1,-1
1570535933.9,2019-10-08,13:58:53.900,14.0,9.0,14.1599998474121,16.8,7.0,4.4,33.5,-18.4,-15.9,15.219,6.40343,4.75655,-3.36487,13.2384,6.7607,36.1931,-3.8061,-14.8636,0.284731,0.245998,0.933379,263.3,9.2,52.1701,4.4272,6.3,-1.89441,81.6654,4.539219999999999,64.1106,6.08064,234.879,1.3032,0.0786103,243.548,1.48205,2.10088,-35.0076751708984,21.9994239807129,-35.0,22.0,-1032760.0,-15566.8,pp-riro,4,0,-1,-1
1570535934.0,2019-10-08,13:58:54.000,14.0,8.0,14.4700002670288,16.8,8.1,5.1,34.7,-20.1,-10.0,15.219,6.40343,4.75655,-3.36487,13.2384,6.7607,36.1931,-3.8061,-14.8636,0.284731,0.245998,0.933379,263.3,9.2,52.1701,4.4272,6.3,-1.99691,88.4431,4.53935,64.8116,7.6007,234.579,1.29947,0.0563636999999999,243.487,1.61327,2.1808,-35.0076751708984,21.9994239807129,-35.0,22.0,-1033920.0,-10183.0,pp-riro,4,0,-1,-1
1570535934.1,2019-10-08,13:58:54.100,14.0,9.0,14.6499996185303,16.8,9.3,5.8,35.4,-22.4,-4.4,15.1951,8.395710000000001,5.67605,0.4844489999999999,11.0829,5.06927,38.237,-7.629560000000001,-3.4275300000000004,0.133874,0.374956,1.02159,265.9,9.1,52.1701,4.4272,6.3,-2.02517,87.428,4.53942,65.6001,9.50078,234.179,1.29496,0.0291392999999999,243.379,1.74608,2.2658400000000003,-35.0093841552734,21.9994239807129,-35.0,22.0,-1034480.0,-10459.9,pp-riro,4,0,-1,-1
1570535934.2,2019-10-08,13:58:54.200,14.0,9.0,14.710000038147,16.4,10.6,6.4,35.4,-24.8,0.6,15.1357,8.8918,5.93244,-1.08697,11.5637,6.00143,38.4237,-8.57496,-0.173869,0.350763,0.323015,1.07916,265.9,9.1,52.1701,4.4272,6.3,-2.1027400000000003,80.6225,4.53943,66.5348,11.0208,233.679,1.28982,0.00881216,243.217,1.86189,2.35445,-35.0059814453125,21.9994239807129,-35.0,22.0,-1035610.0,-12705.7,pp-riro,4,0,-1,-1
1570535934.3,2019-10-08,13:58:54.300,14.0,9.0,14.460000038147,16.0,12.0,6.8,35.6,-26.9,6.1,15.1428,9.50233,6.202000000000001,-1.82976,13.1024,5.54309,38.4742,-9.67356,2.97602,0.300948,0.398953,1.0895,265.9,9.1,52.1701,4.4272,6.3,-2.1952700000000003,78.2695,4.53944,67.5862,12.9209,233.179,1.28384,-0.0159522,243.12,1.9869,2.44552,-35.0059814453125,21.9994239807129,-35.0,22.0,-1037090.0,-15228.4,pp-riro,4,0,-1,-1
1570535934.4,2019-10-08,13:58:54.400,14.0,9.0,14.460000038147,15.4,13.1,7.2,35.4,-28.6,11.7,14.0646,12.5186,7.27997,-6.1045300000000005,7.85142,3.5728,37.604,-15.1161,17.4579,0.136353,0.351201,1.02532,265.9,9.1,52.1701,4.4272,6.3,-2.35319,83.4307,4.53945,68.7545,14.441,232.579,1.27744,-0.0340933,242.958,2.10343,2.52284,-35.0059814453125,21.9994239807129,-35.0,22.0,-1039460.0,-15720.7,pp-riro,4,0,-1,-1
1570535934.5,2019-10-08,13:58:54.500,14.0,8.0,14.460000038147,14.9,14.3,7.6,34.8,-29.9,17.9,14.0646,12.5186,7.27997,-6.1045300000000005,7.85142,3.5728,37.604,-15.1161,17.4579,0.136353,0.351201,1.02532,265.9,9.1,52.1701,4.4272,6.3,-2.43519,84.7425,4.53945,70.0396,15.5811,231.879,1.27071,-0.0459616999999999,242.727,2.21976,2.59195,-35.0059814453125,21.9994239807129,-35.0,22.0,-1040960.0,-14767.0,pp-riro,4,0,-1,-1
1570535934.6,2019-10-08,13:58:54.600,14.0,10.0,14.3999996185303,14.2,15.4,8.3,33.9,-31.7,23.9,13.5399,13.5662,7.70233,-4.74184,9.36441,4.38994,36.9787,-16.8408,23.4989,0.0148081999999999,0.3935889999999999,0.923178,265.9,9.1,52.1701,4.4272,6.3,-2.47232,84.0537,4.53948,71.4707,17.4811,231.179,1.26266,-0.0669699,242.605,2.34177,2.67231,-35.0076751708984,21.9994239807129,-35.0,22.0,-1041690.0,-13751.7,pp-riro,4,0,-1,-1
1570535934.7,2019-10-08,13:58:54.700,14.0,8.0,14.2799997329712,13.4,16.2,8.7,32.4,-33.6,30.0,12.6836,15.0845,8.32743,-8.62076,8.07136,4.57905,35.2561,-18.9164,33.1252,0.1141,0.455275,1.01672,265.9,9.1,52.1701,4.4272,6.4,-2.54933,84.5874,4.53949,72.9603,18.6212,230.379,1.25489,-0.076988,242.372,2.45362,2.73366,-35.0059814453125,21.9994239807129,-23.0,22.0,-1043290.0,-16028.3,pp-riro,4,0,-1,-1
1570535934.8,2019-10-08,13:58:54.800,14.0,9.0,14.3400001525879,12.7,17.1,8.9,30.4,-34.9,37.1,11.8524,15.7827,8.649610000000001,-9.44785,7.06792,1.89669,33.2996,-20.4712,39.7975,0.0419116999999999,0.343746,1.01712,265.9,9.1,52.1701,4.4272,6.4,-2.62635,90.6586,4.5395,74.5958,20.1413,229.479,1.24601,-0.0908219,242.138,2.5789,2.79525,-35.0025634765625,21.9994239807129,-23.0,22.0,-1044640.0,-12921.1,pp-riro,4,0,-1,-1
1570535934.9,2019-10-08,13:58:54.900,14.0,8.0,14.6999998092651,12.0,18.1,9.3,27.8,-35.7,45.3,11.8524,15.7827,8.649610000000001,-9.44785,7.06792,1.89669,33.2996,-20.4712,39.7975,0.0419116999999999,0.343746,1.01712,265.9,9.1,52.1701,4.4272,6.4,-2.66846,101.212,4.53951,76.2898,21.2813,228.679,1.23738,-0.0991595,242.006,2.7115400000000003,2.85315,-34.734588623046896,21.9994239807129,-23.0,22.0,-1045730.0,-9075.52,pp-riro,4,0,-1,-1
1570535935.0,2019-10-08,13:58:55.000,14.0,10.0,15.1800003051758,11.0,19.1,9.8,24.8,-36.7,53.6,11.4434,16.1543,8.72755,-6.87513,8.10408,3.23717,32.1579,-21.1744,43.1412,0.0627621999999999,0.3920929999999999,1.0339,265.9,9.1,52.1701,4.4272,6.4,-2.63023,126.054,4.53952,78.1299,22.4214,227.679,1.22789,-0.106599,241.753,2.8433900000000003,2.91906,-34.2908325195312,21.9994239807129,-23.0,22.0,-1046010.0,2984.16,pp-riro,4,0,-1,-1
1570535935.1,2019-10-08,13:58:55.100,14.0,9.0,15.8100004196167,9.7,20.1,10.4,21.6,-37.4,62.4,8.89789,18.6672,9.77046,-11.8471,11.9332,1.87614,23.4318,-23.9375,65.8368,-0.0223905999999999,0.301014,1.12019,267.8,8.5,52.1701,4.4272,6.4,-2.51055,140.95600000000002,4.53958,80.1452,23.9415,226.679,1.2173,-0.117477,241.61900000000003,2.9824900000000003,2.99673,-33.3828277587891,21.9994239807129,-22.5878219604492,22.0,-1044760.0,14859.2,pp-riro,4,0,-1,-1
1570535935.2,2019-10-08,13:58:55.200,14.0,10.0,16.4599990844727,8.4,21.1,10.7,18.1,-37.3,70.4,8.89789,18.6672,9.77046,-11.8471,11.9332,1.87614,23.4318,-23.9375,65.8368,-0.0223905999999999,0.301014,1.12019,267.8,8.5,52.1701,4.4272,6.4,-2.41081,145.586,4.5397,82.1605,24.7015,225.579,1.20736,-0.119369,241.343,3.10009,3.06283,-32.1198120117188,21.9994239807129,-21.7926044464111,22.0,-1043880.0,16797.4,pp-riro,4,0,-1,-1
1570535935.3,2019-10-08,13:58:55.300,14.0,12.0,17.1000003814697,6.9,22.1,10.9,15.1,-36.6,78.2,8.89789,18.6672,9.77046,-11.8471,11.9332,1.87614,23.4318,-23.9375,65.8368,-0.0223905999999999,0.301014,1.12019,267.8,8.5,52.1701,4.4272,6.4,-2.2046900000000003,154.224,4.53978,84.3802,25.4616,224.479,1.19666,-0.120449,241.162,3.21404,3.13292,-30.501785278320305,21.9994239807129,-20.9476070404053,22.0,-1041960.0,19689.3,pp-riro,4,0,-1,-1
1570535935.4,2019-10-08,13:58:55.400,14.0,13.0,17.659999847412102,5.3,23.1,11.2,12.7,-35.3,85.2,5.62863,21.0907,10.4719,-13.4326,11.8003,1.66051,15.37,-24.3049,83.565,-0.090241,0.2183719999999999,0.957106,267.8,8.5,52.1701,4.4272,6.4,-1.92765,171.013,4.53988,86.5999,26.2217,223.379,1.18593,-0.121504,241.009,3.31777,3.2036,-28.0099029541016,21.9994239807129,-20.108219146728494,22.0,-1039770.0,22796.5,pp-riro,4,0,-1,-1
1570535935.5,2019-10-08,13:58:55.500,14.0,10.0,18.0,3.6,23.8,11.6,10.5,-34.2,91.3,4.8743300000000005,21.6246,10.6444,-14.3454,7.15141,2.04264,13.6131,-23.9292,86.7537,-0.1081,0.310653,0.8876290000000001,267.8,8.5,52.1701,4.4272,6.4,-1.38465,212.112,4.53998,88.9073,26.6017,222.179,1.17513,-0.118318,240.781,3.40579,3.26839,-25.9566497802734,21.9994239807129,-19.2850284576416,22.0,-1035880.0,27903.4,pp-riro,4,0,-1,-1
1570535935.6,2019-10-08,13:58:55.600,14.0,11.0,18.340000152587898,1.9,24.1,11.9,7.6,-33.5,97.2,3.25968,22.3318,11.075,-17.3167,4.87662,4.37967,10.8699,-23.422,92.7807,-0.0833365,0.329362,0.908551,267.8,8.5,52.1701,4.4272,6.4,-0.8499620000000001,222.086,4.540080000000001,91.3023,27.3618,220.979,1.1635799999999998,-0.118805,240.658,3.49375,3.3322800000000004,-24.1201553344727,21.9994239807129,-18.6465473175049,22.0,-1033650.0,19197.0,pp-riro,4,0,-1,-1
1570535935.7,2019-10-08,13:58:55.700,14.0,10.0,18.5799999237061,0.3,24.1,11.5,4.8,-32.5,103.1,0.861283,22.6916,11.2235,-14.183,-2.33489,-2.85052,6.61636,-22.9545,101.504,0.0784178,0.17807,0.903398,267.8,8.5,52.1701,4.4272,6.3,-0.598409,214.229,4.54018,93.7849,27.3618,219.679,1.15234,-0.111661,240.422,3.57662,3.38619,-22.4611740112305,21.9994239807129,-17.9912891387939,22.0,-1032990.0,13321.0,pp-riro,4,0,-1,-1
1570535935.8,2019-10-08,13:58:55.800,14.0,10.0,18.8099994659424,-1.1,23.8,10.8,2.8,-31.1,108.2,-0.618344,22.6522,10.6491,-13.3577,-2.12672,-5.43027,4.58493,-22.3008,106.589,-0.048004,0.242943,0.733064,267.8,8.5,52.1701,4.4272,6.3,-0.0720307,181.677,4.54028,96.1506,27.3619,218.478,1.14167,-0.1051329999999999,240.263,3.65066,3.4353,-21.0223541259766,21.9994239807129,-17.4395771026611,22.0,-1032580.0,1107.52,pp-riro,4,0,-1,-1
1570535935.9,2019-10-08,13:58:55.900,14.0,6.0,18.8600006103516,-2.3,23.6,10.3,1.4,-29.5,112.3,-0.618344,22.6522,10.6491,-13.3577,-2.12672,-5.43027,4.58493,-22.3008,106.589,-0.048004,0.242943,0.733064,267.8,8.5,52.1701,4.4272,6.3,0.354059,154.627,4.54038,98.5456,27.3619,217.378,1.13104,-0.098824,240.236,3.71204,3.47785,-19.7456893920898,21.9994239807129,-17.044532775878903,22.0,-1032850.0,799.877,pp-riro,4,0,-1,-1
1570535936.0,2019-10-08,13:58:56.000,14.0,8.0,18.8099994659424,-2.9,23.3,10.2,0.2,-27.9,116.3,-1.27223,22.5383,10.3615,-16.1775,-1.31239,-5.1487300000000005,3.63298,-21.9066,108.795,0.1171779999999999,0.0921255,0.454532,267.8,8.5,52.1701,4.4272,6.3,0.287569,156.382,4.5404800000000005,100.882,26.6019,216.378,1.12152,-0.0859132,240.218,3.767430000000001,3.49024,-18.6140975952148,21.9994239807129,-17.0169582366943,22.0,-1032650.0,3691.74,pp-riro,4,0,-1,-1
1570535936.1,2019-10-08,13:58:56.100,14.0,8.0,18.7199993133545,-4.6,22.5,10.3,-1.3,-26.9,120.3,-3.57657,21.8263,9.62712,-9.02001,-3.1770400000000003,0.707989,0.648893,-19.539,116.67,0.0271269,0.0463823,0.554906,269.3,8.6,52.1701,4.4272,6.3,0.342423,192.799,4.54057,103.16,26.2219,215.378,1.1118,-0.0770993,240.245,3.82396,3.5502300000000004,-17.5029907226562,21.9994239807129,-16.1881275177002,22.0,-1032860.0,-2676.51,pp-riro,4,0,-1,-1
1570535936.2,2019-10-08,13:58:56.200,14.0,8.0,18.3299999237061,-5.6,22.1,10.2,-2.4,-26.2,123.9,-4.63227,21.1517,9.86541,-9.99958,-7.179760000000001,3.76023,-0.600831,-18.6801,120.744,-0.133382,0.0818966,0.459971,269.3,8.6,52.1701,4.4272,6.3,0.387858,198.377,4.54067,105.409,25.842,214.378,1.10215,-0.0687009,240.285,3.8735,3.58437,-16.8561172485352,21.9994239807129,-15.9050025939941,22.0,-1032800.0,1076.76,pp-riro,4,0,-1,-1
1570535936.3,2019-10-08,13:58:56.300,14.0,10.0,17.9899997711182,-6.7,21.7,9.8,-4.1,-24.8,127.3,-5.73615,20.8893,9.7064,-9.22053,-4.89522,-4.09425,-1.90505,-18.0948,124.312,-0.0920902,0.2208369999999999,0.6204310000000001,269.3,8.6,52.1701,4.4272,6.3,0.305299,184.476,4.540769999999999,107.688,25.082,213.278,1.09251,-0.0572183,240.236,3.92196,3.62281,-16.3014221191406,21.9994239807129,-15.472538948059098,22.0,-1032610.0,1230.58,pp-riro,4,0,-1,-1
1570535936.4,2019-10-08,13:58:56.400,14.0,10.0,17.6900005340576,-7.9,21.7,9.8,-4.9,-23.6,130.2,-6.851789999999999,20.5853,9.30516,-14.6128,2.09821,-0.237281,-2.85951,-17.5077,127.123,-0.305277,-0.0743831,0.4243909999999999,269.3,8.6,52.1701,4.4272,6.3,0.322476,183.14,4.54087,109.849,24.702,212.278,1.08313,-0.0496760999999999,240.289,3.96565,3.66184,-16.0914840698242,21.9994239807129,-15.1468162536621,22.0,-1032620.0,30.7645,pp-riro,4,0,-1,-1
1570535936.5,2019-10-08,13:58:56.500,14.0,10.0,17.5400009155273,-8.9,21.3,10.1,-6.5,-22.9,133.1,-8.01441,20.5605,9.42175,-11.3041,-1.00184,0.641836,-4.3781300000000005,-16.666,130.049,-0.247479,0.138232,0.479662,269.3,8.6,52.1701,4.4272,6.3,0.326909,202.01,4.54099,112.01,23.942,211.278,1.07401,-0.0391851,240.329,4.00381,3.69092,-15.5777435302734,21.9994239807129,-14.9431867599487,22.0,-1032570.0,246.116,pp-riro,4,0,-1,-1
1570535936.6,2019-10-08,13:58:56.600,14.0,10.0,17.4400005340576,-9.6,20.9,10.0,-8.2,-22.7,136.6,-8.84958,20.1185,9.55895,-9.8377,-2.24978,-3.89737,-5.7998,-16.6231,133.535,-0.254924,-0.1322289999999999,0.6623,269.3,8.6,52.1701,4.4272,6.3,0.380101,215.1,4.54107,114.23,22.8021,210.178,1.06472,-0.0257077,240.298,4.04482,3.7103,-15.2295608520508,21.9994239807129,-14.8934326171875,22.0,-1032590.0,-123.058,pp-riro,4,0,-1,-1
1570535936.7,2019-10-08,13:58:56.700,14.0,9.0,17.3899993896484,-10.3,20.5,9.9,-10.0,-21.6,140.3,-9.22557,19.9101,9.45445,-4.0092300000000005,-0.465122,-2.45014,-6.89566,-16.6334,135.22899999999998,-0.153273,-0.0113146,0.56253,269.3,8.6,52.1701,4.42721,6.1,0.372343,217.522,4.54117,116.274,21.6621,209.178,1.05619,-0.0129711,240.301,4.095940000000001,3.73063,-14.9667205810547,21.9994239807129,-14.817037582397498,22.0,-1032480.0,1045.99,pp-riro,4,0,-1,-1
1570535936.8,2019-10-08,13:58:56.800,14.0,10.0,17.4899997711182,-10.7,20.2,9.9,-11.0,-21.1,142.0,-9.71441,19.375,9.24208,-5.59928,-3.55555,-3.04816,-8.84506,-16.1146,138.407,-0.325801,0.0460933,0.637677,269.3,8.6,52.1701,4.42721,6.1,0.376222,215.12,4.54127,117.326,21.2821,208.578,1.05146,-0.00832244,240.256,4.120369999999999,3.74496,-14.90869140625,21.9994239807129,-14.7914180755615,22.0,-1032440.0,399.9380000000001,pp-riro,4,0,-1,-1
1570535936.9,2019-10-08,13:58:56.900,14.0,9.0,17.7399997711182,-11.4,19.5,9.9,-12.6,-20.4,145.4,-10.4863,19.0033,9.17533,-2.33429,-0.769176,-2.2101,-10.798,-15.0273,141.838,-0.173476,0.083452,0.623025,269.3,8.6,52.1701,4.42721,6.1,0.360708,208.039,4.54137,119.312,20.1421,207.478,1.04282,0.00377793,240.18400000000003,4.1647300000000005,3.76948,-14.837005615234402,21.9994239807129,35.0,22.0,-1032310.0,861.4060000000001,pp-riro,4,0,-1,-1
1570535937.0,2019-10-08,13:58:57.000,14.0,10.0,17.729999542236303,-11.9,18.5,9.5,-14.3,-19.5,148.5,-11.089,18.2018,9.0628,-6.658060000000001,-10.0346,-3.08703,-12.5363,-13.9188,144.977,-0.246677,-0.0244636,0.4780729999999999,269.3,8.6,52.1701,4.42721,6.1,0.357383,207.037,4.54147,121.211,19.0021,206.478,1.03465,0.0154162999999999,240.18,4.20678,3.79799,-14.738006591796902,21.9994239807129,35.0,22.0,-1032270.0,646.054,pp-riro,4,0,-1,-1
1570535937.1,2019-10-08,13:58:57.100,14.0,9.0,17.9300003051758,-12.5,17.5,8.9,-15.5,-17.9,151.0,-11.821,16.7044,8.381739999999999,-8.093689999999999,-9.36987,-5.45566,-15.1836,-12.9425,148.884,-0.354584,0.117781,0.476259,270.1,8.3,52.1701,4.42721,6.1,0.467646,208.867,4.54154,123.051,17.8621,205.378,1.0264,0.0266952,240.085,4.2465,3.83559,-14.6577911376953,21.9994239807129,35.0,22.0,-1032840.0,-11475.2,pp-riro,4,0,-1,-1
1570535937.2,2019-10-08,13:58:57.200,14.0,9.0,17.8299999237061,-13.2,16.8,8.3,-16.1,-16.4,152.6,-12.5746,15.9841,7.71903,-6.22276,-7.257169999999999,-10.066,-15.9636,-11.4408,150.833,-0.0877564,0.0823382,0.251459,270.1,8.3,52.1701,4.42721,6.1,1.07935,185.945,4.541580000000001,124.745,16.7221,204.378,1.01882,0.0375497,240.023,4.27306,3.87381,-14.249870300293,21.9994239807129,35.0,22.0,-1034480.0,6737.42,pp-riro,4,0,-1,-1
1570535937.3,2019-10-08,13:58:57.300,14.0,9.0,18.0300006866455,-13.8,16.2,7.3,-17.2,-15.4,154.1,-13.001,15.6795,7.25282,-6.776330000000001,-7.2161,-7.56125,-16.2978,-10.8277,151.44899999999998,-0.0162109,0.0545359,0.260504,270.1,8.3,52.1701,4.42721,6.1,0.8205959999999999,179.78900000000002,4.5416300000000005,126.38,14.8221,203.578,1.01216,0.0540153,240.074,4.28947,3.90945,-13.4920654296875,21.9994239807129,35.0,22.0,-1032940.0,8552.53,pp-riro,4,0,-1,-1
1570535937.4,2019-10-08,13:58:57.400,14.0,8.0,18.0799999237061,-14.3,15.4,7.3,-17.6,-15.4,155.8,-13.2287,15.3434,6.905069999999999,-3.08083,-13.3636,-0.313843,-16.7605,-10.5935,152.313,0.0273526,-0.0354659,0.2477079999999999,270.1,8.3,52.1701,4.42721,6.1,0.8499620000000001,200.052,4.5417,127.928,13.6821,202.778,1.00541,0.0641453,240.149,4.30532,3.93654,-12.3724212646484,21.9994239807129,35.0,22.0,-1033430.0,-9413.93,pp-riro,4,0,-1,-1
1570535937.5,2019-10-08,13:58:57.500,14.0,9.0,18.270000457763697,-15.0,14.6,7.4,-18.4,-14.5,157.2,-13.7618,14.5574,6.81455,-6.093030000000001,-3.94793,0.0973753,-17.6209,-10.784,154.338,0.0649481,-0.0831633,0.245075,270.1,8.3,52.1701,4.42721,6.1,1.06273,258.222,4.54171,129.476,11.7821,201.878,0.998644,0.0799298,240.12,4.320209999999999,3.9644,-10.9062957763672,21.9994239807129,35.0,22.0,-1033690.0,7014.3,pp-riro,4,0,-1,-1
1570535937.6,2019-10-08,13:58:57.600,14.0,10.0,18.3700008392334,-15.4,14.2,7.4,-18.7,-13.3,158.3,-14.5959,13.5947,6.93347,-0.171324,-0.12499,-1.36399,-18.681,-9.84253,156.675,0.0875971,-0.0342119,0.186092,270.1,8.3,52.1701,4.42721,6.1,1.0173,240.293,4.54175,130.878,10.6421,201.078,0.992292,0.0895006,240.155,4.3388,3.979530000000001,-9.06298065185547,21.9994239807129,35.0,22.0,-1033410.0,922.935,pp-riro,4,0,-1,-1
1570535937.7,2019-10-08,13:58:57.700,14.0,10.0,18.409999847412102,-15.8,13.9,7.4,-19.1,-12.9,159.3,-14.7858,13.3594,6.9173,-6.05133,-4.1706900000000005,-2.8997900000000003,-18.8461,-9.95737,157.388,0.00202364,-0.0632643,0.174463,270.1,8.3,52.1701,4.42721,5.9,1.01951,232.234,4.5418,132.251,9.12204,200.178,0.985866,0.101726,240.093,4.34657,3.98978,-6.96876525878906,21.9994239807129,35.0,22.0,-1033290.0,2307.34,pp-riro,4,0,-1,-1
1570535937.8,2019-10-08,13:58:57.800,14.0,11.0,18.270000457763697,-16.0,13.4,7.7,-19.6,-12.7,160.1,-15.4848,12.9359,6.95037,-2.07296,-4.15371,3.2889699999999995,-19.8313,-10.3999,159.099,-0.121314,-0.185667,0.23005,270.1,8.3,52.1701,4.42721,5.9,0.982388,224.367,4.5418400000000005,133.565,7.22202,199.378,0.979875,0.11653,240.09,4.34754,3.99114,-4.86090087890625,21.9994239807129,35.0,22.0,-1032890.0,3630.21,pp-riro,4,0,-1,-1
1570535937.9,2019-10-08,13:58:57.900,14.0,12.0,18.1200008392334,-15.8,13.4,7.9,-20.4,-12.6,160.8,-15.4046,12.749,7.29392,4.35414,2.4203900000000003,-0.236603,-20.5187,-10.8186,160.119,0.0506093,-0.1121829999999999,0.0716174,270.1,8.3,52.1701,4.42721,5.9,0.977401,206.301,4.54188,134.88,6.08202,198.478,0.97344,0.125466,240.048,4.35101,3.97373,-2.7530288696289102,21.9994239807129,35.0,22.0,-1032570.0,3599.45,pp-riro,4,0,-1,-1
1570535938.0,2019-10-08,13:58:58.000,14.0,7.0,18.020000457763697,-15.5,13.5,7.9,-21.2,-12.9,161.6,-15.2954,12.8039,7.30519,-0.34369,2.8045400000000003,-1.92715,-20.8442,-11.3467,161.029,-0.207358,-0.173251,0.05005,270.1,8.3,52.1701,4.42721,5.9,0.947481,196.172,4.541930000000001,136.194,4.182,197.578,0.967054,0.139767,240.007,4.3477,3.94966,-0.650283813476562,21.9994239807129,35.0,22.0,-1032340.0,4337.79,pp-riro,4,0,-1,-1
1570535938.1,2019-10-08,13:58:58.100,14.0,5.0,18.020000457763697,-15.2,13.6,8.3,-21.8,-13.2,161.6,-15.2235,12.9198,7.38095,6.52921,4.69212,3.77628,-21.4341,-11.7125,161.35,-0.129969,-0.117723,0.263948,269.6,8.5,52.1701,4.42721,5.9,0.922547,192.637,4.542,137.50799999999998,2.6619900000000003,196.678,0.960548,0.151035,239.995,4.33544,3.92062,1.45619201660156,21.9994239807129,35.0,22.0,-1032170.0,892.17,pp-riro,4,0,-1,-1
1570535938.2,2019-10-08,13:58:58.200,14.0,5.0,18.0699996948242,-14.8,13.9,8.9,-23.1,-13.1,161.8,-15.2235,12.9198,7.38095,6.52921,4.69212,3.77628,-21.4341,-11.7125,161.35,-0.129969,-0.117723,0.263948,269.6,8.5,52.1701,4.42721,5.9,0.952468,203.643,4.5421,138.79399999999998,1.14198,195.677,0.953841,0.162066,239.905,4.33007,3.87997,3.55615997314453,21.9994239807129,35.0,22.0,-1032140.0,399.9380000000001,pp-riro,4,0,-1,-1
1570535938.3,2019-10-08,13:58:58.300,14.0,8.0,18.1700000762939,-14.3,14.2,9.3,-23.9,-13.3,161.4,-15.2235,12.9198,7.38095,6.52921,4.69212,3.77628,-21.4341,-11.7125,161.35,-0.129969,-0.117723,0.263948,269.6,8.5,52.1701,4.42721,5.9,0.952468,200.752,4.54219,140.196,-0.378031,194.777,0.946921,0.17294,239.986,4.31356,3.83993,5.66976165771484,21.9994239807129,35.0,22.0,-1031960.0,2030.46,pp-riro,4,0,-1,-1
1570535938.4,2019-10-08,13:58:58.400,14.0,8.0,18.3600006103516,-13.8,14.5,9.8,-24.9,-14.7,160.8,-14.7069,13.3886,8.16973,2.12355,10.0834,5.4339900000000005,-23.4906,-13.0789,162.082,-0.273437,-0.15688,-0.00915845,269.6,8.5,52.1701,4.42721,5.9,0.93917,201.636,4.54229,141.51,-1.51803,193.777,0.940015,0.180823,239.952,4.285019999999999,3.8008,7.77655029296875,21.9994239807129,35.0,22.0,-1031670.0,1261.34,pp-riro,4,0,-1,-1
1570535938.5,2019-10-08,13:58:58.500,14.0,9.0,18.3099994659424,-13.4,15.3,10.3,-25.6,-15.8,158.8,-14.7069,13.3886,8.16973,2.12355,10.0834,5.4339900000000005,-23.4906,-13.0789,162.082,-0.273437,-0.15688,-0.00915845,269.6,8.5,52.1701,4.42721,5.9,0.968536,223.974,4.54239,142.88299999999998,-3.03803,192.777,0.932856,0.1912569999999999,239.975,4.23784,3.7529,9.89014434814453,21.9994239807129,35.0,22.0,-1031640.0,30.7645,pp-riro,4,0,-1,-1
1570535938.6,2019-10-08,13:58:58.600,14.0,11.0,18.5,-12.8,15.5,11.3,-26.1,-17.7,156.6,-14.2095,14.0219,8.88979,4.44159,5.46042,11.2435,-24.8544,-14.2317,161.893,-0.0593186,-0.285611,-0.0601514,269.6,8.5,52.1701,4.42721,5.9,1.02062,244.966,4.54249,144.372,-4.17802,191.677,0.925046,0.198831,240.002,4.18277,3.70672,11.995231628418,21.9994239807129,35.0,22.0,-1031680.0,92.2935,pp-riro,4,0,-1,-1
1570535938.7,2019-10-08,13:58:58.700,14.0,9.0,18.4500007629395,-12.1,16.1,12.1,-26.1,-19.8,153.3,-14.0185,14.6445,9.4825,3.32654,9.76577,7.808160000000001,-26.1407,-16.3519,161.004,-0.288132,-0.339419,-0.42113,269.6,8.5,52.1701,4.42721,5.8,1.03226,246.456,4.542590000000001,145.833,-5.31801,190.477,0.917054,0.206252,239.952,4.1111,3.65342,14.100311279296902,21.9994239807129,35.0,22.0,-1031590.0,1692.05,pp-riro,4,0,-1,-1
1570535938.8,2019-10-08,13:58:58.800,14.0,15.0,18.5499992370605,-10.8,16.7,12.7,-26.1,-22.2,149.6,-13.7295,15.3486,10.232,2.40254,3.5571900000000003,6.16029,-27.2658,-18.7868,159.803,-0.362621,-0.274603,-0.314902,269.6,8.5,52.1701,4.42721,5.8,1.0184,241.375,4.54269,147.439,-6.838010000000001,189.277,0.908497,0.216048,240.023,4.03001,3.5800300000000003,16.2105102539062,21.9994239807129,35.0,22.0,-1031270.0,3568.68,pp-riro,4,0,-1,-1
1570535938.9,2019-10-08,13:58:58.900,14.0,12.0,18.5,-9.6,17.2,13.8,-25.7,-24.7,145.0,-12.9619,16.2259,11.8381,11.2343,5.365819999999999,5.7678,-28.1835,-23.1929,156.601,-0.236153,-0.274262,-0.6270020000000001,269.6,8.5,52.1701,4.42721,5.8,1.02284,242.46400000000003,4.54281,149.046,-7.597980000000001,187.977,0.8997729999999999,0.220511,240.016,3.94087,3.51226,18.3172912597656,21.9994239807129,35.0,22.0,-1031020.0,1292.11,pp-riro,4,0,-1,-1
1570535939.0,2019-10-08,13:58:59.000,14.0,9.0,18.5499992370605,-8.2,17.7,14.5,-24.3,-27.8,140.0,-10.0718,18.0395,14.3458,8.61566,0.720642,6.17066,-27.6482,-31.9929,147.065,-0.134154,-0.355882,-1.06733,269.6,8.5,52.1701,4.42721,5.8,1.01674,238.711,4.54288,150.769,-8.35795,186.477,0.8901370000000001,0.224885,239.947,3.84291,3.44267,20.4343032836914,21.9994239807129,35.0,22.0,-1030710.0,3630.21,pp-riro,4,0,-1,-1
1570535939.1,2019-10-08,13:58:59.100,14.0,8.0,18.4500007629395,-6.4,18.2,15.0,-22.4,-30.3,134.3,-9.25101,18.4657,14.645,18.4486,10.9201,5.88933,-27.1109,-33.6667,144.77200000000002,-0.156328,-0.118194,-0.883007,272.2,8.1,52.1701,4.42721,5.8,1.00511,237.709,4.54301,152.434,-9.49793,185.077,0.880866,0.231685,239.958,3.74036,3.35837,22.5444946289062,21.9994239807129,35.0,22.0,-1030510.0,1292.11,pp-riro,4,0,-1,-1
1570535939.2,2019-10-08,13:58:59.200,14.0,10.0,18.3999996185303,-4.8,18.6,15.8,-19.8,-32.8,127.9,-9.25101,18.4657,14.645,18.4486,10.9201,5.88933,-27.1109,-33.6667,144.77200000000002,-0.156328,-0.118194,-0.883007,272.2,8.1,52.1701,4.42721,5.8,1.01452,238.158,4.543159999999999,154.274,-10.2579,183.577,0.8708299999999999,0.2356199999999999,240.013,3.63256,3.2850300000000003,24.6529846191406,21.9994239807129,35.0,22.0,-1030450.0,1261.34,pp-riro,4,0,-1,-1
1570535939.3,2019-10-08,13:58:59.300,14.0,9.0,18.3500003814697,-2.9,18.8,16.3,-16.4,-35.3,120.6,-5.82373,19.7603,16.2978,21.8196,-0.969174,3.5836,-22.6876,-39.2244,132.185,-0.333489,-0.017667,-0.8517879999999999,272.2,8.1,52.1701,4.42721,5.8,1.01231,244.762,4.54332,156.055,-10.6378,182.077,0.861058,0.2371349999999999,240.038,3.5173300000000003,3.20609,26.7580718994141,21.9994239807129,35.0,22.0,-1030100.0,1845.87,pp-riro,4,0,-1,-1
1570535939.4,2019-10-08,13:58:59.400,14.0,8.0,18.4400005340576,-0.6,18.9,16.7,-12.7,-37.6,112.4,-2.341,20.2877,17.2061,22.7621,-7.494739999999999,4.69621,-18.1732,-44.6335,121.1,-0.5039710000000001,-0.2142599999999999,-1.2224700000000002,272.2,8.1,52.1701,4.42721,5.8,1.0378,255.087,4.54347,157.895,-10.6378,180.477,0.8509129999999999,0.2361889999999999,240.033,3.39651,3.11496,28.8682556152344,21.9994239807129,35.0,22.0,-1030030.0,830.6410000000001,pp-riro,4,0,-1,-1
1570535939.5,2019-10-08,13:58:59.500,14.0,16.0,18.2999992370605,1.6,18.8,17.0,-7.5,-39.4,103.0,-1.024,20.4319,17.4425,30.39,2.34061,9.86024,-16.0779,-46.1824,116.775,-0.2120679999999999,-0.102862,-1.03516,272.2,8.1,52.1701,4.42721,5.8,1.04943,258.193,4.54362,159.67700000000002,-10.6377,178.977,0.8412270000000001,0.235363,240.08900000000003,3.26538,3.02928,30.7723693847656,21.9994239807129,23.0,22.0,-1029930.0,1845.87,pp-riro,4,0,-1,-1
1570535939.6,2019-10-08,13:58:59.600,14.0,14.0,18.0499992370605,3.9,18.6,17.2,-1.4,-40.5,93.1,-1.024,20.4319,17.4425,30.39,2.34061,9.86024,-16.0779,-46.1824,116.775,-0.2120679999999999,-0.102862,-1.03516,272.2,8.1,52.1701,4.42721,5.8,1.04777,262.28700000000003,4.54378,161.517,-10.6377,177.477,0.8313659999999999,0.234453,240.206,3.13272,2.94071,32.3307495117188,21.9994239807129,23.0,22.0,-1029680.0,2584.22,pp-ro,1,1,-1,-1
1570535939.7,2019-10-08,13:58:59.700,14.0,12.0,17.8099994659424,6.0,18.2,17.2,5.2,-40.6,81.9,4.07969,20.5717,18.1613,27.2972,1.13248,0.873858,-2.9916,-51.5739,94.2562,-0.749228,0.105295,-1.01027,272.2,8.1,52.1701,4.42721,5.7,1.05664,260.98,4.54397,163.299,-10.2576,175.877,0.821484,0.2312659999999999,240.217,2.98701,2.86102,33.524658203125,21.9994239807129,23.0,22.0,-1029520.0,1784.34,pp-ro,1,1,-1,-1
1570535939.8,2019-10-08,13:58:59.800,14.0,14.0,17.659999847412102,8.2,17.4,16.8,11.4,-40.2,71.2,4.07969,20.5717,18.1613,27.2972,1.13248,0.873858,-2.9916,-51.5739,94.2562,-0.749228,0.105295,-1.01027,272.2,8.1,52.1701,4.42721,5.7,1.04223,251.26,4.54409,165.02200000000002,-9.49751,174.27700000000002,0.811843,0.225792,240.197,2.85015,2.77356,34.3609008789062,21.9994239807129,23.0,22.0,-1029150.0,4307.03,pp-ro,1,1,-1,-1
1570535939.9,2019-10-08,13:58:59.900,14.0,11.0,17.5599994659424,10.3,16.5,16.2,17.6,-38.9,61.1,9.37991,19.225,17.5037,30.6353,-6.98077,-10.2112,13.4399,-52.181,68.5652,-0.1867089999999999,-0.325419,-1.26718,272.2,8.1,52.1701,4.42721,5.7,1.01896,244.001,4.54424,166.803,-8.35742,172.77700000000002,0.8023600000000001,0.21821,240.302,2.71941,2.68699,34.8411865234375,21.9994239807129,23.0,22.0,-1028870.0,2245.81,pp-ro,1,1,-1,-1
1570535940.0,2019-10-08,13:59:00.000,14.0,13.0,17.5499992370605,12.1,15.7,15.5,22.6,-36.2,51.7,11.6678,18.4479,16.7805,22.5742,-16.0261,-4.5783,20.5986,-49.9526,56.5687,-0.322269,-0.00265733,-1.20838,272.2,8.1,52.1701,4.42721,5.7,1.01785,238.12,4.54439,168.38,-7.597339999999999,171.377,0.793708,0.213084,240.374,2.58513,2.60805,34.968917846679695,21.9994239807129,23.0,22.0,-1028540.0,2861.1,pp-ro,1,1,-1,-1
1570535940.1,2019-10-08,13:59:00.100,14.0,13.0,17.5499992370605,13.8,14.7,14.6,27.5,-32.9,42.8,13.8065,17.4703,15.9913,25.2586,-16.8291,-9.02079,26.6023,-46.6925,45.7368,-0.392104,-0.334773,-1.22748,266.5,7.9,52.1701,4.42721,5.7,1.01009,237.604,4.54453,169.928,-6.45726,170.077,0.785473,0.205841,240.506,2.45064,2.52724,34.790084838867195,21.9994239807129,21.779882431030305,22.0,-1028380.0,2861.1,pp-ro,1,1,-1,-1
1570535940.2,2019-10-08,13:59:00.200,14.0,13.0,17.7000007629395,15.0,13.5,13.8,31.3,-29.7,34.9,15.6774,16.352999999999998,15.0469,13.2694,-5.41036,-2.08588,32.3834,-43.437,35.4691,-0.182302,-0.268545,-0.8168920000000001,266.5,7.9,52.1701,4.42721,5.7,1.0112,243.137,4.54461,171.359,-4.93717,168.77599999999998,0.777597,0.196582,240.57,2.32845,2.46097,34.532913208007805,21.9994239807129,20.7078857421875,22.0,-1028250.0,707.5830000000001,pp-ro,1,1,-1,-1
1570535940.3,2019-10-08,13:59:00.300,14.0,13.0,17.9899997711182,16.3,12.2,12.7,34.4,-25.7,27.5,15.6774,16.352999999999998,15.0469,13.2694,-5.41036,-2.08588,32.3834,-43.437,35.4691,-0.182302,-0.268545,-0.8168920000000001,266.5,7.9,52.1701,4.42721,5.7,1.0317,243.024,4.54469,172.703,-3.4170800000000003,167.676,0.770534,0.18748,240.735,2.20181,2.38112,33.746063232421896,21.9994239807129,19.3396701812744,22.0,-1028100.0,2245.81,pp-ro,1,1,-1,-1
1570535940.4,2019-10-08,13:59:00.400,14.0,13.0,18.2399997711182,17.6,11.2,11.4,37.1,-21.4,20.9,18.0947,14.2043,13.4638,15.0778,-9.09579,-17.1709,37.0702,-36.9127,22.8933,-0.851858,-0.1905109999999999,-1.48587,266.5,7.9,52.1701,4.42721,5.7,1.00344,232.811,4.54477,173.929,-1.51699,166.576,0.763788,0.176337,240.835,2.08068,2.30193,32.611770629882805,21.9994239807129,17.9624290466309,22.0,-1027730.0,3691.74,pp-ro,1,1,-1,-1
1570535940.5,2019-10-08,13:59:00.500,14.0,13.0,18.4699993133545,18.7,9.9,10.2,38.7,-17.2,15.4,19.5826,13.0019,11.9623,16.8515,-5.65906,-12.0431,39.3782,-31.6763,15.8813,-0.598823,-0.1441839999999999,-1.35331,266.5,7.9,52.1701,4.42721,5.7,0.99624,233.096,4.54485,175.06799999999998,0.0030876,165.576,0.75754,0.167517,240.966,1.9706,2.22072,31.1130065917969,21.9994239807129,16.5517082214355,22.0,-1027440.0,2061.22,pp-ro,1,1,-1,-1
1570535940.6,2019-10-08,13:59:00.600,14.0,11.0,18.659999847412102,19.1,8.9,9.6,40.2,-13.4,9.9,20.9616,11.4117,10.5167,-0.277706,-16.1692,-9.84792,40.3878,-26.6072,10.1097,-0.0712167,-0.175251,-1.14721,266.5,7.9,52.1701,4.42721,5.7,1.004,242.174,4.54494,176.09099999999998,1.90317,164.676,0.7518859999999999,0.156646,241.101,1.86574,2.17903,28.75244140625,21.9994239807129,15.897500038147,22.0,-1027390.0,1045.99,pp-ro,1,1,-1,-1
1570535940.7,2019-10-08,13:59:00.700,14.0,11.0,18.659999847412102,19.5,7.3,8.2,40.4,-11.5,7.4,21.7452,8.5394,8.25663,-3.9039,-18.9683,-23.0639,41.3637,-20.4615,2.26062,-0.314643,0.0849607,-1.0417,266.5,7.9,52.1701,4.42721,5.6,1.03558,247.673,4.54502,176.967,3.80325,164.176,0.747808,0.1458839999999999,241.424,1.81963,2.09807,26.637145996093803,21.9994239807129,14.3944911956787,22.0,-1027350.0,799.877,pp-ro,1,1,-1,-1
1570535940.8,2019-10-08,13:59:00.800,14.0,10.0,18.6100006103516,19.4,5.5,5.9,40.9,-6.5,1.7,21.8406,7.03866,6.52406,2.87348,-18.2595,-25.4442,41.6367,-15.7044,-1.47901,-0.371978,0.299151,-0.7921279999999999,266.5,7.9,52.1701,4.42721,5.6,1.0067700000000002,221.896,4.5451,177.668,5.70332,163.076,0.742346,0.1352,241.231,1.69606,1.98664,24.5439834594727,21.9994239807129,12.3575878143311,22.0,-1026920.0,5537.61,pp-ro,1,1,-1,-1
1570535940.9,2019-10-08,13:59:00.900,14.0,10.0,18.520000457763697,19.2,4.8,4.8,41.9,-2.8,-1.6,21.6614,6.006130000000001,5.09017,1.92102,-9.83253,-9.84266,41.6187,-10.7648,-4.40715,-0.203789,0.208887,-0.978995,266.5,7.9,52.1701,4.42721,5.6,0.945265,199.59,4.54518,178.33900000000003,7.603389999999999,162.476,0.7384350000000001,0.124601,241.374,1.61682,1.9393,22.4337844848633,21.9994239807129,11.5377807617188,22.0,-1026490.0,3445.62,pp-ro,1,1,-1,-1
1570535941.0,2019-10-08,13:59:01.000,14.0,9.0,18.2800006866455,19.1,3.8,4.2,42.0,0.9,-5.6,21.7039,4.90821,4.219469999999999,-2.38917,-4.331840000000001,-6.87023,41.4588,-6.47831,-7.99822,-0.1401109999999999,0.0331171,-0.747345,266.5,7.9,52.1701,4.42721,5.6,0.959671,210.513,4.54526,178.894,9.50346,161.976,0.735106,0.114054,241.515,1.52918,1.8949,20.3253021240234,21.9994239807129,10.7563819885254,22.0,-1026400.0,92.2935,pp-ro,1,1,-1,-1
1570535941.1,2019-10-08,13:59:01.100,14.0,8.0,17.9899997711182,19.1,3.5,3.9,42.4,2.4,-7.4,21.7039,4.90821,4.219469999999999,-2.38917,-4.331840000000001,-6.87023,41.4588,-6.47831,-7.99822,-0.1401109999999999,0.0331171,-0.747345,263.7,7.7,52.1701,4.42721,5.6,0.969644,211.186,4.54534,179.391,11.4035,161.776,0.732811,0.103568,241.832,1.4957200000000002,1.88134,18.2236251831055,21.9994239807129,10.5471858978271,22.0,-1026340.0,1199.82,pp-ro,1,1,-1,-1
1570535941.2,2019-10-08,13:59:01.200,14.0,9.0,17.6399993896484,18.4,2.7,2.4,42.7,6.6,-12.3,21.7039,4.90821,4.219469999999999,-2.38917,-4.331840000000001,-6.87023,41.4588,-6.47831,-7.99822,-0.1401109999999999,0.0331171,-0.747345,263.7,7.7,52.1701,4.42721,5.6,0.951913,196.581,4.54539,179.77,13.3036,161.276,0.729867,0.0931258999999999,241.877,1.39115,1.81327,16.1253509521484,21.9994239807129,9.28814888000488,22.0,-1026030.0,3599.45,pp-ro,1,1,-1,-1
1570535941.3,2019-10-08,13:59:01.300,14.0,9.0,17.4899997711182,18.4,2.4,2.1,43.2,7.8,-13.7,20.4872,2.82019,1.81637,-9.07361,-7.99672,-11.2645,41.9058,2.75258,-16.1637,0.137238,0.151054,-0.836626,263.7,7.7,52.1701,4.42721,5.6,0.921439,192.35,4.54545,179.975,14.4436,161.076,0.7284470000000001,0.0868567,241.961,1.36352,1.7950400000000002,14.2484893798828,21.9994239807129,8.97028923034668,22.0,-1025790.0,1753.58,pp-ro,1,1,-1,-1
1570535941.4,2019-10-08,13:59:01.400,14.0,10.0,17.4400005340576,18.4,2.0,1.2,44.0,10.4,-16.1,20.3337,2.60813,1.48556,2.14455,-2.38599,-1.5643,42.2827,4.4377,-17.3949,-0.117566,0.08523,-0.8232219999999999,263.7,7.7,52.1701,4.42721,5.6,0.974077,218.83900000000003,4.54551,180.296,15.9637,160.876,0.7266,0.0785713,242.162,1.30766,1.75055,12.5453491210938,21.9994239807129,8.14448547363281,22.0,-1025800.0,430.703,pp-ro,1,1,-1,-1
1570535941.5,2019-10-08,13:59:01.500,14.0,12.0,17.4400005340576,18.6,1.0,0.6,44.3,12.6,-18.3,20.3611,1.3684,0.314526,-0.619316,-6.60352,-7.466239999999999,42.456,9.33854,-20.5301,0.249804,-0.0108109,-0.434538,263.7,7.7,52.1701,4.42721,5.6,0.983496,225.98,4.54556,180.529,18.2437,160.67600000000002,0.7247560000000001,0.0661118,242.364,1.26222,1.69772,11.022735595703098,21.9994239807129,7.14105319976807,22.0,-1025740.0,1230.58,pp-ro,1,1,-1,-1
1570535941.6,2019-10-08,13:59:01.600,14.0,11.0,17.3400001525879,18.5,0.2,0.0,45.1,13.6,-20.4,20.3636,0.859028,0.00554554,-1.87958,-8.16032,-4.847569999999999,42.62,10.3504,-21.4869,0.129493,0.0754084,-0.315324,263.7,7.7,52.1701,4.42721,5.6,1.004,236.474,4.54562,180.646,20.1438,160.476,0.723271,0.0557196,242.469,1.23197,1.65167,9.63467407226562,21.9994239807129,6.267771720886231,22.0,-1025650.0,707.5830000000001,pp-ro,1,1,-1,-1
1570535941.7,2019-10-08,13:59:01.700,14.0,11.0,17.0799999237061,18.3,0.0,-0.4,46.2,14.3,-22.3,20.1096,0.101388,-0.5607989999999999,-4.192880000000001,-2.8524700000000003,-5.15757,43.5684,11.6988,-23.3643,0.36022,-0.0262189,-0.319667,263.7,7.7,52.1701,4.42721,5.6,1.02062,242.733,4.545669999999999,180.763,22.0438,160.376,0.7220449999999999,0.0453644999999999,242.655,1.20786,1.63478,8.41692352294922,21.9994239807129,5.9685368537902805,22.0,-1025380.0,2215.04,pp-ro,1,1,-1,-1
1570535941.8,2019-10-08,13:59:01.800,14.0,10.0,16.979999542236303,18.1,-0.6,-0.7,47.6,15.4,-23.9,19.6409,-0.6765479999999999,-1.13201,-1.87529,-5.276269999999999,-2.84147,45.2991,14.2573,-25.6937,0.264,0.0100095,-0.383535,263.7,7.7,52.1701,4.42721,5.6,1.0173,242.988,4.545730000000001,180.792,23.9439,160.276,0.721005,0.0349859,242.791,1.18225,1.60686,7.357574462890621,21.9994239807129,5.44319820404053,22.0,-1025270.0,2215.04,pp-ro,1,1,-1,-1
1570535941.9,2019-10-08,13:59:01.900,14.0,10.0,16.979999542236303,18.2,-1.2,-0.9,48.5,16.0,-25.5,19.6409,-0.6765479999999999,-1.13201,-1.87529,-5.276269999999999,-2.84147,45.2991,14.2573,-25.6937,0.264,0.0100095,-0.383535,263.7,7.7,52.1701,4.42721,5.6,1.02062,241.609,4.54579,180.734,25.8439,160.17600000000002,0.7201489999999999,0.0245708,242.876,1.16298,1.58394,6.913055419921879,21.9994239807129,5.01188373565674,22.0,-1025100.0,1784.34,pp-ro,1,1,-1,-1
1570535942.0,2019-10-08,13:59:02.000,14.0,10.0,16.9300003051758,17.8,-1.5,-1.1,49.3,16.0,-27.0,19.3688,-1.56325,-1.41671,-10.1792,-7.559639999999999,-3.5563300000000004,46.7145,15.0937,-28.0176,0.257931,-0.0448959,-0.1202609999999999,263.7,7.7,52.1701,4.42721,5.6,1.01619,241.492,4.54584,180.617,27.744,160.17600000000002,0.7197060000000001,0.0141307,242.999,1.1524,1.5695,5.95758819580078,21.9994239807129,4.7295241355896,22.0,-1024840.0,2707.27,pp-ro,1,1,-1,-1
1570535942.1,2019-10-08,13:59:02.100,14.0,10.0,16.979999542236303,17.7,-2.1,-1.5,50.6,16.2,-27.9,18.9819,-1.95127,-1.73574,0.5066510000000001,-4.9459,-1.14349,47.8452,15.5332,-29.1769,0.2163409999999999,-0.0299551,-0.144567,258.4,7.2,52.1701,4.42721,5.6,1.0317,252.708,4.54588,180.471,29.644,160.17600000000002,0.719288,0.0037000999999999,243.115,1.14634,1.53692,5.35127258300781,21.9994239807129,4.0869140625,22.0,-1024650.0,676.819,pp-ro,1,1,-1,-1
1570535942.2,2019-10-08,13:59:02.200,14.0,9.0,16.979999542236303,17.6,-2.5,-1.5,51.5,16.6,-28.5,18.9014,-2.23638,-1.88477,-2.39285,-5.24406,-2.90471,48.4256,15.922,-29.5101,0.314698,-0.17032,-0.0961604,258.4,7.2,52.1701,4.42721,5.6,1.04832,257.298,4.54588,180.266,31.5441,160.276,0.719283,-0.00672065,243.268,1.14132,1.52849,4.867584228515621,21.9994239807129,3.90470242500305,22.0,-1024440.0,2830.33,pp-ro,1,1,-1,-1
1570535942.3,2019-10-08,13:59:02.300,14.0,10.0,17.0799999237061,17.5,-2.8,-1.5,51.8,16.8,-29.8,18.7265,-2.96564,-1.83535,-0.6433770000000001,-5.89031,-0.380405,49.3486,16.5187,-30.7313,-0.0175558,-0.1957279999999999,-0.0826044,258.4,7.2,52.1701,4.42721,5.6,1.04334,256.497,4.54587,180.003,33.0641,160.276,0.7192569999999999,-0.0151437999999999,243.275,1.12923,1.5223,4.2340087890625,21.9994239807129,3.77380323410034,22.0,-1024290.0,2676.51,pp-ro,1,1,-1,-1
1570535942.4,2019-10-08,13:59:02.400,14.0,10.0,17.0799999237061,17.4,-3.0,-1.6,52.5,17.0,-30.3,18.5178,-3.15529,-1.90306,-1.93024,-3.61487,-2.25301,49.8573,16.9569,-31.4472,0.117668,-0.0379485,-0.0863716,258.4,7.2,52.1701,4.42721,5.6,1.03669,249.582,4.54587,179.74,35.3441,160.376,0.719113,-0.0276397999999999,243.467,1.1293,1.51808,3.913818359375,21.9994239807129,3.6903200149536097,22.0,-1024080.0,2153.51,pp-ro,1,1,-1,-1
1570535942.5,2019-10-08,13:59:02.500,14.0,10.0,17.0799999237061,17.3,-3.3,-1.7,52.5,16.9,-31.2,18.5556,-3.34039,-1.96275,-0.731741,-2.97548,-4.0076,49.9851,17.1501,-31.7946,-0.0378323,-0.00766706,-0.125307,258.4,7.2,52.1701,4.42721,5.6,1.0245,244.216,4.54586,179.419,36.8642,160.476,0.719463,-0.0361149,243.521,1.12565,1.5076,3.73158264160156,21.9994239807129,3.45273113250732,22.0,-1023770.0,3322.56,pp-ro,1,1,-1,-1
1570535942.6,2019-10-08,13:59:02.600,14.0,10.0,17.2399997711182,17.2,-3.6,-1.6,52.5,16.9,-31.7,18.5556,-3.34039,-1.96275,-0.731741,-2.97548,-4.0076,49.9851,17.1501,-31.7946,-0.0378323,-0.00766706,-0.125307,258.4,7.2,52.1701,4.42721,5.6,1.04334,262.473,4.54585,179.09799999999998,38.7642,160.576,0.719562,-0.046619,243.646,1.12685,1.5069,3.700927734375,21.9994239807129,3.43088293075562,22.0,-1023620.0,-369.174,pp-ro,1,1,-1,-1
1570535942.7,2019-10-08,13:59:02.700,14.0,11.0,17.4899997711182,17.2,-3.9,-1.7,52.1,16.9,-32.3,18.5556,-3.34039,-1.96275,-0.731741,-2.97548,-4.0076,49.9851,17.1501,-31.7946,-0.0378323,-0.00766706,-0.125307,258.4,7.2,52.1701,4.427219999999999,5.5,1.07104,264.907,4.54585,178.718,40.2842,160.67600000000002,0.719986,-0.0551606,243.679,1.12554,1.4976200000000002,3.52550506591797,21.9994239807129,3.2155613899231,22.0,-1023430.0,3199.51,pp-ro,1,1,-1,-1
1570535942.8,2019-10-08,13:59:02.800,14.0,12.0,17.840000152587898,17.3,-4.0,-1.9,52.1,17.1,-32.8,18.2403,-4.20886,-2.15382,0.242009,-1.60164,-1.2088,49.6224,17.6968,-33.5172,-0.101671,-0.0561779,-0.0798866,258.4,7.2,52.1701,4.427219999999999,5.5,1.05664,262.213,4.54584,178.338,42.1842,160.776,0.7201390000000001,-0.0657245,243.789,1.12429,1.49384,3.4386444091796897,21.9994239807129,3.1344153881073,22.0,-1023200.0,4214.73,pp-ro,1,1,-1,-1
1570535942.9,2019-10-08,13:59:02.900,14.0,10.0,18.229999542236303,17.2,-4.4,-1.9,51.5,16.8,-33.4,18.2403,-4.20886,-2.15382,0.242009,-1.60164,-1.2088,49.6224,17.6968,-33.5172,-0.101671,-0.0561779,-0.0798866,258.4,7.2,52.1701,4.427219999999999,5.5,1.04943,270.736,4.54584,177.9,43.7043,160.876,0.7206359999999999,-0.0743442,243.802,1.12674,1.4843,3.3756256103515603,21.9994239807129,2.91223931312561,22.0,-1023030.0,769.112,pp-ro,1,1,-1,-1
1570535943.0,2019-10-08,13:59:03.000,14.0,11.0,18.3199996948242,17.2,-4.6,-1.9,51.2,16.9,-34.0,18.239,-4.73645,-2.17111,2.20109,-4.17881,0.8772,48.4949,17.2677,-34.9084,-0.250814,-0.0911663,-0.0723618999999999,258.4,7.2,52.1701,4.427219999999999,5.5,1.12146,302.802,4.5458300000000005,177.46200000000002,45.6043,160.976,0.720841,-0.0849795,243.897,1.12561,1.48438,3.132080078125,21.9994239807129,2.91122889518738,22.0,-1022940.0,1907.4,pp-ro,1,1,-1,-1
1570535943.1,2019-10-08,13:59:03.100,14.0,10.0,18.5599994659424,17.4,-4.8,-2.0,51.0,17.1,-34.8,18.3856,-5.1605300000000005,-2.1652400000000003,3.67259,-1.19948,0.313546,48.2542,18.0285,-35.2217,0.0385009,-0.0849671,-0.0813903,259.4,6.5,52.1701,4.427219999999999,5.5,1.12645,304.01,4.54581,176.965,47.5043,161.17600000000002,0.72145,-0.0956809,244.031,1.12091,1.48326,2.92940521240234,21.9994239807129,2.85627865791321,22.0,-1022810.0,2707.27,pp-ro,1,1,-1,-1
1570535943.2,2019-10-08,13:59:03.200,14.0,10.0,18.9400005340576,17.6,-4.8,-2.0,50.8,17.3,-36.0,18.5158,-5.2974,-2.1556900000000003,8.528039999999999,-0.40811,-0.167123,48.1028,18.0221,-35.7546,0.0225745,-0.0971886999999999,-0.0938604,259.4,6.5,52.1701,4.427219999999999,5.5,1.12645,303.657,4.54579,176.43900000000002,49.4044,161.276,0.72177,-0.106419,244.093,1.11153,1.4931299999999998,2.80337524414062,21.9994239807129,3.04996109008789,22.0,-1022490.0,3291.8,pp-ro,1,1,-1,-1
1570535943.3,2019-10-08,13:59:03.300,14.0,11.0,19.2099990844727,17.7,-5.1,-2.1,50.7,17.8,-36.8,18.7152,-5.32601,-2.17333,6.38941,2.51653,-0.6396970000000001,47.8762,18.0978,-36.4151,-0.000835802,-0.140907,-0.106778,259.4,6.5,52.1701,4.427219999999999,5.5,1.13476,318.897,4.54577,175.94299999999998,50.9244,161.376,0.7222430000000001,-0.11512,244.113,1.10181,1.48625,2.93791961669922,21.9994239807129,2.89345598220825,22.0,-1022240.0,1938.16,pp-ro,1,1,-1,-1
1570535943.4,2019-10-08,13:59:03.400,14.0,12.0,19.4899997711182,17.7,-5.5,-2.1,50.7,18.4,-37.5,18.7095,-5.3230900000000005,-2.18364,-4.15195,-1.54471,1.01441,47.5663,18.2699,-37.0291,0.0894777,-0.0557038,-0.211155,259.4,6.5,52.1701,4.427219999999999,5.5,1.17964,336.345,4.54575,175.388,52.8244,161.576,0.722842,-0.125906,244.25,1.09346,1.4803,3.0315933227539102,21.9994239807129,2.7531540393829306,22.0,-1022180.0,676.819,pp-ro,1,1,-1,-1
1570535943.5,2019-10-08,13:59:03.500,14.0,14.0,19.6200008392334,17.5,-5.7,-2.5,50.9,18.3,-38.4,18.6481,-6.2067,-2.1887,-3.88458,-2.35523,-3.51769,47.2326,19.1081,-38.8776,-0.165746,-0.0770616,-0.140793,259.4,6.5,52.1701,4.427219999999999,5.5,1.19626,339.926,4.545730000000001,174.774,54.7244,161.67600000000002,0.723226,-0.136784,244.295,1.09142,1.46183,2.81359100341797,21.9994239807129,2.3885746002197297,22.0,-1021790.0,4830.02,pp-ro,1,1,-1,-1
1570535943.6,2019-10-08,13:59:03.600,14.0,13.0,19.8500003814697,17.5,-6.1,-2.7,51.0,18.7,-38.9,18.6481,-6.2067,-2.1887,-3.88458,-2.35523,-3.51769,47.2326,19.1081,-38.8776,-0.165746,-0.0770616,-0.140793,259.4,6.5,52.1701,4.427219999999999,5.5,1.18075,341.87300000000005,4.54571,174.19,56.6245,161.876,0.723783,-0.147616,244.443,1.08794,1.44825,2.75909423828125,21.9994239807129,2.11028051376343,22.0,-1021380.0,3445.62,pp-ro,1,1,-1,-1
1570535943.7,2019-10-08,13:59:03.700,14.0,11.0,20.1499996185303,17.7,-6.4,-2.7,51.5,18.8,-39.4,18.3847,-6.52012,-2.69303,-5.8684400000000005,-2.57379,-8.54703,47.1308,19.3217,-40.1096,0.207733,0.183374,0.0619481,259.4,6.5,52.1701,4.427219999999999,5.3,1.21178,357.00199999999995,4.5456900000000005,173.548,58.1445,162.17600000000002,0.725064,-0.156578,244.542,1.08684,1.44831,2.43549346923828,21.9994239807129,2.02069473266602,22.0,-1021210.0,1753.58,pp-ro,1,1,-1,-1
1570535943.8,2019-10-08,13:59:03.800,14.0,12.0,20.4599990844727,17.9,-6.5,-2.9,51.3,18.9,-40.4,18.5551,-7.17643,-2.64787,-1.61743,-1.02066,-3.22366,47.4114,19.8344,-40.6115,0.0340467,-0.134724,-0.0422962,259.4,6.5,52.1701,4.427219999999999,5.3,1.23394,367.649,4.54566,172.847,60.4245,162.376,0.725472,-0.1695809999999999,244.73,1.08261,1.44948,2.14255523681641,21.9994239807129,2.07540059089661,22.0,-1020880.0,3660.97,pp-ro,1,1,-1,-1
1570535943.9,2019-10-08,13:59:03.900,14.0,13.0,20.7999992370605,18.2,-7.2,-3.4,51.4,19.1,-41.3,18.7482,-7.413989999999999,-2.9965900000000003,-0.719234,-6.687760000000001,3.16498,47.3559,19.9935,-41.7865,0.192556,-0.14668,-0.307482,259.4,6.5,52.1701,4.427219999999999,5.3,1.24946,381.583,4.545640000000001,172.175,61.9445,162.67600000000002,0.7267279999999999,-0.178613,244.836,1.07561,1.42119,1.98927307128906,21.9994239807129,1.42238032817841,22.0,-1020540.0,3076.45,pp-ro,1,1,-1,-1
1570535944.0,2019-10-08,13:59:04.000,14.0,11.0,21.090000152587898,18.1,-8.1,-3.7,51.5,18.5,-41.7,18.8601,-7.71754,-3.11141,2.28074,-5.77202,-2.83855,47.2066,19.7846,-42.5149,-0.1839039999999999,-0.212825,-0.021092,259.4,6.5,52.1701,4.427219999999999,5.3,1.29378,412.206,4.54562,171.386,63.8446,162.976,0.72788,-0.189827,244.97,1.08576,1.39042,2.04376983642578,21.9994239807129,-35.0,22.0,-1020320.0,2276.57,pp-ro,1,1,-1,-1
1570535944.1,2019-10-08,13:59:04.100,14.0,11.0,21.5499992370605,17.9,-8.6,-3.9,51.7,18.1,-42.2,18.8601,-7.71754,-3.11141,2.28074,-5.77202,-2.83855,47.2066,19.7846,-42.5149,-0.1839039999999999,-0.212825,-0.021092,258.7,6.5,52.1701,4.427219999999999,5.3,1.36138,454.587,4.54559,170.53900000000002,65.3646,163.376,0.729791,-0.199217,245.046,1.09102,1.37189,1.86153411865234,22.0025119781494,-35.0,22.0,-1020310.0,-1107.52,pp-ro,1,1,-1,-1
1570535944.2,2019-10-08,13:59:04.200,14.0,10.0,22.149999618530305,17.7,-8.9,-4.1,51.9,17.9,-42.4,18.4357,-9.29049,-3.88616,-4.73082,0.144676,-0.5953350000000001,47.2694,19.2748,-43.172,0.0687483,-0.0589591999999999,0.0270467,258.7,6.5,52.1701,4.427219999999999,5.3,1.42676,465.422,4.54556,169.66299999999998,67.6446,163.67600000000002,0.730664,-0.2125719999999999,245.257,1.10017,1.36133,1.30801391601562,22.0019989013672,-35.0,22.0,-1019950.0,6399.01,pp-ro,1,1,-1,-1
1570535944.3,2019-10-08,13:59:04.300,14.0,9.0,22.8199996948242,17.7,-9.1,-3.9,52.4,17.5,-42.5,18.4357,-9.29049,-3.88616,-4.73082,0.144676,-0.5953350000000001,47.2694,19.2748,-43.172,0.0687483,-0.0589591999999999,0.0270467,258.7,6.5,52.1701,4.427219999999999,5.3,1.38465,450.199,4.54552,168.699,69.1646,164.076,0.7327600000000001,-0.222215,245.283,1.11039,1.36982,0.403640747070312,22.0019989013672,-35.0,22.0,-1019050.0,7721.89,pp-ro,1,1,-1,-1
1570535944.4,2019-10-08,13:59:04.400,14.0,8.0,23.2700004577637,17.6,-8.9,-3.8,52.7,16.9,-42.6,18.2685,-9.54626,-3.68498,3.3900300000000003,4.1368,4.39765,47.7995,18.289,-43.6762,0.0716762,0.0407934,0.0539073,258.7,6.5,52.1701,4.427219999999999,5.3,1.34808,430.669,4.54548,167.82299999999998,71.0646,164.37599999999998,0.733881,-0.233665,245.426,1.1243299999999998,1.3842299999999998,-0.8670425415039059,22.0025119781494,-35.0,22.0,-1018010.0,7075.83,pp-ro,1,1,-1,-1
1570535944.5,2019-10-08,13:59:04.500,14.0,9.0,23.5799999237061,17.8,-8.8,-3.5,53.1,16.6,-42.4,18.1494,-9.23975,-3.36522,3.78257,8.80863,6.45327,48.4553,18.0426,-43.1121,0.185868,0.0118647,-0.158827,258.7,6.5,52.1701,4.427219999999999,5.3,1.3431,428.18,4.54544,166.946,72.5847,164.77599999999998,0.7356520000000001,-0.243173,245.542,1.13686,1.40848,-2.49188995361328,22.0025119781494,-35.0,22.0,-1017720.0,5445.31,pp-ro,1,1,-1,-1
1570535944.6,2019-10-08,13:59:04.600,14.0,9.0,23.7299995422363,18.0,-8.8,-2.9,54.1,15.6,-41.8,18.3409,-9.20963,-2.77965,-2.43096,1.8695,9.98687,49.2419,17.5533,-42.4392,-0.00135743,0.0759345,0.155445,258.7,6.5,52.1701,4.427219999999999,5.3,1.34365,435.489,4.5454,166.041,74.8647,165.076,0.736297,-0.2565969999999999,245.814,1.16547,1.44328,-4.47687530517578,22.0025119781494,-35.0,22.0,-1016980.0,4183.97,pp-ro,1,1,-1,-1
1570535944.7,2019-10-08,13:59:04.700,14.0,10.0,23.760000228881804,18.4,-8.7,-2.3,54.8,13.9,-40.9,18.3409,-9.20963,-2.77965,-2.43096,1.8695,9.98687,49.2419,17.5533,-42.4392,-0.00135743,0.0759345,0.155445,258.7,6.5,52.1701,4.427219999999999,5.2,1.37025,438.862,4.54536,165.135,76.3847,165.37599999999998,0.737726,-0.266239,245.873,1.20379,1.48174,-6.58473968505859,22.0009689331055,-35.0,22.0,-1016570.0,5229.96,pp-ro,1,1,-1,-1
1570535944.8,2019-10-08,13:59:04.800,14.0,10.0,23.8400001525879,19.1,-8.3,-1.5,56.2,12.2,-39.6,18.3409,-9.20963,-2.77965,-2.43096,1.8695,9.98687,49.2419,17.5533,-42.4392,-0.00135743,0.0759345,0.155445,258.7,6.5,52.1701,4.427219999999999,5.2,1.3636,440.33,4.545319999999999,164.28799999999998,78.2847,165.576,0.738216,-0.2776099999999999,246.038,1.24825,1.54089,-8.69432067871094,22.0019989013672,-35.0,22.0,-1016220.0,7168.13,pp-ro,1,1,-1,-1
1570535944.9,2019-10-08,13:59:04.900,14.0,10.0,23.9099998474121,19.9,-8.2,-0.1,58.0,10.1,-38.0,19.2869,-8.485330000000001,-0.794999,7.950589999999999,3.56872,12.7835,52.6454,14.4036,-38.3431,0.180295,-0.140545,0.4478109999999999,258.7,6.5,52.1701,4.427219999999999,5.2,1.36415,443.317,4.54528,163.38299999999998,80.1847,165.576,0.738183,-0.289136,246.047,1.30155,1.61139,-10.7970657348633,22.0009689331055,-35.0,22.0,-1015740.0,3630.21,pp-ro,1,1,-1,-1
1570535945.0,2019-10-08,13:59:05.000,14.0,10.0,23.8799991607666,20.5,-7.2,1.4,59.0,7.1,-36.8,19.2869,-8.485330000000001,-0.794999,7.950589999999999,3.56872,12.7835,52.6454,14.4036,-38.3431,0.180295,-0.140545,0.4478109999999999,258.7,6.5,52.1701,4.427219999999999,5.2,1.37025,437.515,4.54524,162.623,82.4648,165.576,0.737259,-0.302159,246.297,1.36278,1.70701,-12.8929824829102,22.0009689331055,-35.0,22.0,-1015140.0,7352.71,pp-ro,1,1,-1,-1
1570535945.1,2019-10-08,13:59:05.100,14.0,10.0,23.8799991607666,21.1,-6.1,2.9,60.7,3.5,-34.9,19.9112,-8.14141,0.690534,8.70065,6.56665,11.4245,54.3784,11.9117,-36.9561,0.341564,0.079112,0.669167,257.5,7.1,52.1701,4.427219999999999,5.2,1.33368,417.754,4.54519,161.922,84.3648,165.27599999999998,0.735688,-0.313127,246.277,1.4389299999999998,1.80172,-13.9443588256836,22.0009689331055,-35.0,22.0,-1014150.0,6183.66,pp-ro,1,1,-1,-1
1570535945.2,2019-10-08,13:59:05.200,14.0,9.0,23.9899997711182,21.7,-5.2,5.0,61.5,-1.4,-33.8,19.9112,-8.14141,0.690534,8.70065,6.56665,11.4245,54.3784,11.9117,-36.9561,0.341564,0.079112,0.669167,257.5,7.1,52.1701,4.427219999999999,5.2,1.32093,414.177,4.54515,161.338,86.6448,164.87599999999998,0.7329869999999999,-0.325603,246.417,1.5239200000000002,1.90615,-16.057350158691403,22.0009689331055,-35.0,22.0,-1013810.0,6860.48,pp-ro,1,1,-1,-1
1570535945.3,2019-10-08,13:59:05.300,14.0,10.0,23.9500007629395,21.6,-3.5,6.7,61.7,-6.7,-31.3,20.5073,-6.30766,3.18411,4.383859999999999,8.53227,19.1105,56.5605,7.02244,-33.8334,0.0570126999999999,0.0161861,0.725934,257.5,7.1,52.1701,4.427219999999999,5.2,1.31207,411.63,4.5451,160.842,88.9249,164.37599999999998,0.729703,-0.337762,246.571,1.63085,2.01961,-18.170333862304695,22.0009689331055,-35.0,22.0,-1013310.0,4337.79,pp-ro,1,1,-1,-1
1570535945.4,2019-10-08,13:59:05.400,14.0,10.0,23.9899997711182,21.3,-1.6,8.6,62.6,-12.7,-26.9,20.2492,-2.55123,7.46782,-3.51946,15.7146,20.8659,59.6745,-5.90452,-26.0785,0.299586,0.404983,1.18566,257.5,7.1,52.1701,4.427219999999999,5.2,1.296,397.406,4.545059999999999,160.52,90.8249,163.576,0.725534,-0.347596,246.522,1.7671599999999998,2.1438200000000003,-20.3003921508789,22.0009689331055,-35.0,22.0,-1012440.0,6737.42,pp-ro,1,1,-1,-1
1570535945.5,2019-10-08,13:59:05.500,14.0,9.0,23.760000228881804,21.0,0.0,10.8,63.0,-19.2,-23.4,20.2492,-2.55123,7.46782,-3.51946,15.7146,20.8659,59.6745,-5.90452,-26.0785,0.299586,0.404983,1.18566,257.5,7.1,52.1701,4.427219999999999,5.2,1.28325,391.415,4.54501,160.403,93.1049,162.776,0.720333,-0.358533,246.766,1.89981,2.26345,-22.4202117919922,22.0009689331055,-35.0,22.0,-1012120.0,5968.31,pp-ro,1,1,-1,-1
1570535945.6,2019-10-08,13:59:05.600,14.0,9.0,23.6100006103516,20.2,2.1,12.7,62.9,-26.7,-19.6,19.6054,0.0810099,10.2973,-2.12567,18.7541,22.3292,59.8783,-14.9148,-19.1758,0.364992,0.110707,1.36863,257.5,7.1,52.1701,4.427219999999999,5.2,1.27716,397.572,4.54496,160.491,95.005,161.67600000000002,0.714213,-0.36706,246.824,2.0462,2.39186,-24.5331954956055,22.0025119781494,-35.0,22.0,-1011460.0,3599.45,pp-ro,1,1,-1,-1
1570535945.7,2019-10-08,13:59:05.700,14.0,9.0,23.5,19.0,4.3,14.4,61.9,-33.6,-13.3,19.6054,0.0810099,10.2973,-2.12567,18.7541,22.3292,59.8783,-14.9148,-19.1758,0.364992,0.110707,1.36863,257.5,7.1,52.1701,4.427219999999999,5.1,1.30376,400.906,4.54491,160.754,96.905,160.476,0.707358,-0.375008,246.951,2.20706,2.5222900000000004,-26.6461868286133,22.0019989013672,-35.0,22.0,-1011140.0,3876.33,pp-ro,1,1,-1,-1
1570535945.8,2019-10-08,13:59:05.800,14.0,8.0,23.5400009155273,18.0,5.6,15.3,61.8,-36.9,-10.7,18.0397,3.00003,12.7789,-14.2129,18.4052,13.5942,58.5205,-25.1711,-10.517,0.00891688,0.313338,1.49469,257.5,7.1,52.1701,4.427219999999999,5.1,1.30154,397.038,4.54486,160.987,98.045,159.876,0.703435,-0.3795,247.164,2.27851,2.60225,-28.7472229003906,22.0025119781494,-35.0,22.0,-1010810.0,6214.43,pp-ro,1,1,-1,-1
1570535945.9,2019-10-08,13:59:05.900,14.0,10.0,23.4599990844727,16.0,7.9,17.3,59.6,-44.9,-3.6,18.0397,3.00003,12.7789,-14.2129,18.4052,13.5942,58.5205,-25.1711,-10.517,0.00891688,0.313338,1.49469,257.5,7.1,52.1701,4.427219999999999,5.1,1.2694,387.647,4.54481,161.6,99.9451,158.476,0.695154,-0.386312,247.423,2.45107,2.75135,-30.6673431396484,22.0025119781494,-35.0,22.0,-1010180.0,5629.9,pp-ro,1,1,-1,-1
1570535946.0,2019-10-08,13:59:06.000,14.0,11.0,23.3899993896484,13.9,10.3,18.5,55.1,-51.8,6.7,16.4783,5.251119999999999,14.4473,-10.9582,27.3039,23.8583,56.7503,-31.8303,-3.3397,0.214519,0.36633,1.20174,257.5,7.1,52.1701,4.427219999999999,5.1,1.26774,380.267,4.54476,162.506,101.085,156.876,0.686642,-0.388841,247.46,2.62563,2.88757,-32.244415283203104,22.0025119781494,-35.0,22.0,-1009520.0,5199.2,pp-ro,1,1,-1,-1
1570535946.1,2019-10-08,13:59:06.100,14.0,13.0,23.0799999237061,11.5,12.4,19.6,47.5,-57.3,19.4,12.353,9.40015,17.2941,-15.2048,22.4361,10.9936,46.8498,-43.787,16.846,0.184505,0.329874,1.8007799999999998,256.7,6.8,52.1701,4.427219999999999,5.1,1.25444,369.947,4.54471,163.586,102.225,155.275,0.6777529999999999,-0.390845,247.631,2.79053,3.01836,-33.466461181640604,22.0025119781494,-35.0,22.0,-1009210.0,5722.19,pp-ro,1,1,-1,-1
1570535946.2,2019-10-08,13:59:06.200,14.0,13.0,22.8899993896484,8.8,13.9,20.3,36.1,-62.5,35.7,12.353,9.40015,17.2941,-15.2048,22.4361,10.9936,46.8498,-43.787,16.846,0.184505,0.329874,1.8007799999999998,256.7,6.8,52.1701,4.427219999999999,5.1,1.2212,360.98800000000006,4.54464,164.842,103.745,153.575,0.667683,-0.39398,248.035,2.96271,3.13991,-34.3300933837891,22.0025119781494,-35.0,22.0,-1008600.0,6183.66,pp-ro,1,1,-1,-1
1570535946.3,2019-10-08,13:59:06.300,14.0,10.0,22.649999618530305,5.8,15.4,20.0,20.0,-64.4,56.5,6.13503,13.1666,18.6246,-26.2285,8.53262,-3.20948,22.3701,-53.6371,52.8254,0.1897059999999999,0.0277585,1.62895,256.7,6.8,52.1701,4.427219999999999,5.1,1.22729,366.773,4.544569999999999,166.18599999999998,104.505,151.975,0.658776,-0.393545,248.265,3.13128,3.26892,-34.8216400146484,22.0025119781494,-23.0116176605225,22.0,-1008410.0,522.996,pp-ro,1,1,-1,-1
1570535946.4,2019-10-08,13:59:06.400,14.0,11.0,22.4500007629395,2.6,16.3,19.6,1.3,-64.9,80.1,6.13503,13.1666,18.6246,-26.2285,8.53262,-3.20948,22.3701,-53.6371,52.8254,0.1897059999999999,0.0277585,1.62895,256.7,6.8,52.1701,4.427219999999999,5.1,1.22785,338.276,4.54451,167.763,104.885,150.275,0.649576,-0.390861,248.451,3.30662,3.39551,-34.971832275390604,22.0009689331055,-23.0044822692871,22.0,-1007870.0,8460.23,pp-ro,1,1,-1,-1
1570535946.5,2019-10-08,13:59:06.500,14.0,11.0,22.1700000762939,-0.2,17.4,18.3,-11.5,-61.5,98.2,0.57438,15.1797,17.4928,-30.617,9.28444,-9.30395,-2.12542,-51.8839,86.4567,0.275956,0.279092,1.46591,256.7,6.8,52.1701,4.427219999999999,5.1,1.13199,313.524,4.54444,169.398,104.885,148.775,0.6413939999999999,-0.386443,248.658,3.4622,3.52023,-34.8131103515625,22.0009689331055,-23.0044822692871,22.0,-1006990.0,7168.13,pp-ro,1,1,-1,-1
1570535946.6,2019-10-08,13:59:06.600,14.0,13.0,22.0499992370605,-2.9,18.3,16.8,-18.5,-54.9,108.7,0.57438,15.1797,17.4928,-30.617,9.28444,-9.30395,-2.12542,-51.8839,86.4567,0.275956,0.279092,1.46591,256.7,6.8,52.1701,4.427219999999999,5.1,1.14473,315.04900000000004,4.54437,171.12099999999998,104.885,147.375,0.633363,-0.381857,249.004,3.60812,3.64452,-34.229400634765604,22.0025119781494,-23.0116176605225,22.0,-1006950.0,-676.819,pp-ro,1,1,-1,-1
1570535946.7,2019-10-08,13:59:06.700,14.0,15.0,21.7700004577637,-6.0,18.2,15.7,-24.4,-50.0,119.4,-0.921769,15.5073,16.9423,-25.7793,6.182519999999999,-16.279,-6.67933,-50.1842,92.8092,0.0336961,0.519062,1.22989,256.7,6.8,52.1701,4.427219999999999,4.9,1.12035,308.816,4.54431,172.96099999999998,104.505,145.975,0.625574,-0.375429,249.29,3.74849,3.76971,-33.2991943359375,22.0025119781494,-23.0116176605225,22.0,-1006150.0,5814.49,pp-ro,1,1,-1,-1
1570535946.8,2019-10-08,13:59:06.800,14.0,13.0,21.4400005340576,-8.1,18.4,14.2,-29.3,-45.0,127.5,-0.921769,15.5073,16.9423,-25.7793,6.182519999999999,-16.279,-6.67933,-50.1842,92.8092,0.0336961,0.519062,1.22989,256.7,6.8,52.1701,4.427219999999999,4.9,1.1198,316.258,4.54424,174.743,104.125,144.775,0.618553,-0.369234,249.674,3.87589,3.87077,-32.0071716308594,22.0025119781494,-23.0116176605225,22.0,-1006100.0,922.935,pp-ro,1,1,-1,-1
