time,date,time_of_day,airspeed_temperature,airspeed_angle_of_attack,airspeed_apparent_windspeed,kite_0_vx,kite_0_vy,kite_0_vz,kite_0_roll,kite_0_pitch,kite_0_yaw,kite_1_vx,kite_1_vy,kite_1_vz,kite_1_ax,kite_1_ay,kite_1_az,kite_1_roll,kite_1_pitch,kite_1_yaw,kite_1_roll_rate,kite_1_pitch_rate,kite_1_yaw_rate,ground_upwind_direction,ground_wind_velocity,ground_pos_latitude,ground_pos_longitude,ground_pos_altitude,ground_tether_reelout_speed,ground_tether_force,est_upwind_direction,kite_pos_east,kite_pos_north,kite_height,kite_elevation,kite_azimuth,kite_distance,kite_heading,kite_course,kite_actual_steering,kite_actual_depower,kite_set_steering,kite_set_depower,ground_mech_energy,ground_mech_power,flight_phase,flight_phase_index,phase,pattern,pattern_section
1570538528.5,2019-10-08,14:42:08.500,15.0,12.0,16.2199993133545,15.4,-2.5,2.6,23.2,-6.5,-48.4,14.1787,-1.63511,3.14857,11.2109,12.9005,1.39715,26.1267,7.823819999999999,-45.8329,0.140947,0.2229699999999999,1.01598,249.2,5.5,52.1701,4.427230000000001,3.5,-2.44073,131.748,4.45981,39.1382,3.04027,237.087,1.40671,0.175056,240.315,0.8240860000000001,1.51569,-34.971832275390604,22.0061168670654,-35.0,22.0,-184429.0,14551.6,pp-riro,4,0,-1,-1
1570538528.6,2019-10-08,14:42:08.600,15.0,8.0,15.880000114440902,16.3,-1.2,2.6,24.4,-8.0,-43.0,15.0165,-0.31993,3.24792,7.42623,16.9247,2.56898,27.7529,6.0821,-40.0014,0.137194,0.192173,0.972061,249.2,5.5,52.1701,4.427230000000001,3.5,-2.26176,107.527,4.45981,38.8753,4.56032,236.987,1.40711,0.135803,240.198,0.962367,1.63937,-34.971832275390604,22.0009689331055,-35.0,22.0,-183341.0,3076.45,pp-riro,4,0,-1,-1
1570538528.7,2019-10-08,14:42:08.700,15.0,8.0,15.6599998474121,16.9,0.0,2.9,25.6,-9.8,-37.3,15.6093,0.883024,3.40297,3.73827,10.7592,2.46895,29.0422,4.096080000000001,-34.1841,0.00137661,0.152532,1.10355,249.2,5.5,52.1701,4.427230000000001,3.5,-2.22797,102.649,4.4598,38.7584,6.46039,236.787,1.40635,0.0874238,240.025,1.11602,1.76137,-34.9957275390625,22.0009689331055,-35.0,22.0,-183553.0,-4337.79,pp-riro,4,0,-1,-1
1570538528.8,2019-10-08,14:42:08.800,15.0,8.0,15.4899997711182,17.5,1.2,3.3,26.6,-11.8,-32.0,15.6093,0.883024,3.40297,3.73827,10.7592,2.46895,29.0422,4.096080000000001,-34.1841,0.00137661,0.152532,1.10355,249.2,5.5,52.1701,4.427230000000001,3.6,-2.22852,103.953,4.45979,38.7584,7.98044,236.587,1.40507,0.0495379,239.874,1.25263,1.86849,-34.9991455078125,22.0009689331055,-35.0,22.0,-183723.0,-3168.74,pp-riro,4,0,-1,-1
1570538528.9,2019-10-08,14:42:08.900,15.0,7.0,15.3100004196167,17.9,2.6,3.7,27.2,-14.0,-26.5,16.1719,2.00399,3.69501,5.73811,13.0019,3.9851,30.089,2.00454,-28.1555,0.14176,0.304881,1.1307,249.2,5.5,52.1701,4.427230000000001,3.6,-2.21522,105.646,4.45977,38.846,9.88051,236.287,1.40276,0.00354629,239.663,1.40141,1.99042,-34.9974365234375,22.0009689331055,-35.0,22.0,-183988.0,-3230.27,pp-riro,4,0,-1,-1
1570538529.0,2019-10-08,14:42:09.000,15.0,7.0,15.1999998092651,18.0,4.2,4.0,27.5,-16.1,-20.6,16.5299,3.36174,4.03586,2.46687,14.8814,5.31622,30.5811,-0.123613,-22.1629,0.0498359,0.234263,0.957796,249.2,5.5,52.1701,4.427230000000001,3.6,-2.19583,97.6796,4.45976,39.1381,11.4006,235.987,1.39974,-0.0308185,239.482,1.54495,2.10896,-34.9974365234375,22.0009689331055,-35.0,22.0,-184440.0,-4153.21,pp-riro,4,0,-1,-1
1570538529.1,2019-10-08,14:42:09.100,15.0,8.0,15.0799999237061,17.9,5.6,4.3,27.2,-18.1,-15.0,16.5344,5.45552,4.62291,-1.71131,13.9148,2.95373,30.9463,-3.50402,-13.6969,0.0528714,0.173203,1.06609,249.2,5.5,52.1701,4.427230000000001,3.6,-2.19694,92.3033,4.45975,39.5762,13.3006,235.687,1.39547,-0.0715755,239.357,1.68891,2.22285,-34.9991455078125,22.0009689331055,-35.0,22.0,-184781.0,-6522.07,pp-riro,4,0,-1,-1
1570538529.2,2019-10-08,14:42:09.200,15.0,9.0,14.960000038147,18.0,7.0,4.4,27.3,-19.4,-9.2,16.4955,6.74372,4.83891,-2.59218,12.7704,3.0448,30.9727,-5.5229,-8.0393,0.140124,0.226069,1.05782,249.2,5.5,52.1701,4.427230000000001,3.6,-2.24847,82.7861,4.45973,40.1311,15.2007,235.387,1.39047,-0.109421,239.267,1.83025,2.32563,-34.9974365234375,22.0009689331055,-35.0,22.0,-185862.0,-12613.4,pp-riro,4,0,-1,-1
1570538529.3,2019-10-08,14:42:09.300,15.0,8.0,14.960000038147,17.8,8.2,4.7,27.1,-20.9,-3.4,16.4334,7.92405,5.00376,-2.23467,11.1546,1.97217,30.8413,-7.02075,-2.2603,0.186098,0.373324,1.01809,249.8,5.6,52.1701,4.427230000000001,3.6,-2.3742400000000004,86.0856,4.45971,40.8029,17.1008,235.087,1.38478,-0.144206,239.21400000000003,1.96821,2.42026,-34.9974365234375,22.0009689331055,-35.0,22.0,-188121.0,-15782.2,pp-riro,4,0,-1,-1
1570538529.4,2019-10-08,14:42:09.400,15.0,8.0,15.0200004577637,17.6,9.4,5.2,26.7,-22.3,2.3,16.4334,7.92405,5.00376,-2.23467,11.1546,1.97217,30.8413,-7.02075,-2.2603,0.186098,0.373324,1.01809,249.8,5.6,52.1701,4.427230000000001,3.6,-2.42245,90.6477,4.45969,41.6207,18.6209,234.687,1.3789,-0.167985,239.076,2.0924,2.50301,-34.9974365234375,22.0009689331055,-35.0,22.0,-188842.0,-13567.1,pp-riro,4,0,-1,-1
1570538529.5,2019-10-08,14:42:09.500,15.0,8.0,14.960000038147,17.3,10.7,5.6,26.0,-23.6,7.9,16.3281,8.52058,5.20149,-3.7661,11.6448,6.79455,30.6797,-7.61976,0.8496889999999999,0.0316372,0.345889,0.96876,249.8,5.6,52.1701,4.427230000000001,3.6,-2.46844,97.1044,4.45966,42.5553,20.5209,234.187,1.37173,-0.196595,238.905,2.21822,2.59371,-34.9974365234375,22.0009689331055,-35.0,22.0,-189771.0,-9075.52,pp-riro,4,0,-1,-1
1570538529.6,2019-10-08,14:42:09.600,15.0,9.0,15.0799999237061,17.0,12.0,6.0,25.2,-24.5,14.2,15.8559,10.7113,6.03021,-1.85612,14.0494,2.59315,29.3172,-10.2229,13.0507,0.0153978999999999,0.281334,0.969261,249.8,5.6,52.1701,4.427230000000001,3.6,-2.48617,100.372,4.45964,43.6652,22.041,233.687,1.36447,-0.2147079999999999,238.751,2.34304,2.6712,-34.9974365234375,22.0009689331055,-35.0,22.0,-190566.0,-7383.48,pp-riro,4,0,-1,-1
1570538529.7,2019-10-08,14:42:09.700,15.0,11.0,15.1899995803833,16.7,13.3,6.3,24.5,-25.3,20.3,15.5414,11.8518,6.315580000000001,-4.624630000000001,11.999,3.52482,28.1026,-11.3474,19.1637,-0.00520757,0.3502139999999999,1.00863,249.8,5.6,52.1701,4.427230000000001,3.6,-2.48007,110.552,4.45961,44.8334,24.3211,233.187,1.35546,-0.244273,238.7,2.47395,2.75611,-34.9991455078125,22.0009689331055,-23.0044822692871,22.0,-191096.0,-1445.93,pp-riro,4,0,-1,-1
1570538529.8,2019-10-08,14:42:09.800,15.0,10.0,15.4799995422363,16.4,14.6,6.7,23.7,-26.2,26.2,15.2756,13.0098,6.63542,-4.9978,12.0604,4.63735,27.0216,-12.1969,25.1336,0.139351,0.247394,0.90916,249.8,5.6,52.1701,4.427230000000001,3.7,-2.45237,116.474,4.45959,46.1185,25.4611,232.587,1.34806,-0.251638,238.479,2.57965,2.81671,-34.9991455078125,22.0009689331055,-23.0044822692871,22.0,-191092.0,92.2935,pp-riro,4,0,-1,-1
1570538529.9,2019-10-08,14:42:09.900,15.0,11.0,15.710000038147,16.1,16.1,7.3,22.8,-27.2,32.3,15.0474,14.3341,7.04436,-2.05429,13.1297,4.09932,25.7549,-13.1738,31.2114,0.0338578,0.2335429999999999,0.969881,249.8,5.6,52.1701,4.427230000000001,3.7,-2.37092,133.924,4.45956,47.6373,27.3612,231.887,1.33818,-0.268531,238.306,2.69665,2.8895,-34.8165283203125,22.0009689331055,-23.0044822692871,22.0,-190489.0,7875.71,pp-riro,4,0,-1,-1
1570538530.0,2019-10-08,14:42:10.000,15.0,11.0,15.9300003051758,15.3,17.4,7.8,21.6,-28.1,38.2,14.9301,15.0969,7.23164,-3.67741,15.5967,4.4863800000000005,24.9867,-13.6113,34.3648,-0.0853929,0.38319,0.957236,249.8,5.6,52.1701,4.427230000000001,3.7,-2.19749,153.298,4.4595400000000005,49.2729,28.8813,231.087,1.3285,-0.2773219999999999,238.04,2.80137,2.95991,-34.222564697265604,22.0009689331055,-23.0044822692871,22.0,-188962.0,16766.6,pp-riro,4,0,-1,-1
1570538530.1,2019-10-08,14:42:10.100,15.0,12.0,16.2600002288818,14.4,18.5,8.2,19.7,-29.0,44.5,13.8942,16.8893,8.08302,-8.25036,14.8462,3.25428,22.724,-15.3151,43.471,0.0216537,0.14178,0.927802,249.8,5.6,52.1701,4.427230000000001,3.7,-1.8257,154.319,4.45951,50.9961,30.4013,230.287,1.31848,-0.284708,237.817,2.90981,3.0243,-33.277008056640604,22.0009689331055,-22.446228027343803,22.0,-185863.0,20273.8,pp-riro,4,0,-1,-1
1570538530.2,2019-10-08,14:42:10.200,15.0,10.0,16.5300006866455,13.2,19.6,8.3,18.1,-29.5,51.1,12.5331,18.3489,8.37244,-11.5682,8.23577,1.78384,20.156,-17.0077,52.5063,-0.00143938,0.132943,0.992707,249.8,5.6,52.1701,4.427230000000001,3.7,-1.56861,143.037,4.45949,52.8654,31.9214,229.487,1.30792,-0.290325,237.651,3.01963,3.09479,-31.9781494140625,22.0009689331055,-21.5612449645996,22.0,-184302.0,13751.7,pp-riro,4,0,-1,-1
1570538530.3,2019-10-08,14:42:10.300,15.0,8.0,16.8999996185303,12.0,20.5,8.4,16.5,-29.2,57.4,12.5331,18.3489,8.37244,-11.5682,8.23577,1.78384,20.156,-17.0077,52.5063,-0.00143938,0.132943,0.992707,247.8,5.4,52.1701,4.427230000000001,3.7,-1.46444,138.30700000000002,4.45945,54.8807,33.0615,228.587,1.29752,-0.2892639999999999,237.396,3.11755,3.15351,-30.320877075195305,22.0009689331055,-20.7484569549561,22.0,-183763.0,10890.6,pp-riro,4,0,-1,-1
1570538530.4,2019-10-08,14:42:10.400,15.0,7.0,17.1100006103516,10.7,21.0,8.6,14.7,-29.4,63.2,11.424,19.2863,8.51975,-14.0333,13.9032,-0.318777,18.9396,-17.8575,58.2282,0.161024,0.170792,0.847791,247.8,5.4,52.1701,4.427230000000001,3.7,-1.2212,123.693,4.45941,56.8959,34.5815,227.687,1.28631,-0.293155,237.222,3.21171,3.2121,-28.3256530761719,22.0009689331055,-20.1040573120117,22.0,-182705.0,5199.2,pp-riro,4,0,-1,-1
1570538530.5,2019-10-08,14:42:10.500,15.0,6.0,17.1599998474121,9.5,21.4,8.5,13.4,-29.2,68.8,10.3146,19.9418,8.77104,-11.7326,4.14024,-0.0614446,17.3948,-18.3898,63.9216,0.345856,0.148499,0.951351,247.8,5.4,52.1701,4.427230000000001,3.7,-1.11481,122.353,4.45936,58.9112,35.7216,226.887,1.27599,-0.292057,237.117,3.29799,3.26139,-25.736473083496104,22.0009689331055,-19.495885848999,22.0,-182382.0,2676.51,pp-riro,4,0,-1,-1
1570538530.6,2019-10-08,14:42:10.600,15.0,5.0,17.2099990844727,8.3,21.7,8.6,12.3,-28.0,74.5,9.75201,20.0828,8.74554,-11.3428,2.76385,0.662501,16.5997,-18.5884,66.7672,0.104988,0.201272,0.92208,247.8,5.4,52.1701,4.427230000000001,3.7,-1.05996,126.384,4.45932,61.131,36.4817,225.987,1.26562,-0.284974,236.935,3.38171,3.30372,-23.9307022094727,22.0009689331055,-18.8884105682373,22.0,-182220.0,3045.68,pp-riro,4,0,-1,-1
1570538530.7,2019-10-08,14:42:10.700,15.0,8.0,17.0599994659424,7.8,21.8,8.8,10.7,-27.6,79.7,7.52828,20.615,8.840539999999999,-10.2302,3.22111,1.78856,14.1183,-18.8152,76.6942,-0.0111316,0.257592,0.808932,247.8,5.4,52.1701,4.427230000000001,3.7,-0.947481,131.129,4.45927,63.2631,37.2417,225.587,1.25618,-0.278935,237.231,3.4578800000000003,3.31787,-22.3178024291992,22.0009689331055,-18.8413124084473,22.0,-181817.0,4368.56,pp-riro,4,0,-1,-1
1570538530.8,2019-10-08,14:42:10.800,15.0,8.0,16.8500003814697,6.4,22.0,8.8,9.5,-27.1,84.7,7.038189999999999,20.7399,8.936639999999999,-6.09327,3.53467,1.30368,13.629,-18.5977,79.301,-0.108402,0.219519,0.8764709999999999,247.8,5.4,52.1701,4.427219999999999,4.0,-0.804528,126.016,4.459219999999999,65.4828,37.6217,224.187,1.24587,-0.268315,236.566,3.5270300000000003,3.3641400000000004,-20.887527465820305,22.0009689331055,-18.081090927124,22.0,-181428.0,3691.74,pp-riro,4,0,-1,-1
1570538530.9,2019-10-08,14:42:10.900,15.0,8.0,16.6399993896484,5.4,22.0,8.7,8.2,-26.9,89.6,5.78724,20.7672,8.760489999999999,-12.2983,1.10809,0.2055719999999999,11.482,-18.111,86.9353,0.190965,0.113043,0.725718,247.8,5.4,52.1701,4.427219999999999,4.0,-0.6621279999999999,117.104,4.45918,67.6734,38.7618,223.287,1.23477,-0.266952,236.515,3.60206,3.40227,-19.7764129638672,22.0009689331055,-17.7629508972168,22.0,-181155.0,1045.99,pp-riro,4,0,-1,-1
1570538531.0,2019-10-08,14:42:11.000,15.0,7.0,16.3600006103516,4.9,22.1,8.6,7.5,-26.6,92.1,5.78724,20.7672,8.760489999999999,-12.2983,1.10809,0.2055719999999999,11.482,-18.111,86.9353,0.190965,0.113043,0.725718,247.8,5.4,52.1701,4.427219999999999,4.0,-0.582341,125.742,4.45911,68.8124,39.1418,222.787,1.22937,-0.263898,236.435,3.638830000000001,3.4207300000000003,-18.8240356445312,22.0009689331055,-17.5538482666016,22.0,-181035.0,1445.93,pp-riro,4,0,-1,-1
1570538531.1,2019-10-08,14:42:11.100,15.0,8.0,16.0900001525879,4.0,22.3,8.7,6.2,-25.8,96.1,4.46289,21.1221,8.54508,-3.97911,0.181647,0.43158,9.22175,-17.8722,94.0193,0.0335471,0.231142,0.841356,247.8,5.4,52.1701,4.427219999999999,4.0,-0.532473,130.615,4.45909,71.0322,39.5219,221.887,1.21964,-0.2544369999999999,236.308,3.69461,3.44932,-18.4383010864258,22.0009689331055,-17.1773796081543,22.0,-180937.0,1845.87,pp-riro,4,0,-1,-1
1570538531.2,2019-10-08,14:42:11.200,15.0,9.0,15.9200000762939,3.0,22.4,8.8,4.9,-24.9,100.1,3.5258,21.2207,8.55616,-10.0733,-1.05892,2.21225,7.923039999999999,-17.2797,98.2706,-0.196354,0.310014,0.7182569999999999,247.8,5.4,52.1701,4.427219999999999,4.0,-0.388966,137.648,4.45904,73.2811,39.9019,220.987,1.20977,-0.245267,236.215,3.75136,3.4813,-17.8767700195312,22.0009689331055,-16.7567234039307,22.0,-180731.0,2091.99,pp-riro,4,0,-1,-1
1570538531.3,2019-10-08,14:42:11.300,15.0,9.0,15.5799999237061,1.7,22.4,8.8,3.9,-24.8,104.1,2.56306,21.2887,8.64043,-7.54127,0.196761,-0.846567,6.70763,-16.9971,102.347,0.261927,0.00462852,0.7618779999999999,249.0,5.2,52.1701,4.427219999999999,4.0,-0.226066,139.351,4.45901,75.6177,40.282,220.087,1.19956,-0.236085,236.176,3.80497,3.52545,-17.421066284179698,22.0009689331055,-16.1190547943115,22.0,-180563.0,1476.7,pp-riro,4,0,-1,-1
1570538531.4,2019-10-08,14:42:11.400,15.0,11.0,15.3500003814697,0.7,22.2,8.6,2.5,-24.8,107.4,2.56306,21.2887,8.64043,-7.54127,0.196761,-0.846567,6.70763,-16.9971,102.347,0.261927,0.00462852,0.7618779999999999,249.0,5.2,52.1701,4.427219999999999,4.0,0.0260419,128.615,4.45898,77.8374,40.282,219.087,1.19026,-0.2241639999999999,235.967,3.84464,3.5557300000000005,-16.8766021728516,22.0009689331055,-15.6562576293945,22.0,-180514.0,-123.058,pp-riro,4,0,-1,-1
1570538531.5,2019-10-08,14:42:11.500,15.0,8.0,15.5299997329712,0.0,22.1,8.3,0.9,-24.1,110.5,0.485513,21.2093,8.25024,-8.45768,-2.44872,-2.29546,4.34029,-16.6997,109.112,0.0414608,0.163952,0.555109,249.0,5.2,52.1701,4.427219999999999,4.0,0.0820041999999999,124.142,4.45896,80.0864,40.282,218.187,1.18096,-0.212612,235.886,3.88479,3.57577,-16.5949859619141,22.0009689331055,-15.417893409729,22.0,-180532.0,-338.409,pp-riro,4,0,-1,-1
1570538531.6,2019-10-08,14:42:11.600,15.0,10.0,15.640000343322802,-0.8,22.0,8.3,-0.3,-23.4,113.8,0.121246,21.0888,8.132480000000001,-0.7984859999999999,2.25043,-0.7012470000000001,3.49592,-16.5946,110.548,-0.1137349999999999,0.177821,0.565367,249.0,5.2,52.1701,4.427219999999999,4.0,0.168995,116.88,4.4589300000000005,82.42299999999999,40.282,217.287,1.17129,-0.201127,235.86,3.92825,3.59846,-15.919097900390598,22.0009689331055,-15.1576795578003,22.0,-180572.0,-369.174,pp-riro,4,0,-1,-1
1570538531.7,2019-10-08,14:42:11.700,15.0,10.0,15.75,-1.4,21.6,8.3,-1.8,-23.1,116.7,-0.206679,21.0216,8.03937,-7.79813,-0.615903,-1.94304,2.96697,-16.4488,111.963,-0.023268,-0.00423942,0.438515,249.0,5.2,52.1701,4.427219999999999,4.0,0.207781,114.151,4.4589,84.5843,40.2821,216.387,1.1622,-0.190965,235.797,3.9647,3.61414,-15.4992294311523,22.0009689331055,-15.0547199249268,22.0,-180583.0,92.2935,pp-riro,4,0,-1,-1
1570538531.8,2019-10-08,14:42:11.800,15.0,8.0,15.640000343322802,-2.0,21.4,8.2,-3.3,-22.4,119.5,-0.875862,20.7772,7.95093,-4.73574,-4.61631,-0.152715,1.7911099999999998,-16.1752,114.825,-0.1325849999999999,0.00951457,0.406021,249.0,5.2,52.1701,4.427219999999999,4.2,0.187834,115.821,4.45887,86.7748,40.2821,215.487,1.15297,-0.181093,235.769,4.00212,3.63151,-15.1578750610352,22.0009689331055,-14.9450464248657,22.0,-180550.0,215.351,pp-riro,4,0,-1,-1
1570538531.9,2019-10-08,14:42:11.900,15.0,10.0,15.4700002670288,-2.7,21.1,8.2,-4.6,-21.5,122.1,-1.80197,20.4315,7.87038,-7.97946,-0.425804,-1.2898,-0.520829,-15.9856,118.771,-0.194912,0.1672,0.402873,249.0,5.2,52.1701,4.427219999999999,4.2,0.208335,118.069,4.45884,88.9654,39.9021,214.587,1.14431,-0.168072,235.7,4.0351300000000005,3.65004,-14.9974365234375,22.0009689331055,-14.712197303772,22.0,-180546.0,246.116,pp-riro,4,0,-1,-1
1570538532.0,2019-10-08,14:42:12.000,15.0,11.0,15.2299995422363,-3.4,20.9,8.2,-5.9,-20.7,124.5,-2.36737,20.1403,7.873130000000001,-6.49336,-2.71722,0.663732,-1.88287,-15.0818,121.213,-0.186493,0.0635178,0.319144,249.0,5.2,52.1701,4.427219999999999,4.2,0.1972529999999999,114.706,4.458819999999999,91.1559,39.5221,213.687,1.13558,-0.155532,235.655,4.06511,3.66925,-14.8438262939453,22.0009689331055,-14.4942569732666,22.0,-180525.0,123.058,pp-riro,4,0,-1,-1
1570538532.1,2019-10-08,14:42:12.100,15.0,11.0,15.119999885559098,-4.1,20.6,8.2,-7.2,-20.4,126.4,-3.50935,19.8732,7.84553,-6.753019999999999,-4.2851,-0.6760010000000001,-3.69429,-14.0353,124.57,-0.248427,0.0697964,0.271811,249.0,5.2,52.1701,4.427219999999999,4.2,0.1972529999999999,115.522,4.4587900000000005,93.2296,39.5222,212.787,1.12663,-0.147359,235.652,4.08817,3.693130000000001,-14.7124099731445,22.0009689331055,-14.3227949142456,22.0,-180519.0,123.058,pp-riro,4,0,-1,-1
1570538532.2,2019-10-08,14:42:12.200,15.0,11.0,14.880000114440902,-4.8,20.5,8.1,-8.2,-20.1,128.2,-4.2528,19.5952,7.72693,-6.14896,0.867791,-0.705996,-5.00694,-14.07,126.242,-0.262691,-0.0615311,0.282586,249.0,5.2,52.1701,4.427219999999999,4.2,0.221079,134.157,4.45876,95.3033,38.7622,211.787,1.11858,-0.132664,235.455,4.104080000000001,3.711430000000001,-14.505889892578098,22.0009689331055,-14.0544261932373,22.0,-180515.0,-61.529,pp-riro,4,0,-1,-1
1570538532.3,2019-10-08,14:42:12.300,15.0,9.0,14.8199996948242,-5.5,20.2,8.2,-9.2,-19.5,129.7,-5.01409,19.4852,7.776210000000001,-10.2297,-4.43981,-1.18013,-6.06758,-13.9003,127.951,-0.166163,0.0068617,0.192744,253.4,5.9,52.1701,4.427219999999999,4.2,0.236039,141.45600000000002,4.45874,97.2894,38.3822,210.887,1.1104,-0.122124,235.397,4.12112,3.73268,-14.220855712890598,22.0009689331055,-13.8562908172607,22.0,-180518.0,-61.529,pp-riro,4,0,-1,-1
1570538532.4,2019-10-08,14:42:12.400,15.0,12.0,14.880000114440902,-6.2,20.1,8.4,-10.5,-19.0,131.2,-5.36166,19.3979,7.83698,-7.151260000000001,-3.35714,0.897144,-6.844069999999999,-13.5483,128.593,-0.0911916,0.0312274,0.289984,253.4,5.9,52.1701,4.427219999999999,4.2,0.257648,147.54399999999998,4.45873,99.3631,37.6222,209.987,1.10238,-0.1083,235.336,4.13473,3.74839,-13.983612060546902,22.0009689331055,-13.6881647109985,22.0,-180494.0,369.174,pp-riro,4,0,-1,-1
1570538532.5,2019-10-08,14:42:12.500,15.0,13.0,14.880000114440902,-6.7,20.0,8.4,-11.7,-18.5,133.1,-5.90458,19.1778,7.94942,-4.65378,-0.934296,-0.185401,-8.22643,-13.365,130.091,-0.194798,-0.00821669,0.337857,253.4,5.9,52.1701,4.427219999999999,4.2,0.251553,147.14700000000002,4.45872,101.32,36.8622,208.987,1.09451,-0.0952614,235.16,4.1552,3.7585,-13.8538970947266,22.0009689331055,-13.6584901809692,22.0,-180460.0,307.645,pp-riro,4,0,-1,-1
1570538532.6,2019-10-08,14:42:12.600,15.0,14.0,14.9399995803833,-7.6,20.1,8.4,-12.8,-18.2,135.2,-6.17079,19.1396,7.940230000000001,-6.353619999999999,-1.79642,-0.7140270000000001,-8.82129,-13.3859,131.13,-0.101001,-0.0276359,0.267746,253.4,5.9,52.1701,4.427219999999999,4.2,0.262635,157.74,4.4587,103.394,36.4823,208.087,1.08586,-0.0855256,235.205,4.18007,3.78576,-13.6695709228516,22.0009689331055,-13.4407730102539,22.0,-180446.0,61.529,pp-riro,4,0,-1,-1
1570538532.7,2019-10-08,14:42:12.700,15.0,11.0,14.9899997711182,-8.4,19.7,8.7,-13.9,-18.5,137.3,-6.45524,19.1628,7.902830000000001,-4.3022,1.94776,-0.749542,-9.78531,-13.4003,131.997,-0.0236373,-0.0565388,0.3301389999999999,253.4,5.9,52.1701,4.427219999999999,4.2,0.29311,174.825,4.45869,105.38,35.7223,207.087,1.07775,-0.0731318,235.087,4.19807,3.80748,-13.5398559570312,22.0009689331055,-13.2478189468384,22.0,-180446.0,0.0,pp-riro,4,0,-1,-1
1570538532.8,2019-10-08,14:42:12.800,15.0,13.0,15.1700000762939,-9.0,19.4,8.7,-15.3,-18.9,139.4,-7.7604,18.9819,8.10512,-10.5639,-5.68861,-0.557375,-11.7269,-13.0841,135.425,-0.108899,-0.140303,0.348937,253.4,5.9,52.1701,4.427219999999999,4.4,0.31084,181.064,4.45868,107.337,34.9623,206.087,1.06967,-0.0611774999999999,234.979,4.21537,3.8243,-13.4493942260742,22.0009689331055,-13.182271003723098,22.0,-180444.0,30.7645,pp-riro,4,0,-1,-1
1570538532.9,2019-10-08,14:42:12.900,15.0,12.0,15.289999961853,-9.6,19.1,8.7,-16.3,-18.6,141.4,-8.46717,18.6292,8.262839999999999,-6.54875,-3.53851,0.749391,-13.1855,-13.3329,137.447,-0.218157,-0.0005724269999999,0.358369,253.4,5.9,52.1701,4.427219999999999,4.4,0.321368,185.306,4.45867,109.235,33.8223,205.087,1.06215,-0.0465431999999999,234.812,4.23426,3.83886,-13.3367462158203,22.0009689331055,-13.0726833343506,22.0,-180403.0,492.232,pp-riro,4,0,-1,-1
1570538533.0,2019-10-08,14:42:13.000,15.0,10.0,15.5200004577637,-10.3,18.7,8.7,-16.9,-18.3,143.1,-9.3208,18.1067,8.26877,-6.32949,-4.26473,1.44897,-14.802,-13.5308,140.268,-0.0807203,-0.0826891,0.300199,253.4,5.9,52.1701,4.427219999999999,4.4,0.3185969999999999,183.022,4.45865,111.075,32.6823,204.187,1.05496,-0.0324239,234.73,4.24916,3.85921,-13.2138595581055,22.0009689331055,-12.8571968078613,22.0,-180353.0,522.996,pp-riro,4,0,-1,-1
1570538533.1,2019-10-08,14:42:13.100,15.0,9.0,15.6800003051758,-10.8,18.2,8.7,-17.9,-18.0,144.9,-9.3208,18.1067,8.26877,-6.32949,-4.26473,1.44897,-14.802,-13.5308,140.268,-0.0807203,-0.0826891,0.300199,253.4,5.9,52.1701,4.427219999999999,4.4,0.313611,180.618,4.45864,112.974,31.9223,203.187,1.04688,-0.0216357,234.663,4.26825,3.87651,-13.0858535766602,22.0009689331055,-12.8816719055176,22.0,-180295.0,553.761,pp-riro,4,0,-1,-1
1570538533.2,2019-10-08,14:42:13.200,15.0,9.0,15.8000001907349,-11.1,17.7,8.6,-18.5,-17.6,146.5,-9.3208,18.1067,8.26877,-6.32949,-4.26473,1.44897,-14.802,-13.5308,140.268,-0.0807203,-0.0826891,0.300199,253.4,5.9,52.1701,4.427219999999999,4.4,0.309178,176.668,4.45863,114.755,30.4023,202.187,1.03988,-0.00521969,234.462,4.28062,3.88332,-12.8690872192383,22.0009689331055,-12.9118156433105,22.0,-180243.0,553.761,pp-riro,4,0,-1,-1
1570538533.3,2019-10-08,14:42:13.300,15.0,9.0,16.020000457763697,-11.6,17.4,8.4,-19.0,-17.5,148.1,-10.2493,17.4363,8.31447,-4.11862,-5.68708,0.698857,-16.3147,-13.4347,142.785,-0.058723,-0.0300858,0.2862,254.2,5.1,52.1701,4.427219999999999,4.4,0.2992039999999999,171.405,4.45859,116.449,29.2623,201.287,1.03295,0.00761176,234.378,4.29347,3.89946,-12.857147216796902,22.0009689331055,35.0,22.0,-180185.0,584.525,pp-riro,4,0,-1,-1
1570538533.4,2019-10-08,14:42:13.400,15.0,8.0,16.0699996948242,-12.2,17.0,8.1,-18.8,-17.2,149.5,-11.1079,16.5754,7.980580000000001,-4.36969,-3.65643,-0.633695,-17.4117,-13.3673,146.114,-0.125887,-0.0174025,0.195242,254.2,5.1,52.1701,4.427219999999999,4.4,0.297542,175.725,4.45852,118.143,28.5023,200.387,1.02562,0.0171414,234.361,4.30783,3.92581,-12.833251953125,22.0009689331055,35.0,22.0,-180140.0,369.174,pp-riro,4,0,-1,-1
1570538533.5,2019-10-08,14:42:13.500,15.0,12.0,16.5,-12.8,16.2,8.1,-18.9,-17.2,150.6,-11.7535,16.0751,7.807510000000001,-9.3506,-6.11039,0.266694,-17.6111,-13.1506,147.451,-0.0173402,0.052737,0.277319,254.2,5.1,52.1701,4.427219999999999,4.4,0.589544,189.02,4.45845,119.721,27.3623,199.586,1.0192,0.0292453,234.343,4.31313,3.95318,-12.7752151489258,22.0009689331055,35.0,22.0,-181023.0,-11321.3,pp-riro,4,0,-1,-1
1570538533.6,2019-10-08,14:42:13.600,15.0,10.0,16.870000839233402,-12.8,16.1,7.8,-19.3,-17.0,152.2,-12.3399,15.5439,7.70073,-5.07465,-5.10749,-3.66505,-17.5266,-13.0874,148.928,0.132436,-0.0509127,0.180062,254.2,5.1,52.1701,4.427219999999999,4.4,0.815055,185.972,4.45838,121.327,25.8423,198.686,1.0126700000000002,0.0441104,234.231,4.32509,3.94779,-12.4031372070312,22.0009689331055,35.0,22.0,-181817.0,-15105.4,pp-riro,4,0,-1,-1
1570538533.7,2019-10-08,14:42:13.700,15.0,8.0,17.3899993896484,-12.8,15.9,7.2,-19.5,-16.0,153.9,-12.2282,15.1315,7.05477,-6.27982,-0.7417729999999999,-8.840710000000001,-17.8641,-12.7204,151.245,-0.0509895999999999,-0.00778202,0.140036,254.2,5.1,52.1701,4.427219999999999,4.4,0.999011,167.72400000000002,4.45832,122.875,24.7023,197.986,1.00644,0.0556475,234.323,4.34857,3.9529,-11.672637939453098,22.0009689331055,35.0,22.0,-181864.0,11905.9,pp-riro,4,0,-1,-1
1570538533.8,2019-10-08,14:42:13.800,15.0,7.0,17.5400009155273,-13.0,15.4,7.3,-19.2,-14.9,155.0,-12.4306,14.915,6.85398,-2.12235,-2.12252,1.80123,-18.0058,-11.8529,152.703,0.241902,0.0563572,0.230957,254.2,5.1,52.1701,4.42721,4.4,0.7823640000000001,163.845,4.45825,124.394,23.1823,197.186,1.00027,0.0698922,234.294,4.36227,3.95742,-10.5837173461914,22.0009689331055,35.0,22.0,-181106.0,861.4060000000001,pp-riro,4,0,-1,-1
1570538533.9,2019-10-08,14:42:13.900,15.0,7.0,17.7399997711182,-13.2,14.7,7.6,-19.4,-14.1,155.8,-12.5833,14.5444,7.10568,-4.68302,-7.56158,4.9021300000000005,-18.1039,-11.3643,153.321,0.0633765999999999,0.0648589,0.238392,254.2,5.1,52.1701,4.42721,4.4,0.95413,182.5,4.4581800000000005,125.913,21.6623,196.386,0.994023,0.0838001999999999,234.288,4.36926,3.96339,-9.13295745849609,22.0009689331055,35.0,22.0,-181792.0,-1261.34,pp-riro,4,0,-1,-1
1570538534.0,2019-10-08,14:42:14.000,15.0,9.0,17.7900009155273,-13.0,14.5,7.3,-19.7,-13.9,157.1,-12.675,14.2654,7.306030000000001,1.11266,-4.09545,4.8123,-18.2495,-11.1116,154.05,0.0245406,0.0162352999999999,0.233631,254.2,5.1,52.1701,4.42721,4.4,0.8760040000000001,160.94799999999998,4.45811,127.373,20.5223,195.586,0.987677,0.0945293,234.306,4.38062,3.95753,-7.32548522949219,22.0009689331055,35.0,22.0,-181186.0,553.761,pp-riro,4,0,-1,-1
1570538534.1,2019-10-08,14:42:14.100,15.0,8.0,17.7399997711182,-13.0,14.5,7.1,-19.9,-12.7,157.5,-12.6162,13.8631,7.14037,1.22466,-2.2461,-5.89543,-18.0712,-11.4007,155.44299999999998,-0.184061,-0.0883571,0.0394304,254.2,5.1,52.1701,4.42721,4.4,0.878775,156.98,4.45805,128.775,19.0022,194.886,0.981923,0.107839,234.36,4.386419999999999,3.95034,-5.23638916015625,22.0009689331055,35.0,22.0,-181140.0,892.17,pp-riro,4,0,-1,-1
1570538534.2,2019-10-08,14:42:14.200,15.0,8.0,17.6900005340576,-13.3,14.6,7.5,-19.9,-11.6,157.6,-12.4814,13.8142,6.95352,0.487415,-1.32891,-4.30403,-18.3385,-11.5244,156.001,-0.0934598,-0.071055,0.0809503999999999,254.2,5.1,52.1701,4.42721,4.4,0.876558,169.21099999999998,4.45798,130.17700000000002,17.8622,194.186,0.975912,0.118048,234.46400000000003,4.38968,3.94294,-3.1336441040039102,22.0009689331055,35.0,22.0,-180991.0,830.6410000000001,pp-riro,4,0,-1,-1
1570538534.3,2019-10-08,14:42:14.300,15.0,10.0,17.5400009155273,-13.4,14.5,8.2,-20.6,-12.2,158.0,-13.1343,14.0795,7.413530000000001,-2.02525,0.782328,8.42595,-19.3627,-10.5386,156.988,-0.123412,-0.0723549,0.154327,255.3,5.4,52.1701,4.42721,4.4,0.91756,186.451,4.45794,131.608,16.7222,193.386,0.969517,0.128065,234.518,4.38132,3.92743,-1.0360107421875,22.0009689331055,35.0,22.0,-181048.0,-522.996,pp-riro,4,0,-1,-1
1570538534.4,2019-10-08,14:42:14.400,15.0,11.0,17.2800006866455,-13.1,14.7,8.3,-21.3,-12.6,158.3,-13.1252,14.0737,7.819,6.08443,2.85669,8.272089999999999,-19.5138,-11.0655,157.44,0.0206923,-0.295164,0.0757701,255.3,5.4,52.1701,4.42721,4.4,0.932521,188.435,4.45793,133.01,15.2022,192.486,0.96309,0.140656,234.465,4.3712800000000005,3.89972,1.07808685302734,22.0009689331055,35.0,22.0,-180916.0,1907.4,pp-riro,4,0,-1,-1
1570538534.5,2019-10-08,14:42:14.500,15.0,11.0,17.020000457763697,-12.9,15.0,8.4,-22.2,-12.6,157.5,-13.0003,14.5076,7.94972,1.82882,3.92093,1.92578,-20.7302,-12.7576,157.845,-0.242335,-0.0498894,-0.214361,255.3,5.4,52.1701,4.42721,4.4,0.91202,181.08,4.45793,134.412,14.0622,191.686,0.956699,0.150222,234.538,4.35198,3.87608,3.17636108398438,22.0009689331055,35.0,22.0,-180619.0,1661.28,pp-riro,4,0,-1,-1
1570538534.6,2019-10-08,14:42:14.600,15.0,11.0,16.9699993133545,-13.1,15.3,9.3,-22.8,-12.9,156.4,-13.0003,14.5076,7.94972,1.82882,3.92093,1.92578,-20.7302,-12.7576,157.845,-0.242335,-0.0498894,-0.214361,255.3,5.4,52.1701,4.42721,4.4,0.918669,189.739,4.45792,135.90200000000002,13.3023,190.786,0.949592,0.156895,234.618,4.32798,3.85585,5.291664123535161,22.0009689331055,35.0,22.0,-180511.0,830.6410000000001,pp-riro,4,0,-1,-1
1570538534.7,2019-10-08,14:42:14.700,15.0,10.0,16.870000839233402,-13.0,15.3,9.7,-23.5,-13.4,155.8,-13.0003,14.5076,7.94972,1.82882,3.92093,1.92578,-20.7302,-12.7576,157.845,-0.242335,-0.0498894,-0.214361,255.3,5.4,52.1701,4.42721,4.4,0.928088,194.197,4.45791,137.391,11.0222,190.386,0.944168,0.174423,235.042,4.30044,3.83112,7.393341064453121,22.0009689331055,35.0,22.0,-180496.0,276.88,pp-riro,4,0,-1,-1
1570538534.8,2019-10-08,14:42:14.800,15.0,11.0,16.7600002288818,-12.0,15.8,10.3,-24.9,-16.2,153.9,-13.0674,15.3978,9.66769,7.3501,5.68571,8.73862,-23.7861,-15.6493,156.173,-0.32653,-0.4393579999999999,-0.2076889999999999,255.3,5.4,52.1701,4.42721,4.3,0.945819,197.803,4.45791,138.881,10.2622,188.786,0.935242,0.180725,234.592,4.241630000000001,3.76968,9.5018310546875,22.0009689331055,35.0,22.0,-180382.0,1692.05,pp-riro,4,0,-1,-1
1570538534.9,2019-10-08,14:42:14.900,15.0,11.0,16.6000003814697,-11.6,16.3,10.9,-25.4,-17.9,151.3,-13.0674,15.3978,9.66769,7.3501,5.68571,8.73862,-23.7861,-15.6493,156.173,-0.32653,-0.4393579999999999,-0.2076889999999999,255.3,5.4,52.1701,4.42721,4.3,0.940832,197.797,4.4579,140.4,9.12225,187.786,0.927786,0.189609,234.646,4.18192,3.729530000000001,11.6137237548828,22.0009689331055,35.0,22.0,-180174.0,2061.22,pp-riro,4,0,-1,-1
1570538535.0,2019-10-08,14:42:15.000,15.0,11.0,16.6000003814697,-11.1,16.6,11.8,-26.1,-20.2,148.1,-12.1593,16.7466,11.294,4.69524,4.43164,8.52122,-26.2745,-21.8832,151.531,-0.2787949999999999,-0.350513,-0.52873,255.3,5.4,52.1701,4.42721,4.3,0.943602,201.528,4.45789,141.977,7.60225,186.686,0.919912,0.201,234.663,4.10674,3.68397,13.7136993408203,22.0009689331055,35.0,22.0,-180047.0,1076.76,pp-riro,4,0,-1,-1
1570538535.1,2019-10-08,14:42:15.100,15.0,10.0,16.6499996185303,-10.6,16.8,12.2,-26.2,-21.6,146.8,-11.8565,16.9534,11.8393,3.6769,2.05875,10.0207,-26.6221,-23.856,150.575,-0.383285,-0.4254239999999999,-0.664095,255.3,5.4,52.1701,4.42721,4.3,0.971306,218.408,4.45788,142.736,7.22226,186.186,0.916118,0.203949,234.715,4.0734900000000005,3.65433,15.8238983154297,22.0009689331055,35.0,22.0,-179909.0,799.877,pp-riro,4,0,-1,-1
1570538535.2,2019-10-08,14:42:15.200,15.0,10.0,16.7600002288818,-8.6,17.3,13.1,-25.2,-26.2,140.5,-10.8329,17.502,12.7487,10.7515,5.21698,4.97135,-27.4812,-27.9955,148.055,-0.302461,-0.573788,-0.819263,255.3,5.4,52.1701,4.42721,4.3,0.987929,223.997,4.45788,145.219,5.7022900000000005,184.386,0.9033,0.215265,234.775,3.93714,3.5501,17.9289855957031,22.0009689331055,35.0,22.0,-179771.0,1753.58,pp-riro,4,0,-1,-1
1570538535.3,2019-10-08,14:42:15.300,15.0,10.0,16.9099998474121,-7.9,17.4,13.4,-24.7,-27.6,137.8,-8.76545,18.3379,13.9519,11.8162,4.2952,10.5056,-26.3096,-32.7204,140.753,-0.35139,-0.315434,-0.964112,250.2,6.7,52.1701,4.42721,4.3,0.987375,223.278,4.45786,146.066,4.94229,183.686,0.8987139999999999,0.220707,234.734,3.88428,3.5136300000000005,20.0476913452148,22.0009689331055,35.0,22.0,-179667.0,1938.16,pp-riro,4,0,-1,-1
1570538535.4,2019-10-08,14:42:15.400,15.0,9.0,17.1700000762939,-6.4,17.6,14.1,-23.3,-30.2,132.0,-7.16556,18.7361,14.7809,12.2369,5.80463,5.62401,-25.136,-36.6363,135.291,-0.461136,-0.242476,-0.928266,250.2,6.7,52.1701,4.42721,4.3,0.982942,219.607,4.45783,147.76,4.56233,182.486,0.889932,0.2236929999999999,234.851,3.78242,3.44215,22.1612854003906,22.0009689331055,35.0,22.0,-179457.0,2245.81,pp-riro,4,0,-1,-1
1570538535.5,2019-10-08,14:42:15.500,15.0,9.0,17.3199996948242,-4.6,17.8,14.8,-21.2,-33.1,125.7,-7.16556,18.7361,14.7809,12.2369,5.80463,5.62401,-25.136,-36.6363,135.291,-0.461136,-0.242476,-0.928266,250.2,6.7,52.1701,4.42721,4.3,0.971306,211.742,4.4578,149.512,3.80236,181.086,0.8804549999999999,0.2291619999999999,234.863,3.67212,3.3572800000000003,24.2680740356445,22.0009689331055,35.0,22.0,-179150.0,1876.63,pp-riro,4,0,-1,-1
1570538535.6,2019-10-08,14:42:15.600,15.0,10.0,17.370000839233402,-2.6,17.9,14.9,-18.7,-35.8,119.0,-5.21157,19.0767,15.5415,17.9168,5.073180000000001,1.81362,-23.3541,-40.0772,129.702,-0.174782,-0.40088,-0.9000389999999999,250.2,6.7,52.1701,4.42721,4.3,0.960225,211.04,4.45777,151.236,3.4224,179.78599999999997,0.871309,0.231992,234.961,3.56313,3.27015,26.373161315918,22.0009689331055,35.0,22.0,-178911.0,2307.34,pp-riro,4,0,-1,-1
1570538535.7,2019-10-08,14:42:15.700,15.0,11.0,17.4699993133545,-0.8,18.0,15.2,-14.7,-37.5,111.2,-3.11127,19.457,15.8138,23.6286,4.7905,3.9091,-20.7516,-43.1649,123.125,-0.235409,0.091612,-0.971031,250.2,6.7,52.1701,4.42721,4.3,0.96632,219.423,4.45774,153.017,3.42245,178.486,0.861952,0.232285,235.124,3.44985,3.19262,28.485046386718803,22.0009689331055,35.0,22.0,-178851.0,1107.52,pp-riro,4,0,-1,-1
1570538535.8,2019-10-08,14:42:15.800,15.0,11.0,17.4200000762939,1.0,17.8,15.6,-9.8,-39.0,102.3,0.0930143,19.6026,16.6915,18.6521,-5.10845,6.235180000000001,-14.9537,-47.3296,110.241,-0.363705,-0.145103,-1.27273,250.2,6.7,52.1701,4.42721,4.1,1.00788,240.708,4.45771,154.74,3.0425,177.18599999999998,0.8528209999999999,0.235017,235.263,3.32309,3.11416,30.4521789550781,22.0009689331055,35.0,22.0,-178868.0,-338.409,pp-riro,4,0,-1,-1
1570538535.9,2019-10-08,14:42:15.900,15.0,10.0,17.5699996948242,3.1,17.2,15.9,-4.0,-40.3,92.0,2.47209,19.3027,17.1885,19.5484,-8.96679,0.30412,-9.68488,-49.9868,100.144,0.0421951,-0.371593,-1.51745,250.2,6.7,52.1701,4.42721,4.1,1.03447,252.26,4.45768,156.52200000000002,3.42256,175.78599999999997,0.8431850000000001,0.232843,235.396,3.18489,3.02606,32.0684661865234,22.0009689331055,23.0044822692871,22.0,-178737.0,1599.75,pp-riro,4,0,-1,-1
1570538536.0,2019-10-08,14:42:16.000,15.0,10.0,17.8199996948242,5.1,16.7,15.6,1.7,-41.2,82.3,4.88275,18.7624,17.1976,22.9194,-9.62738,-0.939766,-2.59258,-52.3479,88.8892,-0.0845624,-0.36024,-1.44123,250.2,6.7,52.1701,4.42721,4.1,1.03558,244.663,4.45765,158.187,3.80262,174.486,0.83421,0.230701,235.548,3.05862,2.9396,33.332199096679695,22.0009689331055,23.0044822692871,22.0,-178506.0,3045.68,pp-ro,1,1,-1,-1
1570538536.1,2019-10-08,14:42:16.100,15.0,11.0,18.0599994659424,7.2,15.9,15.0,8.3,-40.7,71.8,7.226260000000001,18.2551,16.6599,20.7889,-6.2537,-8.91274,6.23733,-52.7154,75.7036,0.182743,-0.0627831,-1.43865,250.2,6.7,52.1701,4.42721,4.1,0.992362,228.578,4.45762,159.852,4.18269,173.08599999999998,0.8249569999999999,0.228604,235.645,2.92194,2.84248,34.2314453125,22.0009689331055,23.0044822692871,22.0,-178006.0,2522.69,pp-ro,1,1,-1,-1
1570538536.2,2019-10-08,14:42:16.200,15.0,10.0,18.1100006103516,9.0,14.9,14.5,14.4,-39.3,61.6,7.226260000000001,18.2551,16.6599,20.7889,-6.2537,-8.91274,6.23733,-52.7154,75.7036,0.182743,-0.0627831,-1.43865,250.2,6.7,52.1701,4.42721,4.1,0.999565,231.179,4.4576,161.399,4.94276,171.78599999999997,0.816327,0.224179,235.764,2.78714,2.75509,34.7713623046875,22.0009689331055,23.0044822692871,22.0,-177860.0,1476.7,pp-ro,1,1,-1,-1
1570538536.3,2019-10-08,14:42:16.300,15.0,9.0,17.9599990844727,10.8,13.8,13.7,19.9,-36.8,51.3,9.34888,17.3636,16.2249,22.5721,-11.7371,-2.11018,13.9647,-51.2337,63.1006,-0.509347,0.0968866999999999,-1.13771,251.3,7.6,52.1701,4.42721,4.1,1.00289,231.841,4.45757,162.86,6.08283,170.386,0.8076300000000001,0.217488,235.779,2.64434,2.66129,34.968917846679695,22.0009689331055,23.0044822692871,22.0,-177759.0,1938.16,pp-ro,1,1,-1,-1
1570538536.4,2019-10-08,14:42:16.400,15.0,12.0,17.659999847412102,12.5,12.4,12.9,25.1,-33.7,42.4,12.7663,15.479,14.8616,20.4615,-13.1657,-4.747,24.0038,-47.0745,45.5905,0.108389,-0.0655817,-1.35219,251.3,7.6,52.1701,4.42721,4.1,0.998456,231.575,4.45754,164.203,6.8429,169.18599999999998,0.799908,0.213196,235.867,2.50991,2.56094,34.8428955078125,22.0009689331055,21.907527923584,22.0,-177557.0,1907.4,pp-ro,1,1,-1,-1
1570538536.5,2019-10-08,14:42:16.500,15.0,11.0,17.5100002288818,13.9,11.1,11.9,29.1,-30.4,34.4,12.7663,15.479,14.8616,20.4615,-13.1657,-4.747,24.0038,-47.0745,45.5905,0.108389,-0.0655817,-1.35219,251.3,7.6,52.1701,4.42721,4.1,1.0012299999999998,228.632,4.45752,165.37099999999998,7.98296,168.08599999999998,0.792956,0.206634,235.933,2.38375,2.46805,34.3234252929688,22.0009689331055,20.2793292999268,22.0,-177363.0,2153.51,pp-ro,1,1,-1,-1
1570538536.6,2019-10-08,14:42:16.600,15.0,11.0,17.2099990844727,15.1,9.9,10.7,32.0,-26.3,27.2,16.3059,12.4428,12.48,17.9362,-21.2605,-15.3411,33.2696,-39.5453,27.3343,-0.2238099999999999,0.286713,-1.29292,251.3,7.6,52.1701,4.42721,4.1,0.974631,217.477,4.45749,166.481,9.50304,167.08599999999998,0.786397,0.197874,236.05900000000003,2.25847,2.37817,33.4326782226562,22.0009689331055,18.6774368286133,22.0,-176963.0,2461.16,pp-ro,1,1,-1,-1
1570538536.7,2019-10-08,14:42:16.700,15.0,12.0,17.1000003814697,16.4,8.8,9.8,34.1,-22.4,21.1,17.7825,11.1135,11.1005,21.3541,-13.1735,-7.714119999999999,35.6139,-34.7998,20.0055,-0.388117,-0.127679,-1.26808,251.3,7.6,52.1701,4.42721,4.1,0.972415,219.441,4.45747,167.47400000000002,11.0231,166.28599999999997,0.780756,0.189194,236.263,2.1464,2.29273,32.8536071777344,22.0009689331055,17.1321334838867,22.0,-176880.0,1599.75,pp-ro,1,1,-1,-1
1570538536.8,2019-10-08,14:42:16.800,15.0,12.0,16.7399997711182,17.1,7.2,8.9,36.6,-18.4,14.2,18.9884,9.36459,10.1677,13.9813,-27.1625,-11.8758,37.7725,-31.2342,12.9265,-0.209975,-0.51672,-1.09105,251.3,7.6,52.1701,4.42721,3.9,0.990699,224.632,4.45745,168.35,12.9232,165.386,0.775046,0.17833,236.35,2.02324,2.21131,31.0244445800781,22.0009689331055,15.6571788787842,22.0,-176790.0,1045.99,pp-ro,1,1,-1,-1
1570538536.9,2019-10-08,14:42:16.900,15.0,11.0,16.5799999237061,17.2,6.2,7.6,38.3,-14.7,8.4,19.5166,8.6472,9.68698,7.48279,-16.9738,-10.8298,39.1415,-29.46,9.68924,-0.197318,0.13358,-1.0735,251.3,7.6,52.1701,4.42721,3.9,0.980172,212.418,4.45742,169.139,14.4432,164.68599999999998,0.770243,0.169782,236.512,1.91442,2.14627,29.1611938476562,22.0009689331055,14.4979581832886,22.0,-176537.0,2891.86,pp-ro,1,1,-1,-1
1570538537.0,2019-10-08,14:42:17.000,15.0,9.0,16.3600006103516,17.7,5.1,6.4,39.0,-11.3,4.1,19.6903,7.95445,9.01806,6.589989999999999,-8.12493,-16.9069,39.9778,-27.2354,6.49212,-0.410235,-0.0574132,-1.24122,251.3,7.6,52.1701,4.42721,3.9,0.937507,190.881,4.4574,169.78099999999998,15.9633,163.986,0.765836,0.161245,236.584,1.82672,2.06696,27.0527114868164,22.0009689331055,13.0414762496948,22.0,-176181.0,3599.45,pp-ro,1,1,-1,-1
1570538537.1,2019-10-08,14:42:17.100,15.0,9.0,16.3099994659424,18.2,4.0,5.4,39.3,-8.3,-0.1,20.1044,6.10282,6.70915,9.88781,-12.5471,-8.32519,40.6301,-19.4688,-1.12562,-0.299616,0.120523,-0.897617,251.3,7.6,52.1701,4.42721,3.9,0.910357,182.321,4.45737,170.33599999999998,17.8634,163.285,0.761536,0.150528,236.634,1.74627,1.99392,24.947624206543,22.0009689331055,11.6936702728271,22.0,-175874.0,1661.28,pp-ro,1,1,-1,-1
1570538537.2,2019-10-08,14:42:17.200,15.0,9.0,16.25,18.4,3.0,4.5,39.7,-5.0,-3.8,20.4139,4.6483300000000005,5.6722,-0.781949,-14.6498,-15.1965,40.6837,-15.3125,-4.80679,-0.277276,0.122471,-0.780628,251.3,7.6,52.1701,4.42721,3.9,0.910911,182.30900000000003,4.45735,170.833,19.3834,162.685,0.757781,0.142061,236.698,1.66622,1.93025,22.8357315063477,22.0009689331055,10.5325536727905,22.0,-175831.0,799.877,pp-ro,1,1,-1,-1
1570538537.3,2019-10-08,14:42:17.300,15.0,9.0,16.2000007629395,18.2,2.3,3.5,40.4,-2.6,-7.5,20.5666,3.42946,4.52125,-0.874353,-9.85128,-10.7001,40.6452,-12.0538,-8.24667,-0.0159155,0.102828,-0.628115,256.0,8.0,52.1701,4.42721,3.9,0.909803,169.447,4.457330000000001,171.183,21.6635,162.185,0.7544489999999999,0.129174,236.806,1.60044,1.88012,20.7357559204102,22.0009689331055,9.59404468536377,22.0,-175677.0,2245.81,pp-ro,1,1,-1,-1
1570538537.4,2019-10-08,14:42:17.400,15.0,9.0,15.9799995422363,17.6,1.9,2.9,40.9,-0.6,-10.1,19.7741,2.35934,3.0603,-7.1052100000000005,-6.488580000000001,-6.03626,41.4096,-7.589339999999999,-12.9909,-0.147378,0.137881,-0.646466,256.0,8.0,52.1701,4.42721,3.9,0.866031,155.482,4.457330000000001,171.475,23.1835,161.785,0.751812,0.120674,236.888,1.5498299999999998,1.85469,18.6323776245117,22.0009689331055,9.15470886230469,22.0,-175370.0,2984.16,pp-ro,1,1,-1,-1
1570538537.5,2019-10-08,14:42:17.500,15.0,9.0,15.869999885559098,17.8,1.7,2.3,41.7,1.5,-12.7,19.7741,2.35934,3.0603,-7.1052100000000005,-6.488580000000001,-6.03626,41.4096,-7.589339999999999,-12.9909,-0.147378,0.137881,-0.646466,256.0,8.0,52.1701,4.42721,3.9,0.8682469999999999,159.713,4.457319999999999,171.767,25.0836,161.385,0.748983,0.1100609999999999,237.02,1.49939,1.8287,16.5238876342773,22.0009689331055,8.70378971099854,22.0,-175317.0,123.058,pp-ro,1,1,-1,-1
1570538537.6,2019-10-08,14:42:17.600,15.0,8.0,15.6999998092651,17.9,1.2,1.9,42.1,4.0,-15.2,19.5311,2.13919,2.64695,-4.878480000000001,-2.11838,-4.3421400000000006,41.5516,-5.6403300000000005,-14.295,-0.0315608,0.345834,-0.834534,256.0,8.0,52.1701,4.42721,3.9,0.885978,164.468,4.457319999999999,171.97099999999998,26.6036,160.985,0.746518,0.101587,237.062,1.44359,1.7986,14.439239501953098,22.0009689331055,8.17235946655273,22.0,-175271.0,769.112,pp-ro,1,1,-1,-1
1570538537.7,2019-10-08,14:42:17.700,15.0,8.0,15.4700002670288,17.9,0.8,1.5,43.0,5.7,-18.3,19.5541,1.87026,2.29263,0.088623,-6.46131,-10.2462,41.5576,-3.55648,-15.4356,0.282346,0.2166989999999999,-0.552025,256.0,8.0,52.1701,4.42721,3.9,0.885978,167.93400000000003,4.457319999999999,172.11700000000002,28.8837,160.685,0.744138,0.0888077999999999,237.231,1.39383,1.77588,12.572601318359402,22.0009689331055,7.76190042495728,22.0,-175092.0,892.17,pp-ro,1,1,-1,-1
1570538537.8,2019-10-08,14:42:17.800,15.0,9.0,15.1800003051758,17.9,0.5,1.0,43.8,7.7,-20.5,19.5714,0.708339,1.35389,-0.924121,-3.72955,-9.95593,42.457,2.48546,-20.4388,0.0790577,0.015906,-0.649161,256.0,8.0,52.1701,4.42721,3.6,0.8965049999999999,175.53,4.45731,172.263,30.4037,160.385,0.742061,0.0803803,237.324,1.34806,1.7497200000000002,10.9750518798828,22.0009689331055,7.29957485198975,22.0,-175027.0,584.525,pp-ro,1,1,-1,-1
1570538537.9,2019-10-08,14:42:17.900,15.0,10.0,15.0100002288818,18.1,0.0,0.5,44.9,9.5,-22.8,19.4219,0.148505,0.522396,1.95864,-1.56254,-5.88922,43.428,6.62657,-23.9606,0.206069,0.0200770999999999,-0.608171,256.0,8.0,52.1701,4.42721,3.6,0.904262,180.3,4.45731,172.322,32.6838,160.185,0.740109,0.0676403,237.534,1.3066799999999998,1.71838,9.62274932861328,22.0009689331055,6.70696830749512,22.0,-175006.0,369.174,pp-ro,1,1,-1,-1
1570538538.0,2019-10-08,14:42:18.000,15.0,9.0,15.0100002288818,18.4,-0.7,0.1,45.8,11.0,-25.1,19.5104,-0.538428,0.063314,2.99284,-8.358839999999999,-5.12624,44.0677,9.02319,-26.1012,0.192322,0.12272,-0.5658989999999999,256.0,8.0,52.1701,4.42721,3.6,0.928642,193.317,4.4573,172.322,34.5838,159.985,0.738455,0.0570226,237.668,1.2677,1.68305,8.76436614990234,22.0009689331055,6.03602266311646,22.0,-174951.0,646.054,pp-ro,1,1,-1,-1
1570538538.1,2019-10-08,14:42:18.100,15.0,12.0,15.1800003051758,18.5,-1.4,-0.3,46.8,12.1,-27.1,19.6394,-1.36211,-0.4101609999999999,2.73489,-8.03012,-8.22673,45.0009,10.8525,-27.8608,0.171523,-0.0625175999999999,-0.4193229999999999,256.0,8.0,52.1701,4.42721,3.6,0.96909,220.378,4.4573,172.234,36.4839,159.785,0.7369899999999999,0.0463511999999999,237.754,1.23743,1.64862,7.76973724365234,22.0009689331055,5.37739133834839,22.0,-174923.0,-215.351,pp-ro,1,1,-1,-1
1570538538.2,2019-10-08,14:42:18.200,15.0,12.0,15.640000343322802,18.5,-2.2,-0.7,47.9,12.8,-29.3,19.6991,-2.06357,-0.953676,0.5535800000000001,-7.61499,-6.19555,45.7126,12.2684,-29.9239,0.172764,-0.232532,-0.393191,256.0,8.0,52.1701,4.42721,3.6,0.992362,230.145,4.45729,172.02900000000002,38.3839,159.585,0.7357899999999999,0.0355686,237.771,1.20984,1.61091,6.69335174560547,22.0009689331055,4.642155170440669,22.0,-174912.0,215.351,pp-ro,1,1,-1,-1
1570538538.3,2019-10-08,14:42:18.300,15.0,11.0,16.2000007629395,18.6,-3.0,-1.1,48.8,13.8,-30.9,19.6417,-2.50491,-1.11502,-1.49701,-8.580639999999999,-2.68598,46.1952,12.7802,-30.971,0.169694,-0.153881,-0.330944,257.6,7.6,52.1701,4.42721,3.6,1.01951,249.425,4.4573,171.796,39.904,159.485,0.735169,0.0268587,237.785,1.18426,1.57328,5.92182922363281,22.0019989013672,3.88709473609924,22.0,-174822.0,676.819,pp-ro,1,1,-1,-1
1570538538.4,2019-10-08,14:42:18.400,15.0,10.0,16.620000839233402,18.4,-3.8,-1.3,49.7,14.1,-32.7,19.6602,-2.93281,-1.36217,-0.0350434,-8.80617,-0.468534,46.6001,13.3049,-31.8214,0.280821,0.0318797,-0.191267,257.6,7.6,52.1701,4.42721,3.6,1.05774,265.697,4.457319999999999,171.445,42.184,159.485,0.734636,0.0138145,237.925,1.16792,1.54464,5.31891632080078,22.0025119781494,3.2901215553283705,22.0,-174623.0,2184.28,pp-ro,1,1,-1,-1
1570538538.5,2019-10-08,14:42:18.500,15.0,10.0,17.0400009155273,18.1,-4.3,-1.8,50.4,14.3,-33.7,19.2653,-4.10809,-1.82749,-2.8017,-7.21536,-7.36189,47.7536,14.6171,-34.1833,-0.0356837,-0.132173,-0.257358,257.6,7.6,52.1701,4.42721,3.6,1.06328,264.839,4.457330000000001,171.065,43.70399999999999,159.485,0.734632,0.00492496,237.926,1.15953,1.5103799999999998,4.39411163330078,22.0019989013672,2.5677723884582497,22.0,-174396.0,2491.92,pp-ro,1,1,-1,-1
1570538538.6,2019-10-08,14:42:18.600,15.0,12.0,17.4500007629395,17.6,-4.7,-2.1,51.0,14.9,-34.3,19.0494,-4.61408,-2.25808,-2.4513700000000003,-0.64174,-2.18432,48.5725,15.2526,-35.1841,0.309593,0.0808983,-0.301552,257.6,7.6,52.1701,4.42721,3.6,1.05719,261.844,4.45735,170.59799999999998,45.9841,159.585,0.734586,-0.00825069,238.088,1.15402,1.48701,3.69751739501953,22.0025119781494,2.04992437362671,22.0,-174235.0,3168.74,pp-ro,1,1,-1,-1
1570538538.7,2019-10-08,14:42:18.700,15.0,11.0,17.7999992370605,17.6,-5.3,-2.5,51.1,15.0,-35.0,18.5179,-4.98082,-2.57905,-2.88397,-1.9168,-1.12523,49.1548,16.3473,-35.5173,0.2377909999999999,-0.10915,-0.306039,257.6,7.6,52.1701,4.42721,3.6,1.04555,258.057,4.45737,170.101,47.5041,159.585,0.7348020000000001,-0.0173069,238.031,1.15059,1.4568299999999998,2.95154571533203,22.0025119781494,1.3963588476181,22.0,-173961.0,2614.98,pp-ro,1,1,-1,-1
1570538538.8,2019-10-08,14:42:18.800,15.0,10.0,18.2399997711182,17.7,-5.5,-2.6,51.5,15.0,-35.2,18.5179,-4.98082,-2.57905,-2.88397,-1.9168,-1.12523,49.1548,16.3473,-35.5173,0.2377909999999999,-0.10915,-0.306039,257.6,7.6,52.1701,4.4272,3.3,1.06328,272.15,4.457380000000001,169.80900000000003,48.2641,159.785,0.735637,-0.0219141999999999,238.109,1.1513,1.45099,2.3264923095703103,22.0019989013672,1.20340347290039,22.0,-173688.0,1476.7,pp-ro,1,1,-1,-1
1570538538.9,2019-10-08,14:42:18.900,15.0,9.0,18.5300006866455,17.7,-5.8,-2.5,51.5,14.7,-36.4,18.4427,-5.515569999999999,-2.90473,-0.564327,-2.9239900000000003,-4.11608,48.9844,16.4159,-36.4211,0.0229593,-0.149109,-0.25892,257.6,7.6,52.1701,4.4272,3.3,1.07381,277.708,4.4574,168.96200000000002,50.9241,159.985,0.736444,-0.0377423,238.195,1.15137,1.45577,1.64183044433594,22.0019989013672,1.17930829524994,22.0,-173619.0,1322.87,pp-ro,1,1,-1,-1
1570538539.0,2019-10-08,14:42:19.000,15.0,10.0,18.8600006103516,17.7,-5.9,-2.5,51.3,15.1,-36.8,18.558,-6.180619999999999,-2.83014,0.692174,-4.07832,-1.53499,49.2716,16.5981,-36.9342,0.0329359,-0.113442,-0.024922,257.6,7.6,52.1701,4.4272,3.3,1.10152,289.678,4.457409999999999,168.34900000000002,53.2042,160.185,0.736822,-0.0511256,238.393,1.15087,1.46147,1.27394866943359,22.0025119781494,1.21465563774109,22.0,-173306.0,2768.8,pp-ro,1,1,-1,-1
1570538539.1,2019-10-08,14:42:19.100,15.0,10.0,19.0,17.5,-6.1,-2.4,51.4,15.5,-36.9,18.6223,-6.34681,-2.82588,-6.55256,-4.73756,3.34168,49.0543,16.8913,-37.3812,0.124133,-0.0015949,-0.261329,257.6,7.6,52.1701,4.4272,3.3,1.10373,293.171,4.45743,168.05700000000002,53.9642,160.285,0.737267,-0.0557381,238.425,1.14792,1.45876,1.19901275634766,22.0025119781494,1.1091405153274498,22.0,-173041.0,2614.98,pp-ro,1,1,-1,-1
1570538539.2,2019-10-08,14:42:19.200,15.0,10.0,19.229999542236303,17.5,-6.5,-2.6,51.0,15.9,-36.9,18.3973,-6.49685,-2.68283,-5.61311,-1.89434,0.702793,48.6837,17.2507,-37.7265,-0.1761059999999999,-0.0575066,-0.268016,257.6,7.6,52.1701,4.4272,3.3,1.10761,291.779,4.45744,167.385,55.4842,160.385,0.738049,-0.0651338,238.36900000000003,1.14942,1.44444,1.20752716064453,22.0025119781494,0.726093351840973,22.0,-172923.0,2307.34,pp-ro,1,1,-1,-1
1570538539.3,2019-10-08,14:42:19.300,15.0,11.0,19.3700008392334,17.3,-6.8,-2.6,51.1,15.7,-37.2,18.3079,-6.768560000000001,-2.87732,-2.64678,-2.6558200000000003,-5.55495,48.3764,17.3792,-37.7922,-0.1026359999999999,0.0587549,0.262302,253.3,6.2,52.1701,4.4272,3.3,1.09764,279.876,4.45742,166.68400000000003,57.3842,160.686,0.739137,-0.076595,238.529,1.15612,1.43914,0.998046875,22.0025119781494,0.488238930702209,22.0,-172537.0,4337.79,pp-ro,1,1,-1,-1
1570538539.4,2019-10-08,14:42:19.400,15.0,10.0,19.6399993896484,17.2,-6.7,-2.6,51.1,15.2,-37.8,18.1446,-7.12262,-2.78718,-1.71582,-2.26982,-0.964042,48.3005,17.2447,-37.8759,-0.0392174,-0.0034155,0.0726368,253.3,6.2,52.1701,4.4272,3.3,1.0655,273.388,4.45737,165.983,58.9042,160.886,0.740209,-0.0859938,238.546,1.16151,1.44686,0.664230346679688,22.003026962280305,0.515650868415833,22.0,-172132.0,3353.33,pp-ro,1,1,-1,-1
1570538539.5,2019-10-08,14:42:19.500,15.0,10.0,19.6800003051758,17.3,-6.6,-2.5,51.2,15.8,-38.0,18.1446,-7.12262,-2.78718,-1.71582,-2.26982,-0.964042,48.3005,17.2447,-37.8759,-0.0392174,-0.0034155,0.0726368,253.3,6.2,52.1701,4.4272,3.3,1.08656,287.725,4.45731,165.34,60.8043,161.086,0.740711,-0.0973212,238.711,1.15955,1.46343,0.504127502441406,22.0025119781494,0.7593784928321842,22.0,-171998.0,1230.58,pp-ro,1,1,-1,-1
1570538539.6,2019-10-08,14:42:19.600,15.0,10.0,19.6800003051758,17.6,-7.1,-2.3,51.4,16.1,-38.4,18.133,-6.94256,-2.68061,5.04462,-1.40977,-0.417402,48.5423,17.4856,-38.2584,0.0775491,0.0409798,-0.0706596999999999,253.3,6.2,52.1701,4.4272,3.3,1.1259,307.547,4.45725,164.668,62.3243,161.286,0.741607,-0.1066839999999999,238.774,1.15751,1.46718,0.560333251953125,22.0025119781494,0.716639935970306,22.0,-171875.0,1445.93,pp-ro,1,1,-1,-1
1570538539.7,2019-10-08,14:42:19.700,15.0,10.0,19.6399993896484,17.6,-7.3,-2.1,51.6,15.7,-39.3,18.5018,-7.70366,-2.29952,-0.5471159999999999,-6.32045,1.76868,48.2694,17.9088,-38.9762,0.1176619999999999,-0.0842353,0.0935936,253.3,6.2,52.1701,4.4272,3.3,1.1464,315.869,4.45719,163.938,64.2243,161.486,0.74222,-0.1181869999999999,238.91,1.15956,1.47646,0.8124008178710941,22.0025119781494,0.799452781677246,22.0,-171646.0,2430.39,pp-ro,1,1,-1,-1
1570538539.8,2019-10-08,14:42:19.800,15.0,10.0,19.729999542236303,17.7,-7.3,-2.1,52.0,15.5,-39.8,18.4134,-7.85428,-2.14969,-1.7942,1.25122,-1.96659,48.5536,17.1926,-40.0146,0.2606,0.0270514,0.075937,253.3,6.2,52.1701,4.42719,3.1,1.1475,312.822,4.45714,163.179,65.7443,161.686,0.743246,-0.127749,238.939,1.16259,1.48472,0.8515701293945309,22.0025119781494,0.825613975524902,22.0,-171293.0,4060.91,pp-ro,1,1,-1,-1
1570538539.9,2019-10-08,14:42:19.900,15.0,10.0,19.770000457763697,17.7,-7.5,-1.9,52.1,15.4,-40.0,18.4134,-7.85428,-2.14969,-1.7942,1.25122,-1.96659,48.5536,17.1926,-40.0146,0.2606,0.0270514,0.075937,253.3,6.2,52.1701,4.42719,3.1,1.1331,309.647,4.45708,162.44899999999998,67.6443,161.786,0.743428,-0.139258,239.04,1.16935,1.49397,0.7936630249023441,22.0025119781494,0.946597337722778,22.0,-170920.0,3107.21,pp-ro,1,1,-1,-1
1570538540.0,2019-10-08,14:42:20.000,15.0,10.0,19.770000457763697,17.5,-7.7,-1.7,52.2,15.1,-40.7,18.4134,-7.85428,-2.14969,-1.7942,1.25122,-1.96659,48.5536,17.1926,-40.0146,0.2606,0.0270514,0.075937,253.3,6.2,52.1701,4.42719,3.1,1.13698,306.66900000000004,4.45702,161.66,69.5444,161.886,0.743695,-0.15089,239.118,1.17266,1.49989,0.8175048828125,22.0025119781494,0.9923428893089292,22.0,-170642.0,3137.98,pp-ro,1,1,-1,-1
1570538540.1,2019-10-08,14:42:20.100,15.0,10.0,19.8199996948242,17.3,-7.7,-1.5,52.2,14.6,-41.1,18.4134,-7.85428,-2.14969,-1.7942,1.25122,-1.96659,48.5536,17.1926,-40.0146,0.2606,0.0270514,0.075937,253.3,6.2,52.1701,4.42719,3.1,1.12312,301.16200000000003,4.45696,160.871,71.4444,162.086,0.744202,-0.16252,239.281,1.18202,1.51204,0.938430786132812,22.0019989013672,1.13559246063232,22.0,-170257.0,3845.56,pp-ro,1,1,-1,-1
1570538540.2,2019-10-08,14:42:20.200,15.0,11.0,19.8199996948242,17.1,-7.8,-1.5,52.6,14.3,-41.0,18.4134,-7.85428,-2.14969,-1.7942,1.25122,-1.96659,48.5536,17.1926,-40.0146,0.2606,0.0270514,0.075937,253.3,6.2,52.1701,4.42719,3.1,1.0993,280.658,4.45691,160.083,72.9644,162.186,0.744779,-0.172178,239.279,1.19358,1.51199,0.969085693359375,22.0025119781494,1.03087973594666,22.0,-169713.0,4430.09,pp-ro,1,1,-1,-1
1570538540.3,2019-10-08,14:42:20.300,15.0,10.0,19.8600006103516,17.0,-7.8,-1.4,52.6,13.7,-41.0,nan,nan,nan,nan,nan,nan,nan,nan,nan,nan,nan,nan,259.3,6.3,52.1701,4.42719,3.1,1.06661,270.572,4.45686,159.29399999999998,74.8644,162.386,0.74516,-0.183817,239.475,1.20899,1.52204,1.09852600097656,22.0019989013672,-35.0,22.0,-169285.0,3784.03,pp-ro,1,1,-1,-1
1570538540.4,2019-10-08,14:42:20.400,15.0,10.0,19.8600006103516,16.9,-7.8,-1.3,52.7,13.3,-41.0,nan,nan,nan,nan,nan,nan,nan,nan,nan,nan,nan,nan,259.3,6.3,52.1701,4.42719,3.1,1.06162,271.973,4.456840000000001,158.535,76.0044,162.486,0.746026,-0.191496,239.398,1.21921,1.52946,1.08319854736328,22.0025119781494,-35.0,22.0,-169162.0,2307.34,pp-ro,1,1,-1,-1
1570538540.5,2019-10-08,14:42:20.500,15.0,10.0,19.8199996948242,16.9,-7.9,-1.1,53.0,13.1,-41.1,17.5128,-8.33493,-1.41169,-1.42219,2.00191,-2.02734,49.7529,15.5821,-41.5415,0.3805699999999999,-0.0221973,0.1111569999999999,259.3,6.3,52.1701,4.42719,3.1,1.08379,280.465,4.45681,157.717,77.5245,162.686,0.746843,-0.2012789999999999,239.481,1.2272,1.54083,0.7936630249023441,22.0019989013672,-35.0,22.0,-169037.0,1292.11,pp-ro,1,1,-1,-1
1570538540.6,2019-10-08,14:42:20.600,15.0,9.0,19.6800003051758,17.0,-8.0,-0.9,53.0,12.5,-41.6,17.6085,-8.498380000000001,-0.937301,-1.89401,2.10511,0.155301,49.8497,14.6967,-41.6247,0.0354754,0.0340946999999999,0.164285,259.3,6.3,52.1701,4.42719,3.1,1.08877,282.222,4.45678,156.87,79.4245,162.886,0.747199,-0.213075,239.683,1.23675,1.55525,0.146469116210938,22.0025119781494,-35.0,22.0,-168764.0,3168.74,pp-ro,1,1,-1,-1
1570538540.7,2019-10-08,14:42:20.700,15.0,9.0,19.6399993896484,17.0,-7.9,-0.6,53.0,11.7,-42.0,17.5894,-8.54481,-0.7738729999999999,0.52833,-2.53737,-2.68062,49.8433,14.3324,-41.7229,0.00339106,-0.1291759999999999,0.160024,259.3,6.3,52.1701,4.42719,3.1,1.08933,286.613,4.45676,156.05200000000002,80.9445,162.986,0.747603,-0.222877,239.726,1.24861,1.5768799999999998,-0.8687515258789059,22.0019989013672,-35.0,22.0,-168539.0,1845.87,pp-ro,1,1,-1,-1
1570538540.8,2019-10-08,14:42:20.800,15.0,10.0,19.6000003814697,17.2,-7.9,-0.3,53.1,11.4,-42.3,17.6216,-8.50037,-0.367348,4.526669999999999,-0.397522,5.48815,50.0818,14.0106,-41.9503,-0.0403133,-0.120017,0.0636625,259.3,6.3,52.1701,4.42719,2.9,1.10927,293.155,4.45673,155.234,82.8445,163.086,0.7474529999999999,-0.234562,239.912,1.25682,1.59975,-2.23928833007812,22.0019989013672,-35.0,22.0,-168350.0,2122.75,pp-ro,1,1,-1,-1
1570538540.9,2019-10-08,14:42:20.900,15.0,10.0,19.6900005340576,17.5,-8.0,0.0,53.5,10.9,-42.4,17.6216,-8.50037,-0.367348,4.526669999999999,-0.397522,5.48815,50.0818,14.0106,-41.9503,-0.0403133,-0.120017,0.0636625,259.3,6.3,52.1701,4.42719,2.9,1.10539,291.605,4.4567,154.387,84.7445,163.086,0.747001,-0.2463179999999999,240.029,1.26998,1.6206,-3.95630645751953,22.0025119781494,-35.0,22.0,-168037.0,3076.45,pp-ro,1,1,-1,-1
1570538541.0,2019-10-08,14:42:21.000,15.0,10.0,19.8199996948242,17.8,-8.2,0.2,53.9,9.7,-42.6,18.0209,-8.56046,0.251899,6.86291,-0.611635,5.4368300000000005,50.7067,13.7502,-41.6674,-0.0747288,-0.168134,0.1218809999999999,259.3,6.3,52.1701,4.42719,2.9,1.10539,292.203,4.45665,153.569,86.6446,163.086,0.746409,-0.257943,240.183,1.29063,1.63403,-6.011260986328121,22.0019989013672,-35.0,22.0,-167738.0,2799.57,pp-ro,1,1,-1,-1
1570538541.1,2019-10-08,14:42:21.100,15.0,10.0,19.909999847412102,18.1,-8.1,0.7,54.2,7.8,-42.2,18.0209,-8.56046,0.251899,6.86291,-0.611635,5.4368300000000005,50.7067,13.7502,-41.6674,-0.0747288,-0.168134,0.1218809999999999,259.3,6.3,52.1701,4.42719,2.9,1.11869,302.305,4.45665,152.722,88.1646,163.086,0.746359,-0.267809,240.196,1.32608,1.66658,-8.11742401123047,22.0019989013672,-35.0,22.0,-167416.0,1845.87,pp-ro,1,1,-1,-1
1570538541.2,2019-10-08,14:42:21.200,15.0,10.0,20.0400009155273,18.5,-7.8,1.3,54.9,6.0,-41.3,18.1153,-8.586730000000001,0.632774,1.48071,0.2292719999999999,9.12282,51.1766,12.4764,-41.4854,0.101859,-0.0750938,0.247742,259.3,6.3,52.1701,4.42719,2.9,1.12867,304.452,4.45662,151.875,90.0646,163.086,0.745713,-0.279499,240.364,1.36772,1.71091,-10.2270050048828,22.0019989013672,-35.0,22.0,-167288.0,2522.69,pp-ro,1,1,-1,-1
1570538541.3,2019-10-08,14:42:21.300,15.0,10.0,20.2099990844727,19.0,-7.5,2.3,55.9,3.7,-40.5,18.4771,-8.19002,1.51761,3.4769400000000004,2.81406,8.27032,52.1068,10.0984,-39.7116,0.1793,0.049378,0.420968,255.4,7.3,52.1701,4.42719,2.9,1.12756,303.103,4.456580000000001,151.086,91.9646,162.886,0.7442489999999999,-0.2909719999999999,240.45,1.41452,1.76906,-12.3263397216797,22.0025119781494,-35.0,22.0,-166940.0,3537.92,pp-ro,1,1,-1,-1
1570538541.4,2019-10-08,14:42:21.400,15.0,9.0,20.340000152587898,19.5,-6.9,3.4,56.8,1.2,-39.3,18.4771,-8.19002,1.51761,3.4769400000000004,2.81406,8.27032,52.1068,10.0984,-39.7116,0.1793,0.049378,0.420968,255.4,7.3,52.1701,4.42719,2.9,1.11925,300.73400000000004,4.456519999999999,150.327,93.8646,162.686,0.74265,-0.302329,240.573,1.46873,1.83812,-13.3777084350586,22.0025119781494,-35.0,22.0,-166619.0,3045.68,pp-ro,1,1,-1,-1
1570538541.5,2019-10-08,14:42:21.500,15.0,9.0,20.4699993133545,19.9,-6.2,4.6,57.8,-1.5,-37.8,19.4548,-6.8800300000000005,4.24661,4.3036,9.84344,13.5931,54.452,4.80619,-35.7077,0.127892,0.0426427,0.46018,255.4,7.3,52.1701,4.42719,2.9,1.12202,296.838,4.45646,149.655,95.7647,162.286,0.740168,-0.313318,240.633,1.52904,1.91065,-15.4889907836914,22.0019989013672,-35.0,22.0,-166328.0,3199.51,pp-ro,1,1,-1,-1
1570538541.6,2019-10-08,14:42:21.600,15.0,9.0,20.6399993896484,20.3,-5.3,5.8,58.9,-4.6,-35.9,19.4548,-6.8800300000000005,4.24661,4.3036,9.84344,13.5931,54.452,4.80619,-35.7077,0.127892,0.0426427,0.46018,255.4,7.3,52.1701,4.42719,2.9,1.09431,287.219,4.45641,149.071,97.6647,161.886,0.737422,-0.324009,240.764,1.59907,1.98712,-17.067756652832,22.0019989013672,-35.0,22.0,-165787.0,2830.33,pp-ro,1,1,-1,-1
1570538541.7,2019-10-08,14:42:21.700,15.0,8.0,20.729999542236303,20.6,-4.4,7.3,60.4,-8.7,-33.6,19.8752,-5.0069,6.72593,-0.941794,9.61976,13.1063,56.5968,-1.39039,-30.3182,0.0730928,0.115222,0.793942,255.4,7.3,52.1701,4.42719,2.9,1.09819,289.23,4.45635,148.516,99.9447,161.286,0.73335,-0.336306,240.954,1.6879,2.07079,-19.7166748046875,22.0025119781494,-35.0,22.0,-165663.0,2430.39,pp-ro,1,1,-1,-1
1570538541.8,2019-10-08,14:42:21.800,15.0,8.0,20.729999542236303,20.7,-3.2,9.0,61.5,-13.1,-31.6,19.8545,-3.93534,8.272160000000001,-0.36283,11.8014,16.6147,57.7828,-5.82272,-27.6573,0.2422929999999999,-0.0719473,0.992208,255.4,7.3,52.1701,4.42719,2.8,1.1126,300.283,4.45629,148.078,101.845,160.586,0.72923,-0.346381,241.013,1.77561,2.16578,-21.8364868164062,22.0025119781494,-35.0,22.0,-165421.0,2122.75,pp-ro,1,1,-1,-1
1570538541.9,2019-10-08,14:42:21.900,15.0,9.0,20.770000457763697,21.1,-1.7,10.6,62.2,-18.2,-28.4,19.875,-2.61488,9.84968,0.585476,15.3151,11.4905,58.6963,-10.9781,-24.6032,0.309288,0.0370499,1.12351,255.4,7.3,52.1701,4.42719,2.8,1.13476,309.138,4.45624,147.786,104.125,159.686,0.723511,-0.357632,241.21,1.88657,2.2616400000000003,-23.4203796386719,22.0035419464111,-35.0,22.0,-165076.0,3107.21,pp-ro,1,1,-1,-1
1570538542.0,2019-10-08,14:42:22.000,15.0,10.0,20.8600006103516,20.9,-0.1,12.7,62.9,-23.9,-24.5,19.9499,-1.82212,10.5873,-4.79742,14.9815,15.585,59.0043,-13.2411,-22.6951,0.157117,0.197959,1.12744,255.4,7.3,52.1701,4.42719,2.8,1.14584,323.67400000000004,4.45615,147.61,106.025,158.586,0.717462,-0.366649,241.204,2.0105,2.37063,-25.529953002929695,22.003026962280305,-35.0,22.0,-164816.0,2153.51,pp-ro,1,1,-1,-1
1570538542.1,2019-10-08,14:42:22.100,15.0,10.0,21.020000457763697,20.3,1.7,14.7,62.9,-30.4,-20.3,19.8618,-1.01396,11.6461,-5.07571,11.4361,20.6672,59.0516,-16.2087,-19.9784,0.101734,0.254676,1.26137,255.4,7.3,52.1701,4.42719,2.8,1.1630200000000002,332.75199999999995,4.456119999999999,147.66899999999998,108.305,157.386,0.709942,-0.376548,241.467,2.14658,2.48333,-27.636116027832,22.003026962280305,-35.0,22.0,-164768.0,892.17,pp-ro,1,1,-1,-1
