time,date,time_of_day,airspeed_temperature,airspeed_angle_of_attack,airspeed_apparent_windspeed,kite_0_vx,kite_0_vy,kite_0_vz,kite_0_roll,kite_0_pitch,kite_0_yaw,kite_1_vx,kite_1_vy,kite_1_vz,kite_1_ax,kite_1_ay,kite_1_az,kite_1_roll,kite_1_pitch,kite_1_yaw,kite_1_roll_rate,kite_1_pitch_rate,kite_1_yaw_rate,ground_upwind_direction,ground_wind_velocity,ground_pos_latitude,ground_pos_longitude,ground_pos_altitude,ground_tether_reelout_speed,ground_tether_force,est_upwind_direction,kite_pos_east,kite_pos_north,kite_height,kite_elevation,kite_azimuth,kite_distance,kite_heading,kite_course,kite_actual_steering,kite_actual_depower,kite_set_steering,kite_set_depower,ground_mech_energy,ground_mech_power,flight_phase,flight_phase_index,phase,pattern,pattern_section
1570535146.6,2019-10-08,13:45:46.600,14.0,8.0,15.4099998474121,12.0,-1.4,2.4,19.1,-2.0,-53.6,10.0645,-1.40284,2.81115,8.46669,9.19019,3.25668,20.5172,13.3451,-56.981,0.29466,0.143655,0.904894,269.4,5.7,52.1701,4.42715,-3.0,-2.71334,110.772,4.51316,57.9187,-6.4599,234.096,1.32681,0.310305,241.241,0.541799,1.39745,-34.6475524902344,22.0411338806152,-35.0,22.0,-1148330.0,1753.58,pp-riro,4,0,-1,-1
1570535146.7,2019-10-08,13:45:46.700,14.0,8.0,15.1800003051758,12.8,-0.3,2.6,20.9,-3.2,-48.4,10.8875,-0.29502,3.09239,6.982,10.4936,3.68686,22.6108,12.3403,-50.96,0.207475,0.143495,0.947536,269.4,5.7,52.1701,4.42715,-3.0,-2.66846,101.973,4.51315,57.8019,-4.93984,233.896,1.32768,0.284491,240.983,0.663616,1.51412,-34.9513549804688,22.016416549682603,-35.0,22.0,-1148330.0,-307.645,pp-riro,4,0,-1,-1
1570535146.8,2019-10-08,13:45:46.800,14.0,8.0,15.0,13.5,0.7,3.0,22.8,-4.6,-43.3,10.8875,-0.29502,3.09239,6.982,10.4936,3.68686,22.6108,12.3403,-50.96,0.207475,0.143495,0.947536,269.4,5.7,52.1701,4.42715,-3.0,-2.66237,97.9061,4.51315,57.8019,-3.7998,233.796,1.32792,0.264886,240.865,0.778092,1.6107200000000002,-34.970123291015604,22.0025119781494,-35.0,22.0,-1148990.0,-7844.94,pp-riro,4,0,-1,-1
1570535146.9,2019-10-08,13:45:46.900,14.0,8.0,14.8299999237061,14.2,1.8,3.4,24.4,-6.5,-38.3,12.5172,2.52476,3.96818,5.69857,11.679,6.13102,27.9215,8.88471,-36.3849,0.170548,0.233373,0.983493,269.4,5.7,52.1701,4.42715,-3.0,-2.674,99.5429,4.51314,57.8603,-2.65976,233.596,1.32774,0.245184,240.67,0.89276,1.7052900000000002,-34.971832275390604,22.0009689331055,-35.0,22.0,-1150010.0,-6829.72,pp-riro,4,0,-1,-1
1570535147.0,2019-10-08,13:45:47.000,14.0,8.0,14.5799999237061,14.8,3.1,3.9,26.1,-8.5,-33.2,13.0429,3.64071,4.440119999999999,5.243130000000001,10.6997,5.473380000000001,29.5446,6.89545,-30.7387,0.242526,0.162169,0.942128,269.4,5.7,52.1701,4.42715,-3.0,-2.68231,99.3116,4.51314,58.0939,-1.1397,233.296,1.3267,0.218869,240.423,1.01667,1.81285,-34.975250244140604,22.0009689331055,-35.0,22.0,-1150280.0,-5229.96,pp-riro,4,0,-1,-1
1570535147.1,2019-10-08,13:45:47.100,14.0,8.0,14.3999996185303,15.2,4.3,4.3,27.4,-10.2,-28.1,13.4629,4.82388,4.84898,-0.77571,10.8241,4.87994,30.9641,4.77715,-25.1579,0.083907,0.267334,1.00192,267.4,4.8,52.1701,4.42715,-3.0,-2.69173,96.5131,4.5131,58.4152,0.380358,232.996,1.32514,0.192781,240.208,1.13933,1.90762,-34.9923248291016,22.0009689331055,-35.0,22.0,-1151040.0,-7537.3,pp-riro,4,0,-1,-1
1570535147.2,2019-10-08,13:45:47.200,14.0,9.0,14.210000038147,15.5,5.6,4.6,28.4,-12.1,-23.0,13.7362,5.9748,5.259440000000001,2.25697,9.90827,4.29587,32.1828,2.537,-19.6736,0.179091,0.196508,1.0387,267.4,4.8,52.1701,4.42715,-3.0,-2.71168,92.6029,4.51312,58.8241,1.90042,232.696,1.32307,0.166977,240.024,1.2622799999999998,2.00173,-34.9974365234375,22.0009689331055,-35.0,22.0,-1151850.0,-10090.8,pp-riro,4,0,-1,-1
1570535147.3,2019-10-08,13:45:47.300,14.0,8.0,14.210000038147,15.7,6.8,5.0,29.2,-14.1,-17.7,13.7362,5.9748,5.259440000000001,2.25697,9.90827,4.29587,32.1828,2.537,-19.6736,0.179091,0.196508,1.0387,267.4,4.8,52.1701,4.42715,-3.0,-2.7693,90.8792,4.5131,59.4082,3.4204800000000004,232.396,1.32013,0.141772,239.894,1.38836,2.08786,-34.9991455078125,22.0009689331055,-35.0,22.0,-1153640.0,-11444.4,pp-riro,4,0,-1,-1
1570535147.4,2019-10-08,13:45:47.400,14.0,8.0,14.210000038147,15.8,7.4,5.3,30.0,-16.3,-12.6,13.7362,5.9748,5.259440000000001,2.25697,9.90827,4.29587,32.1828,2.537,-19.6736,0.179091,0.196508,1.0387,267.4,4.8,52.1701,4.42715,-3.0,-2.81363,91.828,4.51309,60.1092,4.94054,231.996,1.31646,0.117282,239.708,1.51083,2.1417,-34.9974365234375,22.0009689331055,-35.0,22.0,-1154760.0,-10921.4,pp-riro,4,0,-1,-1
1570535147.5,2019-10-08,13:45:47.500,14.0,9.0,14.210000038147,15.9,9.3,6.0,30.3,-18.3,-7.3,14.203,8.84206,6.2656,-1.05495,11.0558,4.80825,33.9913,-3.1748,-5.85011,0.0772273,0.236642,1.01721,267.4,4.8,52.1701,4.42715,-3.0,-2.8551900000000003,94.0425,4.51308,60.8977,6.84062,231.496,1.31202,0.0874481,239.47,1.6402900000000002,2.26085,-34.9991455078125,22.0009689331055,-35.0,22.0,-1155790.0,-9998.46,pp-riro,4,0,-1,-1
1570535147.6,2019-10-08,13:45:47.600,14.0,9.0,14.2700004577637,15.9,10.0,6.2,30.6,-19.4,-4.5,14.1927,10.0118,6.72214,-3.71146,12.5394,8.18292,34.2984,-5.39159,-0.244767,0.130268,0.318872,0.997496,267.4,4.8,52.1701,4.42715,-3.1,-2.8779,95.1252,4.51307,61.3358,7.60065,231.297,1.30969,0.0760311,239.412,1.70426,2.30296,-34.9974365234375,22.0009689331055,-35.0,22.0,-1156270.0,-9567.76,pp-riro,4,0,-1,-1
1570535147.7,2019-10-08,13:45:47.700,14.0,9.0,14.3999996185303,15.7,11.2,6.6,30.5,-21.4,1.0,14.0801,11.1975,7.1574800000000005,-0.188776,12.3301,3.00815,34.1073,-7.60453,5.36733,0.0590867,0.258927,0.934652,267.4,4.8,52.1701,4.42715,-3.1,-2.90395,96.074,4.51306,62.3289,9.12072,230.697,1.30424,0.0540323,239.142,1.82799,2.38104,-34.9974365234375,22.0009689331055,-35.0,22.0,-1157280.0,-10429.2,pp-riro,4,0,-1,-1
1570535147.8,2019-10-08,13:45:47.800,14.0,9.0,14.5200004577637,15.4,12.5,7.1,30.2,-23.2,7.0,13.858,12.3538,7.5794,-2.56525,9.93778,2.44244,33.5588,-9.69348,11.3137,0.0705893,0.279898,1.08394,267.4,4.8,52.1701,4.42715,-3.1,-2.92278,97.4505,4.51304,63.4971,10.6408,230.097,1.29797,0.0333093999999999,238.93400000000003,1.95643,2.46187,-34.9991455078125,22.0009689331055,-35.0,22.0,-1158270.0,-10152.3,pp-riro,4,0,-1,-1
1570535147.9,2019-10-08,13:45:47.900,14.0,9.0,14.7600002288818,15.1,13.8,7.5,29.7,-25.3,12.6,13.5171,13.4625,8.041739999999999,-5.82052,10.3329,4.52894,32.8639,-11.6221,17.2403,-0.00397177,0.295586,1.06057,267.4,4.8,52.1701,4.42715,-3.1,-2.93387,101.071,4.5130300000000005,64.7238,12.1609,229.497,1.29135,0.0136348999999999,238.759,2.07723,2.53684,-34.9991455078125,22.0009689331055,-35.0,22.0,-1158940.0,-5445.31,pp-riro,4,0,-1,-1
1570535148.0,2019-10-08,13:45:48.000,14.0,9.0,14.880000114440902,14.5,15.1,8.0,29.1,-26.9,18.8,13.0708,14.5895,8.459760000000001,-4.09175,11.8858,4.50692,31.8524,-13.3457,23.4834,0.128934,0.305378,1.00406,267.4,4.8,52.1701,4.42715,-3.1,-2.91503,110.656,4.51302,66.1258,13.6809,228.697,1.28369,-0.00464422,238.458,2.20229,2.61731,-34.9974365234375,22.0009689331055,-35.0,22.0,-1159650.0,-3568.68,pp-riro,4,0,-1,-1
1570535148.1,2019-10-08,13:45:48.100,14.0,9.0,15.2299995422363,14.1,16.3,8.5,28.3,-28.1,25.1,12.8531,15.1978,8.669130000000001,-5.7740800000000005,11.8719,3.28335,31.3524,-14.1179,26.5659,0.076385,0.284488,1.05513,265.3,5.0,52.1701,4.42715,-3.1,-2.88732,114.668,4.513,67.6445,15.201,227.997,1.27559,-0.0216564,238.305,2.32405,2.68338,-34.9991455078125,22.0009689331055,-35.0,22.0,-1159700.0,-861.4060000000001,pp-riro,4,0,-1,-1
1570535148.2,2019-10-08,13:45:48.200,14.0,10.0,15.3999996185303,13.4,17.6,9.1,27.3,-29.6,31.4,12.8531,15.1978,8.669130000000001,-5.7740800000000005,11.8719,3.28335,31.3524,-14.1179,26.5659,0.076385,0.284488,1.05513,265.3,5.0,52.1701,4.42715,-3.1,-2.81585,125.235,4.51294,69.3385,16.7211,227.197,1.2666,-0.0371837,238.13,2.44404,2.75789,-34.9974365234375,22.0025119781494,-22.8502197265625,22.0,-1159340.0,4983.85,pp-riro,4,0,-1,-1
1570535148.3,2019-10-08,13:45:48.300,14.0,10.0,15.75,12.6,18.8,9.6,25.8,-31.1,37.9,12.0795,16.9003,9.50135,-3.65644,10.462,1.08007,29.4233,-16.271,36.0838,0.0565489,0.356809,1.07876,265.3,5.0,52.1701,4.42715,-3.1,-2.68952,134.159,4.51295,71.0617,17.8611,226.297,1.25766,-0.0468034,237.864,2.55968,2.82391,-34.9974365234375,22.0025119781494,-22.1664638519287,22.0,-1158220.0,13844.0,pp-riro,4,0,-1,-1
1570535148.4,2019-10-08,13:45:48.400,14.0,11.0,16.0799999237061,11.7,20.1,10.1,24.6,-32.2,44.6,10.8756,18.466,10.1785,-7.1158,10.547,2.17375,26.9653,-18.2003,45.8951,0.149051,0.2545409999999999,0.998057,265.3,5.0,52.1701,4.42715,-3.1,-2.53105,141.582,4.512919999999999,72.9602,19.0012,225.297,1.24787,-0.055304,237.577,2.6741,2.89105,-34.782379150390604,22.0025119781494,-21.4763298034668,22.0,-1156740.0,16551.3,pp-riro,4,0,-1,-1
1570535148.5,2019-10-08,13:45:48.500,14.0,10.0,16.3999996185303,10.6,21.3,10.6,23.0,-32.8,51.9,10.0008,19.6298,10.6469,-8.13073,11.9341,3.00835,25.2144,-19.3183,52.5696,0.0942163,0.404307,1.03914,265.3,5.0,52.1701,4.42715,-3.1,-2.2058,157.08,4.5128900000000005,75.0047,20.5213,224.297,1.23707,-0.0675689,237.394,2.79773,2.96318,-34.167938232421896,22.0025119781494,-20.8637733459473,22.0,-1153840.0,20919.9,pp-riro,4,0,-1,-1
1570535148.6,2019-10-08,13:45:48.600,14.0,10.0,16.6700000762939,9.3,22.4,11.1,21.1,-33.7,58.9,8.95567,20.6606,11.0717,-10.7551,8.18774,4.92015,23.1502,-20.2695,59.4861,0.0773241,0.296617,1.04921,265.3,5.0,52.1701,4.42716,-3.2,-1.94317,164.544,4.51287,77.1368,21.6614,223.197,1.22615,-0.0742448999999999,237.142,2.9111,3.03233,-33.1933746337891,22.003026962280305,-20.1652584075928,22.0,-1151620.0,22242.7,pp-riro,4,0,-1,-1
1570535148.7,2019-10-08,13:45:48.700,14.0,10.0,16.9300003051758,7.9,23.3,11.5,19.1,-34.4,66.1,7.07227,21.9485,11.6505,-14.4205,9.10841,0.7678149999999999,19.9685,-21.7891,69.6898,0.1136809999999999,0.187556,1.02637,265.3,5.0,52.1701,4.42716,-3.2,-1.62845,168.775,4.51284,79.3565,22.4214,222.097,1.21528,-0.0758277,236.912,3.02104,3.09476,-31.8706359863281,22.003026962280305,-19.4630870819092,22.0,-1149430.0,21750.5,pp-riro,4,0,-1,-1
1570535148.8,2019-10-08,13:45:48.800,14.0,10.0,17.1399993896484,6.3,24.1,11.7,16.8,-35.0,73.5,6.37165,22.3079,11.7774,-12.9341,5.37145,2.50416,18.7658,-22.2568,73.1012,0.0567922,0.163076,1.06464,265.3,5.0,52.1701,4.42716,-3.2,-1.46943,169.09,4.51281,81.7807,23.1815,220.897,1.20346,-0.0766391999999999,236.688,3.13166,3.1602200000000003,-30.184326171875,22.003026962280305,-18.7432460784912,22.0,-1148410.0,19320.1,pp-riro,4,0,-1,-1
1570535148.9,2019-10-08,13:45:48.900,14.0,9.0,17.4500007629395,4.7,24.6,11.8,14.6,-34.7,80.3,5.64609,22.6382,11.8492,-16.5482,2.07693,1.91654,17.7051,-22.6539,76.5466,-0.0654752,0.2269409999999999,1.06086,265.3,5.0,52.1701,4.42716,-3.2,-1.13254,168.09400000000002,4.51279,84.1465,23.9415,219.797,1.19199,-0.0775968,236.568,3.2326200000000003,3.22171,-28.168624877929695,22.003026962280305,-18.1139850616455,22.0,-1146840.0,15197.7,pp-riro,4,0,-1,-1
1570535149.0,2019-10-08,13:45:49.000,14.0,9.0,17.6000003814697,3.2,25.0,11.8,12.4,-34.3,87.0,4.2487,23.1381,11.8513,-16.7124,5.39197,0.444256,15.6525,-23.5404,82.9425,0.080434,0.168088,0.945921,265.3,5.0,52.1701,4.42716,-3.2,-0.670994,166.78599999999997,4.51276,86.5999,24.3216,218.597,1.18042,-0.0741698,236.381,3.32844,3.27435,-26.0573501586914,22.003026962280305,-17.5545768737793,22.0,-1145230.0,8337.18,pp-riro,4,0,-1,-1
1570535149.1,2019-10-08,13:45:49.100,14.0,9.0,17.7900009155273,1.7,25.1,11.7,10.2,-34.0,93.0,2.11603,23.6298,11.8696,-13.0464,-2.91203,-3.38869,12.5493,-23.9956,92.0182,0.0750393,0.0261473999999999,0.8838450000000001,256.9,4.7,52.1701,4.42716,-3.2,-0.494796,165.893,4.51273,89.0533,24.7016,217.497,1.16901,-0.0709233,236.317,3.41388,3.32554,-24.4837036132812,22.0035419464111,-17.0463943481445,22.0,-1144900.0,6306.72,pp-riro,4,0,-1,-1
1570535149.2,2019-10-08,13:45:49.200,14.0,8.0,17.7900009155273,0.3,25.0,11.4,8.4,-33.4,98.8,0.813928,23.5636,11.5714,-12.9302,-1.85399,-3.35265,10.6651,-24.1912,97.7321,0.128712,0.0316572,0.785266,256.9,4.7,52.1701,4.42716,-3.2,-0.0587327,158.869,4.5126800000000005,91.5359,25.0817,216.397,1.15747,-0.0677383999999999,236.296,3.4971400000000004,3.37365,-22.4594650268555,22.003026962280305,-16.633659362793,22.0,-1144570.0,276.88,pp-riro,4,0,-1,-1
1570535149.3,2019-10-08,13:45:49.300,14.0,8.0,17.840000152587898,-1.0,25.0,11.1,6.4,-32.5,104.2,-0.475118,23.5921,11.3023,-14.1205,-3.35122,1.44443,8.80258,-23.9723,102.999,0.151858,0.368805,0.689189,256.9,4.7,52.1701,4.42716,-3.2,0.2127679999999999,154.709,4.512630000000001,94.0769,25.0817,215.297,1.14609,-0.0607888,236.289,3.5726400000000003,3.41561,-20.694656372070305,22.003026962280305,-16.2440986633301,22.0,-1144740.0,-2368.87,pp-riro,4,0,-1,-1
1570535149.4,2019-10-08,13:45:49.400,14.0,8.0,17.7900009155273,-2.0,24.6,10.8,4.7,-31.5,109.0,-0.475118,23.5921,11.3023,-14.1205,-3.35122,1.44443,8.80258,-23.9723,102.999,0.151858,0.368805,0.689189,256.9,4.7,52.1701,4.42716,-3.2,0.321922,149.066,4.512580000000001,96.5595,24.7018,214.297,1.13546,-0.0506620999999999,236.341,3.63763,3.44443,-18.8615798950195,22.003026962280305,-15.9993162155151,22.0,-1144750.0,2153.51,pp-riro,4,0,-1,-1
1570535149.5,2019-10-08,13:45:49.500,14.0,8.0,17.6900005340576,-3.0,24.3,10.5,3.4,-30.3,113.6,-0.475118,23.5921,11.3023,-14.1205,-3.35122,1.44443,8.80258,-23.9723,102.999,0.151858,0.368805,0.689189,256.9,4.7,52.1701,4.42716,-3.2,0.2371469999999999,148.947,4.5125,98.9545,24.7018,213.197,1.12459,-0.0447425,236.337,3.70476,3.47811,-17.6941452026367,22.003026962280305,-15.8300046920776,22.0,-1144620.0,2307.34,pp-riro,4,0,-1,-1
1570535149.6,2019-10-08,13:45:49.600,14.0,8.0,17.6399993896484,-4.1,23.9,10.6,1.7,-29.0,117.6,-3.05615,22.9373,10.4462,-9.13215,-2.15581,-0.479916,4.7561800000000005,-22.0775,114.687,0.10063,0.174168,0.610179,256.9,4.7,52.1701,4.42716,-3.0,0.2715,165.731,4.51247,101.379,24.3218,212.197,1.11412,-0.0355432,236.425,3.76148,3.51131,-17.1957702636719,22.003026962280305,-15.5692472457886,22.0,-1144710.0,-1476.7,pp-riro,4,0,-1,-1
1570535149.7,2019-10-08,13:45:49.700,14.0,9.0,17.5400009155273,-5.1,23.7,10.7,0.0,-27.7,121.1,-4.06039,22.73,10.4833,-12.3996,-4.506959999999999,2.21943,3.07291,-21.3032,118.737,0.120413,0.217993,0.542758,256.9,4.7,52.1701,4.42716,-3.0,0.319151,184.196,4.51242,103.715,23.9419,211.197,1.10396,-0.0268988,236.505,3.812030000000001,3.54084,-16.2553329467773,22.003026962280305,-15.4073143005371,22.0,-1144680.0,707.5830000000001,pp-riro,4,0,-1,-1
1570535149.8,2019-10-08,13:45:49.800,14.0,10.0,17.6399993896484,-6.0,23.5,10.5,-1.8,-26.3,124.7,-4.06039,22.73,10.4833,-12.3996,-4.506959999999999,2.21943,3.07291,-21.3032,118.737,0.120413,0.217993,0.542758,256.9,4.7,52.1701,4.42716,-3.0,0.321922,187.654,4.51237,106.169,23.1819,210.097,1.09345,-0.0149533,236.538,3.86247,3.5658,-15.7654876708984,22.0035419464111,-15.2880582809448,22.0,-1144650.0,123.058,pp-riro,4,0,-1,-1
1570535149.9,2019-10-08,13:45:49.900,14.0,10.0,17.6299991607666,-7.0,23.3,10.5,-4.0,-25.3,128.2,-6.30175,22.2436,10.1999,-6.786580000000001,-4.58995,0.144556,-2.0297400000000003,-18.9011,127.446,-0.135913,0.11804,0.6119829999999999,256.9,4.7,52.1701,4.42716,-3.0,0.331895,194.073,4.51231,108.505,22.4219,208.997,1.08333,-0.0037006,236.55,3.91018,3.59366,-15.4889907836914,22.003026962280305,-15.1385364532471,22.0,-1144600.0,646.054,pp-riro,4,0,-1,-1
1570535150.0,2019-10-08,13:45:50.000,14.0,11.0,17.7800006866455,-7.9,23.1,10.7,-5.9,-24.6,131.6,-6.8420000000000005,22.2195,10.2358,-15.0645,-2.92375,6.606,-3.01236,-18.6349,129.19,-0.1608369999999999,-0.0444801,0.285379,256.9,4.7,52.1701,4.42716,-3.0,0.348518,207.866,4.51226,110.842,22.0419,207.897,1.0728799999999998,0.00382855,236.629,3.95786,3.61943,-15.3285522460938,22.003026962280305,35.0,22.0,-1144570.0,123.058,pp-riro,4,0,-1,-1
1570535150.1,2019-10-08,13:45:50.100,14.0,12.0,17.8799991607666,-9.0,22.8,10.8,-7.9,-23.1,134.5,-8.43275,21.9411,10.2656,-8.752189999999999,-3.74613,-2.90581,-6.84951,-17.2858,133.63,-0.3680239999999999,0.0849398,0.53267,266.4,5.1,52.1701,4.42716,-3.0,0.383979,223.955,4.512230000000001,113.237,21.282,206.597,1.06206,0.0143841,236.555,4.00129,3.65092,-15.1493453979492,22.003026962280305,35.0,22.0,-1144550.0,246.116,pp-riro,4,0,-1,-1
1570535150.2,2019-10-08,13:45:50.200,14.0,12.0,17.979999542236303,-9.9,22.4,10.7,-10.2,-22.5,137.3,-9.36695,21.5611,10.3392,-10.4084,-2.98539,-0.637307,-9.13185,-16.585,136.445,-0.322503,0.0544304999999999,0.41839,266.4,5.1,52.1701,4.42716,-3.0,0.778486,231.121,4.51222,115.427,20.522,205.498,1.05235,0.0242173,236.588,4.03791,3.67869,-15.1698226928711,22.003026962280305,35.0,22.0,-1146200.0,-19350.9,pp-riro,4,0,-1,-1
1570535150.3,2019-10-08,13:45:50.300,14.0,12.0,18.1200008392334,-10.9,22.2,10.4,-12.2,-21.5,139.9,-9.87464,21.4459,10.2111,-13.2889,-2.40593,-6.11681,-10.334,-16.425,137.695,-0.168356,-0.103498,0.259501,266.4,5.1,52.1701,4.42716,-3.0,1.127,216.852,4.51221,117.676,19.002,204.198,1.04241,0.0400834,236.443,4.06958,3.70434,-14.929168701171902,22.0035419464111,35.0,22.0,-1147060.0,6952.77,pp-riro,4,0,-1,-1
1570535150.4,2019-10-08,13:45:50.400,14.0,10.0,18.1700000762939,-11.5,21.7,10.3,-14.1,-20.4,142.3,-10.3298,21.3454,10.0038,-7.245839999999999,2.78262,-6.18999,-11.4896,-16.1471,138.846,-0.3210679999999999,-0.0749923,0.459613,266.4,5.1,52.1701,4.42716,-3.0,0.8760040000000001,204.447,4.5122,119.984,17.862000000000002,202.998,1.03216,0.0524009,236.481,4.10233,3.72126,-14.3215560913086,22.0035419464111,35.0,22.0,-1145630.0,5937.55,pp-riro,4,0,-1,-1
1570535150.5,2019-10-08,13:45:50.500,14.0,10.0,18.3600006103516,-12.3,21.1,10.6,-15.6,-19.6,144.2,-10.9587,20.921,9.73449,-2.36542,-6.26726,-0.2825789999999999,-13.5459,-15.3578,140.975,-0.189468,0.0918344,0.4115859999999999,266.4,5.1,52.1701,4.42716,-3.0,1.05386,248.993,4.5122,122.116,17.102,201.798,1.02229,0.0610503,236.489,4.12876,3.74543,-13.3555221557617,22.0035419464111,35.0,22.0,-1146300.0,3999.38,pp-riro,4,0,-1,-1
1570535150.6,2019-10-08,13:45:50.600,14.0,12.0,18.3600006103516,-13.0,20.6,10.7,-17.2,-19.2,145.8,-11.3726,20.6705,9.93508,-9.0991,-7.229389999999999,6.377280000000001,-14.6858,-15.0152,142.03799999999998,-0.122254,0.0410825,0.278836,266.4,5.1,52.1701,4.427169999999999,-3.0,1.0283799999999998,254.732,4.51219,124.219,15.582,200.498,1.01262,0.0754122,236.374,4.142919999999999,3.76219,-12.0310668945312,22.0035419464111,35.0,22.0,-1146020.0,5537.61,pp-riro,4,0,-1,-1
1570535150.7,2019-10-08,13:45:50.700,14.0,11.0,18.5,-13.7,20.2,10.6,-18.6,-18.6,147.4,-12.7839,19.6872,10.1447,-1.13395,-5.35721,-0.739513,-18.3239,-15.1395,145.965,-0.0421357,-0.0946128,0.241865,266.4,5.1,52.1701,4.427169999999999,-3.0,1.04389,251.834,4.51218,126.322,14.062,199.198,1.00285,0.0893458999999999,236.294,4.15918,3.78027,-10.3550109863281,22.0035419464111,35.0,22.0,-1145990.0,61.529,pp-riro,4,0,-1,-1
1570535150.8,2019-10-08,13:45:50.800,14.0,10.0,18.5499992370605,-14.3,20.0,10.9,-19.3,-18.0,148.4,-13.104,19.5518,10.179,-2.87964,-3.55179,-2.1165,-19.1343,-15.1259,146.714,-0.188754,-0.100601,0.160471,266.4,5.1,52.1701,4.427169999999999,-3.0,1.03558,257.53,4.512169999999999,128.366,12.9221,197.998,0.993298,0.0998883,236.322,4.16972,3.78998,-8.32736206054688,22.003026962280305,35.0,22.0,-1145660.0,3076.45,pp-riro,4,0,-1,-1
1570535150.9,2019-10-08,13:45:50.900,14.0,9.0,18.7399997711182,-14.6,19.5,11.2,-20.0,-18.2,149.1,-13.8146,19.3297,10.4437,-7.1624,1.74954,2.9241,-20.7218,-15.1959,147.87,-0.135172,-0.155342,0.21008,266.4,5.1,52.1701,4.427169999999999,-3.0,1.0610700000000002,268.60400000000004,4.512169999999999,130.32299999999998,11.4021,196.698,0.983888,0.112951,236.229,4.16704,3.79272,-6.21778106689453,22.0035419464111,35.0,22.0,-1145600.0,307.645,pp-riro,4,0,-1,-1
1570535151.0,2019-10-08,13:45:51.000,14.0,10.0,18.8799991607666,-14.7,19.3,11.3,-20.7,-18.2,149.7,-14.0629,19.1257,10.7219,-4.59246,-4.61458,5.44281,-21.1686,-15.5941,148.572,0.0187747,-0.209328,0.0999182,266.4,5.1,52.1701,4.427169999999999,-3.0,1.07049,269.948,4.51216,132.339,9.88206,195.398,0.974192,0.125697,236.202,4.16496,3.78727,-4.120155334472661,22.0035419464111,35.0,22.0,-1145260.0,2491.92,pp-riro,4,0,-1,-1
1570535151.1,2019-10-08,13:45:51.100,14.0,10.0,19.020000457763697,-14.8,19.3,11.7,-21.0,-18.1,149.7,-14.4336,18.923,10.8713,-3.795830000000001,-1.43023,1.24409,-22.1826,-16.4867,149.482,-0.244073,-0.0558722,-0.0532489,281.2,5.2,52.1701,4.427169999999999,-3.0,1.06661,267.003,4.51219,134.237,8.36207,194.098,0.964827,0.137985,236.143,4.1556,3.77519,-2.00204467773438,22.003026962280305,35.0,22.0,-1145100.0,2984.16,pp-riro,4,0,-1,-1
1570535151.2,2019-10-08,13:45:51.200,14.0,10.0,19.1100006103516,-14.7,19.2,12.1,-21.3,-18.8,149.5,-14.6328,18.891,11.355,2.2326900000000003,7.305289999999999,2.54195,-23.427,-17.5599,150.237,-0.196134,-0.14589,0.0679887,281.2,5.2,52.1701,4.427169999999999,-3.0,1.05553,265.633,4.51227,136.106,6.84207,192.798,0.955491,0.149896,236.099,4.13666,3.7589,0.093673706054688,22.0035419464111,35.0,22.0,-1144720.0,2030.46,pp-riro,4,0,-1,-1
1570535151.3,2019-10-08,13:45:51.300,14.0,9.0,19.2399997711182,-14.4,19.4,12.6,-21.7,-19.8,149.1,-14.5611,18.9935,11.8948,4.62199,-1.57297,5.88191,-23.9835,-18.3437,150.222,0.0150727999999999,-0.320366,-0.204862,281.2,5.2,52.1701,4.427169999999999,-3.0,1.06218,266.48400000000004,4.51234,138.034,5.70209,191.398,0.945586,0.158763,236.049,4.114719999999999,3.73312,2.19535064697266,22.003026962280305,35.0,22.0,-1144620.0,1938.16,pp-riro,4,0,-1,-1
1570535151.4,2019-10-08,13:45:51.400,14.0,9.0,19.4300003051758,-14.0,19.5,13.1,-21.6,-20.3,147.6,-14.3293,19.2319,12.3388,7.612480000000001,6.01198,5.20751,-24.2754,-19.8929,150.034,-0.201237,-0.191245,-0.012669,281.2,5.2,52.1701,4.427169999999999,-3.0,1.06051,265.385,4.51242,139.933,4.1821,189.998,0.935781,0.170096,236.004,4.07989,3.704,4.298728942871089,22.003026962280305,35.0,22.0,-1144350.0,2768.8,pp-riro,4,0,-1,-1
1570535151.5,2019-10-08,13:45:51.500,14.0,9.0,19.6100006103516,-13.4,19.8,13.8,-21.8,-21.4,146.3,-13.9969,19.6606,12.9342,4.99,2.07591,3.70234,-24.3915,-21.2629,148.88,-0.0419533,-0.0412038,-0.289145,281.2,5.2,52.1701,4.427169999999999,-3.0,1.05774,266.088,4.512490000000001,141.91899999999998,2.66211,188.498,0.925362,0.181143,235.965,4.04298,3.66399,6.41233062744141,22.003026962280305,35.0,22.0,-1144010.0,2061.22,pp-riro,4,0,-1,-1
1570535151.6,2019-10-08,13:45:51.600,14.0,10.0,19.7800006866455,-12.8,20.2,14.4,-21.9,-23.0,144.4,-13.9969,19.6606,12.9342,4.99,2.07591,3.70234,-24.3915,-21.2629,148.88,-0.0419533,-0.0412038,-0.289145,281.2,5.2,52.1701,4.427169999999999,-3.2,1.06273,269.579,4.512569999999999,143.876,1.14212,187.098,0.91524,0.191886,236.024,3.99384,3.62463,8.52252197265625,22.0035419464111,35.0,22.0,-1143900.0,2122.75,pp-riro,4,0,-1,-1
1570535151.7,2019-10-08,13:45:51.700,14.0,10.0,19.909999847412102,-11.9,20.7,15.2,-21.7,-24.5,142.0,-13.7873,19.853,13.3202,6.83058,3.45667,9.16444,-24.6162,-21.9525,148.255,-0.138009,-0.18947,-0.313617,281.2,5.2,52.1701,4.427169999999999,-3.2,1.07824,281.564,4.51264,145.832,0.00214246,185.598,0.904809,0.199735,236.038,3.94139,3.57573,10.622497558593802,22.003026962280305,35.0,22.0,-1143730.0,1568.99,pp-riro,4,0,-1,-1
1570535151.8,2019-10-08,13:45:51.800,14.0,10.0,20.0499992370605,-10.8,21.2,16.2,-21.1,-26.6,138.4,-12.2096,21.3994,15.4302,9.881,11.0599,10.6438,-25.0413,-27.3793,143.535,-0.2456159999999999,-0.225185,-0.5395979999999999,281.2,5.2,52.1701,4.427169999999999,-3.2,1.10539,298.485,4.51271,147.965,-1.13783,183.898,0.893242,0.207364,236.037,3.86814,3.52022,12.730987548828098,22.004056930542003,35.0,22.0,-1143610.0,953.699,pp-riro,4,0,-1,-1
1570535151.9,2019-10-08,13:45:51.900,14.0,10.0,20.1299991607666,-10.3,21.3,16.6,-20.7,-27.8,136.6,-12.2096,21.3994,15.4302,9.881,11.0599,10.6438,-25.0413,-27.3793,143.535,-0.2456159999999999,-0.225185,-0.5395979999999999,281.2,5.2,52.1701,4.427169999999999,-3.2,1.1464,320.263,4.51279,148.928,-1.51781,183.098,0.8879239999999999,0.2097909999999999,236.023,3.8318,3.49802,14.8343658447266,22.004056930542003,35.0,22.0,-1143300.0,2861.1,pp-riro,4,0,-1,-1
1570535152.0,2019-10-08,13:45:52.000,14.0,11.0,20.2199993133545,-8.7,21.9,17.6,-20.0,-30.5,132.0,-10.5676,22.4355,17.1158,13.4991,9.13301,14.2126,-24.7218,-32.0477,138.59,-0.202166,-0.339262,-0.622145,281.2,5.2,52.1701,4.427169999999999,-3.2,1.15415,326.399,4.51284,152.141,-3.03775,181.398,0.872792,0.2195119999999999,236.773,3.74069,3.4263800000000004,16.9377517700195,22.004571914672898,35.0,22.0,-1143190.0,2061.22,pp-riro,4,0,-1,-1
1570535152.1,2019-10-08,13:45:52.100,14.0,11.0,20.2099990844727,-7.1,22.1,18.6,-17.9,-33.0,126.5,-10.5676,22.4355,17.1158,13.4991,9.13301,14.2126,-24.7218,-32.0477,138.59,-0.202166,-0.339262,-0.622145,281.2,5.0,52.1701,4.427169999999999,-3.2,1.1874,338.69800000000004,4.51295,153.222,-3.41773,179.59799999999998,0.864361,0.221743,236.102,3.64673,3.36554,19.0598678588867,22.004571914672898,35.0,22.0,-1142990.0,2461.16,pp-riro,4,0,-1,-1
1570535152.2,2019-10-08,13:45:52.200,14.0,11.0,20.340000152587898,-5.1,22.4,19.5,-15.6,-36.2,120.4,-9.03764,23.1357,18.2533,16.0314,12.178,10.521,-23.9822,-35.3192,134.028,-0.467401,-0.380548,-0.7236899999999999,281.2,5.0,52.1701,4.427169999999999,-3.2,1.19405,348.83,4.5130300000000005,155.412,-4.1776800000000005,177.798,0.8523,0.226232,236.183,3.54177,3.29136,21.171760559082,22.004571914672898,35.0,22.0,-1142650.0,3076.45,pp-riro,4,0,-1,-1
1570535152.3,2019-10-08,13:45:52.300,14.0,11.0,20.4699993133545,-2.7,22.5,20.1,-12.1,-39.1,113.2,-6.1071,23.9594,20.1119,20.4081,6.12175,13.092,-20.9007,-41.1341,125.755,-0.1280339999999999,-0.328916,-0.721892,281.2,5.0,52.1701,4.427169999999999,-3.2,1.22009,354.93800000000005,4.51312,157.57399999999998,-4.55762,175.798,0.8398030000000001,0.2281889999999999,236.125,3.43059,3.20927,23.2802505493164,22.004056930542003,35.0,22.0,-1142400.0,2768.8,pp-riro,4,0,-1,-1
1570535152.4,2019-10-08,13:45:52.400,14.0,11.0,20.5599994659424,-0.2,22.4,20.5,-6.8,-41.5,103.7,-4.9059800000000005,24.1133,20.5792,21.4398,4.76993,10.5952,-19.3779,-43.0336,122.191,-0.383811,-0.244943,-1.07124,281.2,5.0,52.1701,4.427169999999999,-3.2,1.21566,357.853,4.5132,159.881,-4.55755,173.798,0.82688,0.227688,236.196,3.29882,3.12716,25.3853378295898,22.004571914672898,23.0211448669434,22.0,-1141910.0,5106.9,pp-riro,4,0,-1,-1
1570535152.5,2019-10-08,13:45:52.500,14.0,11.0,20.6399993896484,2.4,21.8,20.8,-0.7,-43.0,93.6,-0.8825879999999999,24.4243,21.6128,24.7452,-8.38602,7.3595,-12.4066,-47.7577,109.371,-0.0267387,-0.242767,-1.04182,281.2,5.0,52.1701,4.427169999999999,-3.2,1.22563,362.453,4.51328,161.984,-4.55748,171.898,0.814886,0.227276,236.238,3.16697,3.04177,27.4870147705078,22.004571914672898,23.0211448669434,22.0,-1141660.0,2338.1,pp-ro,1,1,-1,-1
1570535152.6,2019-10-08,13:45:52.600,14.0,12.0,20.7600002288818,5.2,21.1,20.5,5.7,-43.5,82.8,-0.8825879999999999,24.4243,21.6128,24.7452,-8.38602,7.3595,-12.4066,-47.7577,109.371,-0.0267387,-0.242767,-1.04182,281.2,5.0,52.1701,4.427169999999999,-3.5,1.2261799999999998,361.718,4.51337,164.08700000000002,-4.1774,170.09799999999998,0.8032229999999999,0.224476,236.38,3.0321700000000003,2.94841,29.3638763427734,22.004571914672898,23.0211448669434,22.0,-1141010.0,4737.73,pp-ro,1,1,-1,-1
1570535152.7,2019-10-08,13:45:52.700,14.0,11.0,20.8500003814697,7.9,20.2,20.0,12.6,-42.8,71.8,7.0341,23.2372,21.7083,42.3816,-12.6152,-8.09418,6.5285,-52.4414,78.6513,0.00988786,-0.0689908,-1.27298,281.2,5.0,52.1701,4.427169999999999,-3.5,1.22452,359.05800000000005,4.51345,166.13099999999997,-3.79732,168.19799999999998,0.79145,0.221793,236.442,2.89403,2.85431,30.8830871582031,22.004571914672898,23.0211448669434,22.0,-1140620.0,3876.33,pp-ro,1,1,-1,-1
1570535152.8,2019-10-08,13:45:52.800,14.0,12.0,20.9699993133545,10.5,19.0,19.4,19.6,-41.0,60.5,7.0341,23.2372,21.7083,42.3816,-12.6152,-8.09418,6.5285,-52.4414,78.6513,0.00988786,-0.0689908,-1.27298,281.2,5.0,52.1701,4.427169999999999,-3.5,1.21954,359.01,4.51353,168.05900000000003,-3.03723,166.498,0.780652,0.216926,236.59,2.74807,2.75999,32.041213989257805,22.004571914672898,23.0211448669434,22.0,-1140180.0,4430.09,pp-ro,1,1,-1,-1
1570535152.9,2019-10-08,13:45:52.900,14.0,12.0,21.0100002288818,12.9,17.6,18.3,25.6,-38.1,49.8,14.5863,20.1549,19.6126,30.5169,-20.7785,-14.7744,27.0679,-48.3701,45.9084,0.0344594,0.151554,-1.18864,281.2,5.0,52.1701,4.427169999999999,-3.5,1.2173200000000002,358.286,4.51362,169.84,-1.51713,164.69799999999998,0.770009,0.207704,236.587,2.60259,2.66531,32.8519134521484,22.004056930542003,23.018762588501,22.0,-1139990.0,3630.21,pp-ro,1,1,-1,-1
1570535153.0,2019-10-08,13:45:53.000,14.0,12.0,20.9300003051758,15.0,15.9,17.0,31.0,-34.2,40.1,14.5863,20.1549,19.6126,30.5169,-20.7785,-14.7744,27.0679,-48.3701,45.9084,0.0344594,0.151554,-1.18864,259.3,4.2,52.1701,4.427169999999999,-3.5,1.21787,356.91,4.5137,171.505,-0.377046,163.09799999999998,0.7602770000000001,0.2008869999999999,236.675,2.45511,2.56763,33.303253173828104,22.0050868988037,23.0235271453857,22.0,-1139370.0,4645.44,pp-ro,1,1,-1,-1
1570535153.1,2019-10-08,13:45:53.100,14.0,13.0,20.75,16.8,14.2,15.6,35.5,-29.9,31.1,14.5863,20.1549,19.6126,30.5169,-20.7785,-14.7744,27.0679,-48.3701,45.9084,0.0344594,0.151554,-1.18864,259.3,4.2,52.1701,4.427169999999999,-3.5,1.21566,356.065,4.513669999999999,173.082,0.763037,161.59799999999998,0.7510939999999999,0.1943089999999999,236.795,2.30799,2.472,33.408843994140604,22.004571914672898,22.0640163421631,22.0,-1139010.0,3322.56,pp-ro,1,1,-1,-1
1570535153.2,2019-10-08,13:45:53.200,14.0,13.0,20.5400009155273,18.4,12.4,13.8,39.2,-24.8,23.2,14.5863,20.1549,19.6126,30.5169,-20.7785,-14.7744,27.0679,-48.3701,45.9084,0.0344594,0.151554,-1.18864,259.3,4.2,52.1701,4.427169999999999,-3.5,1.22009,356.219,4.5136400000000005,174.484,2.66313,160.09799999999998,0.742371,0.1834839999999999,236.819,2.16452,2.37059,33.190826416015604,22.004571914672898,20.340885162353494,22.0,-1138600.0,4491.62,pp-ro,1,1,-1,-1
1570535153.3,2019-10-08,13:45:53.300,14.0,13.0,20.4500007629395,19.8,10.8,12.3,41.6,-19.6,16.1,14.5863,20.1549,19.6126,30.5169,-20.7785,-14.7744,27.0679,-48.3701,45.9084,0.0344594,0.151554,-1.18864,259.3,4.2,52.1701,4.427169999999999,-3.5,1.2151,355.38,4.51361,175.769,4.563219999999999,158.898,0.734863,0.172819,236.99,2.0261400000000003,2.27894,32.5640869140625,22.0050868988037,18.7734451293945,22.0,-1138370.0,4460.85,pp-ro,1,1,-1,-1
1570535153.4,2019-10-08,13:45:53.400,14.0,13.0,20.409999847412102,20.5,8.9,10.6,43.6,-14.2,9.8,20.4825,15.5598,15.4772,16.0689,-14.9408,-15.7469,39.4259,-36.4534,20.212,-0.512717,0.3053869999999999,-1.22632,259.3,4.2,52.1701,4.427169999999999,-3.5,1.21621,355.86400000000003,4.51359,176.791,6.46331,157.69799999999998,0.7280479999999999,0.162261,236.993,1.89241,2.18869,32.111053466796896,22.0050868988037,17.2157859802246,22.0,-1138030.0,3384.09,pp-ro,1,1,-1,-1
1570535153.5,2019-10-08,13:45:53.500,14.0,13.0,20.4500007629395,20.9,7.2,8.6,45.2,-8.9,3.6,24.0664,9.02194,9.26004,0.975556,-13.3903,-11.8701,44.4045,-18.3323,-0.124036,-0.266469,0.0512609,-1.35942,259.3,4.2,52.1701,4.427169999999999,-3.5,1.20236,345.261,4.51356,177.755,8.363389999999999,156.69799999999998,0.721975,0.151817,237.11,1.75964,2.0943400000000003,30.9426879882812,22.0050868988037,15.5544090270996,22.0,-1137360.0,4983.85,pp-ro,1,1,-1,-1
1570535153.6,2019-10-08,13:45:53.600,14.0,13.0,20.4899997711182,21.1,5.7,6.8,46.4,-3.8,-1.3,24.186,8.07188,8.109539999999999,4.75677,-18.7138,-13.8162,44.5769,-15.2649,-2.9270400000000003,0.0644285,0.0322721,-1.29841,259.3,4.2,52.1701,4.427169999999999,-3.7,1.19128,341.408,4.51353,178.485,10.6435,155.999,0.717392,0.1393,237.288,1.6449900000000002,2.0081900000000004,29.4234924316406,22.0050868988037,13.9913682937622,22.0,-1136950.0,3691.74,pp-ro,1,1,-1,-1
1570535153.7,2019-10-08,13:45:53.700,14.0,12.0,20.4899997711182,21.2,4.1,5.1,47.0,1.3,-6.1,24.186,8.07188,8.109539999999999,4.75677,-18.7138,-13.8162,44.5769,-15.2649,-2.9270400000000003,0.0644285,0.0322721,-1.29841,259.3,4.2,52.1701,4.427169999999999,-3.7,1.19239,340.74800000000005,4.5135,179.128,12.9235,155.299,0.7129810000000001,0.126868,237.426,1.5311,1.91739,27.5568389892578,22.0050868988037,12.3391447067261,22.0,-1136750.0,3876.33,pp-ro,1,1,-1,-1
1570535153.8,2019-10-08,13:45:53.800,14.0,12.0,20.479999542236303,20.9,2.6,3.4,47.3,5.9,-10.9,24.3203,6.208019999999999,5.89339,6.72272,-18.5537,-23.1461,44.7367,-9.37462,-8.239419999999999,-0.308935,0.0570192999999999,-1.32913,259.3,4.2,52.1701,4.427169999999999,-3.7,1.18518,337.297,4.51347,179.56599999999997,14.8236,154.799,0.7097829999999999,0.116553,237.542,1.42248,1.82644,24.9271926879883,22.0050868988037,10.6430997848511,22.0,-1136360.0,4060.91,pp-ro,1,1,-1,-1
1570535153.9,2019-10-08,13:45:53.900,14.0,12.0,20.3600006103516,20.5,1.5,1.8,47.5,10.1,-14.9,24.2487,4.16973,3.96968,-5.00462,-25.3615,-29.3396,44.4187,-3.74842,-12.8541,-0.33087,0.076304,-1.0521,259.3,4.2,52.1701,4.427169999999999,-3.7,1.17743,333.047,4.51344,179.97400000000002,17.1037,154.499,0.7071569999999999,0.104199,237.80900000000003,1.3299,1.74653,22.818702697753896,22.004571914672898,9.14317417144775,22.0,-1135770.0,4122.44,pp-ro,1,1,-1,-1
1570535154.0,2019-10-08,13:45:54.000,14.0,12.0,20.1399993896484,20.1,0.2,0.4,47.4,14.0,-18.6,23.4504,1.81462,1.03492,-4.99632,-15.3758,-25.0666,44.1288,4.208480000000001,-19.047,0.0107844,0.3973489999999999,-0.987783,259.3,4.2,52.1701,4.427169999999999,-3.7,1.17355,332.122,4.51341,180.15,19.0037,154.299,0.705525,0.0938775,237.956,1.24381,1.66074,20.7170257568359,22.004571914672898,7.48842620849609,22.0,-1135580.0,3537.92,pp-ro,1,1,-1,-1
1570535154.1,2019-10-08,13:45:54.100,14.0,11.0,19.9599990844727,19.7,-0.7,-0.9,47.1,17.2,-22.4,22.6441,0.3859309999999999,-0.463187,-10.5982,-10.6763,-17.9356,43.7114,8.9904,-23.0751,-0.117575,-0.104316,-0.923344,264.6,4.8,52.1701,4.427169999999999,-3.7,1.17853,334.247,4.51346,180.266,21.2838,154.099,0.7038800000000001,0.0814286999999999,238.108,1.1675799999999998,1.58906,18.6085357666016,22.0050868988037,6.11975812911987,22.0,-1135260.0,3261.04,pp-ro,1,1,-1,-1
1570535154.2,2019-10-08,13:45:54.200,14.0,11.0,19.8299999237061,19.0,-1.6,-1.9,47.1,20.0,-25.8,22.2418,-0.236787,-1.27291,-9.6121,-6.36192,-12.1969,43.611,10.6655,-24.8991,-0.00412149,0.0578853,-1.01498,264.6,4.8,52.1701,4.427169999999999,-3.7,1.18297,338.504,4.51348,180.266,23.1838,154.099,0.703249,0.0710059,238.285,1.1002,1.52316,15.9618530273438,22.004571914672898,4.82280111312866,22.0,-1134920.0,3476.39,pp-ro,1,1,-1,-1
1570535154.3,2019-10-08,13:45:54.300,14.0,11.0,19.7399997711182,18.4,-2.4,-2.8,46.8,22.5,-29.2,20.7378,-2.38046,-3.7165,-11.7948,-7.497510000000001,-14.6645,42.7832,18.1107,-31.3796,0.0391056,-0.1009999999999999,-0.798592,264.6,4.8,52.1701,4.427169999999999,-3.7,1.19294,339.681,4.51352,180.149,25.0839,154.19899999999998,0.703199,0.0605227,238.454,1.03715,1.46172,14.912712097168,22.004571914672898,3.58798360824585,22.0,-1134420.0,3845.56,pp-ro,1,1,-1,-1
1570535154.4,2019-10-08,13:45:54.400,14.0,11.0,19.6499996185303,17.8,-3.2,-3.6,46.5,24.7,-32.5,20.3143,-2.82593,-4.19198,-1.90325,-8.99217,-10.9069,42.7521,19.7295,-32.8727,0.123201,0.0289685999999999,-0.648842,264.6,4.8,52.1701,4.427169999999999,-3.7,1.18297,338.501,4.51356,179.97400000000002,27.3639,154.399,0.703418,0.0479444,238.702,0.980792,1.40306,12.8008193969727,22.004571914672898,2.39623427391052,22.0,-1134010.0,3968.62,pp-ro,1,1,-1,-1
1570535154.5,2019-10-08,13:45:54.500,14.0,11.0,19.6100006103516,17.2,-3.8,-4.3,46.4,26.2,-35.7,19.0713,-3.95259,-5.40585,-2.01614,-10.0116,-13.7806,42.1357,23.8725,-37.5284,-0.101618,-0.0511207,-0.74278,264.6,4.8,52.1701,4.427169999999999,-3.7,1.1901700000000002,341.231,4.5136,179.71099999999998,28.8839,154.69899999999998,0.704444,0.0394305,238.877,0.931744,1.35046,10.1711654663086,22.004571914672898,1.28369808197021,22.0,-1133710.0,3014.92,pp-ro,1,1,-1,-1
1570535154.6,2019-10-08,13:45:54.600,14.0,11.0,19.6499996185303,16.7,-4.5,-5.0,46.2,27.5,-38.6,18.7194,-4.3349,-5.8293800000000005,-8.56978,-3.25825,-7.32379,42.478,25.319000000000003,-38.6287,0.284329,0.2144329999999999,-0.461785,264.6,4.8,52.1701,4.427169999999999,-3.9,1.19571,346.335,4.5136400000000005,179.39,30.404,154.999,0.705589,0.0308623,239.018,0.8886809999999999,1.29494,8.05756378173828,22.004571914672898,0.105729058384895,22.0,-1133350.0,3476.39,pp-ro,1,1,-1,-1
1570535154.7,2019-10-08,13:45:54.700,14.0,10.0,19.7900009155273,16.0,-5.0,-5.5,46.2,28.6,-40.5,18.3068,-4.67794,-6.09844,-5.42368,-2.26174,-3.2075400000000003,42.1441,26.3651,-39.9024,-0.353172,-0.05777,-0.601425,264.6,4.8,52.1701,4.427169999999999,-3.9,1.20735,353.435,4.51368,178.952,32.304,155.499,0.707462,0.0201171,239.264,0.8610709999999999,1.2498,6.076812744140621,22.004571914672898,-0.909328043460846,22.0,-1133070.0,2707.28,pp-ro,1,1,-1,-1
1570535154.8,2019-10-08,13:45:54.800,14.0,11.0,20.0499992370605,15.6,-5.5,-5.9,45.9,29.1,-42.1,17.465999999999998,-5.34874,-6.66323,-9.84525,-6.81854,3.23581,42.0572,27.8995,-42.0847,0.216939,0.0123342,-0.5045109999999999,264.6,4.8,52.1701,4.427169999999999,-3.9,1.21676,355.75699999999995,4.513719999999999,178.455,33.824,155.999,0.709624,0.0113557,239.429,0.8425799999999999,1.2135200000000002,4.227195739746089,22.0050868988037,-1.7674248218536397,22.0,-1132910.0,3076.45,pp-ro,1,1,-1,-1
1570535154.9,2019-10-08,13:45:54.900,14.0,12.0,20.0499992370605,15.1,-6.0,-6.4,46.3,29.2,-43.3,16.8324,-5.76,-6.93164,-3.71659,-2.58201,-0.362977,42.0005,29.1774,-44.0153,-0.0815251,-0.026912,-0.268126,264.6,4.8,52.1701,4.427169999999999,-3.9,1.21455,353.75300000000004,4.51376,177.9,35.7241,156.499,0.711699,0.000457285,239.618,0.834676,1.17143,2.4695587158203103,22.004571914672898,-2.74077177047729,22.0,-1132480.0,4706.97,pp-ro,1,1,-1,-1
1570535155.0,2019-10-08,13:45:55.000,14.0,11.0,20.0100002288818,14.9,-6.4,-6.5,46.4,29.1,-44.2,16.0786,-6.48719,-7.43054,-2.18499,-1.76225,-2.68321,42.2727,30.0691,-45.1254,0.0880238999999999,0.0199571,0.0775107,264.6,4.8,52.1701,4.427169999999999,-3.9,1.20956,352.167,4.5138,177.287,37.2441,157.1,0.7143970000000001,-0.00848164,239.787,0.831158,1.15564,1.28246307373047,22.004571914672898,-3.2325224876403795,22.0,-1132100.0,3537.92,pp-ro,1,1,-1,-1
1570535155.1,2019-10-08,13:45:55.100,14.0,11.0,20.0499992370605,14.8,-6.6,-6.5,46.8,28.8,-45.2,16.0786,-6.48719,-7.43054,-2.18499,-1.76225,-2.68321,42.2727,30.0691,-45.1254,0.0880238999999999,0.0199571,0.0775107,261.5,5.4,52.1701,4.427169999999999,-3.9,1.21067,352.675,4.5138300000000005,176.673,38.7641,157.7,0.717052,-0.0174345999999999,239.969,0.8286540000000001,1.15269,-0.167266845703125,22.004571914672898,-3.47149395942688,22.0,-1131710.0,3937.85,pp-ro,1,1,-1,-1
1570535155.2,2019-10-08,13:45:55.200,14.0,11.0,20.1399993896484,14.8,-6.8,-6.4,47.0,28.3,-45.8,15.8999,-6.865589999999999,-7.433089999999999,2.494,-2.36778,-7.00351,42.6761,29.9837,-45.7612,0.082324,-0.0604739,-0.119421,261.5,5.4,52.1701,4.427169999999999,-3.9,1.20679,347.736,4.51386,176.03099999999998,40.2841,158.3,0.719742,-0.0264477,240.142,0.833083,1.15679,-1.4302749633789098,22.004571914672898,-3.57862734794617,22.0,-1131340.0,3507.15,pp-ro,1,1,-1,-1
1570535155.3,2019-10-08,13:45:55.300,14.0,10.0,20.270000457763697,14.9,-6.8,-6.4,47.4,27.7,-45.8,15.9207,-7.139360000000001,-7.07525,0.19266,-0.711497,7.10986,43.5317,30.2111,-45.9515,0.115808,-0.114519,-0.00725339,261.5,5.4,52.1701,4.427169999999999,-3.9,1.18241,338.4,4.51389,175.3,42.1841,158.9,0.722379,-0.0376518,240.331,0.847275,1.16709,-2.6250228881835898,22.004571914672898,-3.5677247047424303,22.0,-1130650.0,4030.15,pp-ro,1,1,-1,-1
1570535155.4,2019-10-08,13:45:55.400,14.0,10.0,20.3999996185303,15.0,-6.9,-6.1,48.2,27.1,-45.4,16.0294,-7.24602,-6.94868,0.8834120000000001,0.391421,-0.690172,43.7826,29.7608,-45.941,-0.110689,-0.0187667,0.0794737,261.5,5.4,52.1701,4.427169999999999,-3.9,1.1874,339.024,4.51392,174.57,43.3241,159.4,0.725147,-0.0447925,240.333,0.863511,1.1838,-3.25311279296875,22.004056930542003,-3.44282388687134,22.0,-1130360.0,3014.92,pp-ro,1,1,-1,-1
1570535155.5,2019-10-08,13:45:55.500,14.0,10.0,20.4500007629395,15.3,-7.0,-5.8,48.6,26.2,-45.6,16.0294,-7.24602,-6.94868,0.8834120000000001,0.391421,-0.690172,43.7826,29.7608,-45.941,-0.110689,-0.0187667,0.0794737,261.5,5.4,52.1701,4.427169999999999,-3.9,1.19128,338.73400000000004,4.51395,173.84,44.8442,160.0,0.727938,-0.0540183,240.481,0.877389,1.2075,-3.55692291259766,22.004571914672898,-3.19120454788208,22.0,-1130190.0,3476.39,pp-ro,1,1,-1,-1
1570535155.6,2019-10-08,13:45:55.600,14.0,10.0,20.5799999237061,15.5,-6.7,-5.6,49.5,25.7,-44.9,16.0294,-7.24602,-6.94868,0.8834120000000001,0.391421,-0.690172,43.7826,29.7608,-45.941,-0.110689,-0.0187667,0.0794737,261.5,5.4,52.1701,4.42716,-4.0,1.1802,336.23800000000006,4.51398,173.11,46.7442,160.5,0.730101,-0.0653243,240.65,0.899119,1.23716,-3.5722808837890603,22.004571914672898,-2.78450393676758,22.0,-1129760.0,3968.62,pp-ro,1,1,-1,-1
1570535155.7,2019-10-08,13:45:55.700,14.0,10.0,20.659999847412102,15.7,-7.0,-5.3,50.1,24.8,-44.3,16.6447,-7.48343,-6.12036,3.70524,2.58667,1.00836,44.9818,28.0348,-45.3777,0.107101,-0.15904,0.0855536,261.5,5.4,52.1701,4.42716,-4.0,1.18297,334.35400000000004,4.51401,172.35,47.8842,161.0,0.7328439999999999,-0.0726119,240.663,0.921441,1.25049,-3.30944061279297,22.004571914672898,-2.75315046310425,22.0,-1129430.0,3414.86,pp-ro,1,1,-1,-1
1570535155.8,2019-10-08,13:45:55.800,14.0,10.0,20.75,15.7,-6.9,-5.0,50.3,24.0,-44.0,16.6447,-7.48343,-6.12036,3.70524,2.58667,1.00836,44.9818,28.0348,-45.3777,0.107101,-0.15904,0.0855536,261.5,5.4,52.1701,4.42716,-4.0,1.17521,333.158,4.51403,171.62,49.7842,161.4,0.734589,-0.0839789,240.794,0.94195,1.27286,-2.93053436279297,22.004056930542003,-2.47646903991699,22.0,-1129020.0,4030.15,pp-ro,1,1,-1,-1
1570535155.9,2019-10-08,13:45:55.900,14.0,10.0,20.75,15.9,-6.9,-4.6,50.6,22.8,-43.2,17.0191,-7.337110000000001,-5.5434,-0.4684359999999999,-3.4331400000000003,0.674078,46.0185,26.6957,-44.4755,-0.1100039999999999,-0.0937929,0.128998,261.5,5.4,52.1701,4.42716,-4.0,1.17964,335.815,4.51406,170.832,51.3042,161.8,0.736729,-0.0934243,240.821,0.971845,1.3002200000000002,-2.63355255126953,22.004056930542003,-2.13786649703979,22.0,-1128730.0,2430.39,pp-ro,1,1,-1,-1
1570535156.0,2019-10-08,13:45:56.000,14.0,10.0,20.75,16.0,-6.8,-4.3,51.4,22.2,-42.3,17.3976,-7.56222,-4.57715,-0.199872,-0.337174,6.69699,47.3675,23.5568,-43.2451,0.147798,0.1370819999999999,0.2492579999999999,261.5,5.4,52.1701,4.42716,-4.0,1.17078,328.85900000000004,4.51409,170.101,53.2043,162.2,0.7383529999999999,-0.104841,240.986,0.997444,1.32536,-2.38095092773438,22.004056930542003,-1.8127430677413896,22.0,-1128120.0,4645.44,pp-ro,1,1,-1,-1
1570535156.1,2019-10-08,13:45:56.100,14.0,10.0,20.7099990844727,16.0,-6.9,-4.0,51.4,21.4,-41.9,17.5034,-7.486210000000001,-4.20566,0.203451,2.22578,2.72507,47.6572,22.8028,-42.6163,-0.0148028,-0.0230254,0.127565,252.3,5.0,52.1701,4.42716,-4.0,1.1630200000000002,326.355,4.51421,169.342,54.7243,162.5,0.740009,-0.114391,240.993,1.01807,1.34069,-2.2307586669921897,22.004056930542003,-1.6897490024566697,22.0,-1127940.0,3476.39,pp-ro,1,1,-1,-1
1570535156.2,2019-10-08,13:45:56.200,14.0,10.0,20.6700000762939,16.0,-6.8,-3.8,51.4,20.5,-41.9,17.5315,-7.56208,-4.025869999999999,-4.24446,-1.76154,-2.31613,47.6086,22.3548,-42.4619,0.0524395,-0.148324,0.150927,252.3,5.0,52.1701,4.42716,-4.0,1.16579,324.656,4.51431,168.612,55.8643,162.80100000000002,0.7418779999999999,-0.12186,240.945,1.03371,1.35695,-1.90988159179688,22.004056930542003,-1.57096362113953,22.0,-1127610.0,3691.74,pp-ro,1,1,-1,-1
1570535156.3,2019-10-08,13:45:56.300,14.0,10.0,20.5400009155273,16.0,-6.6,-3.2,51.4,20.1,-42.0,17.5315,-7.56208,-4.025869999999999,-4.24446,-1.76154,-2.31613,47.6086,22.3548,-42.4619,0.0524395,-0.148324,0.150927,252.3,5.0,52.1701,4.42716,-4.0,1.15803,325.745,4.51441,168.261,57.0043,163.001,0.742406,-0.128621,241.103,1.04185,1.39247,-1.7170181274414098,22.004571914672898,-0.9380629062652592,22.0,-1127240.0,3168.74,pp-ro,1,1,-1,-1
1570535156.4,2019-10-08,13:45:56.400,14.0,10.0,20.409999847412102,16.2,-6.6,-2.8,51.4,19.1,-41.6,17.595,-7.48526,-2.98758,0.613216,-1.6426599999999998,5.14071,48.1341,18.9636,-42.714,0.0420848,-0.151118,0.236059,252.3,5.0,52.1701,4.42716,-4.0,1.17188,328.355,4.51451,167.18,59.2843,163.401,0.744398,-0.142848,241.172,1.06826,1.42278,-1.46270751953125,22.004571914672898,-0.594817936420441,22.0,-1126970.0,2922.63,pp-ro,1,1,-1,-1
1570535156.5,2019-10-08,13:45:56.500,14.0,10.0,20.2399997711182,16.2,-6.5,-2.6,51.6,18.7,-41.1,17.7526,-7.39617,-2.67102,-0.0513026,1.14933,3.23024,48.1248,18.4225,-42.6692,0.0964541999999999,0.0804925,0.0103238,252.3,5.0,52.1701,4.42716,-4.0,1.16634,328.528,4.5146,166.421,61.1843,163.601,0.745201,-0.154476,241.256,1.08699,1.44214,-1.0394287109375,22.004056930542003,-0.345108389854431,22.0,-1126570.0,4060.91,pp-ro,1,1,-1,-1
1570535156.6,2019-10-08,13:45:56.600,14.0,11.0,20.1499996185303,16.3,-6.6,-2.4,51.3,18.3,-41.3,17.7666,-7.40338,-2.24965,2.0808,-1.32133,3.6116,48.2023,18.0975,-42.6727,0.128699,-0.0466576999999999,0.0520161999999999,252.3,5.0,52.1701,4.42716,-4.2,1.16634,323.577,4.5147,166.1,61.9443,163.701,0.7456109999999999,-0.159272,241.297,1.09258,1.45221,-0.8141326904296879,22.004056930542003,-0.2114213407039639,22.0,-1126280.0,3045.68,pp-ro,1,1,-1,-1
1570535156.7,2019-10-08,13:45:56.700,14.0,10.0,20.0699996948242,16.4,-6.6,-2.1,51.5,17.7,-41.5,17.8077,-7.469869999999999,-2.12374,0.399178,-3.71893,-1.62414,48.2274,17.6775,-42.8304,-0.248741,-0.2156269999999999,-0.00881579,252.3,5.0,52.1701,4.42716,-4.2,1.1536,321.596,4.5148,165.36900000000003,63.8444,163.90099999999998,0.7462439999999999,-0.170852,241.426,1.10529,1.47425,-0.4318161010742189,22.004056930542003,0.103268317878246,22.0,-1125840.0,4430.09,pp-ro,1,1,-1,-1
1570535156.8,2019-10-08,13:45:56.800,14.0,11.0,19.979999542236303,16.2,-6.4,-1.8,51.6,17.5,-41.7,17.8462,-7.508260000000001,-1.81593,0.979967,2.72662,9.93948,48.1024,17.0118,-43.3087,-0.179769,-0.0818574,-0.0203703,252.3,5.0,52.1701,4.42716,-4.2,1.16413,321.752,4.5149,164.668,65.3644,164.00099999999998,0.746826,-0.180378,241.422,1.11178,1.49621,-0.2270050048828119,22.004571914672898,0.4268452227115629,22.0,-1125440.0,3168.74,pp-ro,1,1,-1,-1
1570535156.9,2019-10-08,13:45:56.900,14.0,11.0,19.8899993896484,16.0,-6.6,-1.6,51.1,16.8,-42.1,17.6031,-7.431780000000001,-1.55737,-0.172224,-5.91376,9.4986,48.1925,16.7202,-43.1864,0.101064,0.163314,0.14051,252.3,5.0,52.1701,4.42716,-4.2,1.1608,317.713,4.51499,163.967,66.5044,164.201,0.74807,-0.187926,241.392,1.12049,1.49913,0.042572021484375,22.004571914672898,-35.0,22.0,-1125220.0,4337.79,pp-ro,1,1,-1,-1
1570535157.0,2019-10-08,13:45:57.000,14.0,11.0,19.7099990844727,15.9,-6.5,-1.5,51.2,16.4,-42.1,17.6031,-7.431780000000001,-1.55737,-0.172224,-5.91376,9.4986,48.1925,16.7202,-43.1864,0.101064,0.163314,0.14051,251.8,5.2,52.1701,4.42716,-4.2,1.1331,309.867,4.51509,163.266,68.4044,164.301,0.74816,-0.199458,241.516,1.13325,1.51276,0.282722473144531,22.004056930542003,-35.0,22.0,-1124790.0,3722.5,pp-ro,1,1,-1,-1
1570535157.1,2019-10-08,13:45:57.100,14.0,11.0,19.4899997711182,15.7,-6.4,-1.4,51.1,15.9,-42.4,17.5206,-7.44172,-1.4544,1.30987,2.39511,-0.0772058,48.3155,16.2749,-43.539,0.132171,-0.1405269999999999,0.0945795,251.8,5.2,52.1701,4.42716,-4.2,1.1331,306.683,4.51518,162.565,69.9244,164.40099999999998,0.7486079999999999,-0.208998,241.547,1.1422,1.52335,0.148170471191406,22.004056930542003,-35.0,22.0,-1124320.0,3722.5,pp-ro,1,1,-1,-1
1570535157.2,2019-10-08,13:45:57.200,14.0,11.0,19.3099994659424,15.7,-6.4,-1.1,50.8,15.5,-43.3,16.973,-7.39528,-0.8941629999999999,-0.570358,3.02853,5.753419999999999,48.1964,14.4195,-44.9391,0.101691,-0.237809,-0.0278222,251.8,5.2,52.1701,4.42716,-4.2,1.12756,306.221,4.51527,161.923,71.8245,164.50099999999998,0.748428,-0.220373,241.74,1.14398,1.54394,-0.3857345581054689,22.004571914672898,-35.0,22.0,-1124140.0,3291.8,pp-ro,1,1,-1,-1
1570535157.3,2019-10-08,13:45:57.300,14.0,12.0,19.1700000762939,15.6,-6.2,-0.8,50.6,14.6,-43.9,16.8635,-7.24642,-0.7696430000000001,-0.389334,3.43994,10.7219,48.2258,14.1796,-45.3258,-0.0799705,-0.0212916,-0.0493591,251.8,5.2,52.1701,4.42716,-4.2,1.13809,309.632,4.51535,161.251,72.9645,164.601,0.749145,-0.2278869999999999,241.701,1.1527,1.56764,-1.27837371826172,22.004571914672898,-35.0,22.0,-1123770.0,2707.27,pp-ro,1,1,-1,-1
1570535157.4,2019-10-08,13:45:57.400,14.0,12.0,19.0300006866455,15.7,-6.2,-0.4,50.2,13.5,-44.3,16.7059,-7.107939999999999,-0.2041089999999999,3.77726,0.766578,3.05915,48.2599,13.41,-45.8473,-0.000274182,-0.140535,0.169616,251.8,5.2,52.1701,4.42716,-4.2,1.13809,308.918,4.51544,160.579,74.8645,164.702,0.748934,-0.239309,241.903,1.16909,1.59441,-2.52603149414062,22.0050868988037,-35.0,22.0,-1123600.0,3476.39,pp-ro,1,1,-1,-1
1570535157.5,2019-10-08,13:45:57.500,14.0,12.0,18.9899997711182,15.7,-6.0,-0.1,50.4,12.8,-43.9,16.6676,-6.753419999999999,0.12594,-0.299959,3.88132,5.0056,48.7974,12.8108,-44.9653,0.0120346,0.249444,0.3266739999999999,251.8,5.2,52.1701,4.42716,-4.2,1.12922,304.444,4.51553,159.966,76.3845,164.702,0.74867,-0.24863,241.972,1.18901,1.62126,-4.14405059814453,22.004056930542003,-35.0,22.0,-1123130.0,2584.22,pp-ro,1,1,-1,-1
1570535157.6,2019-10-08,13:45:57.600,14.0,13.0,18.9899997711182,15.9,-5.8,0.2,50.8,11.4,-43.1,16.6676,-6.753419999999999,0.12594,-0.299959,3.88132,5.0056,48.7974,12.8108,-44.9653,0.0120346,0.249444,0.3266739999999999,251.8,5.2,52.1701,4.42716,-4.4,1.11758,293.126,4.515619999999999,159.32299999999998,77.5245,164.702,0.7489060000000001,-0.256086,241.91,1.22108,1.64976,-6.11708831787109,22.004056930542003,-35.0,22.0,-1122720.0,4706.97,pp-ro,1,1,-1,-1
1570535157.7,2019-10-08,13:45:57.700,14.0,12.0,19.0300006866455,16.4,-5.8,0.7,51.8,9.7,-42.3,16.6676,-6.753419999999999,0.12594,-0.299959,3.88132,5.0056,48.7974,12.8108,-44.9653,0.0120346,0.249444,0.3266739999999999,251.8,5.2,52.1701,4.42716,-4.4,1.09819,289.316,4.5157,158.739,79.4246,164.602,0.747712,-0.2671949999999999,242.074,1.25966,1.68478,-8.22324371337891,22.004571914672898,-35.0,22.0,-1122480.0,4460.85,pp-ro,1,1,-1,-1
1570535157.8,2019-10-08,13:45:57.800,14.0,12.0,19.0799999237061,16.9,-5.4,1.5,52.5,8.5,-41.2,17.3213,-6.235469999999999,1.54564,4.86466,2.5445,6.08451,50.6011,10.6441,-41.7768,0.0167185999999999,-0.0169420999999999,0.342122,251.8,5.2,52.1701,4.42716,-4.4,1.10872,292.071,4.51579,158.126,80.9446,164.502,0.747019,-0.276524,242.109,1.29443,1.74425,-10.332824707031198,22.004056930542003,-35.0,22.0,-1122170.0,2276.57,pp-ro,1,1,-1,-1
1570535157.9,2019-10-08,13:45:57.900,14.0,12.0,19.0799999237061,17.4,-5.0,2.5,52.9,4.7,-40.9,17.3213,-6.235469999999999,1.54564,4.86466,2.5445,6.08451,50.6011,10.6441,-41.7768,0.0167185999999999,-0.0169420999999999,0.342122,251.8,5.2,52.1701,4.42716,-4.4,1.10761,289.545,4.51588,157.571,82.8446,164.30200000000002,0.745341,-0.287533,242.254,1.35358,1.81021,-12.4458084106445,22.004571914672898,-35.0,22.0,-1121990.0,3414.86,pp-ro,1,1,-1,-1
1570535158.0,2019-10-08,13:45:58.000,14.0,12.0,19.1299991607666,17.8,-4.5,3.4,54.4,1.6,-39.1,17.742,-5.15246,3.4063,5.19418,9.75979,8.32595,53.153,5.94427,-37.9311,0.2307,0.0319958,0.502423,251.8,5.2,52.1701,4.42716,-4.4,1.086,280.207,4.51596,157.07399999999998,84.3646,164.002,0.7436619999999999,-0.296462,242.253,1.4211200000000002,1.87136,-14.5434417724609,22.004571914672898,-35.0,22.0,-1121520.0,2614.98,pp-ro,1,1,-1,-1
1570535158.1,2019-10-08,13:45:58.100,14.0,12.0,19.1200008392334,18.0,-3.7,4.6,55.8,-1.3,-36.9,17.742,-5.15246,3.4063,5.19418,9.75979,8.32595,53.153,5.94427,-37.9311,0.2307,0.0319958,0.502423,265.1,4.7,52.1701,4.42716,-4.4,1.07824,271.689,4.51611,156.636,86.2647,163.702,0.741291,-0.307132,242.435,1.4922799999999998,1.95362,-16.661544799804698,22.004571914672898,-35.0,22.0,-1121220.0,3384.09,pp-ro,1,1,-1,-1
1570535158.2,2019-10-08,13:45:58.200,14.0,12.0,19.1700000762939,18.4,-2.7,6.0,57.2,-5.9,-34.9,17.9211,-4.27151,4.51852,3.26922,12.0177,13.4127,54.7013,3.28054,-35.475,0.339758,0.0576598,0.672603,265.1,4.7,52.1701,4.42716,-4.4,1.05331,261.462,4.5163,156.285,87.7847,163.102,0.73826,-0.315691,242.35,1.58187,2.04524,-18.7762451171875,22.004571914672898,-35.0,22.0,-1120870.0,3291.8,pp-ro,1,1,-1,-1
1570535158.3,2019-10-08,13:45:58.300,14.0,11.0,19.1700000762939,18.7,-1.7,7.4,58.4,-10.0,-32.1,18.1796,-3.39186,5.87,4.421119999999999,8.8912,11.6535,56.2671,-0.21388,-32.5676,0.264232,0.0498086,0.83786,265.1,4.7,52.1701,4.42716,-4.4,1.04777,259.85200000000003,4.51649,155.993,90.0647,162.502,0.734005,-0.32771,242.595,1.67685,2.13438,-20.8892288208008,22.004571914672898,-35.0,22.0,-1120730.0,2553.45,pp-ro,1,1,-1,-1
1570535158.4,2019-10-08,13:45:58.400,14.0,11.0,19.2099990844727,18.8,-0.4,8.9,59.7,-14.5,-28.9,18.0595,-0.937013,8.58821,-0.800818,14.9058,13.7899,58.6642,-8.42988,-25.4713,0.263216,0.170715,0.963209,265.1,4.7,52.1701,4.42716,-4.4,1.04832,257.103,4.51668,155.847,91.5847,161.80200000000002,0.7300989999999999,-0.3355849999999999,242.603,1.77847,2.23146,-23.0073394775391,22.004571914672898,-35.0,22.0,-1120500.0,2430.39,pp-ro,1,1,-1,-1
1570535158.5,2019-10-08,13:45:58.500,14.0,11.0,19.2600002288818,18.5,0.9,10.5,61.1,-20.0,-26.1,18.0595,-0.937013,8.58821,-0.800818,14.9058,13.7899,58.6642,-8.42988,-25.4713,0.263216,0.170715,0.963209,265.1,4.7,52.1701,4.42716,-4.4,1.03503,251.234,4.51687,155.847,93.4848,160.90200000000002,0.724671,-0.344787,242.729,1.88939,2.33226,-25.1288604736328,22.004571914672898,-35.0,22.0,-1120220.0,2738.04,pp-ro,1,1,-1,-1
1570535158.6,2019-10-08,13:45:58.600,14.0,11.0,19.2600002288818,18.1,2.4,12.2,62.5,-26.2,-23.0,18.0595,-0.937013,8.58821,-0.800818,14.9058,13.7899,58.6642,-8.42988,-25.4713,0.263216,0.170715,0.963209,265.1,4.7,52.1701,4.42716,-4.6,1.03447,254.035,4.51706,155.993,95.3848,159.90200000000002,0.718562,-0.353476,242.901,2.01195,2.43867,-27.229904174804695,22.004571914672898,-35.0,22.0,-1119890.0,2184.28,pp-ro,1,1,-1,-1
1570535158.7,2019-10-08,13:45:58.700,14.0,12.0,19.2999992370605,17.3,4.1,13.7,62.6,-32.2,-18.8,17.3055,1.92066,11.5623,-8.71529,18.2986,12.5685,59.6796,-18.8437,-16.2499,0.130978,-0.0457647,1.24806,265.1,4.7,52.1701,4.42716,-4.6,1.03835,256.53700000000003,4.51724,156.285,97.2849,158.702,0.7114699999999999,-0.361643,243.055,2.1413,2.54959,-29.3326416015625,22.004571914672898,-35.0,22.0,-1119810.0,1538.22,pp-ro,1,1,-1,-1
1570535158.8,2019-10-08,13:45:58.800,14.0,12.0,19.3899993896484,16.4,5.9,15.1,62.6,-38.5,-14.3,16.5161,3.53217,12.922,-10.1397,12.3723,11.0265,59.2544,-24.4979,-10.9121,0.188567,0.422346,1.24,265.1,4.7,52.1701,4.42716,-4.6,1.04445,252.588,4.51743,156.72299999999998,98.8049,157.502,0.704569,-0.367546,243.17,2.27327,2.65755,-29.8224945068359,22.004571914672898,-35.0,22.0,-1119620.0,2368.87,pp-ro,1,1,-1,-1
1570535158.9,2019-10-08,13:45:58.900,14.0,12.0,19.479999542236303,15.4,7.6,16.5,60.6,-43.9,-7.3,15.4708,5.13036,14.1746,-7.969239999999999,15.782,14.8554,57.5624,-30.0464,-4.64111,0.219805,0.338021,1.33575,265.1,4.7,52.1701,4.42716,-4.6,1.01619,243.11,4.51762,157.365,100.705,156.102,0.6960350000000001,-0.374504,243.461,2.41285,2.75956,-31.554870605468803,22.004571914672898,-35.0,22.0,-1119160.0,2215.04,pp-ro,1,1,-1,-1
1570535159.0,2019-10-08,13:45:59.000,14.0,12.0,19.659999847412102,14.2,9.3,17.6,57.0,-48.6,1.4,14.4293,6.77692,15.3946,-14.0547,14.0355,14.4815,54.5136,-34.8839,2.89334,0.2498719999999999,0.4547489999999999,1.2146,265.1,4.7,52.1701,4.42716,-4.6,1.0173,242.217,4.51781,158.183,101.845,154.702,0.688192,-0.377454,243.572,2.55056,2.85515,-32.9373626708984,22.004571914672898,-35.0,22.0,-1119090.0,1445.93,pp-ro,1,1,-1,-1
1570535159.1,2019-10-08,13:45:59.100,14.0,12.0,19.7900009155273,12.5,11.0,18.7,52.7,-54.0,10.1,13.7939,7.50961,15.9438,-9.79116,13.661,11.1782,52.7415,-37.2063,7.107130000000001,0.0541800999999999,0.407251,1.32995,274.4,4.3,52.1701,4.42716,-4.6,1.01896,241.193,4.51799,159.118,102.985,153.203,0.67978,-0.3800199999999999,243.712,2.68782,2.96013,-33.9580078125,22.004056930542003,-35.0,22.0,-1118860.0,2430.39,pp-ro,1,1,-1,-1
1570535159.2,2019-10-08,13:45:59.200,14.0,11.0,19.9699993133545,10.7,12.7,19.7,44.6,-59.0,21.9,12.3596,9.05497,17.0021,-18.8534,16.4959,10.4723,48.1701,-41.8989,15.4125,0.0844795,0.0752458,1.57782,274.4,4.3,52.1701,4.42716,-4.6,1.02284,252.279,4.51819,160.286,104.505,151.503,0.6697069999999999,-0.383576,244.061,2.83527,3.06281,-34.739715576171896,22.004056930542003,-35.0,22.0,-1118670.0,1568.99,pp-ro,1,1,-1,-1
1570535159.3,2019-10-08,13:45:59.300,14.0,12.0,20.1399993896484,8.6,14.0,20.2,34.6,-63.4,36.5,12.3596,9.05497,17.0021,-18.8534,16.4959,10.4723,48.1701,-41.8989,15.4125,0.0844795,0.0752458,1.57782,274.4,4.3,52.1701,4.42716,-4.6,1.05885,267.496,4.5184,161.542,105.265,149.803,0.660519,-0.383526,244.166,2.98093,3.15842,-34.941116333007805,22.004056930542003,-23.018762588501,22.0,-1118660.0,-92.2935,pp-ro,1,1,-1,-1
1570535159.4,2019-10-08,13:45:59.400,14.0,12.0,20.3099994659424,6.5,15.4,20.4,20.3,-65.7,54.6,7.997210000000001,12.554,18.7123,-22.3658,17.0988,5.548080000000001,27.5272,-51.7093,45.7127,0.146271,0.208217,1.44436,274.4,4.3,52.1701,4.42716,-4.6,1.0655,270.952,4.5186,162.97299999999998,106.025,148.10299999999998,0.650975,-0.3829869999999999,244.409,3.12425,3.25371,-34.965011596679695,22.004571914672898,-23.0211448669434,22.0,-1118240.0,3353.33,pp-ro,1,1,-1,-1
1570535159.5,2019-10-08,13:45:59.500,14.0,12.0,20.6100006103516,3.8,16.7,20.2,4.6,-65.4,74.4,7.997210000000001,12.554,18.7123,-22.3658,17.0988,5.548080000000001,27.5272,-51.7093,45.7127,0.146271,0.208217,1.44436,274.4,4.3,52.1701,4.42716,-4.6,1.06384,274.828,4.51881,164.521,106.405,146.303,0.641388,-0.380509,244.527,3.26895,3.36553,-34.961593627929695,22.004571914672898,-23.0211448669434,22.0,-1118130.0,2061.22,pp-ro,1,1,-1,-1
1570535159.6,2019-10-08,13:45:59.600,14.0,11.0,20.8600006103516,1.4,17.7,19.8,-10.0,-63.0,92.9,4.80589,14.4522,18.9102,-22.393,13.3928,0.197624,11.4152,-53.7195,66.9999,0.44903,0.4195239999999999,1.52147,274.4,4.3,52.1701,4.42716,-4.8,1.09099,286.58,4.51901,166.273,107.165,144.60299999999998,0.631228,-0.379129,245.033,3.41718,3.46363,-34.6134185791016,22.0050868988037,-23.0235271453857,22.0,-1118030.0,1045.99,pp-ro,1,1,-1,-1
1570535159.7,2019-10-08,13:45:59.700,14.0,12.0,21.1499996185303,-1.0,18.6,19.3,-19.6,-57.8,106.3,2.48237,15.3091,18.6796,-20.8381,6.150919999999999,-0.930737,-0.154061,-52.4597,81.8621,-0.204454,0.282011,1.314,274.4,4.3,52.1701,4.42716,-4.8,1.10927,293.657,4.51921,168.054,107.165,142.803,0.621691,-0.374492,245.192,3.56408,3.55813,-33.8846130371094,22.0050868988037,-23.0235271453857,22.0,-1117780.0,2953.39,pp-ro,1,1,-1,-1
1570535159.8,2019-10-08,13:45:59.800,14.0,12.0,21.3500003814697,-3.5,19.3,18.4,-26.2,-52.8,116.8,2.48237,15.3091,18.6796,-20.8381,6.150919999999999,-0.930737,-0.154061,-52.4597,81.8621,-0.204454,0.282011,1.314,274.4,4.3,52.1701,4.42716,-4.8,1.10927,296.73400000000004,4.519419999999999,169.894,107.165,141.303,0.613042,-0.369772,245.591,3.69972,3.65765,-32.800811767578104,22.0056018829346,-23.0259094238281,22.0,-1117380.0,2522.69,pp-ro,1,1,-1,-1
1570535159.9,2019-10-08,13:45:59.900,14.0,12.0,21.5599994659424,-5.6,19.7,17.4,-30.3,-47.6,124.2,-3.3246800000000003,17.2296,17.4725,-24.1466,5.00439,-4.82963,-19.7262,-43.1114,109.584,-0.021784,0.3796199999999999,1.52612,274.4,4.3,52.1701,4.42716,-4.8,1.11869,302.649,4.51962,171.764,106.405,139.803,0.60528,-0.36186,245.702,3.82042,3.74082,-31.365417480468803,22.0056018829346,-23.0259094238281,22.0,-1117240.0,2522.69,pp-ro,1,1,-1,-1
1570535160.0,2019-10-08,13:46:00.000,14.0,12.0,21.75,-7.8,19.9,16.0,-33.3,-41.8,130.3,-3.3246800000000003,17.2296,17.4725,-24.1466,5.00439,-4.82963,-19.7262,-43.1114,109.584,-0.021784,0.3796199999999999,1.52612,274.4,4.3,52.1701,4.42716,-4.8,1.13919,319.311,4.519830000000001,173.808,105.645,138.203,0.596817,-0.353594,245.907,3.94405,3.83363,-29.563064575195305,22.0050868988037,-23.0235271453857,22.0,-1117050.0,1599.75,pp-ro,1,1,-1,-1
1570535160.1,2019-10-08,13:46:00.100,14.0,12.0,21.9099998474121,-9.7,19.8,14.8,-35.9,-36.2,136.0,-7.45637,17.6647,15.5339,-22.9872,-1.19449,-11.3215,-28.9035,-34.1286,124.523,-0.200784,0.568604,1.16848,279.6,3.4,52.1701,4.42716,-4.8,1.17632,331.186,4.51997,175.736,104.885,136.903,0.589576,-0.345669,246.224,4.06578,3.91327,-27.607101440429695,22.0056018829346,-23.0259094238281,22.0,-1116910.0,1784.34,pp-ro,1,1,-1,-1
