time,date,time_of_day,airspeed_temperature,airspeed_angle_of_attack,airspeed_apparent_windspeed,kite_0_vx,kite_0_vy,kite_0_vz,kite_0_roll,kite_0_pitch,kite_0_yaw,kite_1_vx,kite_1_vy,kite_1_vz,kite_1_ax,kite_1_ay,kite_1_az,kite_1_roll,kite_1_pitch,kite_1_yaw,kite_1_roll_rate,kite_1_pitch_rate,kite_1_yaw_rate,ground_upwind_direction,ground_wind_velocity,ground_pos_latitude,ground_pos_longitude,ground_pos_altitude,ground_tether_reelout_speed,ground_tether_force,est_upwind_direction,kite_pos_east,kite_pos_north,kite_height,kite_elevation,kite_azimuth,kite_distance,kite_heading,kite_course,kite_actual_steering,kite_actual_depower,kite_set_steering,kite_set_depower,ground_mech_energy,ground_mech_power,flight_phase,flight_phase_index,phase,pattern,pattern_section
1570538797.2,2019-10-08,14:46:37.200,15.0,7.0,15.390000343322802,10.5,-3.6,2.6,18.0,-4.1,-70.6,9.63,-2.50133,2.97057,11.0804,6.54001,1.28759,20.2938,9.35137,-70.6588,0.135505,0.146728,0.8456020000000001,244.1,5.0,52.17,4.427169999999999,0.0,-2.39585,103.472,4.42395,47.1118,11.0206,244.241,1.37523,0.0586023,248.987,0.5849489999999999,1.51767,-34.183303833007805,22.0761489868164,-35.0,22.0,-64234.3,-4030.15,pp-riro,4,0,-1,-1
1570538797.3,2019-10-08,14:46:37.300,15.0,7.0,15.3299999237061,11.5,-2.8,2.9,19.6,-5.5,-65.7,10.6084,-1.62952,3.29127,9.25705,7.700769999999999,3.70508,22.0152,8.42055,-65.2544,0.134007,0.199715,0.969539,252.5,4.6,52.17,4.427169999999999,0.0,-2.38643,106.291,4.42387,46.7905,12.1607,244.041,1.37523,0.0342433,248.784,0.7000029999999999,1.6334799999999998,-34.753372192382805,22.0390739440918,-35.0,22.0,-64430.1,-1230.58,pp-riro,4,0,-1,-1
1570538797.4,2019-10-08,14:46:37.400,15.0,8.0,15.0900001525879,12.6,-1.9,3.3,21.2,-7.1,-60.5,11.5168,-0.8086409999999999,3.69217,10.3427,6.11944,2.59465,23.7195,7.242669999999999,-59.7096,0.21388,0.212521,1.00064,252.5,4.6,52.17,4.427169999999999,0.0,-2.37591,104.443,4.42382,46.5276,13.6807,243.741,1.37439,0.0025649,248.519,0.828628,1.7542400000000002,-34.970123291015604,22.0153865814209,-35.0,22.0,-64543.0,-2061.22,pp-riro,4,0,-1,-1
1570538797.5,2019-10-08,14:46:37.500,15.0,8.0,14.9799995422363,13.4,-0.9,3.6,22.5,-8.9,-55.4,11.9455,-0.355939,3.84429,6.37442,11.4579,3.27882,24.5961,6.6273800000000005,-56.7516,0.213022,0.212331,0.938736,252.5,4.6,52.17,4.427169999999999,0.0,-2.3615,96.5448,4.423769999999999,46.3524,14.8208,243.541,1.3735700000000002,-0.0208522,248.356,0.947902,1.85911,-34.973541259765604,22.0019989013672,-35.0,22.0,-64865.9,-3968.62,pp-riro,4,0,-1,-1
1570538797.6,2019-10-08,14:46:37.600,15.0,8.0,14.7399997711182,14.2,0.1,3.8,23.7,-10.6,-50.0,12.3174,0.172012,4.043419999999999,7.88536,9.20953,2.35811,25.3873,5.7212,-53.9741,0.131894,0.101454,0.990255,252.5,4.6,52.17,4.427169999999999,0.0,-2.41247,90.6221,4.423719999999999,46.294,15.9608,243.241,1.37214,-0.0433418,248.121,1.07146,1.9528,-34.975250244140604,22.0009689331055,-35.0,22.0,-66142.7,-10736.8,pp-riro,4,0,-1,-1
1570538797.7,2019-10-08,14:46:37.700,15.0,8.0,14.619999885559098,15.0,1.0,4.2,24.9,-11.8,-44.7,13.0276,1.15264,4.28247,5.020519999999999,7.72283,-1.12707,26.8636,4.06246,-48.2647,0.2247849999999999,0.0757698,0.992759,252.5,4.6,52.17,4.427169999999999,0.0,-2.43131,91.6279,4.42367,46.3232,17.4809,242.941,1.36975,-0.0721274,247.935,1.19799,2.04053,-34.9871978759766,22.0009689331055,-35.0,22.0,-66747.9,-11444.4,pp-riro,4,0,-1,-1
1570538797.8,2019-10-08,14:46:37.800,15.0,9.0,14.5600004196167,15.7,2.1,4.6,25.8,-13.5,-39.5,14.1051,2.5694,4.752759999999999,6.63588,8.84355,5.99035,28.699,1.47188,-39.7282,0.118394,0.230553,1.02888,252.5,4.6,52.17,4.427169999999999,0.0,-2.4756400000000003,95.3104,4.42362,46.4692,19.0009,242.641,1.36677,-0.0993807,247.781,1.32269,2.1329700000000003,-34.9889068603516,22.0009689331055,-35.0,22.0,-67762.9,-9690.81,pp-riro,4,0,-1,-1
1570538797.9,2019-10-08,14:46:37.900,15.0,8.0,14.4899997711182,16.2,3.2,5.0,26.7,-15.8,-34.2,14.6216,3.5921800000000004,5.21464,2.66144,10.1229,4.16384,29.5122,-0.451414,-33.7342,0.0365973,0.168144,1.10458,252.5,4.6,52.17,4.427169999999999,0.0,-2.51609,94.4214,4.42357,46.6736,20.521,242.241,1.36335,-0.125411,247.549,1.44989,2.21996,-34.9923248291016,22.0009689331055,-35.0,22.0,-68955.7,-8829.41,pp-riro,4,0,-1,-1
1570538798.0,2019-10-08,14:46:38.000,15.0,9.0,14.3100004196167,16.6,4.5,5.3,27.0,-17.4,-28.8,14.6216,3.5921800000000004,5.21464,2.66144,10.1229,4.16384,29.5122,-0.451414,-33.7342,0.0365973,0.168144,1.10458,252.5,4.6,52.17,4.427169999999999,0.0,-2.53548,92.5059,4.42352,47.0825,22.041,241.841,1.35906,-0.148963,247.366,1.57333,2.31054,-34.9991455078125,22.0009689331055,-35.0,22.0,-69369.7,-8306.41,pp-riro,4,0,-1,-1
1570538798.1,2019-10-08,14:46:38.100,15.0,9.0,14.3100004196167,17.0,5.7,5.6,27.6,-19.1,-23.3,15.0956,4.67558,5.57486,5.32382,12.8344,4.19268,30.1332,-2.51034,-27.9789,0.127414,0.205948,1.0277,252.5,4.6,52.17,4.427169999999999,0.0,-2.5787,90.3065,4.42347,47.57899999999999,23.9411,241.441,1.3536700000000002,-0.177272,247.247,1.70295,2.39489,-34.9991455078125,22.0009689331055,-35.0,22.0,-70421.6,-11690.5,pp-riro,4,0,-1,-1
1570538798.2,2019-10-08,14:46:38.200,15.0,8.0,14.3100004196167,17.3,7.0,6.0,27.7,-20.7,-17.9,15.566,6.45595,6.0106,2.29312,12.5501,5.66067,30.652,-5.35869,-19.5343,0.151942,0.248471,0.991323,252.5,4.6,52.17,4.427169999999999,0.0,-2.6463,95.0248,4.42342,48.1631,25.4612,241.041,1.3485200000000002,-0.197328,247.121,1.82134,2.47382,-34.9991455078125,22.0009689331055,-35.0,22.0,-72043.2,-9752.34,pp-riro,4,0,-1,-1
1570538798.3,2019-10-08,14:46:38.300,15.0,8.0,14.4300003051758,17.5,8.2,6.4,27.8,-22.4,-12.3,16.0549,8.77223,6.76492,3.10479,11.211,3.57595,30.524,-8.87533,-7.94407,0.109839,0.230236,1.03255,244.5,3.8,52.17,4.427169999999999,0.0,-2.66791,98.0103,4.42335,48.8641,27.3613,240.541,1.34205,-0.221407,246.975,1.94653,2.54953,-34.9974365234375,22.0009689331055,-35.0,22.0,-72500.9,-8552.53,pp-riro,4,0,-1,-1
1570538798.4,2019-10-08,14:46:38.400,15.0,9.0,14.4300003051758,17.6,9.5,6.8,27.7,-24.0,-6.8,16.0549,8.77223,6.76492,3.10479,11.211,3.57595,30.524,-8.87533,-7.94407,0.109839,0.230236,1.03255,244.5,3.8,52.17,4.427169999999999,0.0,-2.68176,101.269,4.42326,49.7111,28.8813,239.941,1.33562,-0.237194,246.733,2.06045,2.61986,-34.9991455078125,22.0009689331055,-35.0,22.0,-73224.2,-6614.36,pp-riro,4,0,-1,-1
1570538798.5,2019-10-08,14:46:38.500,15.0,9.0,14.4899997711182,17.5,10.9,7.2,27.2,-25.6,-0.7,16.0549,8.77223,6.76492,3.10479,11.211,3.57595,30.524,-8.87533,-7.94407,0.109839,0.230236,1.03255,244.5,3.8,52.17,4.427169999999999,0.0,-2.67289,102.539,4.42318,50.7625,31.1614,239.341,1.32689,-0.261342,246.642,2.19103,2.70298,-34.9991455078125,22.0009689331055,-35.0,22.0,-74050.3,-4799.26,pp-riro,4,0,-1,-1
1570538798.6,2019-10-08,14:46:38.600,15.0,9.0,14.6700000762939,17.4,12.2,7.5,26.7,-26.8,5.7,15.8911,11.7759,7.62513,-1.87823,11.7643,1.64802,28.926,-12.9086,7.1429800000000006,0.144418,0.323009,0.98079,244.5,3.8,52.17,4.427169999999999,0.0,-2.674,104.378,4.42309,51.9016,32.6815,238.742,1.31933,-0.272663,246.49400000000003,2.31087,2.7658400000000003,-34.9991455078125,22.0009689331055,-35.0,22.0,-74344.5,-5599.14,pp-riro,4,0,-1,-1
1570538798.7,2019-10-08,14:46:38.700,15.0,9.0,15.0299997329712,17.1,13.6,8.0,25.6,-27.9,11.9,15.8911,11.7759,7.62513,-1.87823,11.7643,1.64802,28.926,-12.9086,7.1429800000000006,0.144418,0.323009,0.98079,244.5,3.8,52.17,4.427169999999999,0.0,-2.6535,111.776,4.42301,53.1867,34.5816,238.042,1.31034,-0.287129,246.35,2.42867,2.83783,-34.9974365234375,22.0009689331055,-23.0044822692871,22.0,-74517.6,-1015.23,pp-riro,4,0,-1,-1
1570538798.8,2019-10-08,14:46:38.800,15.0,9.0,15.3199996948242,17.0,14.3,8.2,24.7,-28.9,17.9,15.4723,14.2637,8.47307,-2.30035,12.1433,3.27256,26.7703,-15.2032,19.7796,0.110598,0.366401,1.0731,244.5,3.8,52.17,4.427169999999999,0.0,-2.59809,123.085,4.42292,54.5886,36.1016,237.242,1.3016299999999998,-0.2948389999999999,246.103,2.5352,2.87143,-34.9974365234375,22.0009689331055,-23.0044822692871,22.0,-74276.0,3568.68,pp-riro,4,0,-1,-1
1570538798.9,2019-10-08,14:46:38.900,15.0,9.0,15.609999656677198,16.5,15.7,8.7,24.2,-29.6,21.3,15.2391,14.9082,8.71273,-6.67322,10.0328,5.21473,26.0097,-15.6189,23.019,0.00810011,0.311091,1.01723,244.5,3.8,52.17,4.427169999999999,0.0,-2.48395,133.332,4.42284,56.1366,37.6217,236.842,1.29285,-0.30088,246.294,2.59742,2.93557,-34.741424560546896,22.0009689331055,-23.0044822692871,22.0,-73269.8,10859.9,pp-riro,4,0,-1,-1
1570538799.0,2019-10-08,14:46:39.000,15.0,10.0,15.8400001525879,15.6,17.8,9.3,22.5,-30.8,31.2,14.6802,16.1068,9.10837,-6.11322,13.5654,3.77128,24.7062,-16.7199,29.4568,0.141781,0.249973,0.989298,244.5,3.8,52.17,4.427169999999999,0.0,-2.33269,139.327,4.4227300000000005,57.8306,39.5218,235.642,1.28186,-0.309839,245.832,2.76362,3.0294,-34.0962524414062,22.0009689331055,-23.0044822692871,22.0,-71923.7,13997.8,pp-riro,4,0,-1,-1
1570538799.1,2019-10-08,14:46:39.100,15.0,9.0,16.2800006866455,15.0,19.2,9.7,21.1,-31.1,38.0,14.4235,16.7432,9.3046,-4.47433,13.1702,2.02237,24.0067,-17.3611,32.6516,0.103542,0.30304,0.994282,244.5,3.8,52.17,4.427169999999999,0.0,-2.13987,144.305,4.42267,59.6998,41.0419,234.642,1.2713299999999998,-0.3125449999999999,245.571,2.8723400000000003,3.0848,-33.090972900390604,22.0009689331055,-23.0044822692871,22.0,-70425.6,15751.4,pp-riro,4,0,-1,-1
1570538799.2,2019-10-08,14:46:39.200,15.0,9.0,16.4899997711182,14.5,19.8,9.9,20.4,-31.4,41.2,13.8353,18.1039,9.70655,-5.479369999999999,13.0026,4.71041,22.4469,-18.2214,38.9569,0.103591,0.290842,0.985539,244.5,3.8,52.17,4.427169999999999,0.0,-1.93873,152.954,4.42258,60.6637,41.8019,234.242,1.26608,-0.3135489999999999,245.554,2.92323,3.11486,-31.740905761718803,22.0009689331055,-23.0044822692871,22.0,-68779.6,16551.3,pp-riro,4,0,-1,-1
1570538799.3,2019-10-08,14:46:39.300,15.0,10.0,16.9200000762939,13.7,21.1,10.3,18.7,-32.0,48.3,12.7328,19.8683,10.2133,-8.631739999999999,9.08465,7.22808,20.0259,-19.6385,48.5276,0.0407493,0.31839,1.03788,252.7,3.8,52.17,4.427169999999999,0.0,-1.53481,170.72099999999998,4.42252,62.7374,43.322,233.242,1.2548700000000002,-0.314473,245.386,3.0337400000000003,3.16801,-30.0238952636719,22.0009689331055,-22.7782974243164,22.0,-66049.4,19443.2,pp-riro,4,0,-1,-1
1570538799.4,2019-10-08,14:46:39.400,15.0,9.0,17.2800006866455,12.7,22.4,10.5,17.0,-32.3,54.8,11.9127,21.0814,10.5381,-8.060360000000001,11.3609,4.3255,18.1334,-20.605,54.8628,0.114527,0.231798,1.07264,252.7,3.8,52.17,4.427169999999999,0.0,-1.378,175.62099999999998,4.42249,64.8987,44.462,232.142,1.24406,-0.310753,245.109,3.12968,3.22033,-28.535583496093803,22.0009689331055,-22.093225479126,22.0,-65030.7,18704.8,pp-riro,4,0,-1,-1
1570538799.5,2019-10-08,14:46:39.500,15.0,9.0,17.5900001525879,11.4,23.3,10.6,15.4,-31.8,61.0,10.8721,22.0199,10.6948,-13.4494,8.43585,-2.71861,16.0892,-21.3965,61.0741,-0.0187118,0.0454136999999999,1.1137,252.7,3.8,52.17,4.427169999999999,0.0,-1.00788,182.679,4.42245,67.1476,45.9821,231.142,1.23226,-0.310509,245.05,3.22365,3.27632,-26.6888580322266,22.0009689331055,-21.4724674224854,22.0,-63376.6,15874.5,pp-riro,4,0,-1,-1
1570538799.6,2019-10-08,14:46:39.600,15.0,10.0,17.8899993896484,10.1,24.2,10.5,13.4,-31.8,67.5,9.77964,22.8116,10.7038,-11.3536,7.14775,-2.97653,14.1869,-22.1005,66.7329,0.166442,0.162233,0.867657,252.7,3.8,52.17,4.427169999999999,0.0,-0.405588,185.911,4.42242,69.601,47.1222,230.042,1.22049,-0.305173,244.916,3.31725,3.327,-24.7072906494141,22.0009689331055,-20.8448486328125,22.0,-61885.2,6798.95,pp-riro,4,0,-1,-1
1570538799.7,2019-10-08,14:46:39.700,15.0,9.0,18.1299991607666,8.8,25.0,10.6,11.6,-31.4,73.0,8.66574,23.8696,10.6174,-13.4281,9.46688,1.71453,12.2264,-22.0984,72.0926,0.0804692,0.2145429999999999,0.692525,252.7,3.8,52.17,4.427169999999999,0.0,-0.0166225,182.607,4.42238,71.99600000000001,47.8822,229.042,1.20983,-0.296889,244.819,3.39344,3.37204,-23.309440612793,22.0009689331055,-20.2208518981934,22.0,-61712.6,0.0,pp-riro,4,0,-1,-1
1570538799.8,2019-10-08,14:46:39.800,15.0,8.0,18.1800003051758,7.3,25.2,10.5,10.2,-31.7,77.9,8.66574,23.8696,10.6174,-13.4281,9.46688,1.71453,12.2264,-22.0984,72.0926,0.0804692,0.2145429999999999,0.692525,252.7,3.8,52.17,4.427169999999999,0.0,0.366803,174.095,4.42235,74.5078,49.0223,227.942,1.19783,-0.291902,244.769,3.4616800000000003,3.41957,-22.1112823486328,22.0009689331055,-19.6994132995605,22.0,-62185.5,-5999.08,pp-riro,4,0,-1,-1
1570538799.9,2019-10-08,14:46:39.900,15.0,9.0,18.2800006866455,5.9,25.4,9.9,8.0,-31.0,83.2,8.66574,23.8696,10.6174,-13.4281,9.46688,1.71453,12.2264,-22.0984,72.0926,0.0804692,0.2145429999999999,0.692525,252.7,3.8,52.1701,4.427169999999999,0.0,0.391182,167.813,4.42231,77.1364,49.7824,226.942,1.18639,-0.283046,244.808,3.5347800000000005,3.4631800000000004,-21.0769729614258,22.0009689331055,-19.151540756225604,22.0,-61975.4,4153.21,pp-riro,4,0,-1,-1
1570538800.0,2019-10-08,14:46:40.000,15.0,8.0,18.270000457763697,4.6,25.6,9.7,6.8,-29.6,87.6,4.6870400000000005,24.5647,9.70633,-13.5143,2.2484,-0.12659,7.66685,-21.6467,86.5177,0.0333804,0.3392,0.517683,252.7,3.8,52.1701,4.427169999999999,0.0,0.277041,177.46200000000002,4.422280000000001,79.6774,50.1624,226.142,1.17628,-0.271768,244.959,3.5950800000000003,3.50035,-20.2150573730469,22.0009689331055,-18.6238174438477,22.0,-61886.4,-2953.39,pp-riro,4,0,-1,-1
1570538800.1,2019-10-08,14:46:40.100,15.0,7.0,18.270000457763697,3.4,25.7,10.2,5.4,-28.8,91.5,4.6870400000000005,24.5647,9.70633,-13.5143,2.2484,-0.12659,7.66685,-21.6467,86.5177,0.0333804,0.3392,0.517683,252.7,3.8,52.1701,4.427169999999999,0.0,0.3457469999999999,192.526,4.42224,82.2184,50.5424,225.242,1.16598,-0.261038,245.047,3.64687,3.53047,-19.8327331542969,22.0009689331055,-18.2717247009277,22.0,-61933.7,-892.17,pp-riro,4,0,-1,-1
1570538800.2,2019-10-08,14:46:40.200,15.0,10.0,18.0799999237061,2.2,25.9,10.2,3.7,-28.5,95.9,3.5344,24.7214,10.1004,-7.614539999999999,4.76446,0.240311,5.92868,-20.7519,90.7355,-0.13585,0.157302,0.7642909999999999,252.7,3.8,52.1701,4.427169999999999,0.0,0.339098,202.187,4.42221,84.9347,50.9225,224.242,1.15493,-0.249909,245.135,3.703980000000001,3.56337,-19.156852722168,22.0009689331055,-17.906061172485398,22.0,-61828.4,922.935,pp-riro,4,0,-1,-1
1570538800.3,2019-10-08,14:46:40.300,15.0,11.0,17.9300003051758,1.0,26.0,10.0,1.8,-27.4,99.9,1.7532,24.9085,10.1257,-9.60731,-2.0466900000000003,-4.06566,3.64884,-20.1156,96.8787,-0.190246,0.01044,0.705806,264.8,3.8,52.1701,4.427169999999999,0.0,0.354059,198.524,4.422219999999999,87.5633,51.3026,223.242,1.14412,-0.239808,245.227,3.7596,3.59787,-18.5099792480469,22.0009689331055,-17.5357933044434,22.0,-61801.3,492.232,pp-riro,4,0,-1,-1
1570538800.4,2019-10-08,14:46:40.400,15.0,10.0,17.979999542236303,-0.2,26.2,10.2,0.4,-26.3,103.3,1.20187,24.9598,9.98678,-13.3661,3.86808,-2.04481,2.81853,-19.9427,98.699,-0.32133,0.106471,0.532116,264.8,3.8,52.1701,4.427169999999999,0.0,0.35295,211.599,4.42226,90.1628,51.3026,222.242,1.13408,-0.227188,245.26,3.80456,3.62756,-18.0730514526367,22.0009689331055,-17.1780090332031,22.0,-61719.6,-30.7645,pp-riro,4,0,-1,-1
1570538800.5,2019-10-08,14:46:40.500,15.0,11.0,18.1700000762939,-1.3,26.2,10.4,-1.2,-26.2,106.7,0.623442,25.1242,9.95822,-14.3776,1.15739,-0.578067,2.03776,-19.2819,100.301,-0.137855,0.1105049999999999,0.481952,264.8,3.8,52.1701,4.427169999999999,0.0,0.390628,227.404,4.42231,92.8206,51.3026,221.141,1.12362,-0.214842,245.257,3.84472,3.65308,-17.6890258789062,22.0009689331055,-16.9484882354736,22.0,-61699.6,399.9380000000001,pp-riro,4,0,-1,-1
1570538800.6,2019-10-08,14:46:40.600,15.0,10.0,18.3600006103516,-2.5,26.4,10.5,-3.0,-25.4,109.9,-1.12124,25.3636,10.3366,-13.9948,4.66529,0.535894,-0.856408,-18.7636,105.676,0.00357443,-0.282505,0.4953079999999999,264.8,3.8,52.1701,4.427169999999999,0.0,0.406696,238.505,4.42236,95.4492,50.9227,220.042,1.11385,-0.200062,245.198,3.88369,3.68035,-17.246971130371097,22.0009689331055,-16.6066455841064,22.0,-61643.9,492.232,pp-riro,4,0,-1,-1
1570538800.7,2019-10-08,14:46:40.700,15.0,11.0,18.409999847412102,-3.5,26.3,10.6,-5.1,-24.5,113.4,-2.25572,25.417,10.2554,-7.859889999999999,2.89302,-3.48909,-2.95974,-18.6226,108.694,-0.0894018,-0.0122786,0.470914,264.8,3.8,52.1701,4.427169999999999,0.0,0.416116,241.081,4.42241,98.1071,50.9227,218.941,1.10327,-0.188791,245.262,3.930930000000001,3.70354,-16.9909515380859,22.0009689331055,-16.4918842315674,22.0,-61623.0,430.703,pp-riro,4,0,-1,-1
1570538800.8,2019-10-08,14:46:40.800,15.0,12.0,18.5100002288818,-4.6,26.3,10.7,-7.1,-23.7,117.0,-2.25572,25.417,10.2554,-7.859889999999999,2.89302,-3.48909,-2.95974,-18.6226,108.694,-0.0894018,-0.0122786,0.470914,264.8,3.8,52.1701,4.427169999999999,0.0,0.4211029999999999,241.682,4.42245,100.765,50.5427,217.741,1.09307,-0.174985,245.193,3.97713,3.72749,-16.6837310791016,22.0009689331055,-16.3020839691162,22.0,-61532.2,1015.23,pp-riro,4,0,-1,-1
1570538800.9,2019-10-08,14:46:40.900,15.0,12.0,18.5499992370605,-5.6,26.0,10.7,-9.0,-22.7,120.2,-4.95306,25.3008,10.4402,-9.43332,-4.17359,3.0792900000000003,-8.8167,-16.7302,117.014,-0.160466,0.0986325,0.535295,264.8,3.8,52.1701,4.427169999999999,0.0,0.418886,244.913,4.4225,103.394,50.1628,216.641,1.0830799999999998,-0.161821,245.235,4.01946,3.75014,-16.4106521606445,22.0009689331055,-16.161556243896502,22.0,-61443.8,799.877,pp-riro,4,0,-1,-1
1570538801.0,2019-10-08,14:46:41.000,15.0,11.0,18.7399997711182,-6.9,25.6,10.6,-10.5,-22.0,123.1,-6.04662,24.7987,10.462,-12.4057,-4.92116,2.78714,-10.9753,-16.3828,120.347,0.0419832,-0.07962,0.633283,264.8,3.8,52.1701,4.427169999999999,0.0,0.454902,264.928,4.42255,105.993,49.4028,215.441,1.0735,-0.146319,245.133,4.0535,3.78238,-16.2160797119141,22.0009689331055,-15.7743730545044,22.0,-61361.7,492.232,pp-riro,4,0,-1,-1
1570538801.1,2019-10-08,14:46:41.100,15.0,11.0,18.840000152587898,-8.2,25.2,10.5,-12.2,-21.3,125.7,-7.4591,24.4335,10.3812,-14.6299,-9.2739,-0.974828,-12.5648,-15.8515,122.866,-0.284137,0.0778031,0.223076,264.8,3.8,52.1701,4.427169999999999,0.0,0.472078,274.509,4.4226,108.534,49.0228,214.241,1.06345,-0.13446,245.117,4.08627,3.81817,-16.0624694824219,22.0009689331055,-15.449746131897,22.0,-61277.2,953.699,pp-riro,4,0,-1,-1
1570538801.2,2019-10-08,14:46:41.200,15.0,11.0,19.020000457763697,-9.3,24.8,10.5,-13.1,-20.2,128.1,-8.0845,24.21,10.384,-12.0512,-4.97598,-1.53244,-13.5525,-15.3835,124.108,-0.203274,0.0435637,0.459617,264.8,3.8,52.1701,4.427169999999999,0.0,0.4776189999999999,276.798,4.42265,111.046,47.8828,213.141,1.05472,-0.117365,245.058,4.11491,3.84185,-15.7159881591797,22.0009689331055,-15.1936988830566,22.0,-61224.3,984.464,pp-riro,4,0,-1,-1
1570538801.3,2019-10-08,14:46:41.300,15.0,10.0,19.25,-10.6,24.3,10.3,-14.5,-19.3,130.8,-8.61095,23.9529,10.3212,-15.0127,-3.75587,0.803972,-14.2421,-14.9711,125.391,-0.0154782999999999,0.0493548,0.5188020000000001,260.9,3.8,52.1701,4.427169999999999,0.0,0.48593,280.943,4.422680000000001,113.616,46.7428,211.941,1.04546,-0.1006,244.975,4.14695,3.87549,-15.3917083740234,22.0009689331055,-14.8080635070801,22.0,-61104.4,1384.4,pp-riro,4,0,-1,-1
1570538801.4,2019-10-08,14:46:41.400,15.0,10.0,19.5699996948242,-11.8,23.8,10.1,-15.0,-18.5,133.1,-9.85833,23.46,10.2229,-9.81013,-5.87009,-1.29824,-15.3961,-14.6265,128.02200000000002,-0.290537,-0.0162645,0.573866,260.9,3.8,52.1701,4.427169999999999,0.0,0.509202,294.402,4.42272,116.04,45.9829,210.741,1.03607,-0.087595,244.932,4.175669999999999,3.90941,-15.2090835571289,22.0009689331055,-14.5338106155396,22.0,-60968.8,676.819,pp-riro,4,0,-1,-1
1570538801.5,2019-10-08,14:46:41.500,15.0,9.0,19.8799991607666,-12.7,23.1,9.9,-15.2,-17.5,135.8,-11.5519,22.7071,9.92795,-9.97225,-6.7566,-3.69696,-17.0928,-13.3472,131.716,-0.14682,0.0288152,0.4767619999999999,260.9,3.8,52.1701,4.427169999999999,0.0,0.517513,297.869,4.42275,118.435,44.4629,209.641,1.02785,-0.0694956,244.854,4.2078,3.93199,-14.837005615234402,22.0009689331055,-14.3297557830811,22.0,-60904.4,1261.34,pp-riro,4,0,-1,-1
1570538801.6,2019-10-08,14:46:41.600,15.0,9.0,20.1499996185303,-13.9,22.6,9.6,-15.8,-16.4,138.4,-12.5737,21.9284,9.73296,-15.3736,-8.304969999999999,-4.97422,-17.7619,-12.7362,134.483,-0.219455,-0.117722,0.342504,260.9,3.8,52.1701,4.427169999999999,0.0,0.525824,309.867,4.42278,120.801,42.9429,208.541,1.01958,-0.0519401999999999,244.799,4.23998,3.96372,-14.5468521118164,22.0009689331055,-13.9907779693604,22.0,-60773.1,1169.05,pp-riro,4,0,-1,-1
1570538801.7,2019-10-08,14:46:41.700,15.0,8.0,20.2800006866455,-14.9,21.9,9.5,-16.2,-15.5,141.5,-12.5737,21.9284,9.73296,-15.3736,-8.304969999999999,-4.97422,-17.7619,-12.7362,134.483,-0.219455,-0.117722,0.342504,260.9,3.8,52.1701,4.427169999999999,0.0,0.562948,331.646,4.42281,122.992,41.8029,207.441,1.0113299999999998,-0.038054,244.758,4.28101,3.99245,-14.3352127075195,22.0009689331055,-13.8146333694458,22.0,-60702.8,646.054,pp-riro,4,0,-1,-1
1570538801.8,2019-10-08,14:46:41.800,15.0,8.0,20.75,-15.7,21.0,9.5,-17.0,-15.0,144.7,-14.1249,20.9395,9.35669,-9.08832,-8.57247,-0.4076369999999999,-19.048,-11.342,138.859,0.000680118,-0.0967156,0.556154,260.9,3.8,52.1701,4.427169999999999,0.0,0.610045,344.837,4.42284,125.153,40.2829,206.341,1.00349,-0.0218481,244.669,4.31802,4.01515,-14.0416488647461,22.0009689331055,-13.7197618484497,22.0,-60508.5,1968.93,pp-riro,4,0,-1,-1
1570538801.9,2019-10-08,14:46:41.900,15.0,9.0,21.2999992370605,-16.2,20.1,9.2,-17.5,-14.3,147.7,-15.3255,19.7074,9.39385,-6.34203,-7.838760000000001,-2.71808,-20.046,-10.4209,144.127,0.152099,-0.0348106,0.680087,260.9,3.8,52.1701,4.427169999999999,0.2,0.600625,335.537,4.42287,127.227,38.7629,205.241,0.995814,-0.00622186,244.567,4.35432,4.03501,-13.7685623168945,22.0009689331055,-13.7173805236816,22.0,-60363.2,2891.86,pp-riro,4,0,-1,-1
1570538802.0,2019-10-08,14:46:42.000,15.0,11.0,21.75,-16.6,19.1,8.5,-18.3,-12.8,150.4,-15.4784,19.178,9.09906,-7.23675,-11.3802,-11.807,-20.1426,-10.0461,145.86,0.0533295999999999,-0.0519934999999999,0.6971970000000001,260.9,3.8,52.1701,4.427169999999999,0.2,0.550204,310.183,4.4229,129.184,36.8628,204.241,0.988991,0.0115228999999999,244.462,4.39206,4.05967,-13.7190628051758,22.0009689331055,35.0,22.0,-60043.8,3076.45,pp-riro,4,0,-1,-1
1570538802.1,2019-10-08,14:46:42.100,15.0,8.0,21.7900009155273,-17.1,18.3,8.3,-18.4,-11.4,152.8,-15.835,18.2759,8.45583,-4.38552,-9.90746,-4.214580000000001,-20.4449,-8.91825,148.59,0.0921838,0.0120032,0.511278,260.9,3.8,52.1701,4.427169999999999,0.2,0.5169590000000001,299.652,4.42293,131.053,35.3428,203.341,0.982201,0.026055,244.483,4.42745,4.079680000000001,-13.6695709228516,22.0009689331055,35.0,22.0,-59848.8,1476.7,pp-riro,4,0,-1,-1
1570538802.2,2019-10-08,14:46:42.200,15.0,8.0,21.5,-17.4,17.5,7.9,-19.0,-10.6,155.8,-16.1434,17.913,8.27656,-7.40322,-9.21346,-2.85547,-20.8323,-8.22578,149.889,-0.149297,0.0732868,0.421013,260.9,3.8,52.1701,4.427169999999999,0.2,0.900938,302.378,4.42296,132.835,33.4428,202.441,0.975922,0.0428039,244.43,4.46404,4.09654,-13.3145599365234,22.0009689331055,35.0,22.0,-61704.7,-22212.0,pp-riro,4,0,-1,-1
1570538802.3,2019-10-08,14:46:42.300,15.0,10.0,21.1700000762939,-17.1,16.9,7.1,-19.8,-8.8,158.4,-16.6672,16.655,7.75352,3.33563,-2.67763,-3.44096,-21.5985,-6.81323,154.194,0.0318801,0.01911,0.5407310000000001,255.7,4.2,52.1701,4.427169999999999,0.2,1.2561,282.22,4.422969999999999,134.58700000000002,31.9228,201.541,0.969313,0.0565300999999999,244.442,4.50716,4.10348,-12.5942993164062,22.0009689331055,35.0,22.0,-62181.9,16735.9,pp-riro,4,0,-1,-1
1570538802.4,2019-10-08,14:46:42.400,15.0,5.0,21.0,-17.3,16.2,6.6,-20.1,-6.6,160.2,-16.415,15.8836,6.55812,-0.807056,-6.92163,-2.14764,-22.215,-4.72591,157.999,-0.0384831,0.213914,0.526726,255.7,4.2,52.1701,4.427169999999999,0.2,0.955792,252.672,4.42296,136.19299999999998,30.0228,200.841,0.963842,0.0724523,244.514,4.54132,4.12059,-11.51220703125,22.0009689331055,35.0,22.0,-60705.6,-5383.79,pp-riro,4,0,-1,-1
1570538802.5,2019-10-08,14:46:42.500,15.0,7.0,21.0,-17.7,15.4,6.8,-20.3,-6.4,162.4,-16.8722,15.0969,6.59725,-5.64714,-3.13743,4.91331,-22.7535,-3.81226,160.14600000000002,-0.000816807,-0.0566083,0.4225609999999999,255.7,4.2,52.1701,4.427169999999999,0.2,1.05719,272.22700000000003,4.42293,137.71200000000002,28.1228,200.041,0.958309,0.0879941,244.483,4.56185,4.13319,-10.0802154541016,22.0009689331055,35.0,22.0,-61233.0,-9690.81,pp-riro,4,0,-1,-1
1570538802.6,2019-10-08,14:46:42.600,15.0,10.0,20.8299999237061,-17.9,15.0,6.4,-21.0,-5.7,164.3,-17.222,14.453,6.53429,-1.05134,-4.67732,-3.77218,-23.0237,-3.70897,162.842,-0.00870068,-0.209959,0.2818239999999999,255.7,4.2,52.1701,4.427169999999999,0.2,1.12312,299.773,4.42293,139.231,26.2228,199.341,0.952902,0.103307,244.561,4.58327,4.14351,-8.28810119628906,22.0009689331055,35.0,22.0,-60887.6,6583.6,pp-riro,4,0,-1,-1
1570538802.7,2019-10-08,14:46:42.700,15.0,11.0,20.6200008392334,-18.1,14.8,6.3,-21.7,-5.5,165.5,-17.486,14.1646,6.147959999999999,-7.763689999999999,-0.810505,0.705272,-23.6607,-4.65646,165.015,-0.304215,-0.248277,0.1985309999999999,255.7,4.2,52.1701,4.427169999999999,0.2,1.1297700000000002,300.152,4.42292,140.662,24.7028,198.641,0.94746,0.115629,244.652,4.59212,4.14575,-6.202423095703121,22.0009689331055,35.0,22.0,-60551.0,2830.33,pp-riro,4,0,-1,-1
1570538802.8,2019-10-08,14:46:42.800,15.0,11.0,20.3099994659424,-18.5,14.4,6.7,-23.1,-5.6,167.0,-17.486,14.1646,6.147959999999999,-7.763689999999999,-0.810505,0.705272,-23.6607,-4.65646,165.015,-0.304215,-0.248277,0.1985309999999999,255.7,4.2,52.1701,4.427169999999999,0.2,1.12811,309.097,4.4229,142.15200000000002,22.4227,197.941,0.942158,0.133039,244.726,4.59802,4.1437,-4.09114074707031,22.0009689331055,35.0,22.0,-60329.6,4460.85,pp-riro,4,0,-1,-1
1570538802.9,2019-10-08,14:46:42.900,15.0,10.0,20.0100002288818,-18.3,14.3,7.0,-24.2,-5.0,168.4,-18.0784,13.7928,6.48185,0.8192379999999999,-4.27003,2.37855,-24.95,-5.55496,167.872,-0.266245,-0.142228,0.193555,255.7,4.2,52.1701,4.42718,0.4,1.19571,343.787,4.42289,143.525,20.9027,197.141,0.936504,0.14488,244.747,4.61413,4.12522,-1.99009704589844,22.0009689331055,35.0,22.0,-60259.3,-92.2935,pp-riro,4,0,-1,-1
1570538803.0,2019-10-08,14:46:43.000,15.0,12.0,19.8700008392334,-18.2,14.2,7.4,-25.1,-4.9,168.7,-18.0416,13.8142,6.60398,-5.33663,-0.524034,0.2636949999999999,-25.7226,-5.60423,168.67,-0.174665,-0.0917187,0.0779458,255.7,4.2,52.1701,4.42718,0.4,1.21344,343.13199999999995,4.42287,144.89700000000002,19.0027,196.341,0.930949,0.159114,244.758,4.6077900000000005,4.10539,0.100486755371094,22.0009689331055,35.0,22.0,-60052.8,3845.56,pp-riro,4,0,-1,-1
1570538803.1,2019-10-08,14:46:43.100,15.0,13.0,19.6900005340576,-18.0,14.2,7.9,-26.4,-6.1,168.6,-18.1489,13.8257,6.9070100000000005,-2.17814,2.51123,2.5124,-26.7969,-5.78209,169.395,-0.296077,-0.171045,-0.0353597,255.7,4.2,52.1701,4.42718,0.4,1.14972,313.974,4.42286,146.21200000000002,17.4827,195.541,0.925343,0.170524,244.786,4.58458,4.08079,2.20897674560547,22.0009689331055,35.0,22.0,-59168.3,4799.26,pp-riro,4,0,-1,-1
1570538803.2,2019-10-08,14:46:43.200,15.0,11.0,19.6900005340576,-17.6,14.3,8.0,-27.8,-8.1,167.6,-18.1924,13.9285,7.74057,4.25611,7.11856,5.99374,-28.2698,-8.33668,170.25099999999998,0.028881,-0.526962,-0.0765846999999999,255.7,4.2,52.1701,4.42718,0.4,1.1403,307.329,4.42285,147.585,15.2027,194.641,0.919501,0.186896,244.74,4.53651,4.05227,4.32768249511719,22.0009689331055,35.0,22.0,-58965.9,4060.91,pp-riro,4,0,-1,-1
1570538803.3,2019-10-08,14:46:43.300,15.0,12.0,19.5100002288818,-17.1,14.7,8.6,-28.7,-9.8,166.0,-18.1924,13.9285,7.74057,4.25611,7.11856,5.99374,-28.2698,-8.33668,170.25099999999998,0.028881,-0.526962,-0.0765846999999999,253.7,5.3,52.1701,4.42718,0.4,1.1259,308.91200000000003,4.42281,149.016,13.6826,193.641,0.912873,0.198019,244.724,4.48755,4.00828,6.43276214599609,22.0009689331055,35.0,22.0,-58559.4,3568.68,pp-riro,4,0,-1,-1
1570538803.4,2019-10-08,14:46:43.400,15.0,11.0,19.4200000762939,-16.8,15.3,9.9,-30.4,-11.8,163.8,-18.1487,14.2548,7.899719999999999,7.4676,7.12811,3.15506,-29.668000000000003,-11.3002,169.93599999999998,-0.364329,-0.116877,-0.328653,253.7,5.3,52.1701,4.42718,0.4,1.1840700000000002,334.57,4.42274,150.476,11.7826,192.741,0.906442,0.211503,244.808,4.4256,3.95162,8.53614807128906,22.0009689331055,35.0,22.0,-58391.6,1138.29,pp-riro,4,0,-1,-1
1570538803.5,2019-10-08,14:46:43.500,15.0,11.0,19.4200000762939,-16.5,15.8,10.7,-30.8,-13.3,162.8,-17.4854,15.4593,10.3133,3.5976,5.75176,16.9078,-31.9416,-15.6093,166.438,-0.203324,-0.251836,-0.448134,253.7,5.3,52.1701,4.42718,0.4,1.17798,327.202,4.422680000000001,151.20600000000002,11.0226,192.141,0.902773,0.21694,244.751,4.39185,3.91432,10.6310119628906,22.0009689331055,35.0,22.0,-57894.7,5722.19,pp-riro,4,0,-1,-1
1570538803.6,2019-10-08,14:46:43.600,15.0,13.0,19.4200000762939,-15.3,16.7,11.9,-31.8,-15.9,159.1,-17.0329,16.0041,11.0987,5.34287,6.4519,5.74715,-32.8707,-17.7274,165.738,-0.0599446,-0.522836,-0.630933,253.7,5.3,52.1701,4.42718,0.4,1.1475,314.735,4.422619999999999,153.543,8.36262,190.941,0.8928149999999999,0.235362,245.161,4.30004,3.8268,11.6920700073242,22.0009689331055,35.0,22.0,-57417.0,4153.21,pp-riro,4,0,-1,-1
1570538803.7,2019-10-08,14:46:43.700,15.0,12.0,19.3199996948242,-14.2,17.4,12.9,-32.6,-18.7,157.5,-16.0402,17.097,12.2288,5.36371,7.50923,11.6618,-33.8009,-21.2975,163.609,-0.400748,0.0167512,-0.664091,253.7,5.3,52.1701,4.42718,0.4,1.14418,311.708,4.42255,155.149,7.222639999999999,189.741,0.884832,0.243317,245.205,4.243130000000001,3.75918,13.7937469482422,22.0009689331055,35.0,22.0,-57219.8,3691.74,pp-riro,4,0,-1,-1
1570538803.8,2019-10-08,14:46:43.800,15.0,12.0,19.3700008392334,-13.3,18.2,14.1,-31.9,-23.0,151.1,-16.0402,17.097,12.2288,5.36371,7.50923,11.6618,-33.8009,-21.2975,163.609,-0.400748,0.0167512,-0.664091,253.7,5.3,52.1701,4.42718,0.4,1.1303299999999998,303.427,4.42249,156.90200000000002,6.08266,187.741,0.874274,0.251152,244.749,4.10825,3.69603,15.910758972168,22.0009689331055,35.0,22.0,-56843.7,3968.62,pp-riro,4,0,-1,-1
1570538803.9,2019-10-08,14:46:43.900,15.0,12.0,19.3199996948242,-11.9,18.9,15.2,-31.2,-24.8,149.3,-13.3061,19.4244,15.4836,21.489,14.6374,4.79408,-34.5362,-29.2495,155.129,-0.2338059999999999,-0.164467,-1.0296,253.7,5.3,52.17,4.42718,0.5,1.10816,293.415,4.42243,157.80700000000002,4.94265,187.041,0.8697280000000001,0.258653,244.769,4.061,3.62207,18.0175399780273,22.0009689331055,35.0,22.0,-56277.3,3784.03,pp-riro,4,0,-1,-1
1570538804.0,2019-10-08,14:46:44.000,15.0,12.0,19.229999542236303,-10.3,19.4,15.8,-29.8,-28.1,143.8,-13.3061,19.4244,15.4836,21.489,14.6374,4.79408,-34.5362,-29.2495,155.129,-0.2338059999999999,-0.164467,-1.0296,253.7,5.3,52.17,4.42718,0.5,1.10539,296.39,4.42236,159.618,3.802680000000001,185.541,0.8602219999999999,0.266208,244.782,3.95167,3.55062,20.1362457275391,22.0009689331055,35.0,22.0,-56117.2,3045.68,pp-riro,4,0,-1,-1
1570538804.1,2019-10-08,14:46:44.100,15.0,12.0,19.1800003051758,-8.9,20.1,17.0,-27.1,-31.3,137.2,-11.9467,20.3246,16.4952,20.3321,10.6354,8.17047,-33.416,-33.3463,149.303,-0.538846,-0.189552,-0.951027,253.7,5.3,52.17,4.42718,0.5,1.12312,304.172,4.4223,161.517,3.04271,184.041,0.850402,0.271254,244.884,3.83328,3.482,22.254959106445305,22.0009689331055,35.0,22.0,-55967.0,1415.17,pp-riro,4,0,-1,-1
1570538804.2,2019-10-08,14:46:44.200,15.0,13.0,19.3199996948242,-7.1,20.7,18.0,-23.4,-35.2,129.7,-9.49667,21.4671,18.4929,18.2694,6.7931,9.79335,-29.8975,-39.7232,138.977,-0.380015,-0.239557,-1.31104,253.7,5.3,52.17,4.42718,0.5,1.12922,311.814,4.42224,163.532,2.28276,182.341,0.8396790000000001,0.2761639999999999,244.941,3.70107,3.4054,24.3532333374023,22.0009689331055,35.0,22.0,-55476.8,3660.97,pp-riro,4,0,-1,-1
1570538804.3,2019-10-08,14:46:44.300,15.0,12.0,19.590000152587898,-4.8,21.1,18.8,-18.4,-38.9,121.2,-6.9855100000000006,22.2861,19.3979,26.9962,9.93722,12.6811,-26.0507,-44.3056,131.017,0.053263,-0.111228,-1.15083,248.7,6.0,52.17,4.42718,0.5,1.13809,319.244,4.42216,165.547,1.14279,180.741,0.829235,0.283282,245.101,3.56162,3.315,26.4617233276367,22.0009689331055,35.0,22.0,-55392.8,1568.99,pp-riro,4,0,-1,-1
1570538804.4,2019-10-08,14:46:44.400,15.0,12.0,19.9400005340576,-2.3,21.4,19.5,-12.9,-41.8,111.2,-5.68313,22.5099,19.9528,20.3531,8.302610000000001,10.5793,-23.6603,-46.3659,126.422,-0.00961476,-0.3364,-1.4215,248.7,6.0,52.17,4.42718,0.5,1.17521,331.44199999999995,4.42208,167.563,0.76285,178.94099999999997,0.81822,0.2857119999999999,245.148,3.41786,3.22424,28.563400268554695,22.0009689331055,35.0,22.0,-55245.4,2245.81,pp-riro,4,0,-1,-1
1570538804.5,2019-10-08,14:46:44.500,15.0,13.0,20.25,0.5,21.5,20.1,-5.9,-43.6,100.2,-1.34502,23.2222,21.2747,32.933,3.52042,11.9891,-13.8439,-52.2053,109.454,-0.141388,-0.105799,-1.4714,248.7,6.0,52.17,4.42718,0.5,1.18684,347.597,4.42201,169.607,0.762919,177.041,0.806836,0.285885,245.175,3.27342,3.1278900000000003,30.5151977539062,22.0009689331055,23.0044822692871,22.0,-54900.7,3107.21,pp-riro,4,0,-1,-1
1570538804.6,2019-10-08,14:46:44.600,15.0,14.0,20.4200000762939,3.5,21.0,20.7,1.3,-44.2,89.0,2.03493,23.15,21.8586,35.7502,-1.87308,9.68604,-5.60145,-54.3661,96.0721,-0.183697,-0.243002,-1.32248,248.7,6.0,52.17,4.42718,0.5,1.2284,370.952,4.421930000000001,171.68099999999998,0.76299,175.141,0.795371,0.286017,245.254,3.13227,3.02661,32.1195678710938,22.0009689331055,23.0044822692871,22.0,-54791.4,522.996,pp-ro,1,1,-1,-1
1570538804.7,2019-10-08,14:46:44.700,15.0,13.0,20.6299991607666,6.8,19.9,20.9,9.5,-44.6,76.9,2.03493,23.15,21.8586,35.7502,-1.87308,9.68604,-5.60145,-54.3661,96.0721,-0.183697,-0.243002,-1.32248,248.7,6.0,52.17,4.42718,0.5,1.2694,381.399,4.42185,173.725,1.14307,172.94099999999997,0.783126,0.283961,245.133,2.98413,2.91467,33.3628540039062,22.0009689331055,23.0044822692871,22.0,-54464.4,5137.67,pp-ro,1,1,-1,-1
1570538804.8,2019-10-08,14:46:44.800,15.0,15.0,20.7600002288818,9.7,19.1,19.9,16.5,-43.5,65.4,5.82181,22.1471,22.2001,30.6196,-19.3573,-3.06712,3.6017,-55.7749,82.6458,-0.00982283,-0.210112,-1.25155,248.7,6.0,52.17,4.42718,0.5,1.2356,365.237,4.42177,175.623,2.28317,170.94099999999997,0.771846,0.27762,245.091,2.84385,2.81245,34.248489379882805,22.0009689331055,23.0044822692871,22.0,-53622.6,5537.61,pp-ro,1,1,-1,-1
1570538804.9,2019-10-08,14:46:44.900,15.0,13.0,21.0100002288818,12.4,17.5,19.4,22.9,-40.9,54.8,12.46,20.1309,20.6408,27.7835,-24.5492,-10.0951,22.5601,-52.9621,53.8603,-0.0711721,-0.0990208,-1.10087,248.7,6.0,52.17,4.42718,0.7,1.23394,371.0630000000001,4.42169,177.405,3.42326,169.041,0.7611680000000001,0.271405,245.07,2.70406,2.71136,34.7866821289062,22.0009689331055,23.0044822692871,22.0,-53194.5,3630.21,pp-ro,1,1,-1,-1
1570538805.0,2019-10-08,14:46:45.000,15.0,10.0,21.0100002288818,14.9,15.7,18.5,29.3,-37.6,43.2,12.46,20.1309,20.6408,27.7835,-24.5492,-10.0951,22.5601,-52.9621,53.8603,-0.0711721,-0.0990208,-1.10087,248.7,6.0,52.17,4.42718,0.7,1.24059,372.877,4.42161,179.07,4.56335,167.141,0.750795,0.26526,244.996,2.5428900000000003,2.60721,34.9620971679688,22.0009689331055,23.0044822692871,22.0,-53056.3,2614.98,pp-ro,1,1,-1,-1
1570538805.1,2019-10-08,14:46:45.100,15.0,13.0,20.9599990844727,17.0,13.8,16.9,34.2,-33.1,33.4,16.9485,17.455,19.1665,26.3663,-20.7265,-26.5916,33.2006,-47.6562,35.1065,0.0744031999999999,-0.102062,-1.26491,248.7,6.0,52.17,4.42718,0.7,1.2173200000000002,347.19,4.421530000000001,180.53,6.08344,165.44099999999997,0.74153,0.257171,244.947,2.38906,2.50093,34.8428955078125,22.0009689331055,23.0044822692871,22.0,-52159.4,8275.65,pp-ro,1,1,-1,-1
1570538805.2,2019-10-08,14:46:45.200,15.0,12.0,20.7900009155273,18.4,12.1,15.3,37.9,-28.8,25.5,19.219,15.3735,17.1624,21.8716,-25.4347,-23.8968,37.9316,-42.3255,24.8499,-0.591147,-0.0390222,-1.56715,248.7,6.0,52.17,4.42718,0.7,1.18629,336.282,4.42145,181.815,7.60352,163.94099999999997,0.7333149999999999,0.249139,244.931,2.25549,2.4115,34.3046875,22.0009689331055,21.9339942932129,22.0,-51817.8,6306.72,pp-ro,1,1,-1,-1
1570538805.3,2019-10-08,14:46:45.300,15.0,12.0,20.5699996948242,19.8,10.4,13.5,40.7,-23.2,17.4,21.0695,13.385,15.5242,17.6611,-27.8171,-18.7556,41.188,-36.1863,16.4497,-0.657524,0.180605,-1.53743,253.4,6.8,52.17,4.42718,0.7,1.16856,326.411,4.42138,183.042,9.50361,162.641,0.725783,0.239139,245.044,2.1026700000000003,2.31391,33.402023315429695,22.0009689331055,20.2140045166016,22.0,-51455.9,3107.21,pp-ro,1,1,-1,-1
1570538805.4,2019-10-08,14:46:45.400,15.0,12.0,20.3099994659424,20.7,8.6,11.9,43.1,-17.2,9.6,22.6289,11.472,13.4721,12.7576,-13.0318,-26.2062,42.8707,-29.9535,8.887360000000001,-0.313675,0.0362493,-1.52342,253.4,6.8,52.17,4.42718,0.7,1.15305,317.867,4.4213,184.064,11.4037,161.541,0.719372,0.229213,245.163,1.94525,2.22546,32.1416931152344,22.0009689331055,18.6426010131836,22.0,-50875.6,3660.97,pp-ro,1,1,-1,-1
1570538805.5,2019-10-08,14:46:45.500,15.0,13.0,20.1800003051758,21.1,7.0,9.6,44.2,-11.8,2.9,23.6084,9.09283,11.5476,8.4462,-24.8636,-23.9905,44.4853,-24.2539,0.995391,-0.6702560000000001,-0.14345,-1.5254,253.4,6.8,52.17,4.42718,0.7,1.14972,314.339,4.42122,184.94,13.3038,160.641,0.713924,0.219353,245.327,1.80601,2.12867,30.5220031738281,22.0009689331055,16.874691009521502,22.0,-50691.8,3537.92,pp-ro,1,1,-1,-1
1570538805.6,2019-10-08,14:46:45.600,15.0,15.0,20.0100002288818,21.6,5.3,7.5,44.8,-6.3,-2.6,24.1914,7.260689999999999,8.916960000000001,9.70175,-21.9641,-27.913,44.5662,-17.7418,-5.23156,-0.29694,-0.0339717,-1.29511,253.4,6.8,52.17,4.42718,0.7,1.13919,311.774,4.42115,185.67,15.2038,160.041,0.7097479999999999,0.209499,245.597,1.67786,2.0242400000000003,28.561691284179695,22.0009689331055,14.9108505249023,22.0,-50291.9,3968.62,pp-ro,1,1,-1,-1
1570538805.7,2019-10-08,14:46:45.700,15.0,13.0,19.7800006866455,21.6,3.5,5.6,45.4,-1.0,-8.1,24.5656,6.23974,7.75011,-0.943169,-27.9738,-22.9196,44.1851,-14.253,-7.87395,-0.395302,0.0353315,-1.26774,253.4,6.8,52.17,4.42718,0.7,1.14307,318.887,4.421069999999999,186.283,17.4839,159.541,0.7060569999999999,0.197734,245.887,1.55306,1.925,25.9286422729492,22.0009689331055,13.0310497283936,22.0,-50033.7,2030.46,pp-ro,1,1,-1,-1
1570538805.8,2019-10-08,14:46:45.800,15.0,14.0,19.6000003814697,21.2,1.9,3.6,45.2,4.3,-13.6,24.5656,6.23974,7.75011,-0.943169,-27.9738,-22.9196,44.1851,-14.253,-7.87395,-0.395302,0.0353315,-1.26774,253.4,6.8,52.17,4.42718,0.7,1.16745,324.721,4.421,186.663,19.384,159.241,0.703641,0.187919,246.123,1.4268,1.82305,23.8269653320312,22.0009689331055,11.0582036972046,22.0,-49806.0,2676.51,pp-ro,1,1,-1,-1
1570538805.9,2019-10-08,14:46:45.900,15.0,12.0,19.4699993133545,20.5,0.8,1.7,44.7,8.9,-17.5,23.9955,2.13423,3.2825800000000003,-16.1119,-12.7082,-15.7291,43.7416,-2.14851,-18.6973,-0.5253399999999999,0.269095,-1.45508,253.4,6.8,52.1701,4.42719,0.8,1.12645,298.284,4.42092,187.013,21.284,158.941,0.701258,0.178147,246.352,1.32829,1.7324700000000002,21.7252883911133,22.0009689331055,9.3162202835083,22.0,-49055.9,5660.67,pp-ro,1,1,-1,-1
1570538806.0,2019-10-08,14:46:46.000,15.0,11.0,19.3299999237061,19.8,0.0,0.3,44.6,12.9,-20.9,22.8455,0.687275,1.27719,-12.1829,-10.1662,-12.8783,42.5963,3.1477,-23.203000000000003,-0.0791351,0.126933,-0.94843,253.4,6.8,52.1701,4.42719,0.8,1.10872,292.068,4.42084,187.159,23.1841,158.941,0.700292,0.1683,246.634,1.24385,1.66205,19.6133880615234,22.0009689331055,7.92167997360229,22.0,-48827.9,4491.62,pp-ro,1,1,-1,-1
1570538806.1,2019-10-08,14:46:46.100,15.0,11.0,19.1000003814697,19.1,-0.9,-0.8,43.6,17.0,-24.7,21.6771,-0.974047,-1.03169,-7.1838,-11.707,-13.2268,40.9542,10.9669,-27.8215,-0.173464,0.36303,-0.982148,253.4,6.8,52.1701,4.42719,0.8,1.09819,287.389,4.42077,187.305,25.4642,158.841,0.698838,0.1565,246.905,1.15556,1.59542,17.5048980712891,22.0009689331055,6.62292385101318,22.0,-48530.1,2707.28,pp-ro,1,1,-1,-1
1570538806.2,2019-10-08,14:46:46.200,15.0,12.0,18.729999542236303,18.6,-1.5,-2.1,43.4,21.4,-28.8,20.8894,-1.96354,-2.31508,-2.71762,-3.57301,-19.1284,40.4109,15.1352,-31.8448,0.2067969999999999,0.0408608,-1.08359,253.4,6.8,52.1701,4.42719,0.8,1.08877,281.595,4.4206900000000005,187.305,27.3642,158.841,0.698148,0.146629,247.108,1.05981,1.5260200000000002,15.3929977416992,22.0009689331055,5.243865966796879,22.0,-48062.6,3353.33,pp-ro,1,1,-1,-1
1570538806.3,2019-10-08,14:46:46.300,15.0,13.0,18.4400005340576,17.9,-2.2,-2.9,42.7,24.7,-32.8,20.6392,-2.26621,-2.93482,-8.94763,-6.92968,-11.8055,40.0464,17.5759,-33.5558,-0.180056,0.17794,-0.921964,253.4,6.8,52.1701,4.42719,0.8,1.08766,284.601,4.42061,187.217,29.2642,159.041,0.698254,0.136722,247.388,0.980149,1.46899,13.2913208007812,22.0009689331055,4.07891988754272,22.0,-47910.7,2861.1,pp-ro,1,1,-1,-1
1570538806.4,2019-10-08,14:46:46.400,15.0,13.0,18.2999992370605,17.6,-3.3,-4.0,42.0,27.4,-36.6,19.7603,-3.27576,-4.00179,-5.26973,-8.64408,-13.7597,39.1662,21.6431,-37.5547,0.335414,0.0685409999999999,-0.910052,253.4,6.8,52.1701,4.42719,0.8,1.12756,305.307,4.42053,187.071,31.1643,159.241,0.698461,0.126789,247.638,0.911019,1.38869,11.1794204711914,22.0009689331055,2.44568943977356,22.0,-47734.1,799.877,pp-ro,1,1,-1,-1
1570538806.5,2019-10-08,14:46:46.500,15.0,14.0,18.1499996185303,17.1,-4.0,-4.8,41.3,29.6,-40.2,19.4578,-3.81657,-4.51507,-0.481653,-7.14854,-3.6771,38.8086,23.5837,-39.1492,0.31743,0.133351,-0.948604,253.4,6.8,52.1701,4.42719,0.8,1.1358700000000002,306.655,4.42044,186.779,32.6843,159.541,0.699472,0.118714,247.807,0.849618,1.32966,10.1268844604492,22.0009689331055,1.2042020559310902,22.0,-47354.5,4583.91,pp-ro,1,1,-1,-1
1570538806.6,2019-10-08,14:46:46.600,15.0,16.0,18.0100002288818,16.6,-4.7,-5.6,40.7,30.9,-43.6,19.4578,-3.81657,-4.51507,-0.481653,-7.14854,-3.6771,38.8086,23.5837,-39.1492,0.31743,0.133351,-0.948604,253.4,6.8,52.1701,4.42719,0.8,1.12645,308.504,4.42035,186.429,34.5844,159.841,0.700418,0.108609,247.99400000000003,0.802593,1.27109,8.05586242675781,22.0009689331055,-0.028452500700951,22.0,-47156.1,3876.33,pp-ro,1,1,-1,-1
1570538806.7,2019-10-08,14:46:46.700,15.0,14.0,17.8600006103516,16.2,-5.6,-6.5,40.9,32.1,-46.3,17.723,-5.7135,-6.53608,-12.0989,-3.92781,-9.16844,37.3938,30.028,-47.3069,0.379726,-0.07485,-0.449552,253.4,6.8,52.1701,4.42719,0.8,1.14529,318.197,4.42027,185.961,36.1044,160.341,0.702415,0.100355,248.182,0.763674,1.2040799999999998,5.63569641113281,22.0009689331055,-1.47891974449158,22.0,-46985.5,1599.75,pp-ro,1,1,-1,-1
1570538806.8,2019-10-08,14:46:46.800,15.0,14.0,17.8600006103516,15.5,-6.4,-6.9,41.0,32.5,-48.8,17.2481,-6.5770800000000005,-7.276839999999999,-8.10495,-8.74147,-7.338319999999999,37.6208,31.6268,-49.5843,0.00847311,-0.0702777,-0.364477,253.4,6.8,52.1701,4.42719,0.8,1.16025,326.454,4.42018,185.406,37.6244,160.841,0.704598,0.0919936,248.316,0.735854,1.15227,3.85250854492188,22.0009689331055,-2.63730311393738,22.0,-46518.3,3691.74,pp-ro,1,1,-1,-1
1570538806.9,2019-10-08,14:46:46.900,15.0,14.0,17.909999847412102,14.9,-6.9,-7.3,41.4,32.2,-50.1,16.3081,-7.14819,-7.54392,-15.6833,1.1936,-5.04656,37.8118,32.2446,-51.4581,0.305616,-0.0740316,-0.0945207,253.4,6.8,52.1701,4.42719,0.8,1.16634,321.478,4.4201,184.822,39.5244,161.441,0.706917,0.0816113999999999,248.565,0.730698,1.11203,1.65545654296875,22.0009689331055,-3.57783317565918,22.0,-46255.4,2830.33,pp-ro,1,1,-1,-1
1570538807.0,2019-10-08,14:46:47.000,15.0,14.0,18.1100006103516,14.6,-7.1,-7.6,42.6,32.0,-50.7,15.9613,-7.25175,-7.732080000000001,-8.37485,-1.02916,-1.43637,38.4203,32.3201,-51.9636,0.231185,0.155916,-0.141901,253.4,6.8,52.1701,4.42719,0.8,1.13975,308.06,4.42001,184.092,41.0444,162.041,0.7097680000000001,0.0730062,248.66,0.731482,1.09144,0.047691345214844,22.0009689331055,-4.1540961265564,22.0,-45725.5,5845.25,pp-ro,1,1,-1,-1
1570538807.1,2019-10-08,14:46:47.100,15.0,12.0,18.3999996185303,14.5,-7.5,-7.7,43.3,31.5,-51.5,15.6678,-7.553139999999999,-7.9063,-2.1872,-4.76296,-5.15517,39.5955,32.8339,-51.9841,0.1159109999999999,-0.0362588,-0.0632142,253.4,6.8,52.1701,4.42719,0.8,1.12534,305.079,4.41993,183.449,42.5645,162.741,0.712659,0.064471,248.898,0.732925,1.07972,-0.6997756958007809,22.0009689331055,-4.560290336608889,22.0,-45525.2,3968.62,pp-ro,1,1,-1,-1
1570538807.2,2019-10-08,14:46:47.200,15.0,12.0,18.6900005340576,14.6,-7.7,-7.5,43.9,30.7,-52.2,15.6024,-7.80466,-7.90798,-0.560994,-2.11088,0.437237,40.3964,32.5371,-52.6185,0.1612289999999999,-0.000595388,-0.00656388,253.4,6.8,52.1701,4.42719,0.8,1.13144,310.97700000000003,4.41984,182.69,44.0845,163.342,0.715504,0.0557213,248.997,0.738722,1.09104,-2.05325317382812,22.0009689331055,-4.5088472366333,22.0,-45294.0,1784.34,pp-ro,1,1,-1,-1
1570538807.3,2019-10-08,14:46:47.300,15.0,12.0,19.1100006103516,14.6,-7.8,-7.4,44.4,30.0,-52.6,15.7335,-8.0985,-7.777719999999999,4.31128,-6.24993,1.7498900000000002,41.8648,32.407,-52.2989,0.111816,0.0726481,-0.0508362,258.0,6.9,52.1701,4.42719,0.8,1.14695,312.625,4.41974,181.901,45.6045,164.042,0.718685,0.0470065999999999,249.154,0.747116,1.09801,-3.41014099121094,22.0009689331055,-4.569118976593019,22.0,-45025.2,3384.09,pp-ro,1,1,-1,-1
1570538807.4,2019-10-08,14:46:47.400,15.0,12.0,19.340000152587898,14.5,-7.8,-7.4,45.3,29.6,-52.6,15.6834,-8.228760000000001,-7.49414,-5.23741,-1.0153299999999998,-3.70213,42.385,31.761,-52.42100000000001,0.1600599999999999,-0.149653,0.115166,258.0,6.9,52.1701,4.42719,0.8,1.1331,309.682,4.4196,181.083,47.1245,164.642,0.721596,0.0381298,249.236,0.757382,1.10061,-4.11503601074219,22.0009689331055,-4.70869922637939,22.0,-44485.9,3107.21,pp-ro,1,1,-1,-1
1570538807.5,2019-10-08,14:46:47.500,15.0,11.0,19.6499996185303,14.8,-8.1,-7.6,46.7,29.0,-51.7,15.6583,-8.09183,-7.418089999999999,-2.29746,-0.0798916,1.08374,42.7308,31.2769,-52.708,0.0242587,0.0268589999999999,0.0419799,258.0,6.9,52.1701,4.42719,0.8,1.13753,312.582,4.41947,180.295,48.2645,165.24200000000002,0.724653,0.031352,249.28,0.779404,1.10012,-4.48882293701172,22.0009689331055,-4.91918706893921,22.0,-44351.0,2522.69,pp-ro,1,1,-1,-1
1570538807.6,2019-10-08,14:46:47.600,15.0,10.0,19.8299999237061,15.3,-8.5,-7.3,47.1,28.0,-51.6,15.9942,-8.36161,-7.60522,3.4359900000000003,-2.5357,-4.0362800000000005,43.9581,31.0354,-51.5623,0.160303,-0.0434924,0.187438,258.0,6.9,52.1701,4.42719,0.8,1.15194,326.568,4.41934,179.419,50.1645,165.942,0.727667,0.0204153,249.488,0.7988149999999999,1.12402,-4.741424560546879,22.0009689331055,-4.6591305732727095,22.0,-44127.0,1999.69,pp-ro,1,1,-1,-1
1570538807.7,2019-10-08,14:46:47.700,15.0,10.0,20.1900005340576,15.4,-8.5,-6.9,46.8,26.7,-51.5,16.4462,-8.79229,-7.18547,2.0041,-2.19663,6.98135,44.5916,29.75,-51.2216,0.0801308999999999,-0.26987,0.0527394,258.0,6.9,52.1701,4.42719,0.8,1.21676,358.95300000000003,4.41921,178.572,51.6845,166.442,0.7302270000000001,0.0114454,249.523,0.8201780000000001,1.14742,-4.881378173828121,22.0009689331055,-4.38241243362427,22.0,-43904.7,1999.69,pp-ro,1,1,-1,-1
1570538807.8,2019-10-08,14:46:47.800,15.0,10.0,20.5300006866455,15.4,-8.4,-6.9,48.1,26.5,-49.4,16.6042,-8.74348,-6.81732,0.585925,0.544615,-4.65332,44.7043,28.1879,-50.9129,-0.0708615,-0.125854,0.152437,258.0,6.9,52.1701,4.42719,0.8,1.22674,359.264,4.41908,177.666,53.2046,167.042,0.733192,0.00234676,249.597,0.8545159999999999,1.15608,-4.642433166503911,22.0009689331055,-4.4343090057373,22.0,-43732.5,3414.86,pp-ro,1,1,-1,-1
1570538807.9,2019-10-08,14:46:47.900,15.0,9.0,21.0400009155273,15.6,-8.7,-6.5,48.8,25.3,-48.8,16.5942,-8.67031,-6.8412,-1.38514,5.34518,-0.4423359999999999,44.9571,28.0285,-50.0738,-0.00420927,0.17373,0.280036,258.0,6.9,52.1701,4.42719,0.6,1.21455,349.14300000000003,4.41895,176.79,54.7246,167.642,0.7360369999999999,-0.00674819,249.706,0.8813840000000001,1.17509,-4.40007019042969,22.0009689331055,-4.28026628494263,22.0,-43208.8,5722.19,pp-ro,1,1,-1,-1
1570538808.0,2019-10-08,14:46:48.000,15.0,9.0,21.3799991607666,15.7,-8.4,-6.3,48.7,24.7,-48.8,16.7936,-8.888,-6.4938400000000005,5.45271,-2.71537,4.71192,45.5792,27.3919,-48.9083,-0.00410819,-0.100088,0.160423,258.0,6.9,52.1701,4.42719,0.6,1.19183,344.55800000000005,4.41881,175.91400000000002,56.6246,167.842,0.73734,-0.0178405,249.645,0.895856,1.20028,-4.40007019042969,22.0009689331055,-3.91331315040588,22.0,-42715.6,4337.79,pp-ro,1,1,-1,-1
1570538808.1,2019-10-08,14:46:48.100,15.0,10.0,21.5799999237061,15.8,-8.0,-5.8,49.0,25.0,-48.0,16.7936,-8.888,-6.4938400000000005,5.45271,-2.71537,4.71192,45.5792,27.3919,-48.9083,-0.00410819,-0.100088,0.160423,258.0,6.9,52.1701,4.42719,0.6,1.21399,349.869,4.41868,175.475,57.3846,168.342,0.739312,-0.0223546999999999,249.847,0.90543,1.23546,-4.47687530517578,22.0009689331055,-3.36849641799927,22.0,-42345.8,2799.57,pp-ro,1,1,-1,-1
1570538808.2,2019-10-08,14:46:48.200,15.0,9.0,21.6299991607666,15.8,-8.4,-5.5,49.7,25.1,-46.8,17.0596,-8.512839999999999,-5.75655,2.08189,6.966019999999999,5.77232,46.1507,26.2267,-48.2876,0.0713605,0.00354335,0.0288858,258.0,6.9,52.1701,4.42719,0.6,1.21178,343.144,4.41855,174.19,59.2846,168.842,0.742458,-0.0342750999999999,249.729,0.926993,1.24401,-4.29425048828125,22.0009689331055,-3.48320508003235,22.0,-42060.8,5168.43,pp-ro,1,1,-1,-1
1570538808.3,2019-10-08,14:46:48.300,15.0,10.0,21.5400009155273,15.7,-8.1,-5.4,50.1,24.2,-46.2,16.9273,-8.55359,-4.99779,-4.10153,5.28317,-0.474213,46.6588,25.246,-46.8836,0.0365217,-0.100008,0.274627,254.7,6.9,52.1701,4.42719,0.6,1.15859,326.507,4.41844,173.285,61.1846,169.342,0.744563,-0.0454694999999999,249.896,0.952252,1.2608700000000002,-3.64737701416016,22.0009689331055,-3.36361598968506,22.0,-41295.0,3722.5,pp-ro,1,1,-1,-1
1570538808.4,2019-10-08,14:46:48.400,15.0,10.0,21.510000228881804,16.0,-8.1,-5.1,50.5,23.1,-45.8,16.9273,-8.55359,-4.99779,-4.10153,5.28317,-0.474213,46.6588,25.246,-46.8836,0.0365217,-0.100008,0.274627,254.7,6.9,52.1701,4.42719,0.6,1.1669,337.725,4.41834,172.438,61.9446,169.74200000000002,0.747214,-0.0508702,249.768,0.97341,1.28415,-3.38965606689453,22.0009689331055,-3.13369250297546,22.0,-41179.0,2184.28,pp-ro,1,1,-1,-1
1570538808.5,2019-10-08,14:46:48.500,15.0,10.0,21.2600002288818,16.6,-8.7,-4.4,50.6,21.5,-44.9,17.1077,-8.47233,-4.8903300000000005,0.451002,-5.40794,3.87806,47.0318,23.6147,-46.664,0.179083,-0.296421,0.165695,254.7,6.9,52.1701,4.42719,0.6,1.22175,372.653,4.41824,171.503,64.6047,170.342,0.748861,-0.0661067,250.207,1.01344,1.31918,-3.3606414794921897,22.0009689331055,-2.66034054756165,22.0,-41165.5,-307.645,pp-ro,1,1,-1,-1
1570538808.6,2019-10-08,14:46:48.600,15.0,13.0,21.1800003051758,16.9,-8.6,-4.4,50.9,20.8,-44.8,17.8617,-9.04172,-3.8903,7.467219999999999,3.33781,4.01729,47.696000000000005,20.8193,-46.1109,-0.0775443,-0.0940265,0.191504,254.7,6.9,52.1701,4.42719,0.6,1.28104,387.207,4.41814,171.09400000000002,65.3647,170.542,0.749753,-0.0707278,250.261,1.02604,1.33228,-3.15583038330078,22.0009689331055,-2.5021739006042503,22.0,-40991.0,3353.33,pp-ro,1,1,-1,-1
1570538808.7,2019-10-08,14:46:48.700,15.0,12.0,21.1399993896484,17.4,-8.7,-4.3,51.0,19.7,-44.5,17.8617,-9.04172,-3.8903,7.467219999999999,3.33781,4.01729,47.696000000000005,20.8193,-46.1109,-0.0775443,-0.0940265,0.191504,254.7,6.9,52.1701,4.42719,0.6,1.26774,390.482,4.41804,170.15900000000002,67.2647,170.842,0.751128,-0.0821031999999999,250.331,1.05056,1.3525,-2.76326751708984,22.0009689331055,-2.29273867607117,22.0,-40390.3,5353.02,pp-ro,1,1,-1,-1
1570538808.8,2019-10-08,14:46:48.800,15.0,13.0,21.1800003051758,17.4,-9.3,-3.7,51.3,17.7,-44.6,18.4208,-9.33821,-3.68403,3.84226,-5.60521,1.7135,47.7635,17.9247,-46.456,0.14902,-0.195938,0.222623,254.7,6.9,52.1701,4.42719,0.6,1.3165,414.205,4.41794,169.225,68.7847,171.142,0.752827,-0.091624,250.316,1.07957,1.36427,-2.52090454101562,22.0009689331055,-2.2763237953186004,22.0,-40005.9,3076.45,pp-ro,1,1,-1,-1
1570538808.9,2019-10-08,14:46:48.900,15.0,12.0,21.090000152587898,17.3,-9.3,-3.5,51.5,15.9,-44.7,18.4208,-9.33821,-3.68403,3.84226,-5.60521,1.7135,47.7635,17.9247,-46.456,0.14902,-0.195938,0.222623,254.7,6.9,52.1701,4.42719,0.4,1.32426,415.784,4.41784,168.232,70.3047,171.442,0.754628,-0.101299,250.274,1.10643,1.37593,-2.27854919433594,22.0019989013672,-2.28347754478455,22.0,-39727.0,5106.9,pp-ro,1,1,-1,-1
1570538809.0,2019-10-08,14:46:49.000,15.0,12.0,21.1399993896484,17.2,-9.0,-2.9,51.4,14.4,-44.5,18.2219,-9.63727,-2.87771,-7.55254,3.6844,2.0552200000000003,48.5523,14.3166,-46.7333,0.386259,0.0479205999999999,0.3951119999999999,254.7,6.9,52.1701,4.42719,0.4,1.30819,396.856,4.41774,167.268,72.2047,171.642,0.755605,-0.112863,250.306,1.13497,1.41188,-2.2478256225585898,22.0019989013672,-1.75465965270996,22.0,-39147.9,6583.6,pp-ro,1,1,-1,-1
1570538809.1,2019-10-08,14:46:49.100,15.0,13.0,21.2600002288818,17.6,-8.7,-2.4,51.8,13.4,-44.7,18.3172,-9.37798,-2.33269,5.64836,1.15776,0.8677309999999999,49.4478,13.1331,-46.3325,0.0332060999999999,-0.059868,0.0353694,254.7,6.9,52.1701,4.42719,0.4,1.22009,353.51199999999994,4.41765,166.362,73.7247,171.74200000000002,0.7565,-0.122406,250.21400000000003,1.15123,1.45355,-2.2478256225585898,22.0019989013672,-1.09443366527557,22.0,-37997.3,6675.89,pp-ro,1,1,-1,-1
1570538809.2,2019-10-08,14:46:49.200,15.0,9.0,21.510000228881804,17.0,-8.4,-1.7,51.2,11.8,-45.4,17.9359,-8.89989,-1.38487,-8.4841,6.96695,7.20136,50.3098,11.7605,-46.3663,0.0601656999999999,-0.156018,0.108455,254.7,6.9,52.1701,4.42719,0.4,1.20402,348.68300000000005,4.41755,165.457,75.6248,171.942,0.757207,-0.133872,250.318,1.16988,1.48506,-2.0617828369140603,22.0025119781494,-0.644515633583069,22.0,-37727.4,5106.91,pp-ro,1,1,-1,-1
1570538809.3,2019-10-08,14:46:49.300,15.0,10.0,21.4699993133545,16.7,-7.7,-1.6,51.9,12.4,-43.6,17.9359,-8.89989,-1.38487,-8.4841,6.96695,7.20136,50.3098,11.7605,-46.3663,0.0601656999999999,-0.156018,0.108455,250.4,7.2,52.1701,4.42719,0.4,1.20014,344.09,4.41744,164.581,77.5248,172.042,0.757484,-0.145325,250.391,1.19323,1.51327,-1.507080078125,22.0019989013672,-0.22279666364193,22.0,-37386.0,3107.21,pp-ro,1,1,-1,-1
1570538809.4,2019-10-08,14:46:49.400,15.0,10.0,21.4200000762939,16.8,-7.6,-1.5,53.1,12.9,-42.1,17.8045,-8.66278,-1.39188,4.91477,7.788460000000001,3.19175,50.345,11.6124,-46.0283,0.334793,0.158659,0.174713,250.4,7.2,52.1701,4.42719,0.4,1.17465,314.462,4.41734,163.792,79.0448,172.142,0.757933,-0.154572,250.417,1.21216,1.52877,-0.80389404296875,22.0009689331055,-0.057888731360436,22.0,-36844.0,6645.13,pp-ro,1,1,-1,-1
1570538809.5,2019-10-08,14:46:49.500,15.0,10.0,21.1399993896484,16.7,-7.6,-1.1,53.3,12.2,-41.8,17.641,-8.151689999999999,-1.09776,7.091019999999999,-5.365880000000001,3.21491,51.3995,12.3208,-44.108,-0.142691,-0.2261179999999999,0.132685,250.4,7.2,52.1701,4.42719,0.4,1.10983,303.638,4.41723,163.033,80.5648,172.342,0.758555,-0.1638069999999999,250.544,1.23087,1.54921,-0.343063354492188,22.0009689331055,0.178647592663765,22.0,-36211.5,4891.55,pp-ro,1,1,-1,-1
1570538809.6,2019-10-08,14:46:49.600,15.0,12.0,21.1000003814697,16.8,-7.6,-0.9,53.1,11.4,-41.8,17.6052,-8.09265,-0.7778649999999999,-2.42774,1.20626,1.34845,51.0581,11.6589,-43.885,-0.00361814,0.246473,0.168802,250.4,7.2,52.1701,4.42719,0.4,1.20236,347.314,4.41712,162.244,82.4649,172.342,0.758153,-0.174979,250.65,1.24856,1.56657,-0.015357971191406,22.0009689331055,0.4493459761142729,22.0,-36332.5,-738.3480000000001,pp-ro,1,1,-1,-1
1570538809.7,2019-10-08,14:46:49.700,15.0,11.0,20.7999992370605,16.9,-8.0,-0.9,53.8,10.9,-40.6,17.6509,-8.03872,-0.766261,-0.911457,-4.76698,6.6129,51.6252,10.7535,-43.4323,0.273027,0.229877,0.0416362,250.4,7.2,52.1701,4.42719,0.4,1.2173200000000002,359.25699999999995,4.417009999999999,161.42600000000002,83.9849,172.442,0.7585310000000001,-0.184354,250.695,1.2759,1.56172,0.1038894653320309,22.0009689331055,-35.0,22.0,-35917.3,4460.85,pp-ro,1,1,-1,-1
1570538809.8,2019-10-08,14:46:49.800,15.0,13.0,20.7600002288818,17.3,-8.2,-0.7,53.5,10.5,-40.1,17.6961,-8.313830000000001,-0.6809109999999999,-2.04778,-9.75775,0.81803,51.4174,10.7753,-43.006,0.346366,0.280889,0.2258659999999999,250.4,7.2,52.1701,4.42719,0.4,1.2212,362.066,4.4169,160.608,85.8849,172.542,0.758373,-0.195574,250.883,1.29475,1.57756,0.4206771850585939,22.0009689331055,-35.0,22.0,-35755.5,3199.51,pp-ro,1,1,-1,-1
1570538809.9,2019-10-08,14:46:49.900,15.0,13.0,20.8899993896484,17.3,-8.8,-0.6,53.4,9.0,-40.8,17.9496,-8.93845,-0.457784,1.62861,-5.26055,3.4167,50.8901,9.08325,-42.7603,-0.0098123,-0.0956258999999999,0.00535533,250.4,7.2,52.1701,4.42719,0.3,1.23948,371.339,4.4168,159.703,87.7849,172.642,0.758362,-0.207003,251.031,1.31289,1.57038,0.378097534179688,22.0009689331055,-35.0,22.0,-35423.1,3537.92,pp-ro,1,1,-1,-1
1570538810.0,2019-10-08,14:46:50.000,15.0,12.0,20.9300003051758,17.1,-8.9,-0.2,53.0,7.9,-41.6,17.9647,-9.28325,-0.121609,-0.4836819999999999,3.06231,-1.02086,50.6579,7.70718,-43.2383,-0.246141,-0.366854,0.22063,250.4,7.2,52.1701,4.42719,0.3,1.25112,372.252,4.41669,158.827,89.6849,172.642,0.757926,-0.2183389999999999,251.147,1.32483,1.58674,-0.039253234863281,22.0009689331055,-35.0,22.0,-34856.2,4337.79,pp-ro,1,1,-1,-1
1570538810.1,2019-10-08,14:46:50.100,15.0,11.0,20.9699993133545,16.8,-8.4,0.1,53.1,6.7,-41.9,17.7915,-9.11016,0.0441101999999999,-9.67457,3.38802,3.66676,50.9655,7.06608,-43.1188,0.0496376,0.101158,0.115881,250.4,7.2,52.1701,4.42719,0.3,1.22951,350.806,4.41657,157.921,91.2049,172.642,0.758015,-0.2279219999999999,251.123,1.34287,1.616,-0.80218505859375,22.0009689331055,-35.0,22.0,-34260.4,6614.36,pp-ro,1,1,-1,-1
1570538810.2,2019-10-08,14:46:50.200,15.0,11.0,20.9300003051758,17.0,-7.9,0.5,53.3,6.4,-41.3,17.5001,-8.8953,0.272491,-4.41557,6.30734,3.43446,50.8983,6.824960000000001,-43.1341,-0.153425,-0.3108869999999999,0.0239511,250.4,7.2,52.1701,4.42719,0.3,1.16745,327.603,4.41647,157.07399999999998,93.105,172.642,0.75739,-0.239153,251.289,1.36185,1.65901,-1.92694854736328,22.0009689331055,-35.0,22.0,-33585.6,6245.19,pp-ro,1,1,-1,-1
1570538810.3,2019-10-08,14:46:50.300,15.0,10.0,20.7999992370605,16.8,-7.5,1.1,53.6,5.2,-41.8,17.5951,-8.24156,0.616392,2.11152,2.12744,9.28901,50.9072,6.51916,-43.3369,0.177897,0.352475,-0.0318906,245.8,6.4,52.1701,4.42719,0.3,1.15415,320.404,4.41636,156.315,94.625,172.643,0.7570359999999999,-0.24831,251.383,1.3772799999999998,1.6998,-3.42720794677734,22.0009689331055,-35.0,22.0,-33403.3,3414.86,pp-ro,1,1,-1,-1
1570538810.4,2019-10-08,14:46:50.400,15.0,10.0,20.7600002288818,16.8,-7.0,1.3,53.9,4.2,-40.2,17.3427,-7.89387,1.31029,-1.47964,9.479,5.4433,51.7699,5.60301,-42.6311,0.0444483,-0.123173,0.242856,245.8,6.4,52.1701,4.42719,0.3,1.12368,297.63,4.4162300000000005,155.584,96.525,172.543,0.755736,-0.259125,251.584,1.4169200000000002,1.73304,-5.29100799560547,22.0009689331055,-35.0,22.0,-32737.7,5599.14,pp-ro,1,1,-1,-1
1570538810.5,2019-10-08,14:46:50.500,15.0,11.0,20.7600002288818,16.9,-6.5,1.9,55.1,2.8,-38.7,17.3427,-7.89387,1.31029,-1.47964,9.479,5.4433,51.7699,5.60301,-42.6311,0.0444483,-0.123173,0.242856,245.8,6.4,52.1701,4.42719,0.3,1.09764,288.421,4.4161,154.85399999999998,98.045,172.44299999999998,0.754934,-0.2681449999999999,251.653,1.45904,1.78246,-7.39546203613281,22.0009689331055,-35.0,22.0,-32366.2,3199.51,pp-ro,1,1,-1,-1
1570538810.6,2019-10-08,14:46:50.600,15.0,10.0,20.7999992370605,17.7,-6.2,2.7,55.9,0.7,-38.0,16.9488,-6.50271,2.16008,-0.564095,0.686099,5.08369,52.7202,5.16341,-38.9058,0.0530818999999999,-0.276359,0.262156,245.8,6.4,52.1701,4.42719,0.3,1.11149,303.525,4.41593,154.21200000000002,99.9451,172.343,0.753329,-0.27858,251.937,1.50148,1.83832,-9.49649810791016,22.0009689331055,-35.0,22.0,-32140.6,1876.63,pp-ro,1,1,-1,-1
1570538810.7,2019-10-08,14:46:50.700,15.0,11.0,20.7600002288818,18.3,-5.6,3.9,56.5,-1.2,-36.2,17.9112,-6.11788,3.55864,4.52402,9.84448,10.2963,53.8855,1.87234,-36.7138,-0.000157156,0.126162,0.521175,245.8,6.4,52.1701,4.42719,0.3,1.12811,318.369,4.4158,153.569,101.465,172.043,0.75166,-0.287344,251.947,1.55336,1.91342,-11.6026611328125,22.0009689331055,-35.0,22.0,-32102.2,738.3480000000001,pp-ro,1,1,-1,-1
1570538810.8,2019-10-08,14:46:50.800,15.0,10.0,20.7199993133545,19.1,-5.0,5.3,57.9,-4.4,-34.6,18.1659,-5.31565,4.84092,8.06445,4.54389,14.5906,55.0132,-0.700222,-34.7201,0.277911,-0.0914191,0.610142,245.8,6.4,52.1701,4.42719,0.3,1.18906,347.62800000000004,4.41571,152.985,103.745,171.643,0.748383,-0.299229,252.247,1.62171,1.99302,-13.6917572021484,22.0009689331055,-35.0,22.0,-32114.9,92.2935,pp-ro,1,1,-1,-1
