time,date,time_of_day,airspeed_temperature,airspeed_angle_of_attack,airspeed_apparent_windspeed,kite_0_vx,kite_0_vy,kite_0_vz,kite_0_roll,kite_0_pitch,kite_0_yaw,kite_1_vx,kite_1_vy,kite_1_vz,kite_1_ax,kite_1_ay,kite_1_az,kite_1_roll,kite_1_pitch,kite_1_yaw,kite_1_roll_rate,kite_1_pitch_rate,kite_1_yaw_rate,ground_upwind_direction,ground_wind_velocity,ground_pos_latitude,ground_pos_longitude,ground_pos_altitude,ground_tether_reelout_speed,ground_tether_force,est_upwind_direction,kite_pos_east,kite_pos_north,kite_height,kite_elevation,kite_azimuth,kite_distance,kite_heading,kite_course,kite_actual_steering,kite_actual_depower,kite_set_steering,kite_set_depower,ground_mech_energy,ground_mech_power,flight_phase,flight_phase_index,phase,pattern,pattern_section
1570533772.3,2019-10-08,13:22:52.300,14.0,8.0,15.119999885559098,12.3,0.0,3.3,21.2,-5.9,-48.2,11.2042,0.218077,3.75074,7.8703,9.36651,0.765328,24.3569,8.06915,-50.1698,0.158112,0.1927299999999999,0.933102,248.2,6.8,52.1701,4.4272,4.8,-2.6989400000000003,99.1846,4.59894,50.8212,2.66036,234.009,1.35666,0.0610994,239.478,0.8094819999999999,1.67862,-34.903564453125,22.0143566131592,-35.0,22.0,-872611.0,-7475.77,pp-riro,4,0,-1,-1
1570533772.4,2019-10-08,13:22:52.400,14.0,8.0,14.8199996948242,13.0,1.1,3.7,22.7,-7.6,-43.0,12.1773,1.91596,4.259930000000001,5.0700400000000005,10.765,3.10761,26.7317,6.02067,-41.5148,0.0505648,0.144729,0.974314,248.2,6.8,52.1701,4.4272,4.8,-2.70558,99.4733,4.59884,50.8504,3.8004,233.80900000000003,1.35607,0.0388962,239.305,0.929198,1.78533,-34.970123291015604,22.0019989013672,-35.0,22.0,-873211.0,-5783.72,pp-riro,4,0,-1,-1
1570533772.5,2019-10-08,13:22:52.500,14.0,8.0,14.640000343322802,13.7,2.3,4.1,24.2,-9.6,-37.9,12.4621,2.43818,4.46071,5.96795,10.099,5.76564,27.6437,5.13181,-38.6464,0.3040219999999999,0.139091,1.03488,248.2,6.8,52.1701,4.42719,4.8,-2.70503,98.8536,4.59874,50.9672,4.94044,233.509,1.35492,0.0169650999999999,239.057,1.0481200000000002,1.88812,-34.973541259765604,21.9994239807129,-35.0,22.0,-873612.0,-7568.06,pp-riro,4,0,-1,-1
1570533772.6,2019-10-08,13:22:52.600,14.0,8.0,14.460000038147,14.2,3.5,4.4,25.3,-11.5,-32.9,12.8279,2.95178,4.68628,7.453360000000001,11.9583,4.58016,28.3391,4.159269999999999,-35.7406,0.201743,0.164381,0.975568,248.2,6.8,52.1701,4.42719,4.8,-2.72941,92.7652,4.59859,51.2008,6.840510000000001,233.209,1.35282,-0.0191155999999999,238.861,1.17944,1.99666,-34.973541259765604,21.9994239807129,-35.0,22.0,-874775.0,-8890.94,pp-riro,4,0,-1,-1
1570533772.7,2019-10-08,13:22:52.700,14.0,8.0,14.2799997329712,14.6,4.8,4.9,26.2,-13.3,-27.6,13.2919,4.16092,5.03988,1.99928,12.0061,3.62138,29.5301,2.14528,-30.0116,0.116065,0.137956,1.05924,248.2,6.8,52.1701,4.42719,4.8,-2.74271,91.1809,4.59854,51.6097,7.98056,232.909,1.35022,-0.0396162,238.692,1.29989,2.09281,-34.9923248291016,21.9994239807129,-35.0,22.0,-875394.0,-11813.6,pp-riro,4,0,-1,-1
1570533772.8,2019-10-08,13:22:52.800,14.0,8.0,14.210000038147,14.9,6.1,5.1,27.1,-15.1,-22.3,13.6455,5.38936,5.39918,3.87586,11.3587,4.29973,30.696,0.0845857,-24.244,0.176061,0.184894,1.0555,248.2,6.8,52.1701,4.42719,4.8,-2.78482,89.9725,4.5984300000000005,52.077,9.50062,232.509,1.34694,-0.0665388,238.459,1.42648,2.18628,-34.9923248291016,21.9994239807129,-35.0,22.0,-876733.0,-13198.0,pp-riro,4,0,-1,-1
1570533772.9,2019-10-08,13:22:52.900,14.0,8.0,14.210000038147,15.0,7.2,5.6,27.7,-17.2,-16.8,13.9016,7.1357,5.94603,-0.0859645,11.1411,2.9401200000000003,31.6155,-2.929,-15.879,0.108469,0.181395,1.03836,248.2,6.8,52.1701,4.42719,4.8,-2.83469,89.59899999999999,4.598330000000001,52.7196,11.0207,232.109,1.34279,-0.0920697,238.276,1.55593,2.27057,-34.9957275390625,21.9994239807129,-35.0,22.0,-878117.0,-14244.0,pp-riro,4,0,-1,-1
1570533773.0,2019-10-08,13:22:53.000,14.0,8.0,14.2700004577637,15.1,8.5,5.9,28.0,-19.1,-11.3,13.9016,7.1357,5.94603,-0.0859645,11.1411,2.9401200000000003,31.6155,-2.929,-15.879,0.108469,0.181395,1.03836,245.9,5.9,52.1701,4.42719,4.8,-2.91447,92.0308,4.59816,53.4205,12.1607,231.609,1.3385200000000002,-0.109689,238.0,1.6760400000000002,2.35026,-34.9991455078125,21.9994239807129,-35.0,22.0,-880149.0,-13351.8,pp-riro,4,0,-1,-1
1570533773.1,2019-10-08,13:22:53.100,14.0,8.0,14.2700004577637,15.1,9.7,6.3,28.0,-20.8,-5.7,13.9447,9.4896,6.58719,0.648921,10.5907,4.54708,31.7437,-7.03837,-4.04467,0.162117,0.268296,1.05576,245.9,5.9,52.1701,4.42719,4.8,-2.92722,92.9413,4.59799,54.2675,14.0608,231.109,1.33282,-0.139213,237.811,1.80777,2.4356,-34.9974365234375,21.9994239807129,-35.0,22.0,-880765.0,-11536.7,pp-riro,4,0,-1,-1
1570533773.2,2019-10-08,13:22:53.200,14.0,8.0,14.3999996185303,15.0,11.1,6.7,28.1,-22.8,0.2,13.8529,10.7166,6.93394,-0.1963359999999999,10.9605,4.60816,31.5973,-8.944180000000001,2.11297,0.0412653,0.287026,0.931078,245.9,5.9,52.1701,4.42719,4.8,-2.96046,94.386,4.59781,55.2898,15.5809,230.509,1.32657,-0.160192,237.558,1.9364,2.51948,-34.9991455078125,21.9994239807129,-35.0,22.0,-881925.0,-12244.3,pp-riro,4,0,-1,-1
1570533773.3,2019-10-08,13:22:53.300,14.0,8.0,14.5200004577637,14.7,12.4,7.2,27.6,-24.6,6.1,13.755999999999998,11.3051,7.10277,-2.2757,11.2711,1.96303,31.3841,-9.81044,5.17656,0.142352,0.256718,0.976581,245.9,5.9,52.1701,4.42719,4.8,-2.99038,95.6885,4.59764,56.4288,17.1009,229.909,1.31974,-0.179591,237.349,2.06118,2.60017,-35.0042724609375,21.9994239807129,-35.0,22.0,-882919.0,-9044.76,pp-riro,4,0,-1,-1
1570533773.4,2019-10-08,13:22:53.400,14.0,9.0,14.640000343322802,14.4,13.7,7.5,27.0,-26.2,12.1,13.4792,12.5016,7.44137,-3.3903,11.3831,4.31499,30.7451,-11.5005,11.356,-0.0337101999999999,0.2978099999999999,1.00055,245.9,5.9,52.1701,4.42719,4.8,-3.00867,100.848,4.59746,57.6847,18.621,229.209,1.31226,-0.197407,237.088,2.18367,2.67387,-35.0042724609375,21.9994239807129,-35.0,22.0,-883937.0,-9844.64,pp-riro,4,0,-1,-1
1570533773.5,2019-10-08,13:22:53.500,14.0,9.0,14.880000114440902,14.0,15.1,7.9,26.2,-27.1,18.4,13.4792,12.5016,7.44137,-3.3903,11.3831,4.31499,30.7451,-11.5005,11.356,-0.0337101999999999,0.2978099999999999,1.00055,245.9,5.9,52.1701,4.42719,4.7,-3.0059,108.87,4.59729,59.0575,20.1411,228.509,1.30423,-0.213657,236.875,2.30492,2.74897,-35.0042724609375,21.9994239807129,-35.0,22.0,-884355.0,-4060.91,pp-riro,4,0,-1,-1
1570533773.6,2019-10-08,13:22:53.600,14.0,9.0,15.1700000762939,13.5,16.4,8.4,25.3,-28.4,25.0,12.7535,14.8956,8.12396,-5.3429400000000005,11.8928,3.0818,28.8181,-14.3026,23.9442,0.154315,0.4129239999999999,1.09152,245.9,5.9,52.1701,4.42719,4.7,-2.96323,116.483,4.59711,60.6347,21.6611,227.80900000000003,1.29534,-0.227921,236.733,2.42913,2.81886,-35.0042724609375,21.9994239807129,-23.0,22.0,-884319.0,2799.57,pp-riro,4,0,-1,-1
1570533773.7,2019-10-08,13:22:53.700,14.0,10.0,15.3999996185303,12.8,17.8,8.9,24.5,-29.6,31.1,12.4671,15.5065,8.35181,-4.98529,10.3875,4.26205,28.217,-14.8451,27.1557,0.0627484,0.287354,1.06584,245.9,5.9,52.1701,4.42719,4.7,-2.87846,127.006,4.5969,62.2702,22.8012,226.909,1.28647,-0.235587,236.4,2.53741,2.88803,-35.0042724609375,21.9994239807129,-23.0,22.0,-883595.0,9137.05,pp-riro,4,0,-1,-1
1570533773.8,2019-10-08,13:22:53.800,14.0,10.0,15.6899995803833,12.0,19.1,9.4,23.1,-30.7,37.8,11.2909,17.7713,9.23681,-8.21424,11.5478,1.63192,25.2624,-17.0391,39.9529,0.156412,0.194212,1.08371,245.9,5.9,52.1701,4.42719,4.7,-2.75379,135.82399999999998,4.59676,64.0811,24.3213,226.109,1.27647,-0.247167,236.269,2.65652,2.95778,-34.790924072265604,21.9994239807129,-23.0,22.0,-882296.0,13505.6,pp-riro,4,0,-1,-1
1570533773.9,2019-10-08,13:22:53.900,14.0,10.0,15.9700002670288,11.2,20.3,9.7,22.1,-31.8,44.6,11.2909,17.7713,9.23681,-8.21424,11.5478,1.63192,25.2624,-17.0391,39.9529,0.156412,0.194212,1.08371,245.9,5.9,52.1701,4.42719,4.7,-2.4701,147.609,4.59659,65.9795,25.4613,225.209,1.26652,-0.252575,236.052,2.7698,3.01574,-34.186721801757805,21.9994239807129,-23.0,22.0,-879722.0,19227.8,pp-riro,4,0,-1,-1
1570533774.0,2019-10-08,13:22:54.000,14.0,10.0,16.3500003814697,10.2,21.5,10.2,20.6,-32.5,51.5,10.6183,18.9547,9.64971,-6.97272,10.9349,4.39295,23.8178,-18.128,46.4862,0.1111299999999999,0.318019,1.0819,244.1,6.3,52.1701,4.42719,4.7,-2.36926,152.076,4.596430000000001,68.0532,26.6014,224.209,1.25576,-0.256749,235.814,2.88102,3.07668,-33.2223968505859,21.9994239807129,-23.0,22.0,-878607.0,20396.9,pp-riro,4,0,-1,-1
1570533774.1,2019-10-08,13:22:54.100,14.0,11.0,16.620000839233402,9.0,22.6,10.6,18.7,-32.9,58.6,9.79894,20.0223,10.0381,-10.7761,10.7379,4.38249,21.9967,-19.1118,53.2179,0.20215,0.266006,1.03622,244.1,6.3,52.1701,4.42719,4.7,-2.10773,159.885,4.59626,70.2438,27.7415,223.208,1.24453,-0.260086,235.639,2.99273,3.13897,-31.9150085449219,21.9994239807129,-22.431495666503896,22.0,-876546.0,22642.7,pp-riro,4,0,-1,-1
1570533774.2,2019-10-08,13:22:54.200,14.0,10.0,16.879999160766598,7.6,23.4,10.8,16.9,-33.2,65.8,9.79894,20.0223,10.0381,-10.7761,10.7379,4.38249,21.9967,-19.1118,53.2179,0.20215,0.266006,1.03622,244.1,6.3,52.1701,4.42719,4.7,-1.67167,162.028,4.5961,72.5219,28.5015,222.108,1.23339,-0.258255,235.38,3.1003,3.19708,-30.242370605468803,21.9994239807129,-21.7061710357666,22.0,-873341.0,19658.5,pp-riro,4,0,-1,-1
1570533774.3,2019-10-08,13:22:54.300,14.0,10.0,17.0400009155273,6.2,24.1,10.8,15.0,-33.0,72.4,8.23345,21.4275,10.557,-14.0205,9.28359,3.33235,19.3498,-20.4894,63.1495,0.16308,0.212928,1.00558,244.1,6.3,52.1701,4.42719,4.7,-1.3885299999999998,160.369,4.595940000000001,74.8293,29.2616,221.108,1.22225,-0.256391,235.254,3.19805,3.25273,-28.243728637695305,21.9994239807129,-21.0408401489258,22.0,-871599.0,16551.3,pp-riro,4,0,-1,-1
1570533774.4,2019-10-08,13:22:54.400,14.0,9.0,17.2900009155273,5.5,24.7,10.9,12.9,-32.8,78.8,5.79502,22.876,10.7788,-13.3647,5.91752,1.07178,15.6164,-21.7329,75.7893,0.163898,0.209603,0.8846280000000001,244.1,6.3,52.1701,4.42719,4.7,-1.09431,159.998,4.59577,77.3119,30.0216,220.008,1.2103,-0.25386,235.122,3.2919400000000003,3.28064,-26.2211990356445,21.9994239807129,-20.9634056091309,22.0,-870250.0,12428.9,pp-riro,4,0,-1,-1
1570533774.5,2019-10-08,13:22:54.500,14.0,8.0,17.3899993896484,3.4,24.9,10.9,11.2,-32.1,84.8,5.79502,22.876,10.7788,-13.3647,5.91752,1.07178,15.6164,-21.7329,75.7893,0.163898,0.209603,0.8846280000000001,244.1,6.3,52.1701,4.4272,4.6,-0.958008,161.174,4.59561,79.7653,30.4017,219.008,1.19914,-0.247442,235.056,3.3771400000000003,3.3511,-24.4922332763672,21.9994239807129,-19.9140892028809,22.0,-869712.0,10829.1,pp-riro,4,0,-1,-1
1570533774.6,2019-10-08,13:22:54.600,14.0,8.0,17.4899997711182,2.8,25.1,10.8,9.6,-31.5,90.1,3.83303,23.4904,10.8115,-16.1558,1.39122,4.8964300000000005,13.0572,-22.2084,84.4856,-0.138038,0.209445,0.740237,244.1,6.3,52.1701,4.4272,4.6,-0.679305,163.93099999999998,4.59544,82.2187,31.1617,217.908,1.18728,-0.245419,234.979,3.45572,3.3722800000000004,-22.9834442138672,21.9994239807129,-20.0083465576172,22.0,-868844.0,7937.24,pp-riro,4,0,-1,-1
1570533774.7,2019-10-08,13:22:54.700,14.0,8.0,17.4400005340576,0.7,25.2,10.7,7.5,-31.4,95.5,2.53928,23.7065,10.6484,-11.3337,3.68905,-6.07557,11.3313,-22.1264,90.0135,-0.0265772,0.170567,0.8440049999999999,244.1,6.3,52.1701,4.4272,4.6,-0.369573,159.83700000000002,4.595280000000001,84.7013,31.1618,216.808,1.17634,-0.235506,234.843,3.5277800000000004,3.43981,-21.6538696289062,21.9994239807129,-18.9479808807373,22.0,-868295.0,4307.03,pp-riro,4,0,-1,-1
1570533774.8,2019-10-08,13:22:54.800,14.0,8.0,17.4899997711182,-0.3,25.1,10.4,6.1,-30.5,100.2,1.95221,23.7624,10.5939,-7.87696,-0.758998,-1.84223,10.6625,-21.9584,92.6788,0.193117,0.20058,0.899669,244.1,6.3,52.1701,4.4272,4.6,-0.104722,152.533,4.59512,87.1255,31.1618,215.808,1.16574,-0.226296,234.80900000000003,3.59247,3.4689300000000003,-21.1076965332031,21.9994239807129,-18.6709518432617,22.0,-868133.0,769.112,pp-riro,4,0,-1,-1
1570533774.9,2019-10-08,13:22:54.900,14.0,9.0,17.5400009155273,-0.9,25.1,10.2,5.3,-29.8,102.8,1.95221,23.7624,10.5939,-7.87696,-0.758998,-1.84223,10.6625,-21.9584,92.6788,0.193117,0.20058,0.899669,244.1,6.3,52.1701,4.4272,4.6,0.141291,146.834,4.59495,88.4398,31.1618,215.308,1.16006,-0.221412,234.841,3.62949,3.48747,-19.9846343994141,21.9994239807129,-18.4714298248291,22.0,-868216.0,-1322.87,pp-riro,4,0,-1,-1
1570533775.0,2019-10-08,13:22:55.000,14.0,8.0,17.5400009155273,-2.0,24.9,10.0,3.9,-28.8,107.3,0.169421,23.7602,10.0968,-12.9898,-2.3702,-2.35803,8.37534,-21.4811,99.8747,0.126823,0.314405,0.736754,260.6,6.9,52.1701,4.4272,4.6,0.295326,147.42,4.59482,91.0392,31.1619,214.208,1.1486,-0.2122639999999999,234.828,3.69242,3.52063,-19.2131805419922,21.9994239807129,-18.183658599853494,22.0,-868336.0,-184.587,pp-riro,4,0,-1,-1
1570533775.1,2019-10-08,13:22:55.100,14.0,9.0,17.4899997711182,-3.6,24.6,9.9,1.7,-27.3,113.4,-2.04089,23.5748,9.62237,-7.17875,-2.07126,1.03813,5.69624,-19.9497,108.554,0.181872,0.211181,0.529098,260.6,6.9,52.1701,4.4272,4.6,0.257094,165.266,4.59474,94.7778,30.4019,212.708,1.13313,-0.192792,234.844,3.77303,3.5628900000000003,-18.6738357543945,21.9994239807129,-17.7014179229736,22.0,-868257.0,-861.4060000000001,pp-riro,4,0,-1,-1
1570533775.2,2019-10-08,13:22:55.200,14.0,10.0,17.4899997711182,-4.1,24.5,10.0,0.8,-26.8,115.3,-2.04089,23.5748,9.62237,-7.17875,-2.07126,1.03813,5.69624,-19.9497,108.554,0.181872,0.211181,0.529098,260.6,6.9,52.1701,4.4272,4.6,0.301975,175.00400000000002,4.59465,95.9753,30.4019,212.208,1.12782,-0.189075,234.878,3.80055,3.5775900000000003,-18.2932281494141,21.9994239807129,-17.6130123138428,22.0,-868302.0,-799.877,pp-riro,4,0,-1,-1
1570533775.3,2019-10-08,13:22:55.300,14.0,10.0,17.4899997711182,-5.2,24.3,10.0,-0.9,-25.8,119.5,-4.0726,23.2263,9.54053,-11.1099,-2.93443,-0.339588,2.16379,-18.4556,116.816,-0.257573,0.101914,0.584357,260.6,6.9,52.1701,4.4272,4.6,0.319706,186.392,4.59457,98.5455,30.022,211.108,1.11681,-0.177941,234.903,3.8586,3.60854,-17.892135620117198,21.9994239807129,-17.3523197174072,22.0,-868229.0,1107.52,pp-riro,4,0,-1,-1
1570533775.4,2019-10-08,13:22:55.400,14.0,10.0,17.5799999237061,-6.2,24.2,9.9,-2.7,-24.9,123.3,-5.06369,23.1146,9.47649,-12.8986,-11.1366,3.48903,0.232515,-17.6248,120.689,-0.30132,0.178322,0.539671,260.6,6.9,52.1701,4.4272,4.6,0.326355,193.578,4.59449,100.97,29.642,210.108,1.10648,-0.167689,234.987,3.91123,3.63685,-17.6514739990234,21.9994239807129,-17.1464939117432,22.0,-868212.0,-61.529,pp-riro,4,0,-1,-1
1570533775.5,2019-10-08,13:22:55.500,14.0,11.0,17.6299991607666,-7.1,23.8,10.0,-4.7,-23.8,127.2,-6.55698,22.7708,9.4729,-7.56795,-2.17118,-1.7374900000000002,-3.43506,-16.487000000000002,126.206,-0.224338,0.154425,0.690519,260.6,6.9,52.1701,4.4272,4.6,0.351842,204.556,4.5944,103.365,28.882,209.008,1.09641,-0.154526,234.953,3.9644,3.65918,-17.3476715087891,21.9994239807129,-16.99485206604,22.0,-868175.0,676.819,pp-riro,4,0,-1,-1
1570533775.6,2019-10-08,13:22:55.600,14.0,11.0,17.729999542236303,-8.3,23.5,10.1,-6.8,-23.0,130.8,-7.13317,22.7269,9.47166,-8.80958,2.75359,-1.7819200000000002,-4.55965,-16.3591,128.01,-0.202903,0.189119,0.490307,260.6,6.9,52.1701,4.4272,4.6,0.375114,218.282,4.59432,105.847,28.122,207.908,1.08596,-0.141658,234.99,4.01165,3.691780000000001,-17.0660552978516,21.9994239807129,-16.6913623809814,22.0,-868122.0,307.645,pp-riro,4,0,-1,-1
1570533775.7,2019-10-08,13:22:55.700,14.0,11.0,17.8799991607666,-9.4,23.2,10.0,-8.6,-21.8,134.0,-7.64392,22.5751,9.49055,-8.03716,-3.47419,-4.40948,-5.63676,-16.0678,129.725,-0.0885738,0.104365,0.5851850000000001,260.6,6.9,52.1701,4.4272,4.6,0.382871,224.03,4.59424,108.242,27.3621,206.808,1.07577,-0.129487,235.021,4.05653,3.72307,-16.9124450683594,21.9994239807129,-16.4384078979492,22.0,-868091.0,615.29,pp-riro,4,0,-1,-1
1570533775.8,2019-10-08,13:22:55.800,14.0,12.0,18.0300006866455,-10.4,22.7,10.0,-10.7,-20.6,137.3,-7.64392,22.5751,9.49055,-8.03716,-3.47419,-4.40948,-5.63676,-16.0678,129.725,-0.0885738,0.104365,0.5851850000000001,260.6,6.9,52.1701,4.4272,4.6,0.399493,234.24400000000003,4.59415,110.579,26.2221,205.708,1.06607,-0.114597,235.013,4.101030000000001,3.74955,-16.6154632568359,21.9994239807129,-16.2133445739746,22.0,-868054.0,307.645,pp-riro,4,0,-1,-1
1570533775.9,2019-10-08,13:22:55.900,14.0,12.0,18.2199993133545,-11.5,22.2,10.1,-12.7,-20.2,140.5,-8.719710000000001,22.2549,9.46291,-9.50006,-0.590635,-0.165062,-7.92939,-15.0058,132.69299999999998,-0.165138,0.168829,0.556421,260.6,6.9,52.1701,4.4272,4.6,0.4216569999999999,248.245,4.594069999999999,112.828,25.0821,204.508,1.05638,-0.100468,234.91,4.13879,3.77904,-16.4959869384766,21.9994239807129,-15.9712743759155,22.0,-867993.0,676.819,pp-riro,4,0,-1,-1
1570533776.0,2019-10-08,13:22:56.000,14.0,12.0,18.409999847412102,-12.6,21.8,10.0,-14.0,-19.1,142.9,-10.3588,21.6527,9.61762,-4.73157,-5.17086,1.02131,-11.3304,-14.2123,137.49,-0.175674,0.0366941999999999,0.618441,253.9,7.0,52.1701,4.4272,4.6,0.470416,271.801,4.59393,115.048,24.3221,203.408,1.04663,-0.0899803,234.952,4.17331,3.81246,-16.2331466674805,21.9994239807129,-15.762481689453098,22.0,-867938.0,492.232,pp-riro,4,0,-1,-1
1570533776.1,2019-10-08,13:22:56.100,14.0,12.0,18.409999847412102,-13.5,21.1,10.1,-15.3,-18.2,145.7,-11.4855,21.2,9.59311,-14.0039,-7.27153,-2.19436,-13.4712,-13.6777,140.15,-0.423221,-0.0403098999999999,0.381333,253.9,7.0,52.1701,4.4272,4.6,0.478727,276.476,4.59385,117.297,22.4221,202.108,1.03711,-0.0703622,234.753,4.20472,3.83319,-15.9822463989258,21.9994239807129,-15.6286430358887,22.0,-867874.0,1169.05,pp-riro,4,0,-1,-1
1570533776.2,2019-10-08,13:22:56.200,14.0,11.0,18.840000152587898,-14.6,20.3,9.9,-16.9,-17.6,148.4,-13.0284,20.2228,9.66167,-7.51533,-5.216469999999999,-2.18686,-16.2241,-12.5425,144.01,-0.187026,-0.0687958,0.445581,253.9,7.0,52.1701,4.4272,4.6,0.483714,281.392,4.593719999999999,119.4,21.2821,201.008,1.02791,-0.0577856999999999,234.762,4.238169999999999,3.87182,-15.826934814453098,21.9994239807129,-15.2962484359741,22.0,-867769.0,1045.99,pp-riro,4,0,-1,-1
1570533776.3,2019-10-08,13:22:56.300,14.0,11.0,19.020000457763697,-15.5,19.7,9.7,-17.6,-16.4,150.5,-14.0584,19.554,9.46521,-6.96231,-11.6497,-2.08885,-17.6535,-12.4399,146.61,-0.291565,0.0711058,0.287509,253.9,7.0,52.1701,4.4272,4.6,0.496458,287.937,4.5936,121.415,20.1421,199.808,1.01872,-0.045672,234.671,4.26845,3.90174,-15.5538482666016,21.9994239807129,-15.1782236099243,22.0,-867659.0,1169.05,pp-riro,4,0,-1,-1
1570533776.4,2019-10-08,13:22:56.400,14.0,11.0,19.2000007629395,-16.2,18.8,9.6,-18.4,-15.8,153.1,-14.5095,19.2174,9.42573,-4.53794,-10.4082,1.60848,-18.463,-12.0143,147.747,-0.165649,0.0595629,0.575136,253.9,7.0,52.1701,4.4272,4.6,0.5064310000000001,293.87,4.5934800000000005,123.43,18.2421,198.708,1.01011,-0.0278832999999999,234.633,4.29628,3.925,-15.4104766845703,21.9994239807129,-15.0776958465576,22.0,-867552.0,1015.23,pp-riro,4,0,-1,-1
1570533776.5,2019-10-08,13:22:56.500,14.0,10.0,19.520000457763697,-16.8,18.0,9.3,-19.0,-15.2,155.8,-15.2838,18.3197,9.34412,-8.995280000000001,-13.0528,-4.65364,-19.3643,-10.97,150.17600000000002,-0.13543,0.0919286,0.393855,253.9,7.0,52.1701,4.4272,4.5,0.51308,296.92,4.59336,125.27,16.7221,197.608,1.0018,-0.0137347,234.566,4.3285800000000005,3.95024,-15.1783599853516,21.9994239807129,-15.0206565856934,22.0,-867348.0,1507.46,pp-riro,4,0,-1,-1
1570533776.6,2019-10-08,13:22:56.600,14.0,10.0,19.7900009155273,-17.6,17.3,9.0,-19.1,-14.0,157.7,-16.2741,17.1698,9.01261,-9.34635,-6.64601,-7.77199,-20.2903,-10.1709,153.954,-0.0162246,-0.0418388,0.291458,253.9,7.0,52.1701,4.4272,4.5,0.519729,301.303,4.59324,127.023,14.8221,196.508,0.993869,0.00292701,234.456,4.35279,3.97777,-15.0008544921875,21.9994239807129,35.0,22.0,-867223.0,1199.82,pp-riro,4,0,-1,-1
1570533776.7,2019-10-08,13:22:56.700,14.0,10.0,20.0100002288818,-18.2,16.3,8.8,-19.5,-13.1,160.1,-17.0365,16.347,8.86685,-13.0457,-12.192,-5.66907,-20.871,-9.68943,156.275,0.28414,-0.128646,0.406119,253.9,7.0,52.1701,4.4272,4.5,0.52527,304.217,4.59312,128.746,13.3021,195.508,0.986013,0.0162567,234.469,4.38438,4.0077300000000005,-14.994026184082,21.9994239807129,35.0,22.0,-867161.0,1261.34,pp-riro,4,0,-1,-1
1570533776.8,2019-10-08,13:22:56.800,14.0,10.0,20.229999542236303,-18.5,15.5,8.6,-19.6,-12.2,162.6,-17.0365,16.347,8.86685,-13.0457,-12.192,-5.66907,-20.871,-9.68943,156.275,0.28414,-0.128646,0.406119,253.9,7.0,52.1701,4.4272,4.5,0.666561,309.76,4.59299,130.32299999999998,11.4021,194.508,0.978715,0.0320653,234.409,4.41545,4.02393,-14.5878143310547,21.9994239807129,35.0,22.0,-867915.0,-16828.2,pp-riro,4,0,-1,-1
1570533776.9,2019-10-08,13:22:56.900,14.0,9.0,20.3600006103516,-18.9,14.8,8.1,-20.1,-11.4,165.4,-17.5975,15.4586,8.54538,1.40522,-1.7021,-3.88476,-21.415,-8.694510000000001,158.857,0.105429,0.0164113,0.650591,253.9,7.0,52.1701,4.4272,4.5,1.19682,300.656,4.59287,131.813,9.50204,193.608,0.97185,0.047492,234.412,4.45023,4.04677,-13.843658447265598,21.9994239807129,35.0,22.0,-870438.0,-26365.2,pp-riro,4,0,-1,-1
1570533777.0,2019-10-08,13:22:57.000,14.0,8.0,20.4400005340576,-18.8,14.2,7.3,-19.9,-9.8,167.3,-18.0832,14.0653,7.563510000000001,-4.87365,-4.75981,-10.6836,-21.7423,-6.51093,163.968,0.163216,0.00523578,0.4245859999999999,241.7,7.8,52.1701,4.4272,4.5,0.933629,252.127,4.59271,133.244,7.602019999999999,192.708,0.965084,0.0625882,234.41,4.48035,4.06086,-12.741081237793,21.9994239807129,35.0,22.0,-867983.0,8398.71,pp-riro,4,0,-1,-1
1570533777.1,2019-10-08,13:22:57.100,14.0,8.0,20.4400005340576,-18.7,13.3,7.2,-19.9,-8.4,169.1,-18.0832,14.0653,7.563510000000001,-4.87365,-4.75981,-10.6836,-21.7423,-6.51093,163.968,0.163216,0.00523578,0.4245859999999999,241.7,7.8,52.1701,4.4272,4.5,1.0112,256.212,4.59251,134.61700000000002,5.702000000000001,191.908,0.958665,0.0774443,234.484,4.507569999999999,4.07121,-12.0583724975586,21.9994239807129,35.0,22.0,-868645.0,-12398.1,pp-riro,4,0,-1,-1
1570533777.2,2019-10-08,13:22:57.200,14.0,9.0,20.3099994659424,-18.8,12.6,7.3,-20.3,-7.4,170.7,-18.0668,12.8477,7.19268,1.52107,-11.6019,1.23505,-21.8269,-5.50115,167.081,0.0293504,0.0515663,0.46438,241.7,7.8,52.1701,4.4272,4.5,1.11925,277.625,4.59232,135.90200000000002,3.80197,191.108,0.952456,0.0920046,234.533,4.52839,4.07874,-10.4369354248047,21.9994239807129,35.0,22.0,-868366.0,8675.59,pp-riro,4,0,-1,-1
1570533777.3,2019-10-08,13:22:57.300,14.0,9.0,20.2199993133545,-18.6,12.3,7.0,-20.6,-6.6,172.5,-18.0668,12.8477,7.19268,1.52107,-11.6019,1.23505,-21.8269,-5.50115,167.081,0.0293504,0.0515663,0.46438,241.7,7.8,52.1701,4.4272,4.5,1.04057,263.532,4.59212,137.07,2.28196,190.408,0.946788,0.103523,234.624,4.55259,4.07856,-8.44512939453125,21.9994239807129,35.0,22.0,-867917.0,92.2935,pp-riro,4,0,-1,-1
1570533777.4,2019-10-08,13:22:57.400,14.0,9.0,20.2199993133545,-18.7,12.0,6.9,-21.0,-5.6,173.5,-18.0668,12.8477,7.19268,1.52107,-11.6019,1.23505,-21.8269,-5.50115,167.081,0.0293504,0.0515663,0.46438,241.7,7.8,52.1701,4.4272,4.5,1.04445,263.413,4.59192,138.268,0.00192595,189.608,0.94072,0.120353,234.668,4.56331,4.07799,-6.344085693359379,21.9994239807129,35.0,22.0,-867440.0,5199.2,pp-riro,4,0,-1,-1
1570533777.5,2019-10-08,13:22:57.500,14.0,9.0,20.090000152587898,-18.9,11.7,7.2,-21.6,-4.8,174.0,-18.0786,11.8947,6.857889999999999,-1.39425,-3.4176900000000003,-6.40388,-22.3811,-4.4718800000000005,171.017,0.0674013,-0.176049,0.2095159999999999,241.7,7.8,52.1701,4.4272,4.5,1.06162,267.047,4.59169,139.465,-1.51809,188.908,0.934815,0.131448,234.817,4.56973,4.07659,-4.23792266845703,21.9994239807129,35.0,22.0,-867429.0,-399.9380000000001,pp-riro,4,0,-1,-1
1570533777.6,2019-10-08,13:22:57.600,14.0,9.0,19.7800006866455,-18.7,11.6,7.4,-22.4,-5.2,174.9,-18.5104,11.5972,6.945930000000001,-1.18367,-1.14996,3.16903,-23.5514,-3.65026,172.554,0.064626,0.0282255,0.195267,241.7,7.8,52.1701,4.4272,4.5,1.07492,267.558,4.5915300000000006,140.575,-3.79812,188.108,0.928842,0.147809,234.862,4.56525,4.057230000000001,-2.12834930419922,21.9994239807129,35.0,22.0,-867298.0,2461.16,pp-riro,4,0,-1,-1
1570533777.7,2019-10-08,13:22:57.700,14.0,9.0,19.6499996185303,-18.6,11.8,7.5,-23.5,-5.1,174.5,-18.6281,11.5968,7.304539999999999,-1.26359,-1.6688599999999998,-0.269436,-25.2214,-5.13662,173.873,-0.180229,-0.105369,-0.155465,241.7,7.8,52.1701,4.4272,4.5,1.05664,265.881,4.59133,141.685,-5.31813,187.308,0.922854,0.158475,234.919,4.55233,4.03868,-0.025604248046875,21.9994239807129,35.0,22.0,-866937.0,3076.45,pp-riro,4,0,-1,-1
1570533777.8,2019-10-08,13:22:57.800,14.0,10.0,19.5599994659424,-18.6,11.8,8.1,-24.6,-5.5,173.7,-18.7118,11.8152,7.813439999999999,-2.529,-0.533424,3.23758,-26.5128,-5.93233,173.472,-0.172873,-0.0847096,-0.237373,241.7,7.8,52.1701,4.4272,4.5,1.05996,265.158,4.5911,142.82399999999998,-7.21815,186.508,0.916655,0.17165,235.023,4.52676,4.01627,2.08123779296875,21.9994239807129,35.0,22.0,-866741.0,2122.75,pp-riro,4,0,-1,-1
1570533777.9,2019-10-08,13:22:57.900,14.0,10.0,19.3700008392334,-18.3,12.1,8.8,-25.8,-6.7,173.0,-18.7118,11.8152,7.813439999999999,-2.529,-0.533424,3.23758,-26.5128,-5.93233,173.472,-0.172873,-0.0847096,-0.237373,241.7,7.8,52.1701,4.4272,4.5,1.05941,266.889,4.59094,143.934,-9.49819,185.608,0.910136,0.187282,235.069,4.49236,3.9743,4.18121337890625,21.9994239807129,35.0,22.0,-866476.0,2399.63,pp-riro,4,0,-1,-1
1570533778.0,2019-10-08,13:22:58.000,14.0,11.0,19.2399997711182,-18.0,12.7,9.6,-27.3,-8.4,171.7,-18.7118,11.8152,7.813439999999999,-2.529,-0.533424,3.23758,-26.5128,-5.93233,173.472,-0.172873,-0.0847096,-0.237373,237.3,7.6,52.1701,4.4272,4.5,1.06218,267.653,4.59077,145.161,-11.0182,184.607,0.903055,0.197286,235.102,4.44885,3.92785,5.76513671875,21.9994239807129,35.0,22.0,-866094.0,3014.92,pp-riro,4,0,-1,-1
1570533778.1,2019-10-08,13:22:58.100,14.0,10.0,19.1900005340576,-17.7,13.1,10.4,-28.3,-10.4,169.9,-18.4858,12.9688,9.71704,0.880551,5.37646,10.884,-29.6927,-10.5485,171.273,-0.194699,-0.203564,-0.303794,237.3,7.6,52.1701,4.4272,4.5,1.05996,268.66200000000003,4.59059,146.358,-12.5382,183.507,0.895761,0.207168,235.06,4.39556,3.88772,8.40500640869141,21.9994239807129,35.0,22.0,-865978.0,2307.34,pp-riro,4,0,-1,-1
1570533778.2,2019-10-08,13:22:58.200,14.0,11.0,19.1399993896484,-17.1,13.7,11.4,-29.3,-12.9,167.7,-18.4858,12.9688,9.71704,0.880551,5.37646,10.884,-29.6927,-10.5485,171.273,-0.194699,-0.203564,-0.303794,237.3,7.6,52.1701,4.4272,4.5,1.07215,272.041,4.590409999999999,147.644,-14.8182,182.407,0.8878879999999999,0.2219199999999999,235.14,4.32799,3.8281,10.5100936889648,21.9994239807129,35.0,22.0,-865784.0,2122.75,pp-riro,4,0,-1,-1
1570533778.3,2019-10-08,13:22:58.300,14.0,11.0,19.1399993896484,-16.3,14.4,12.2,-29.9,-15.9,164.7,-18.4196,13.2472,10.2052,0.0914831,3.33265,8.08489,-30.3138,-11.8894,170.455,-0.292505,-0.356353,-0.556621,237.3,7.6,52.1701,4.4272,4.5,1.07215,274.387,4.59023,148.987,-16.7182,181.207,0.879598,0.233817,235.187,4.24707,3.76712,12.6117706298828,21.9994239807129,35.0,22.0,-865390.0,2368.87,pp-riro,4,0,-1,-1
1570533778.4,2019-10-08,13:22:58.400,14.0,11.0,19.1399993896484,-15.4,15.2,13.2,-30.2,-18.9,160.9,-17.9987,13.8774,11.3044,6.973610000000001,7.670610000000001,13.8396,-31.576,-15.3919,168.821,-0.293172,-0.317692,-0.704883,237.3,7.6,52.1701,4.4272,4.5,1.07492,274.05400000000003,4.59005,150.389,-17.8582,179.907,0.8710829999999999,0.240446,235.165,4.16024,3.7036,14.723663330078098,21.9994239807129,35.0,22.0,-865282.0,2122.75,pp-riro,4,0,-1,-1
1570533778.5,2019-10-08,13:22:58.500,14.0,10.0,19.1000003814697,-14.1,16.0,14.2,-29.8,-22.2,157.1,-17.3984,14.6903,12.3448,5.115,7.26541,10.8607,-32.4782,-18.7116,166.127,-0.441609,-0.224466,-0.771912,237.3,7.6,52.1701,4.4272,4.5,1.07658,275.093,4.58986,151.85,-19.3782,178.607,0.8622049999999999,0.249363,235.233,4.069780000000001,3.62751,16.830451965332,21.9994239807129,35.0,22.0,-864995.0,3045.68,pp-riro,4,0,-1,-1
1570533778.6,2019-10-08,13:22:58.600,14.0,10.0,19.1399993896484,-12.6,16.9,15.2,-28.9,-26.2,152.1,-16.9718,15.1698,12.9249,7.118519999999999,14.4043,11.1254,-32.8053,-20.513,164.549,-0.380469,-0.393547,-0.663788,237.3,7.6,52.1701,4.4272,4.5,1.08434,278.802,4.58968,153.45600000000002,-20.8982,177.207,0.852554,0.257967,235.346,3.95861,3.54525,18.9508590698242,21.9994239807129,35.0,22.0,-864692.0,1692.05,pp-riro,4,0,-1,-1
1570533778.7,2019-10-08,13:22:58.700,14.0,10.0,19.1399993896484,-11.0,17.6,16.0,-27.0,-29.4,146.1,-13.8891,17.6438,15.8348,15.572,12.2213,5.68323,-32.1676,-31.1423,154.835,-0.176405,-0.327326,-0.856562,237.3,7.6,52.1701,4.4272,4.5,1.08434,279.448,4.5895,155.121,-22.0382,175.707,0.842585,0.263997,235.417,3.84619,3.46861,21.0627593994141,21.9994239807129,35.0,22.0,-864380.0,3261.04,pp-riro,4,0,-1,-1
1570533778.8,2019-10-08,13:22:58.800,14.0,10.0,19.1399993896484,-9.1,18.4,16.8,-24.6,-33.1,139.4,-12.195,18.5767,16.8219,22.7621,14.0055,16.4925,-30.7947,-35.2477,149.746,-0.0879172,-0.108101,-0.915945,237.3,7.6,52.1701,4.4272,4.5,1.08101,280.57,4.58932,156.844,-22.7981,174.107,0.832312,0.267322,235.442,3.725330000000001,3.38376,23.1712493896484,21.9994239807129,35.0,22.0,-864239.0,2830.33,pp-riro,4,0,-1,-1
1570533778.9,2019-10-08,13:22:58.900,14.0,11.0,19.1399993896484,-7.0,19.3,17.9,-20.7,-36.3,131.4,-10.1777,19.5881,17.8036,12.357,12.4007,5.25535,-28.1217,-39.3768,142.713,-0.269885,-0.452978,-1.30912,237.3,7.6,52.1701,4.4272,4.5,1.10207,293.372,4.58914,158.713,-23.9381,172.407,0.821124,0.272857,235.557,3.5938800000000004,3.29063,25.2797393798828,21.9994239807129,35.0,22.0,-863959.0,1692.05,pp-riro,4,0,-1,-1
1570533779.0,2019-10-08,13:22:59.000,14.0,11.0,19.1800003051758,-4.7,19.7,18.6,-15.9,-39.2,122.6,-9.16201,20.2027,18.4834,24.9769,10.241,15.2905,-26.6791,-41.5663,139.222,-0.0177238,-0.0990409,-1.1719,247.6,5.7,52.1701,4.4272,4.5,1.1126,299.388,4.58904,160.553,-24.6981,170.80700000000002,0.810495,0.275949,235.717,3.46052,3.2016400000000003,27.3780136108398,21.9994239807129,35.0,22.0,-863842.0,2122.75,pp-riro,4,0,-1,-1
1570533779.1,2019-10-08,13:22:59.100,14.0,12.0,19.1800003051758,-2.1,20.2,19.1,-10.2,-41.3,112.9,-5.26416,21.2998,19.8109,33.0102,10.8771,9.35133,-20.3094,-47.6994,126.394,-0.144486,-0.164424,-1.14211,247.6,5.7,52.1701,4.4272,4.5,1.1331,309.119,4.58896,162.452,-25.078000000000003,169.007,0.799288,0.276553,235.76,3.32608,3.10548,28.9721527099609,21.9994239807129,35.0,22.0,-863490.0,2368.87,pp-riro,4,0,-1,-1
1570533779.2,2019-10-08,13:22:59.200,14.0,13.0,19.2199993133545,0.5,20.3,19.5,-2.7,-42.6,101.5,-5.26416,21.2998,19.8109,33.0102,10.8771,9.35133,-20.3094,-47.6994,126.394,-0.144486,-0.164424,-1.14211,247.6,5.7,52.1701,4.4272,4.5,1.13864,311.685,4.58889,164.52599999999998,-25.0779,167.207,0.78774,0.274725,235.915,3.17801,3.01504,31.2713928222656,21.9994239807129,23.0,22.0,-863334.0,2830.33,pp-riro,4,0,-1,-1
1570533779.3,2019-10-08,13:22:59.300,14.0,13.0,19.3099994659424,3.3,20.1,19.8,4.4,-43.3,90.1,-5.26416,21.2998,19.8109,33.0102,10.8771,9.35133,-20.3094,-47.6994,126.394,-0.144486,-0.164424,-1.14211,247.6,5.7,52.1701,4.4272,4.5,1.1513799999999998,321.526,4.58881,166.424,-25.0779,165.30700000000002,0.776419,0.273099,235.907,3.0341400000000003,2.91946,32.717361450195305,21.9994239807129,23.0,22.0,-862950.0,1968.93,pp-ro,1,1,-1,-1
1570533779.4,2019-10-08,13:22:59.400,14.0,12.0,19.2199993133545,5.8,19.5,19.4,12.0,-43.0,78.4,0.54901,22.0984,20.8101,29.3061,-1.21315,5.65742,-5.16831,-53.4709,102.131,-0.114494,-0.0323255999999999,-1.21824,247.6,5.7,52.1701,4.4272,4.5,1.1574799999999998,315.4,4.5887400000000005,168.38099999999997,-24.6978,163.407,0.7650899999999999,0.269251,235.932,2.88939,2.83185,33.5638122558594,21.9994239807129,23.0,22.0,-862626.0,4060.91,pp-ro,1,1,-1,-1
1570533779.5,2019-10-08,13:22:59.500,14.0,12.0,19.2199993133545,7.0,19.0,18.9,16.2,-42.2,72.7,3.71992,21.9338,21.0754,35.4726,5.208080000000001,-2.27186,4.14578,-54.5099,88.3345,-0.442339,-0.402338,-1.35945,247.6,5.7,52.1701,4.42721,4.5,1.14363,309.58,4.58867,170.308,-24.6977,162.507,0.7567659999999999,0.267744,236.693,2.81626,2.78557,34.541427612304695,21.9994239807129,23.0,22.0,-862351.0,5199.2,pp-ro,1,1,-1,-1
1570533779.6,2019-10-08,13:22:59.600,14.0,11.0,19.1200008392334,9.0,18.3,17.9,22.5,-39.7,62.3,7.83016,20.7887,19.8006,27.3029,-14.5556,-10.921,19.779,-52.724,66.5738,-0.585659,-0.1269799999999999,-1.4495,247.6,5.7,52.1701,4.42721,4.5,1.11869,301.15,4.58859,171.21400000000003,-23.9376,160.707,0.748925,0.262671,236.038,2.67634,2.70608,34.861618041992195,21.9994239807129,23.0,22.0,-861971.0,3414.86,pp-ro,1,1,-1,-1
1570533779.7,2019-10-08,13:22:59.700,14.0,10.0,19.2600002288818,11.2,17.4,17.2,28.5,-35.9,52.4,11.6436,19.5659,18.202,27.9776,-20.2219,-7.24885,30.0415,-46.5423,48.8466,-0.309171,0.169444,-1.15718,247.6,5.7,52.1701,4.42721,4.5,1.1259,305.357,4.58852,172.96599999999998,-22.7975,159.007,0.739084,0.254882,236.051,2.5301,2.62126,34.9672241210938,21.9994239807129,23.0,22.0,-861705.0,2830.33,pp-ro,1,1,-1,-1
1570533779.8,2019-10-08,13:22:59.800,14.0,13.0,19.479999542236303,13.2,15.9,16.1,33.6,-31.9,43.1,11.6436,19.5659,18.202,27.9776,-20.2219,-7.24885,30.0415,-46.5423,48.8466,-0.309171,0.169444,-1.15718,247.6,5.7,52.1701,4.42721,4.5,1.13476,311.204,4.58844,174.68900000000002,-21.6575,157.407,0.729613,0.247256,236.14,2.3846700000000003,2.5293,34.744110107421896,21.9994239807129,23.0,22.0,-861455.0,2307.34,pp-ro,1,1,-1,-1
1570533779.9,2019-10-08,13:22:59.900,14.0,13.0,19.5699996948242,14.7,14.7,14.3,37.5,-27.4,35.2,14.0304,17.9913,16.979,18.5297,-13.0591,-19.0101,36.0813,-42.6951,38.3297,0.353707,0.0108168999999999,-1.4925700000000002,247.6,5.7,52.1701,4.42721,4.5,1.1403,307.704,4.588369999999999,176.237,-20.5174,155.907,0.7209260000000001,0.23988,236.194,2.24713,2.43916,34.1241607666016,21.9994239807129,22.9091796875,22.0,-861148.0,3722.5,pp-ro,1,1,-1,-1
1570533780.0,2019-10-08,13:23:00.000,14.0,14.0,19.340000152587898,17.1,13.1,12.6,41.5,-20.2,25.7,16.78,15.8984,14.203,14.8446,-14.1916,-13.4899,40.8306,-34.261,26.2824,-0.00252872,0.378096,-1.252,262.8,4.7,52.1701,4.42721,4.5,1.1259,305.863,4.58832,178.36900000000003,-18.2372,154.107,0.7099810000000001,0.225964,236.426,2.05983,2.31573,33.1397399902344,21.9994239807129,20.7979373931885,22.0,-860755.0,3691.74,pp-ro,1,1,-1,-1
1570533780.1,2019-10-08,13:23:00.100,14.0,15.0,19.340000152587898,17.7,12.6,12.0,42.8,-18.0,22.6,17.6174,15.2565,13.6289,25.093000000000004,-22.6656,-15.4031,41.8694,-31.27,22.899,-0.4415449999999999,0.201523,-1.0693,262.8,4.7,52.1701,4.42721,4.5,1.13698,318.847,4.5883,179.041,-17.4772,153.507,0.7064229999999999,0.221386,236.486,1.99966,2.27952,31.7874450683594,21.9994239807129,20.1935214996338,22.0,-860573.0,1353.64,pp-ro,1,1,-1,-1
1570533780.2,2019-10-08,13:23:00.200,14.0,15.0,19.340000152587898,18.9,11.2,10.6,44.8,-13.2,16.3,18.5599,14.6057,12.9614,14.3,-16.6226,-12.7096,42.8664,-28.7061,19.5883,-0.189226,0.03376,-1.18262,262.8,4.7,52.1701,4.42721,4.5,1.17964,334.397,4.58829,180.268,-15.5771,152.507,0.700335,0.210286,236.638,1.87361,2.19469,29.61083984375,21.9994239807129,18.6957225799561,22.0,-860446.0,1845.87,pp-ro,1,1,-1,-1
1570533780.3,2019-10-08,13:23:00.300,14.0,14.0,19.3799991607666,19.8,9.7,8.7,46.3,-8.5,11.2,21.236,11.4691,9.48578,3.62818,-12.2214,-16.8955,45.4983,-18.3061,6.98548,0.0913702,0.323357,-1.16973,262.8,4.7,52.1701,4.42721,4.5,1.17022,328.228,4.58828,181.436,-13.677,151.607,0.694677,0.199339,236.835,1.76145,2.09815,28.062683105468803,21.9994239807129,16.9568920135498,22.0,-859829.0,4153.21,pp-ro,1,1,-1,-1
1570533780.4,2019-10-08,13:23:00.400,14.0,14.0,19.520000457763697,20.4,8.4,7.0,47.6,-4.5,6.4,21.9456,9.68651,7.437819999999999,0.0364122,-16.4179,-11.8929,46.1811,-12.6927,2.27184,0.322988,0.303134,-1.08034,262.8,4.7,52.1701,4.42721,4.5,1.1630200000000002,322.926,4.58827,182.429,-11.7769,150.907,0.690092,0.188576,237.048,1.6614,2.01312,25.4347229003906,21.9994239807129,15.4146537780762,22.0,-859441.0,4122.44,pp-ro,1,1,-1,-1
1570533780.5,2019-10-08,13:23:00.500,14.0,13.0,19.6000003814697,20.7,7.2,5.5,48.5,-0.7,2.4,21.9456,9.68651,7.437819999999999,0.0364122,-16.4179,-11.8929,46.1811,-12.6927,2.27184,0.322988,0.303134,-1.08034,262.8,4.7,52.1701,4.42721,4.6,1.15637,320.757,4.58826,183.305,-9.87684,150.30700000000002,0.686096,0.177949,237.256,1.57268,1.9382,23.3262329101562,21.9994239807129,14.0592012405396,22.0,-859255.0,3784.03,pp-ro,1,1,-1,-1
1570533780.6,2019-10-08,13:23:00.600,14.0,13.0,19.6000003814697,20.9,6.0,4.0,49.2,3.0,-1.1,22.409,6.7512300000000005,3.94809,-3.92105,-15.6213,-19.3066,47.2085,-2.77201,-5.30396,0.0931809,0.203526,-0.972845,262.8,4.7,52.1701,4.42721,4.6,1.15027,316.36400000000003,4.58825,184.064,-7.596760000000001,149.80700000000002,0.682732,0.165378,237.443,1.49204,1.86238,21.2177429199219,21.9994239807129,12.6650609970093,22.0,-858918.0,3168.74,pp-ro,1,1,-1,-1
1570533780.7,2019-10-08,13:23:00.700,14.0,13.0,19.5100002288818,20.9,5.0,2.7,50.0,6.3,-4.4,22.3048,5.5357400000000005,2.42143,3.6926,-6.922219999999999,-18.3763,47.5095,1.53358,-8.75248,-0.156053,0.159421,-0.787404,262.8,4.7,52.1701,4.42721,4.6,1.14695,317.03,4.58825,184.707,-5.31669,149.407,0.679933,0.152915,237.628,1.4190200000000002,1.79803,19.1569442749023,21.9994239807129,11.485634803772,22.0,-858543.0,3845.56,pp-ro,1,1,-1,-1
1570533780.8,2019-10-08,13:23:00.800,14.0,13.0,19.5100002288818,20.9,3.9,1.6,50.3,9.6,-7.6,22.3048,5.5357400000000005,2.42143,3.6926,-6.922219999999999,-18.3763,47.5095,1.53358,-8.75248,-0.156053,0.159421,-0.787404,262.8,4.7,52.1701,4.42721,4.6,1.15194,326.76,4.58823,185.261,-3.79663,149.207,0.677913,0.14464,237.905,1.34464,1.73256,17.1438293457031,21.9994239807129,10.2597827911377,22.0,-858320.0,1568.99,pp-ro,1,1,-1,-1
1570533780.9,2019-10-08,13:23:00.900,14.0,13.0,19.5100002288818,20.9,2.8,0.4,50.7,12.5,-10.3,22.0916,3.68725,0.4203409999999999,-5.97146,-11.8737,-17.0288,47.7097,7.554180000000001,-13.0394,-0.142353,0.0642884,-0.849308,262.8,4.7,52.1701,4.42721,4.6,1.1874,337.017,4.58822,185.729,-1.51656,149.007,0.676114,0.132324,238.11900000000003,1.2839,1.66408,15.2840042114258,21.9994239807129,8.96877956390381,22.0,-858107.0,3137.98,pp-ro,1,1,-1,-1
1570533781.0,2019-10-08,13:23:01.000,14.0,13.0,19.5100002288818,20.8,1.8,-0.6,50.9,14.9,-13.2,22.0162,2.39345,-0.80975,-6.36635,-9.50212,-14.4474,47.6927,11.0694,-15.7546,0.181315,-0.0694915,-0.713182,250.6,5.0,52.1701,4.42721,4.6,1.1840700000000002,342.17,4.58818,186.05,0.383496,148.80700000000002,0.6746310000000001,0.1221049999999999,238.24,1.2266,1.6036,13.5365753173828,21.9994239807129,7.83009433746338,22.0,-857732.0,3291.8,pp-ro,1,1,-1,-1
1570533781.1,2019-10-08,13:23:01.100,14.0,11.0,19.6900005340576,20.7,0.8,-1.5,51.3,17.3,-15.9,21.8869,1.90446,-1.40875,-0.4918909999999999,-11.292,-5.65252,47.9679,12.5608,-16.9179,0.209732,0.0620506,-0.8794649999999999,250.6,5.0,52.1701,4.42721,4.6,1.21122,354.89300000000003,4.58811,186.313,2.66356,148.80700000000002,0.673894,0.10995,238.459,1.17299,1.5472,12.695220947265598,21.9994239807129,6.746192455291751,22.0,-857281.0,3753.27,pp-ro,1,1,-1,-1
1570533781.2,2019-10-08,13:23:01.200,14.0,11.0,19.6900005340576,20.4,0.0,-2.4,51.7,19.1,-18.4,21.547,0.4333579999999999,-2.81975,-5.731990000000001,-7.67837,-6.96064,48.062,16.6956,-20.5795,0.311317,0.110664,-0.490065,250.6,5.0,52.1701,4.42721,4.6,1.22508,367.202,4.588030000000001,186.429,4.56361,148.907,0.673819,0.0998454,238.642,1.12841,1.49426,11.0908660888672,21.9994239807129,5.70354127883911,22.0,-857017.0,1876.63,pp-ro,1,1,-1,-1
1570533781.3,2019-10-08,13:23:01.300,14.0,12.0,19.8199996948242,20.2,-0.9,-3.0,51.9,20.8,-21.0,20.9551,-1.03718,-3.8391,-9.70831,-9.19875,-6.4975,48.2226,20.1429,-23.9639,0.0987153,-0.2068989999999999,-0.535084,250.6,5.0,52.1701,4.42721,4.6,1.25223,373.554,4.58792,186.488,6.843660000000001,149.107,0.674139,0.0877146999999999,238.867,1.08549,1.45057,9.55803680419922,21.9994239807129,4.83391857147217,22.0,-856713.0,3691.74,pp-ro,1,1,-1,-1
1570533781.4,2019-10-08,13:23:01.400,14.0,12.0,19.8199996948242,19.7,-1.6,-3.6,51.7,21.9,-23.7,20.9551,-1.03718,-3.8391,-9.70831,-9.19875,-6.4975,48.2226,20.1429,-23.9639,0.0987153,-0.2068989999999999,-0.535084,250.6,5.0,52.1701,4.42721,4.6,1.24946,371.92,4.58788,186.429,9.12371,149.30700000000002,0.674691,0.0755724,239.022,1.04931,1.40981,8.15805053710938,21.9994239807129,4.01575088500977,22.0,-856458.0,5199.2,pp-ro,1,1,-1,-1
1570533781.5,2019-10-08,13:23:01.500,14.0,11.0,19.9599990844727,19.3,-2.3,-4.3,51.6,23.0,-25.8,20.7819,-1.46721,-4.13662,-0.2122969999999999,-2.25018,-5.348380000000001,48.1535,21.047,-25.0616,-0.0115089,-0.0297415,-0.4606989999999999,250.6,5.0,52.1701,4.42721,4.6,1.2356,369.094,4.5878,186.312,11.0238,149.707,0.676033,0.0654497,239.261,1.01851,1.36365,6.59626770019531,21.9994239807129,3.04814910888672,22.0,-856008.0,3845.56,pp-ro,1,1,-1,-1
1570533781.6,2019-10-08,13:23:01.600,14.0,11.0,19.9599990844727,19.1,-3.0,-4.8,51.7,24.1,-27.3,19.9085,-2.9094,-5.28425,-3.22729,-8.1068,-7.065180000000001,48.0489,23.9308,-28.5954,0.230161,0.0545273,-0.224634,250.6,5.0,52.1701,4.42721,4.6,1.24114,370.2,4.5877300000000005,186.079,13.3038,150.007,0.677232,0.0532510999999999,239.383,0.995817,1.32846,5.46538543701172,21.9994239807129,2.31377530097961,22.0,-855421.0,4522.38,pp-ro,1,1,-1,-1
1570533781.7,2019-10-08,13:23:01.700,14.0,11.0,20.0499992370605,18.8,-3.4,-5.1,51.2,24.7,-29.2,19.811,-3.27206,-5.486330000000001,-3.92127,-3.39849,-4.0104,48.1158,24.6022,-29.2452,0.205732,-0.125553,-0.235917,250.6,5.0,52.1701,4.42721,4.6,1.23782,368.533,4.58765,185.787,14.8238,150.507,0.679321,0.0450811,239.55900000000003,0.972371,1.30587,4.3770751953125,21.9994239807129,1.77407705783844,22.0,-855212.0,4214.73,pp-ro,1,1,-1,-1
1570533781.8,2019-10-08,13:23:01.800,14.0,11.0,20.090000152587898,18.7,-3.6,-5.3,51.4,25.1,-30.6,19.5293,-3.85606,-5.71641,-0.323815,0.329755,1.3511799999999998,47.6851,25.5513,-31.9757,0.111729,-0.125116,-0.289677,250.6,5.0,52.1701,4.42721,4.6,1.24059,371.039,4.58757,185.436,17.1039,151.007,0.681347,0.0328026,239.754,0.959617,1.29846,3.3040924072265603,21.9994239807129,1.551842212677,22.0,-854806.0,4214.73,pp-ro,1,1,-1,-1
1570533781.9,2019-10-08,13:23:01.900,14.0,11.0,20.2600002288818,18.7,-4.2,-5.5,51.0,25.8,-32.2,19.5445,-3.9742,-5.77271,-3.09213,1.03761,-5.3472800000000005,47.635,26.1046,-32.5492,0.2406309999999999,-0.0344337,-0.189339,250.6,5.0,52.1701,4.42721,4.6,1.26275,381.215,4.5875,185.056,19.0039,151.407,0.68315,0.0225212,239.856,0.939671,1.27993,2.43209075927734,21.9994239807129,1.11287403106689,22.0,-854362.0,2461.16,pp-ro,1,1,-1,-1
1570533782.0,2019-10-08,13:23:02.000,14.0,11.0,20.4400005340576,18.5,-4.6,-5.6,50.7,25.8,-33.3,19.5282,-4.74085,-5.76445,2.51536,-2.58586,-3.01654,47.2925,26.859,-34.1431,0.0625334,-0.0780704,-0.232952,259.1,5.2,52.1701,4.42721,4.6,1.26829,379.018,4.58741,184.618,20.9039,151.907,0.685376,0.0122002999999999,239.993,0.933902,1.26768,1.9483947753906203,21.9994239807129,0.7745273113250729,22.0,-854127.0,4522.38,pp-ro,1,1,-1,-1
1570533782.1,2019-10-08,13:23:02.100,14.0,11.0,20.8999996185303,18.2,-4.7,-5.6,50.3,25.8,-34.3,19.3432,-4.80931,-5.75413,-5.18801,2.78008,2.92478,47.1647,26.9554,-34.9507,0.0833576999999999,-0.0372592,0.0071217,259.1,5.2,52.1701,4.42721,4.6,1.24059,370.421,4.58735,184.151,22.804,152.407,0.6876220000000001,0.00180221,240.124,0.929263,1.26579,1.40679168701172,21.9994239807129,0.640329480171204,22.0,-853517.0,5537.61,pp-ro,1,1,-1,-1
1570533782.2,2019-10-08,13:23:02.200,14.0,11.0,20.8999996185303,18.0,-4.9,-5.8,50.5,25.6,-34.9,19.2814,-4.9488,-5.81619,-3.92101,-5.31093,1.58837,47.1704,27.071,-35.0806,0.189494,-0.0157047,-0.0897835,259.1,5.2,52.1701,4.42721,4.6,1.23671,365.778,4.58729,183.654,24.704,152.907,0.6898880000000001,-0.00864189,240.249,0.931607,1.25524,0.967384338378906,21.9994239807129,0.329524844884872,22.0,-852890.0,4830.02,pp-ro,1,1,-1,-1
1570533782.3,2019-10-08,13:23:02.300,14.0,11.0,21.1200008392334,18.0,-5.2,-5.7,50.4,25.6,-35.5,19.2238,-5.05121,-5.74892,-2.36292,-0.180449,1.93418,47.339,26.9191,-35.245,0.2555389999999999,-0.146171,-0.0202204,259.1,5.2,52.1701,4.42721,4.6,1.23006,365.829,4.58723,183.099,26.224,153.407,0.692395,-0.0171263,240.305,0.930253,1.25589,0.7016983032226559,21.9994239807129,0.216911166906357,22.0,-852653.0,4430.09,pp-ro,1,1,-1,-1
1570533782.4,2019-10-08,13:23:02.400,14.0,11.0,21.2800006866455,17.9,-5.3,-5.6,50.5,25.6,-35.8,19.2202,-5.29994,-5.57071,-0.667732,-2.10134,-3.82057,46.9929,26.7651,-36.1711,-0.037645,-0.0400832,-0.00873081,259.1,5.2,52.1701,4.42721,4.6,1.23505,365.267,4.58717,182.544,28.504,153.907,0.694557,-0.0297080999999999,240.462,0.935054,1.26278,0.487098693847656,21.9994239807129,0.264563500881195,22.0,-852307.0,3476.39,pp-ro,1,1,-1,-1
1570533782.5,2019-10-08,13:23:02.500,14.0,11.0,21.3199996948242,17.9,-5.5,-5.5,50.3,25.1,-36.4,19.2645,-5.4532,-5.5176300000000005,-2.59997,0.6038819999999999,1.59342,47.0613,26.8033,-36.1969,0.106221,0.0502003,0.0107376,259.1,5.2,52.1701,4.42721,4.6,1.22286,363.049,4.58711,181.96,30.0241,154.407,0.697048,-0.0382803,240.525,0.939739,1.26639,0.252059936523438,21.9994239807129,0.204899847507477,22.0,-851595.0,4645.44,pp-ro,1,1,-1,-1
1570533782.6,2019-10-08,13:23:02.600,14.0,11.0,21.3199996948242,17.8,-5.6,-5.4,50.8,25.4,-36.5,19.2877,-5.68341,-5.1866900000000005,2.16595,-2.8045400000000003,2.93774,47.1174,26.236,-36.8995,-0.0391283,-0.1786579999999999,-0.0331333,259.1,5.2,52.1701,4.42721,4.6,1.22563,362.99,4.58705,181.376,31.9241,154.907,0.699325,-0.0489153,240.65,0.94199,1.27211,0.263992309570312,21.9994239807129,0.206974282860756,22.0,-851428.0,3107.21,pp-ro,1,1,-1,-1
1570533782.7,2019-10-08,13:23:02.700,14.0,11.0,21.3199996948242,17.6,-5.7,-5.3,50.7,25.2,-37.0,19.2592,-5.81544,-5.05247,4.01579,-0.621504,2.82742,47.1873,26.2233,-37.3697,0.0136341,-0.104551,-0.269983,259.1,5.2,52.1701,4.42721,4.6,1.21954,358.93800000000005,4.58699,180.762,33.8241,155.30700000000002,0.701303,-0.0596091,240.706,0.945666,1.27579,0.229927062988281,21.9994239807129,0.186931103467941,22.0,-850743.0,5229.96,pp-ro,1,1,-1,-1
1570533782.8,2019-10-08,13:23:02.800,14.0,11.0,21.3199996948242,17.7,-5.9,-5.2,50.8,25.2,-37.5,19.1008,-5.89228,-4.923080000000001,-1.69531,0.540043,-4.50023,47.1499,25.9599,-37.9006,0.134417,0.0332475,0.144537,259.1,5.2,52.1701,4.42721,4.6,1.2151,358.715,4.586930000000001,180.149,35.7241,155.80700000000002,0.7035399999999999,-0.070332,240.844,0.946967,1.28286,0.23162841796875,21.9994239807129,0.2129728645086289,22.0,-850568.0,3507.15,pp-ro,1,1,-1,-1
1570533782.9,2019-10-08,13:23:02.900,14.0,11.0,21.2399997711182,17.5,-6.0,-5.1,50.8,25.0,-37.9,18.9951,-6.110040000000001,-4.70527,-2.25458,1.41738,-1.76082,47.1416,25.3932,-38.575,-0.171667,-0.287203,0.00789711,259.1,5.2,52.1701,4.42721,4.6,1.2284,360.11,4.586869999999999,179.50599999999997,37.2441,156.207,0.7056859999999999,-0.0790862,240.853,0.950514,1.28534,0.206085205078125,21.9994239807129,0.140151590108871,22.0,-850206.0,4183.97,pp-ro,1,1,-1,-1
1570533783.0,2019-10-08,13:23:03.000,14.0,11.0,21.2000007629395,17.3,-6.0,-4.9,50.7,24.3,-38.3,18.8443,-6.22304,-4.51127,0.462759,-0.874401,-0.65995,47.197,24.5715,-39.2718,0.0454981,-0.0620352,0.100214,256.2,6.3,52.1701,4.42721,4.6,1.21787,355.644,4.5868,178.864,39.1442,156.607,0.707575,-0.0898987,240.936,0.961403,1.29584,0.216300964355469,21.9994239807129,0.255230039358139,22.0,-849613.0,3476.39,pp-ro,1,1,-1,-1
1570533783.1,2019-10-08,13:23:03.100,14.0,11.0,21.1200008392334,17.2,-6.0,-4.7,50.5,23.8,-38.9,18.6865,-6.23991,-4.40155,-9.68685,0.916487,0.6557930000000001,47.1656,24.0823,-39.6092,0.24791,-0.115492,0.302642,256.2,6.3,52.1701,4.42721,4.6,1.21843,355.255,4.58672,178.22099999999998,40.6642,157.007,0.709634,-0.0986931,240.972,0.966235,1.3073,0.170310974121094,21.9994239807129,0.361234188079834,22.0,-849405.0,4153.21,pp-ro,1,1,-1,-1
1570533783.2,2019-10-08,13:23:03.200,14.0,11.0,21.0799999237061,17.1,-6.1,-4.4,50.2,23.1,-39.0,18.6865,-6.23991,-4.40155,-9.68685,0.916487,0.6557930000000001,47.1656,24.0823,-39.6092,0.24791,-0.115492,0.302642,256.2,6.3,52.1701,4.42721,4.6,1.21289,359.324,4.58664,177.549,42.5642,157.407,0.711491,-0.109578,241.065,0.980705,1.32113,0.229927062988281,21.9994239807129,0.539787232875824,22.0,-849000.0,3630.21,pp-ro,1,1,-1,-1
1570533783.3,2019-10-08,13:23:03.300,14.0,11.0,21.0,17.1,-6.1,-4.1,50.6,22.7,-39.2,18.5486,-6.3102800000000006,-3.98363,-3.12252,-0.848901,-1.3026,47.5671,22.2775,-40.4991,0.1511559999999999,0.0789036,0.198209,256.2,6.3,52.1701,4.42721,4.6,1.22951,358.92,4.58656,176.907,44.0842,157.707,0.713147,-0.1184279999999999,241.062,0.989084,1.33882,0.347442626953125,21.9994239807129,0.798582255840302,22.0,-848476.0,5168.43,pp-ro,1,1,-1,-1
1570533783.4,2019-10-08,13:23:03.400,14.0,11.0,20.909999847412102,16.8,-5.9,-3.9,50.4,22.6,-39.7,18.4338,-6.33919,-3.69537,-3.07926,-1.58372,1.14194,47.645,21.85,-40.9695,-0.131406,-0.115594,-0.0236857,256.2,6.3,52.1701,4.42721,4.6,1.21122,359.881,4.58648,176.293,45.9843,158.007,0.714427,-0.1292819999999999,241.164,0.991718,1.35399,0.536491394042969,21.9994239807129,1.05333495140076,22.0,-848031.0,3384.09,pp-ro,1,1,-1,-1
1570533783.5,2019-10-08,13:23:03.500,14.0,11.0,20.7900009155273,16.8,-6.2,-3.7,50.7,22.2,-39.8,18.4338,-6.33919,-3.69537,-3.07926,-1.58372,1.14194,47.645,21.85,-40.9695,-0.131406,-0.115594,-0.0236857,256.2,6.3,52.1701,4.42721,4.6,1.22175,360.659,4.5864,175.622,47.5043,158.30700000000002,0.71607,-0.138218,241.165,1.00135,1.35872,0.7527923583984379,21.9994239807129,1.05028522014618,22.0,-847918.0,2122.75,pp-ro,1,1,-1,-1
1570533783.6,2019-10-08,13:23:03.600,14.0,11.0,20.7000007629395,16.6,-6.2,-3.5,50.5,22.0,-40.4,18.2527,-6.23754,-3.4830300000000003,-3.68821,4.556,6.702999999999999,47.5686,21.3059,-41.6042,0.166996,-0.0703586,-0.118601,256.2,6.3,52.1701,4.42721,4.6,1.2261799999999998,356.269,4.58632,174.979,49.4043,158.607,0.717316,-0.149149,241.277,1.00406,1.36999,1.01507568359375,21.9994239807129,1.23142194747925,22.0,-847465.0,5722.19,pp-ro,1,1,-1,-1
1570533783.7,2019-10-08,13:23:03.700,14.0,11.0,20.5400009155273,16.2,-6.1,-3.4,50.2,21.5,-41.3,17.7018,-6.35191,-2.99773,-4.45709,2.0280400000000003,1.26312,48.2111,20.8371,-42.7899,-0.0446479,-0.352964,0.0360215,256.2,6.3,52.1701,4.42721,4.6,1.2007,346.497,4.58624,174.33599999999998,50.9243,158.907,0.718792,-0.158085,241.325,1.00544,1.375,1.07468414306641,21.9994239807129,1.24752616882324,22.0,-847014.0,3445.62,pp-ro,1,1,-1,-1
1570533783.8,2019-10-08,13:23:03.800,14.0,12.0,20.4500007629395,16.0,-6.4,-3.3,50.0,21.5,-41.4,17.6486,-6.339169999999999,-3.02471,-1.36215,-1.24577,0.39453,47.7502,20.5416,-43.5457,0.0152807999999999,-0.10361,-0.134707,256.2,6.3,52.1701,4.42721,4.6,1.1946,339.09,4.58614,173.635,52.8243,159.207,0.720079,-0.169117,241.426,1.01176,1.37264,1.18368530273438,21.9994239807129,1.15424633026123,22.0,-846556.0,5353.02,pp-ro,1,1,-1,-1
1570533783.9,2019-10-08,13:23:03.900,14.0,11.0,20.2800006866455,15.6,-6.2,-3.0,49.4,21.1,-42.6,17.6486,-6.339169999999999,-3.02471,-1.36215,-1.24577,0.39453,47.7502,20.5416,-43.5457,0.0152807999999999,-0.10361,-0.134707,256.2,6.3,52.1701,4.42721,4.6,1.18574,334.042,4.58608,172.993,54.3444,159.507,0.721463,-0.178109,241.5,1.00837,1.38936,1.2449951171875,21.9994239807129,1.4127770662307702,22.0,-846097.0,2399.63,pp-ro,1,1,-1,-1
1570533784.0,2019-10-08,13:23:04.000,14.0,12.0,20.1499996185303,15.3,-6.0,-2.9,48.7,20.2,-43.0,16.9115,-6.34958,-2.73004,-3.39972,4.54664,-0.586888,47.7632,19.2803,-44.3039,0.369039,-0.0658557,0.3050489999999999,260.2,5.2,52.1701,4.42721,4.6,1.18574,330.779,4.58605,172.35,55.4844,159.707,0.722815,-0.185112,241.432,1.01907,1.39868,1.16835784912109,21.9994239807129,-35.0,22.0,-845860.0,4676.2,pp-ro,1,1,-1,-1
1570533784.1,2019-10-08,13:23:04.100,14.0,12.0,19.9300003051758,14.9,-6.1,-2.7,49.2,20.4,-42.4,16.4624,-6.23859,-2.52268,-3.51615,0.456984,-0.25062,47.4561,19.2025,-44.1389,0.0277351,-0.120767,-0.147644,260.2,5.2,52.1701,4.42721,4.6,1.15803,327.378,4.58603,171.708,57.3844,160.007,0.723797,-0.196182,241.617,1.03141,1.40266,1.33866882324219,21.9994239807129,-35.0,22.0,-845399.0,3353.33,pp-ro,1,1,-1,-1
1570533784.2,2019-10-08,13:23:04.200,14.0,13.0,19.2999992370605,14.8,-6.0,-2.6,49.3,20.7,-42.9,16.3637,-6.1973400000000005,-2.4119900000000003,-1.3119299999999998,0.588141,-0.621434,47.6501,19.7015,-44.0052,0.0612018,0.105494,-0.0244077,260.2,5.2,52.1701,4.42721,4.6,1.14695,304.493,4.58602,171.09400000000002,58.5244,160.30700000000002,0.7253189999999999,-0.203221,241.654,1.02661,1.4132,1.42212677001953,21.9994239807129,-35.0,22.0,-844787.0,6798.95,pp-ro,1,1,-1,-1
1570533784.3,2019-10-08,13:23:04.300,14.0,13.0,19.2999992370605,14.9,-6.1,-2.5,48.7,20.5,-43.7,16.3093,-6.3883,-2.21555,-0.923145,-1.27646,-2.36028,46.8526,20.0407,-45.5043,-0.2556469999999999,-0.0297457,0.018368,260.2,5.2,52.1701,4.42721,4.6,1.11648,298.335,4.586,170.452,60.4244,160.607,0.726197,-0.214296,241.867,1.027,1.4238,1.16494750976562,21.9994239807129,-35.0,22.0,-844461.0,6152.9,pp-ro,1,1,-1,-1
1570533784.4,2019-10-08,13:23:04.400,14.0,13.0,18.9400005340576,14.8,-6.0,-2.3,48.8,20.1,-43.7,16.1745,-6.2165,-2.1245700000000003,-0.244921,0.0493551999999999,3.05884,46.9047,19.7065,-45.8318,-0.0696857,0.0672248,-0.0137822999999999,260.2,5.2,52.1701,4.42721,4.6,1.11094,301.698,4.58599,169.838,61.9445,160.80700000000002,0.726988,-0.2233389999999999,241.952,1.03795,1.44031,0.517753601074219,21.9994239807129,-35.0,22.0,-844279.0,922.935,pp-ro,1,1,-1,-1
1570533784.5,2019-10-08,13:23:04.500,14.0,12.0,18.7000007629395,14.8,-6.2,-2.2,48.9,19.7,-44.1,16.1745,-6.2165,-2.1245700000000003,-0.244921,0.0493551999999999,3.05884,46.9047,19.7065,-45.8318,-0.0696857,0.0672248,-0.0137822999999999,260.2,5.2,52.1701,4.4272,4.6,1.13753,304.888,4.58597,169.196,63.0845,161.107,0.728487,-0.2304739999999999,241.996,1.0427799999999998,1.44259,-0.494964599609375,21.9994239807129,-35.0,22.0,-844056.0,3291.8,pp-ro,1,1,-1,-1
1570533784.6,2019-10-08,13:23:04.600,14.0,13.0,18.5100002288818,14.8,-6.1,-2.1,48.7,18.2,-44.7,15.9973,-6.44494,-1.82546,2.86515,-4.00798,3.09679,47.6489,19.8231,-45.2884,0.120472,-0.159552,0.00106178,260.2,5.2,52.1701,4.4272,4.6,1.09376,290.04200000000003,4.58595,168.553,64.9845,161.30700000000002,0.728903,-0.241556,242.18400000000003,1.0611700000000002,1.4581,-1.8603820800781203,21.9994239807129,-35.0,22.0,-843385.0,3876.33,pp-ro,1,1,-1,-1
1570533784.7,2019-10-08,13:23:04.700,14.0,13.0,18.5100002288818,14.8,-6.1,-1.8,49.1,16.6,-44.9,15.9225,-6.26123,-1.81638,-0.395584,-1.06579,4.49601,47.6324,18.7758,-45.556,0.2581239999999999,-0.0217639,0.122127,260.2,5.2,52.1701,4.4272,4.6,1.1126,297.827,4.58594,167.91,66.1245,161.507,0.7300270000000001,-0.248715,242.179,1.0828799999999998,1.47674,-3.5756988525390603,21.9994239807129,-35.0,22.0,-843258.0,1045.99,pp-ro,1,1,-1,-1
1570533784.8,2019-10-08,13:23:04.800,14.0,14.0,18.5100002288818,14.8,-6.0,-1.6,49.3,14.9,-44.2,15.8457,-6.21506,-1.38799,0.24108,5.7886,6.34136,47.8467,17.7107,-45.4137,0.204343,-0.183956,0.0184805,260.2,5.2,52.1701,4.4272,4.6,1.12091,297.746,4.58592,167.268,68.0245,161.707,0.730341,-0.259794,242.394,1.11974,1.49703,-5.62894439697266,21.9994239807129,-35.0,22.0,-843137.0,2276.57,pp-ro,1,1,-1,-1
1570533784.9,2019-10-08,13:23:04.900,14.0,14.0,18.4699993133545,15.1,-5.4,-0.7,50.1,13.2,-43.7,15.8457,-6.21506,-1.38799,0.24108,5.7886,6.34136,47.8467,17.7107,-45.4137,0.204343,-0.183956,0.0184805,260.2,5.2,52.1701,4.4272,4.6,1.10429,286.493,4.58591,166.65400000000002,69.1645,161.80700000000002,0.7310180000000001,-0.266912,242.361,1.15155,1.57163,-7.7333984375,21.9994239807129,-35.0,22.0,-842742.0,4214.73,pp-ro,1,1,-1,-1
1570533785.0,2019-10-08,13:23:05.000,14.0,13.0,18.4200000762939,15.2,-5.3,-0.4,51.0,12.5,-43.0,15.8189,-5.64999,-0.500102,2.44089,5.886819999999999,5.86906,49.7639,16.1632,-43.8641,0.164206,-0.158644,0.2449039999999999,265.3,4.2,52.1701,4.4272,4.6,1.08212,276.945,4.58587,166.391,69.9245,161.907,0.731186,-0.271327,242.465,1.1718,1.5939299999999998,-9.84127044677734,21.9994239807129,-35.0,22.0,-842368.0,3568.68,pp-ro,1,1,-1,-1
1570533785.1,2019-10-08,13:23:05.100,14.0,13.0,18.4699993133545,15.7,-4.9,0.0,52.0,10.7,-41.2,16.3165,-4.6973,0.645784,2.4143,5.16487,6.402480000000001,51.9764,14.044,-39.9776,-0.0117241,0.0329039,0.38522,265.3,4.2,52.1701,4.4272,4.6,1.05774,258.572,4.58586,165.83599999999998,71.8246,161.907,0.730539,-0.2821909999999999,242.64,1.22364,1.6418,-11.9679107666016,21.9994239807129,-35.0,22.0,-841912.0,3476.39,pp-ro,1,1,-1,-1
1570533785.2,2019-10-08,13:23:05.200,14.0,13.0,18.659999847412102,16.2,-4.7,0.6,53.4,8.2,-39.2,16.4689,-4.61462,0.956072,4.528490000000001,1.58356,6.03798,52.6108,12.6789,-39.2088,0.145094,-0.2215739999999999,0.669913,265.3,4.2,52.1701,4.4272,4.6,1.0378,262.493,4.58584,165.31099999999998,72.9646,161.907,0.730608,-0.289119,242.622,1.284,1.68648,-14.060417175293,21.9994239807129,-35.0,22.0,-841584.0,2707.27,pp-ro,1,1,-1,-1
1570533785.3,2019-10-08,13:23:05.300,14.0,12.0,18.8500003814697,16.9,-4.2,1.5,55.4,5.2,-36.7,16.5755,-4.33063,1.29867,6.14613,5.50854,4.50946,53.2678,11.0404,-38.1063,0.106608,-0.0345233,0.685355,265.3,4.2,52.1701,4.4272,4.6,1.04999,273.269,4.58582,164.873,74.8646,161.80700000000002,0.729267,-0.299678,242.836,1.35953,1.75701,-16.166580200195302,21.9994239807129,-35.0,22.0,-841578.0,92.2935,pp-ro,1,1,-1,-1
1570533785.4,2019-10-08,13:23:05.400,14.0,12.0,19.2099990844727,17.7,-3.7,2.7,56.8,1.3,-34.4,17.2409,-3.68347,2.08612,9.06143,4.54889,10.8676,54.6388,8.44561,-34.5008,0.459937,0.406134,0.8215549999999999,265.3,4.2,52.1701,4.4272,4.6,1.10539,296.812,4.5858,164.43400000000003,76.3846,161.607,0.728004,-0.308293,242.879,1.44317,1.83395,-18.808670043945305,21.9994239807129,-35.0,22.0,-841609.0,307.645,pp-ro,1,1,-1,-1
1570533785.5,2019-10-08,13:23:05.500,14.0,13.0,19.4400005340576,18.4,-2.9,4.3,58.5,-3.3,-32.8,17.8004,-3.19781,3.47537,3.88071,6.90822,15.9138,56.4876,4.45256,-30.988000000000003,0.2232739999999999,-0.0119122,0.966147,265.3,4.2,52.1701,4.4272,4.6,1.13088,312.497,4.585780000000001,164.113,78.2847,161.30700000000002,0.7256640000000001,-0.318496,243.067,1.52931,1.93158,-20.9165344238281,21.9994239807129,-35.0,22.0,-841194.0,3414.86,pp-ro,1,1,-1,-1
1570533785.6,2019-10-08,13:23:05.600,14.0,13.0,19.6200008392334,18.8,-1.7,5.8,59.6,-8.5,-30.7,18.3936,-1.7027,5.75096,0.165712,10.6912,12.17,58.7708,-3.26285,-27.1969,0.2706429999999999,0.0169410999999999,1.16248,265.3,4.2,52.1701,4.4272,4.6,1.13642,318.447,4.58577,163.85,80.1847,160.80700000000002,0.7225159999999999,-0.3285,243.178,1.62972,2.0339400000000003,-23.0278167724609,21.9994239807129,-35.0,22.0,-841111.0,1568.99,pp-ro,1,1,-1,-1
1570533785.7,2019-10-08,13:23:05.700,14.0,13.0,19.6700000762939,18.7,-0.5,7.7,61.3,-15.0,-27.6,18.3936,-1.7027,5.75096,0.165712,10.6912,12.17,58.7708,-3.26285,-27.1969,0.2706429999999999,0.0169410999999999,1.16248,265.3,4.2,52.1701,4.4272,4.6,1.16524,321.025,4.58575,163.704,82.0847,160.207,0.718729,-0.338152,243.317,1.75909,2.14753,-25.144226074218803,21.9994239807129,-35.0,22.0,-840708.0,4614.67,pp-ro,1,1,-1,-1
1570533785.8,2019-10-08,13:23:05.800,14.0,11.0,19.7099990844727,18.2,1.1,9.5,62.3,-21.7,-24.3,18.3936,-1.7027,5.75096,0.165712,10.6912,12.17,58.7708,-3.26285,-27.1969,0.2706429999999999,0.0169410999999999,1.16248,265.3,4.2,52.1701,4.4272,4.6,1.15027,315.633,4.58571,163.733,83.6048,159.407,0.714327,-0.345453,243.329,1.89177,2.27117,-27.260627746582,21.9994239807129,-35.0,22.0,-840453.0,4799.26,pp-ro,1,1,-1,-1
1570533785.9,2019-10-08,13:23:05.900,14.0,11.0,19.840000152587898,17.8,2.7,11.0,62.9,-28.1,-18.9,18.2333,-1.04505,6.57021,-1.97894,14.1577,16.7731,59.3785,-5.98574,-25.1301,0.405407,0.122581,1.2317,265.3,4.2,52.1701,4.4272,4.6,1.13088,302.16900000000004,4.58571,163.87900000000002,85.8848,158.507,0.708371,-0.356035,243.633,2.04281,2.38211,-29.3599548339844,21.9994239807129,-35.0,22.0,-840105.0,3137.98,pp-ro,1,1,-1,-1
1570533786.0,2019-10-08,13:23:06.000,14.0,13.0,19.8899993896484,17.0,4.5,12.9,62.8,-34.0,-12.7,16.5281,3.36465,11.174,-3.87934,20.0552,17.3095,59.9468,-23.9669,-8.98449,0.352559,0.434879,1.3009,271.7,3.8,52.1701,4.4272,4.6,1.1065,285.656,4.58574,164.2,87.4048,157.407,0.702289,-0.362487,243.677,2.18882,2.50867,-31.182800292968803,21.9994239807129,-35.0,22.0,-839657.0,5014.61,pp-ro,1,1,-1,-1
1570533786.1,2019-10-08,13:23:06.100,14.0,12.0,19.9699993133545,15.9,6.4,14.5,62.1,-40.0,-7.0,16.5281,3.36465,11.174,-3.87934,20.0552,17.3095,59.9468,-23.9669,-8.98449,0.352559,0.434879,1.3009,271.7,3.8,52.1701,4.4272,4.6,1.06938,270.741,4.5858,164.755,89.3049,156.207,0.694859,-0.3700989999999999,243.968,2.32753,2.6327700000000003,-32.3092651367188,21.9994239807129,-35.0,22.0,-839157.0,2368.87,pp-ro,1,1,-1,-1
