time,date,time_of_day,airspeed_temperature,airspeed_angle_of_attack,airspeed_apparent_windspeed,kite_0_vx,kite_0_vy,kite_0_vz,kite_0_roll,kite_0_pitch,kite_0_yaw,kite_1_vx,kite_1_vy,kite_1_vz,kite_1_ax,kite_1_ay,kite_1_az,kite_1_roll,kite_1_pitch,kite_1_yaw,kite_1_roll_rate,kite_1_pitch_rate,kite_1_yaw_rate,ground_upwind_direction,ground_wind_velocity,ground_pos_latitude,ground_pos_longitude,ground_pos_altitude,ground_tether_reelout_speed,ground_tether_force,est_upwind_direction,kite_pos_east,kite_pos_north,kite_height,kite_elevation,kite_azimuth,kite_distance,kite_heading,kite_course,kite_actual_steering,kite_actual_depower,kite_set_steering,kite_set_depower,ground_mech_energy,ground_mech_power,flight_phase,flight_phase_index,phase,pattern,pattern_section
1570534040.2,2019-10-08,13:27:20.200,14.0,9.0,14.9499998092651,12.6,-1.5,3.2,19.6,-6.4,-52.0,10.8984,-1.4175,3.4625800000000004,9.6094,6.7613,2.2597400000000003,22.9469,8.46716,-53.5544,0.200485,0.128218,0.93687,271.1,6.7,52.1701,4.42727,-3.6,-2.75545,108.077,4.5583,52.3984,6.84053,234.139,1.34882,0.0243104,240.028,0.823795,1.63727,-34.968414306640604,22.0009689331055,-35.0,22.0,-886988.0,-1507.46,pp-riro,4,0,-1,-1
1570534040.3,2019-10-08,13:27:20.300,14.0,9.0,14.7700004577637,13.4,-0.4,3.4,21.4,-7.7,-46.6,11.7,-0.348353,3.74298,7.803839999999999,11.3977,3.55677,24.7147,7.02575,-47.6837,0.161537,0.149068,0.941989,271.1,6.7,52.1701,4.42727,-3.6,-2.7211,102.246,4.5583800000000005,52.2523,7.980569999999999,233.83900000000003,1.34849,0.00245971,239.739,0.945471,1.7446700000000002,-34.971832275390604,22.0009689331055,-35.0,22.0,-887055.0,-922.935,pp-riro,4,0,-1,-1
1570534040.4,2019-10-08,13:27:20.400,14.0,8.0,14.710000038147,14.4,1.2,3.9,23.4,-10.4,-38.8,12.3669,0.732214,4.072080000000001,4.30652,11.9271,2.18198,26.323,5.3587,-42.0,0.178887,0.127488,0.927259,271.1,6.7,52.1701,4.42727,-3.6,-2.72609,96.4007,4.55845,52.2523,10.2606,233.439,1.3465200000000002,-0.0399271999999999,239.436,1.13508,1.89821,-34.9871978759766,22.0009689331055,-35.0,22.0,-888085.0,-8644.82,pp-riro,4,0,-1,-1
1570534040.5,2019-10-08,13:27:20.500,14.0,9.0,14.6499996185303,14.6,1.7,4.1,24.0,-11.5,-36.3,12.9758,1.78575,4.37642,7.550339999999999,11.064,3.49115,27.8854,3.6211,-36.2765,0.19723,0.179716,0.959579,271.1,6.7,52.1701,4.42727,-3.6,-2.74548,96.6837,4.55853,52.2815,11.0207,233.33900000000003,1.3457,-0.0538558,239.379,1.197,1.94497,-34.9871978759766,22.0009689331055,-35.0,22.0,-888812.0,-6922.01,pp-riro,4,0,-1,-1
1570534040.6,2019-10-08,13:27:20.600,14.0,9.0,14.5900001525879,15.1,3.0,4.5,24.8,-13.3,-30.8,13.5923,3.47976,4.98765,3.21186,10.6973,4.83551,29.3572,0.768304,-27.574,0.183015,0.183674,1.00649,271.1,6.7,52.1701,4.42727,-3.6,-2.76321,95.0754,4.55861,52.4567,12.1607,233.04,1.34371,-0.0739871,239.18,1.32021,2.04392,-34.9923248291016,22.0009689331055,-35.0,22.0,-889722.0,-9536.99,pp-riro,4,0,-1,-1
1570534040.7,2019-10-08,13:27:20.700,14.0,8.0,14.4700002670288,15.4,4.3,4.8,25.7,-14.9,-25.4,13.7874,4.06013,5.14743,2.61155,12.1353,5.83845,29.9306,-0.240113,-24.6351,0.134437,0.191905,0.981255,271.1,6.7,52.1701,4.42727,-3.6,-2.77152,93.1285,4.558680000000001,52.7488,14.0608,232.74,1.3404,-0.1067579999999999,239.056,1.45314,2.14975,-35.0025634765625,22.0009689331055,-35.0,22.0,-890216.0,-10121.5,pp-riro,4,0,-1,-1
1570534040.8,2019-10-08,13:27:20.800,14.0,8.0,14.460000038147,15.7,5.5,5.2,26.4,-16.5,-20.0,14.1422,5.89467,5.66871,0.983485,10.8213,4.50249,30.9804,-3.03078,-15.9063,0.10222,0.2050469999999999,1.03709,271.1,6.7,52.1701,4.42727,-3.6,-2.80643,90.1249,4.55876,53.1577,15.2008,232.34,1.33718,-0.1248539999999999,238.827,1.5708,2.23106,-35.0059814453125,22.0009689331055,-35.0,22.0,-891461.0,-12828.8,pp-riro,4,0,-1,-1
1570534040.9,2019-10-08,13:27:20.900,14.0,8.0,14.5299997329712,15.8,6.8,5.6,26.9,-18.3,-14.8,14.364,7.088610000000001,6.07266,3.62748,11.0437,1.13903,31.3342,-4.9577800000000005,-10.2514,0.146076,0.190568,0.963846,271.1,6.7,52.1701,4.42727,-3.6,-2.85408,93.9687,4.55883,53.6834,17.1009,231.94,1.3325,-0.154794,238.685,1.6969900000000002,2.3280000000000003,-35.0059814453125,22.0009689331055,-35.0,22.0,-892823.0,-13044.1,pp-riro,4,0,-1,-1
1570534041.0,2019-10-08,13:27:21.000,14.0,9.0,14.5900001525879,16.0,8.1,6.0,27.2,-20.2,-9.3,14.4267,7.73715,6.29868,0.8180930000000001,11.2642,5.14162,31.4885,-5.86021,-7.40066,-0.0483375,0.2525949999999999,0.992375,269.7,6.5,52.1701,4.42727,-3.6,-2.88012,98.7257,4.55895,54.3551,18.621,231.44,1.32746,-0.17653,238.465,1.81977,2.40928,-35.0059814453125,22.0009689331055,-35.0,22.0,-893925.0,-9752.34,pp-riro,4,0,-1,-1
1570534041.1,2019-10-08,13:27:21.100,14.0,9.0,14.6499996185303,16.0,9.4,6.5,27.3,-22.0,-3.8,14.4481,8.86016,6.7161,-1.2230299999999998,12.0146,1.41724,31.3986,-7.758369999999999,-1.53604,0.120028,0.213121,1.06004,269.7,6.5,52.1701,4.42727,-3.6,-2.8900900000000003,100.055,4.55919,55.1145,20.141,230.94,1.32197,-0.1970039999999999,238.278,1.93969,2.49023,-35.0059814453125,22.0009689331055,-35.0,22.0,-894736.0,-7844.94,pp-riro,4,0,-1,-1
1570534041.2,2019-10-08,13:27:21.200,14.0,9.0,14.710000038147,15.8,10.8,6.8,27.1,-23.5,1.9,14.3319,10.1153,7.090910000000001,-3.2097900000000004,12.7297,5.27759,31.1738,-9.61357,4.55279,0.0862612,0.23974,1.08784,269.7,6.5,52.1701,4.42727,-3.6,-2.8912,101.653,4.55927,56.0783,21.6611,230.34,1.3155,-0.215467,238.056,2.05848,2.57295,-35.0059814453125,22.0009689331055,-35.0,22.0,-895284.0,-4922.32,pp-riro,4,0,-1,-1
1570534041.3,2019-10-08,13:27:21.300,14.0,9.0,14.7700004577637,15.6,12.1,7.2,26.7,-25.0,7.9,14.2374,11.3988,7.435789999999999,-1.04172,13.0914,7.081860000000001,30.7138,-11.3538,10.545,0.129683,0.299769,1.01913,269.7,6.5,52.1701,4.42727,-3.6,-2.88289,107.499,4.55943,57.1298,23.1812,229.74,1.30861,-0.232427,237.86900000000003,2.17939,2.64682,-35.0059814453125,22.0009689331055,-35.0,22.0,-895610.0,-2799.57,pp-riro,4,0,-1,-1
1570534041.4,2019-10-08,13:27:21.400,14.0,9.0,14.9399995803833,15.2,13.5,7.7,26.2,-26.5,14.1,13.9374,12.6364,7.804539999999999,-3.33239,12.5102,4.15752,29.9398,-12.8062,16.6683,0.106959,0.342409,0.977929,269.7,6.5,52.1701,4.42727,-3.6,-2.8164,116.215,4.55959,58.3857,25.0812,229.04,1.30016,-0.252865,237.692,2.30526,2.7301,-35.0059814453125,22.0009689331055,-35.0,22.0,-895298.0,5045.38,pp-riro,4,0,-1,-1
1570534041.5,2019-10-08,13:27:21.500,14.0,9.0,15.0,14.7,14.8,8.1,25.5,-28.0,20.1,13.5074,13.8513,8.28606,-5.0752,11.263,3.98651,29.019,-14.1629,22.9204,0.088118,0.253376,1.03783,269.7,6.5,52.1701,4.42726,-3.5,-2.77872,117.739,4.55975,59.7292,26.2213,228.34,1.29253,-0.260954,237.475,2.41473,2.79716,-35.0059814453125,22.0009689331055,-23.0044822692871,22.0,-895009.0,5322.26,pp-riro,4,0,-1,-1
1570534041.6,2019-10-08,13:27:21.600,14.0,9.0,15.1800003051758,14.0,16.2,8.5,24.6,-29.2,26.2,13.5074,13.8513,8.28606,-5.0752,11.263,3.98651,29.019,-14.1629,22.9204,0.088118,0.253376,1.03783,269.7,6.5,52.1701,4.42726,-3.5,-2.69616,122.016,4.55991,61.1895,28.1214,227.54,1.28305,-0.278234,237.296,2.53152,2.87872,-35.0042724609375,22.0009689331055,-23.0044822692871,22.0,-894592.0,4060.91,pp-riro,4,0,-1,-1
1570534041.7,2019-10-08,13:27:21.700,14.0,10.0,15.4099998474121,13.4,17.3,8.9,23.5,-30.2,32.4,13.2445,14.4886,8.50051,-6.43714,12.5388,5.29059,28.5382,-14.8289,26.0129,0.130482,0.336159,0.948862,269.7,6.5,52.1701,4.42726,-3.5,-2.5172,134.289,4.56007,62.7667,29.2614,226.74,1.27437,-0.283842,237.08,2.637,2.93448,-34.7687377929688,22.0009689331055,-23.0044822692871,22.0,-893219.0,11106.0,pp-riro,4,0,-1,-1
1570534041.8,2019-10-08,13:27:21.800,14.0,9.0,15.75,12.6,18.6,9.3,22.3,-31.0,39.1,12.2763,16.2391,8.99333,-7.63302,7.722289999999999,4.54188,26.6107,-16.5774,35.2535,-0.0502781999999999,0.2611969999999999,0.985273,269.7,6.5,52.1701,4.42726,-3.5,-2.44184,139.486,4.560230000000001,64.4899,30.4015,225.84,1.265,-0.288283,236.827,2.7472,2.99798,-34.15771484375,22.0009689331055,-23.0044822692871,22.0,-892470.0,14120.9,pp-riro,4,0,-1,-1
1570534041.9,2019-10-08,13:27:21.900,14.0,10.0,16.0799999237061,11.7,19.7,9.8,20.9,-31.8,45.8,11.2202,17.8525,9.57068,-6.93198,7.47567,3.61148,24.3779,-18.099,44.7558,0.000682494,0.229766,1.03863,269.7,6.5,52.1701,4.42726,-3.5,-2.24348,148.554,4.56039,66.3299,31.9216,224.94,1.25453,-0.296462,236.679,2.85932,3.06094,-33.186553955078104,22.0009689331055,-23.0044822692871,22.0,-890874.0,17166.6,pp-riro,4,0,-1,-1
1570534042.0,2019-10-08,13:27:22.000,14.0,10.0,16.3500003814697,10.6,20.9,10.2,19.3,-32.5,52.4,10.3737,18.9622,9.9588,-10.1239,14.7453,3.96007,22.8398,-19.166,51.4993,0.0315367,0.2445659999999999,1.09431,269.0,6.4,52.1701,4.42726,-3.5,-2.02074,154.94799999999998,4.560569999999999,68.2868,33.0616,224.04,1.2442799999999998,-0.298978,236.538,2.96331,3.12459,-31.8689270019531,22.0009689331055,-23.0044822692871,22.0,-888920.0,19320.1,pp-riro,4,0,-1,-1
1570534042.1,2019-10-08,13:27:22.100,14.0,10.0,16.620000839233402,9.4,22.0,10.4,17.6,-32.6,59.4,9.40969,19.9239,10.2659,-9.71493,12.4869,0.787821,20.8796,-20.1389,57.7939,0.158365,0.248466,0.918849,269.0,6.4,52.1701,4.42726,-3.5,-1.7520099999999998,157.735,4.56077,70.4481,34.5817,222.941,1.23233,-0.304606,236.35,3.07432,3.18989,-30.184326171875,22.0009689331055,-23.0044822692871,22.0,-887023.0,18551.0,pp-riro,4,0,-1,-1
1570534042.2,2019-10-08,13:27:22.200,14.0,10.0,16.8299999237061,8.1,22.9,10.6,15.7,-32.6,65.8,7.7072,21.3423,10.5981,-9.10541,5.88388,3.35031,18.1515,-21.3422,67.0438,-0.172618,0.109053,0.99981,269.0,6.4,52.1701,4.42726,-3.5,-1.48549,160.579,4.56096,72.6679,35.3418,221.941,1.2216200000000002,-0.30114,236.193,3.16774,3.24505,-28.2147064208984,22.0009689331055,-22.335506439209,22.0,-885312.0,16305.2,pp-riro,4,0,-1,-1
1570534042.3,2019-10-08,13:27:22.300,14.0,10.0,17.0900001525879,6.8,23.7,10.7,13.7,-32.6,72.2,7.1964,21.7384,10.6857,-13.4981,4.69583,1.35808,17.1484,-21.684,69.9418,0.00825689,0.196342,0.897876,269.0,6.4,52.1701,4.42726,-3.5,-1.18684,165.342,4.56116,74.946,36.1018,220.841,1.21055,-0.297575,235.989,3.26061,3.2971800000000004,-26.8714752197266,22.0009689331055,-21.702112197876,22.0,-883732.0,14397.8,pp-riro,4,0,-1,-1
1570534042.4,2019-10-08,13:27:22.400,14.0,9.0,17.3500003814697,5.4,24.1,10.8,11.9,-32.6,78.2,5.418080000000001,22.676,10.7391,-16.326,8.407010000000001,-1.6739400000000002,14.4471,-22.4209,78.5988,0.277812,-0.000953076,0.892116,269.0,6.4,52.1701,4.42726,-3.5,-0.738592,166.862,4.56135,77.3118,36.8619,219.741,1.19913,-0.293779,235.843,3.34675,3.34724,-24.963302612304695,22.0009689331055,-21.130901336669897,22.0,-882126.0,9137.05,pp-riro,4,0,-1,-1
1570534042.5,2019-10-08,13:27:22.500,14.0,9.0,17.5,4.0,24.6,10.7,10.4,-32.1,83.7,5.418080000000001,22.676,10.7391,-16.326,8.407010000000001,-1.6739400000000002,14.4471,-22.4209,78.5988,0.277812,-0.000953076,0.892116,269.0,6.4,52.1701,4.42726,-3.5,-0.5635020000000001,166.81599999999997,4.56155,79.7944,37.2419,218.641,1.18792,-0.285736,235.707,3.42236,3.39439,-23.6576232910156,22.0009689331055,-20.5190391540527,22.0,-881752.0,7168.13,pp-riro,4,0,-1,-1
1570534042.6,2019-10-08,13:27:22.600,14.0,9.0,17.7000007629395,2.6,24.9,10.5,8.2,-31.4,88.8,5.418080000000001,22.676,10.7391,-16.326,8.407010000000001,-1.6739400000000002,14.4471,-22.4209,78.5988,0.277812,-0.000953076,0.892116,269.0,6.4,52.1701,4.42726,-3.6,-0.263189,165.257,4.56175,82.2186,37.622,217.641,1.17705,-0.278401,235.675,3.4932800000000004,3.44065,-22.264892578125,22.0009689331055,-19.9383544921875,22.0,-881321.0,3261.04,pp-riro,4,0,-1,-1
1570534042.7,2019-10-08,13:27:22.700,14.0,8.0,17.6499996185303,1.3,25.0,10.3,6.7,-31.1,93.4,2.2217,23.6629,10.4365,-8.505230000000001,0.290032,0.151356,10.1222,-22.3123,91.1708,-0.0206477,0.295143,0.916026,269.0,6.4,52.1701,4.42726,-3.6,0.183401,159.189,4.56194,84.6719,38.382,216.641,1.16544,-0.275051,235.745,3.5590900000000003,3.48593,-21.32275390625,22.0009689331055,-19.5193767547607,22.0,-881422.0,-2276.57,pp-riro,4,0,-1,-1
1570534042.8,2019-10-08,13:27:22.800,14.0,8.0,17.6000003814697,0.2,24.9,10.0,4.7,-29.8,98.2,1.14979,23.7688,10.1819,-11.1315,-0.381627,-3.0462,8.3467,-22.0471,95.5924,0.336938,0.301459,0.741591,269.0,6.4,52.1701,4.42726,-3.6,0.354613,153.201,4.56214,87.2422,38.3821,215.641,1.15462,-0.264113,235.766,3.62514,3.51722,-20.4215698242188,22.0009689331055,-19.1773490905762,22.0,-881498.0,2215.04,pp-riro,4,0,-1,-1
1570534042.9,2019-10-08,13:27:22.900,14.0,8.0,17.6900005340576,-0.8,24.9,9.8,3.0,-28.8,102.5,0.0994083,23.5809,9.84423,-11.9581,-1.63626,-1.66293,6.8821,-21.3172,99.902,-0.0129229,0.0315967,0.573487,269.0,6.4,52.1701,4.42726,-3.6,0.210551,155.161,4.56233,89.7248,38.3821,214.641,1.14407,-0.254065,235.785,3.68404,3.54585,-19.7866516113281,22.0009689331055,-18.9099445343018,22.0,-881321.0,0.0,pp-riro,4,0,-1,-1
1570534043.0,2019-10-08,13:27:23.000,14.0,8.0,17.7399997711182,-1.8,24.8,9.9,1.5,-28.0,106.8,-0.8874709999999999,23.5538,9.69718,-9.21437,-2.6207,5.2712900000000005,5.19195,-20.5444,104.092,-0.1494319999999999,0.315807,0.540856,269.7,6.2,52.1701,4.42726,-3.6,0.264851,164.855,4.56248,92.2074,38.3821,213.741,1.1336700000000002,-0.244484,235.925,3.74291,3.5731,-19.2677917480469,22.0009689331055,-18.687576293945305,22.0,-881409.0,-1753.58,pp-riro,4,0,-1,-1
1570534043.1,2019-10-08,13:27:23.100,14.0,9.0,17.7900009155273,-2.8,24.6,10.1,-0.4,-27.0,111.2,-1.8000900000000002,23.4515,9.77354,-10.9285,-1.1702,3.25577,3.1530400000000003,-19.6409,108.539,0.0303634,0.30123,0.7381800000000001,269.7,6.2,52.1701,4.42726,-3.6,0.3169349999999999,189.226,4.56257,94.7776,37.6221,212.641,1.12364,-0.228035,235.827,3.79879,3.59361,-18.8769378662109,22.0009689331055,-18.438943862915,22.0,-881367.0,522.996,pp-riro,4,0,-1,-1
1570534043.2,2019-10-08,13:27:23.200,14.0,10.0,17.7399997711182,-3.9,24.5,10.0,-2.5,-26.4,115.2,-2.28906,23.403,9.81931,-13.4659,-2.32462,0.123164,2.18133,-19.1712,110.566,-3.03943e-05,0.260389,0.646887,269.7,6.2,52.1701,4.42726,-3.6,0.3341119999999999,190.232,4.56266,97.2602,37.6222,211.541,1.11279,-0.219322,235.849,3.85345,3.62694,-18.6379928588867,22.0009689331055,-18.171100616455103,22.0,-881341.0,492.232,pp-riro,4,0,-1,-1
1570534043.3,2019-10-08,13:27:23.300,14.0,10.0,17.6900005340576,-4.9,24.4,9.9,-4.2,-25.1,119.3,-3.22377,23.2224,9.75727,-3.12523,1.18241,0.792006,-0.0715456,-18.5584,114.755,0.0755991,0.190118,0.6120800000000001,269.7,6.2,52.1701,4.42726,-3.6,0.331341,194.321,4.56276,99.7428,37.2422,210.541,1.10261,-0.2076739999999999,235.93,3.91141,3.65393,-18.5287628173828,22.0009689331055,-17.944356918335,22.0,-881298.0,799.877,pp-riro,4,0,-1,-1
1570534043.4,2019-10-08,13:27:23.400,14.0,10.0,17.7900009155273,-6.1,24.3,10.1,-6.0,-23.8,122.9,-4.37986,23.1783,9.60428,-9.20713,1.85015,-1.75885,-2.08768,-17.7206,118.576,-0.148783,0.111147,0.718122,269.7,6.2,52.1701,4.42726,-3.6,0.349626,210.272,4.56285,102.196,36.8623,209.441,1.09229,-0.196592,235.942,3.96294,3.68584,-18.3358917236328,22.0009689331055,-17.6575565338135,22.0,-881284.0,-30.7645,pp-riro,4,0,-1,-1
1570534043.5,2019-10-08,13:27:23.500,14.0,10.0,17.8899993896484,-7.2,24.0,10.3,-7.5,-23.0,126.4,-5.54513,23.1453,9.73871,-13.8253,-1.46736,-0.929819,-4.26501,-16.393,122.176,-0.269914,0.182412,0.540168,269.7,6.2,52.1701,4.42726,-3.6,0.398385,232.324,4.56295,104.65,36.1023,208.241,1.08219,-0.1827079999999999,235.838,4.0077,3.7123,-17.9740600585938,22.0009689331055,-17.4261360168457,22.0,-881248.0,676.819,pp-riro,4,0,-1,-1
1570534043.6,2019-10-08,13:27:23.600,14.0,11.0,18.0300006866455,-8.5,23.7,10.2,-9.6,-21.9,130.1,-6.753819999999999,22.8404,9.89095,-11.9578,-3.86618,-0.3165929999999999,-6.5159,-15.8553,125.813,-0.369381,0.0951392,0.522321,269.7,6.2,52.1701,4.42726,-3.8,0.4122369999999999,242.271,4.56304,107.161,35.3423,207.041,1.07179,-0.169175,235.794,4.05799,3.74872,-17.581497192382802,22.0009689331055,-17.0426006317139,22.0,-881194.0,461.467,pp-riro,4,0,-1,-1
1570534043.7,2019-10-08,13:27:23.700,14.0,11.0,18.1800003051758,-9.6,23.3,10.2,-11.2,-20.7,133.2,-7.344710000000001,22.6682,9.86535,-11.9463,-0.116715,-5.02831,-7.59201,-15.6051,127.471,-0.236534,0.0145382999999999,0.577204,269.7,6.2,52.1701,4.42726,-3.8,0.432738,251.697,4.56313,109.498,34.5823,205.941,1.06215,-0.15661,235.791,4.1013,3.77878,-17.3050003051758,22.0009689331055,-16.783138275146502,22.0,-881131.0,799.877,pp-riro,4,0,-1,-1
1570534043.8,2019-10-08,13:27:23.800,14.0,11.0,18.3199996948242,-10.8,22.7,10.2,-12.8,-19.8,136.1,-9.13092,22.2099,9.82323,-12.7182,-6.2114,0.841965,-10.6374,-14.2374,132.023,-0.13003,0.056454,0.3089969999999999,269.7,6.2,52.1701,4.42726,-3.8,0.437725,256.503,4.56323,111.864,33.4423,204.741,1.05253,-0.14129,235.692,4.13733,3.81181,-16.984130859375,22.0009689331055,-16.4303855895996,22.0,-881090.0,769.112,pp-riro,4,0,-1,-1
1570534043.9,2019-10-08,13:27:23.900,14.0,11.0,18.4699993133545,-11.8,22.2,10.1,-14.3,-19.0,139.1,-10.3488,21.6652,9.85422,-8.73495,-9.26475,-3.28976,-12.5789,-13.7513,135.11700000000002,-0.0845306,0.140394,0.7217680000000001,269.7,6.2,52.1701,4.42726,-3.8,0.457672,265.529,4.56332,114.113,32.3023,203.641,1.04343,-0.126743,235.659,4.17489,3.839080000000001,-16.8424682617188,22.0009689331055,-16.1995716094971,22.0,-881028.0,615.29,pp-riro,4,0,-1,-1
1570534044.0,2019-10-08,13:27:24.000,14.0,11.0,18.6100006103516,-12.8,21.6,9.9,-15.4,-18.0,141.8,-10.3488,21.6652,9.85422,-8.73495,-9.26475,-3.28976,-12.5789,-13.7513,135.11700000000002,-0.0845306,0.140394,0.7217680000000001,265.8,6.2,52.1701,4.42726,-3.8,0.467646,270.978,4.56339,116.303,31.1623,202.542,1.03445,-0.112771,235.628,4.21026,3.86954,-16.528419494628903,22.0009689331055,-15.9344615936279,22.0,-880930.0,1045.99,pp-riro,4,0,-1,-1
1570534044.1,2019-10-08,13:27:24.100,14.0,11.0,18.8899993896484,-13.9,20.8,9.7,-16.9,-17.4,144.7,-11.819,20.7645,9.59377,-7.22792,-6.06872,-6.557,-15.1246,-12.5608,139.355,-0.068855,-0.0937511,0.473764,265.8,6.2,52.1701,4.42726,-3.8,0.4765109999999999,277.05400000000003,4.56342,118.523,29.6423,201.342,1.02539,-0.0960841,235.51,4.243119999999999,3.9041,-16.2041320800781,22.0009689331055,-15.570098876953098,22.0,-880834.0,922.935,pp-riro,4,0,-1,-1
1570534044.2,2019-10-08,13:27:24.200,14.0,11.0,19.1700000762939,-14.8,20.1,9.5,-17.6,-16.4,147.1,-12.8202,20.0267,9.53711,-10.0052,-7.270919999999999,-0.958608,-16.5761,-12.2577,142.263,0.0115313999999999,-0.104067,0.279776,265.8,6.2,52.1701,4.42726,-3.8,0.489809,285.288,4.56345,120.568,28.5023,200.242,1.01674,-0.0831866,235.469,4.27534,3.93467,-15.9532318115234,22.0009689331055,-15.3561716079712,22.0,-880731.0,984.464,pp-riro,4,0,-1,-1
1570534044.3,2019-10-08,13:27:24.300,14.0,11.0,19.3899993896484,-15.5,19.2,9.3,-18.4,-15.8,150.0,-14.1641,18.8782,9.12801,-2.5813200000000003,-9.53509,-0.680049,-18.2901,-10.7959,146.19799999999998,-0.0993126,0.0494881999999999,0.585615,265.8,6.2,52.1701,4.42726,-3.8,0.504215,290.764,4.56349,122.525,26.6023,199.142,1.0089,-0.064881,235.324,4.30698,3.9584,-15.6187057495117,22.0009689331055,-15.1555233001709,22.0,-880630.0,1138.29,pp-riro,4,0,-1,-1
1570534044.4,2019-10-08,13:27:24.400,14.0,10.0,19.5699996948242,-16.3,18.5,8.9,-18.7,-14.7,152.2,-14.9094,18.0206,9.01117,1.0123799999999998,2.00259,1.99516,-19.2515,-10.5025,149.00799999999998,0.0898978,-0.0360118,0.590834,265.8,6.2,52.1701,4.42726,-3.8,0.510864,295.781,4.56352,124.423,25.4623,198.142,1.0008,-0.0529706,235.35,4.33828,3.99092,-15.3114852905273,22.0009689331055,-14.9374904632568,22.0,-880439.0,1169.05,pp-riro,4,0,-1,-1
1570534044.5,2019-10-08,13:27:24.500,14.0,10.0,19.7999992370605,-16.8,17.6,8.7,-19.2,-13.3,154.7,-15.6611,17.2398,8.59401,-4.67255,-3.94345,-0.4797229999999999,-20.109,-9.29981,151.19,0.0534947,0.222658,0.523312,265.8,6.2,52.1701,4.42726,-3.8,0.515297,295.715,4.56355,126.205,23.9423,197.242,0.993536,-0.0386305,235.383,4.37491,4.01393,-15.0793685913086,22.0009689331055,-14.835556983947802,22.0,-880380.0,1169.05,pp-riro,4,0,-1,-1
1570534044.6,2019-10-08,13:27:24.600,14.0,10.0,20.020000457763697,-17.4,16.8,8.4,-19.6,-12.9,157.7,-16.2042,16.3013,8.39857,-16.8475,-9.30352,-0.331289,-20.4611,-8.38509,154.061,0.00289353,-0.235063,0.456794,265.8,6.2,52.1701,4.42726,-4.1,0.510864,298.397,4.5635900000000005,127.87,22.0423,196.242,0.986587,-0.0219019,235.26,4.40758,4.03836,-14.8882064819336,22.0009689331055,-14.67822265625,22.0,-880161.0,1353.64,pp-riro,4,0,-1,-1
1570534044.7,2019-10-08,13:27:24.700,14.0,10.0,20.1100006103516,-18.0,15.9,7.9,-19.7,-11.4,159.8,-16.2042,16.3013,8.39857,-16.8475,-9.30352,-0.331289,-20.4611,-8.38509,154.061,0.00289353,-0.235063,0.456794,265.8,6.2,52.1701,4.42726,-4.1,0.519729,303.08,4.563619999999999,129.476,20.5223,195.342,0.979737,-0.00841005,235.252,4.44044,4.072,-14.7584915161133,22.0009689331055,-14.4090747833252,22.0,-880113.0,953.699,pp-riro,4,0,-1,-1
1570534044.8,2019-10-08,13:27:24.800,14.0,9.0,20.2800006866455,-18.4,15.1,7.7,-19.8,-10.1,162.4,-17.0686,15.0412,7.85313,0.561053,-7.67726,-1.15752,-21.2099,-6.9747,158.1,0.0202159,0.0599093,0.482718,265.8,6.2,52.1701,4.42726,-4.1,0.535798,308.047,4.56365,130.995,18.6223,194.542,0.973538,0.00753691,235.272,4.47677,4.091469999999999,-14.5775756835938,22.0009689331055,35.0,22.0,-879996.0,1353.64,pp-riro,4,0,-1,-1
1570534044.9,2019-10-08,13:27:24.900,14.0,10.0,20.409999847412102,-18.8,14.1,7.3,-20.2,-9.4,165.4,-17.4684,14.1612,7.50236,-5.20925,-11.0991,-2.36446,-21.538,-5.70135,160.778,0.0742819,0.00703735,0.493957,265.8,6.2,52.1701,4.42726,-4.1,0.938061,308.266,4.56369,132.42600000000002,17.1023,193.742,0.96736,0.0202828,235.298,4.51565,4.12303,-14.4068984985352,22.0009689331055,35.0,22.0,-881793.0,-22119.7,pp-riro,4,0,-1,-1
1570534045.0,2019-10-08,13:27:25.000,14.0,10.0,20.5400009155273,-18.9,13.5,6.6,-20.4,-7.7,167.8,-17.4684,14.1612,7.50236,-5.20925,-11.0991,-2.36446,-21.538,-5.70135,160.778,0.0742819,0.00703735,0.493957,269.9,6.0,52.1701,4.42726,-4.1,1.18961,301.349,4.5637300000000005,133.886,14.8222,192.942,0.961307,0.0384258,235.312,4.5515,4.139530000000001,-14.1406402587891,22.0009689331055,35.0,22.0,-883284.0,-27780.3,pp-riro,4,0,-1,-1
1570534045.1,2019-10-08,13:27:25.100,14.0,9.0,20.5799999237061,-18.5,12.7,5.8,-20.7,-5.8,169.8,-17.7873,12.2731,6.00937,3.2228,-6.9070100000000005,-7.32891,-22.3719,-2.82207,167.31599999999997,-0.240346,0.0555915999999999,0.404393,269.9,6.0,52.1701,4.42726,-4.1,1.11648,263.22,4.56378,135.142,13.3022,192.242,0.955803,0.0505172,235.367,4.58882,4.15728,-13.5091323852539,22.0009689331055,35.0,22.0,-881255.0,25288.4,pp-riro,4,0,-1,-1
1570534045.2,2019-10-08,13:27:25.200,14.0,8.0,20.6200008392334,-18.4,11.7,5.6,-20.7,-4.5,171.8,-17.532,11.9446,5.72141,5.14635,-6.9038,-3.81376,-22.5474,-2.05225,168.395,0.0114917,0.0621313,0.343958,269.9,6.0,52.1701,4.42726,-4.1,1.05442,263.786,4.56383,136.369,11.4022,191.642,0.950693,0.0651612,235.485,4.61821,4.17546,-12.5294418334961,22.0009689331055,35.0,22.0,-881336.0,-7598.83,pp-riro,4,0,-1,-1
1570534045.3,2019-10-08,13:27:25.300,14.0,8.0,20.5300006866455,-18.6,11.0,5.3,-21.0,-3.7,173.8,-17.4642,11.4763,5.518759999999999,-1.34302,-11.8521,-2.97854,-22.5795,-1.58293,169.362,0.0269453,0.105321,0.5420050000000001,269.9,6.0,52.1701,4.42726,-4.1,1.11537,276.756,4.56389,137.47899999999998,9.50219,191.142,0.946138,0.0795224,235.64,4.6428400000000005,4.19621,-11.1964492797852,22.0009689331055,35.0,22.0,-881219.0,2184.28,pp-riro,4,0,-1,-1
1570534045.4,2019-10-08,13:27:25.400,14.0,10.0,20.3600006103516,-18.5,10.8,5.2,-21.3,-3.1,174.8,-17.4642,11.4763,5.518759999999999,-1.34302,-11.8521,-2.97854,-22.5795,-1.58293,169.362,0.0269453,0.105321,0.5420050000000001,269.9,6.0,52.1701,4.42726,-4.1,1.06605,279.575,4.5639400000000006,138.56,7.60216,190.842,0.94209,0.0936674,235.961,4.65151,4.19061,-9.50161743164062,22.0009689331055,35.0,22.0,-880698.0,2553.45,pp-riro,4,0,-1,-1
1570534045.5,2019-10-08,13:27:25.500,14.0,9.0,20.3199996948242,-18.5,10.1,4.8,-21.8,-1.4,176.7,-17.4642,11.4763,5.518759999999999,-1.34302,-11.8521,-2.97854,-22.5795,-1.58293,169.362,0.0269453,0.105321,0.5420050000000001,269.9,6.0,52.1701,4.42726,-4.1,1.10096,285.136,4.56399,139.553,6.08214,190.042,0.936951,0.104871,235.856,4.6866,4.21292,-7.46884918212891,22.0009689331055,35.0,22.0,-880589.0,2030.46,pp-riro,4,0,-1,-1
1570534045.6,2019-10-08,13:27:25.600,14.0,9.0,20.3199996948242,-18.6,9.7,5.1,-22.4,-0.5,177.4,-18.0519,9.51723,4.85168,-2.8105900000000004,-1.15953,1.40598,-24.0297,0.746179,175.798,-0.103451,0.0315122,0.284107,269.9,6.0,52.1701,4.42726,-4.3,1.10152,291.072,4.56404,140.546,3.8021,189.542,0.932582,0.1213289999999999,235.996,4.69247,4.20744,-5.357566833496089,22.0009689331055,35.0,22.0,-880187.0,1476.7,pp-riro,4,0,-1,-1
1570534045.7,2019-10-08,13:27:25.700,14.0,9.0,20.3199996948242,-18.5,9.5,5.2,-23.1,-0.8,178.5,-18.0519,9.51723,4.85168,-2.8105900000000004,-1.15953,1.40598,-24.0297,0.746179,175.798,-0.103451,0.0315122,0.284107,269.9,6.0,52.1701,4.42726,-4.3,1.10927,286.084,4.56409,141.451,2.28208,189.043,0.928353,0.132191,236.116,4.6959800000000005,4.20038,-3.25311279296875,22.0009689331055,35.0,22.0,-880057.0,2614.98,pp-riro,4,0,-1,-1
1570534045.8,2019-10-08,13:27:25.800,14.0,11.0,20.270000457763697,-18.4,9.6,5.1,-23.8,-0.7,178.5,-18.1518,9.14271,5.01715,2.05165,-3.0602,0.10363,-25.4736,0.372121,177.825,-0.229298,-0.0711536,0.0174768,269.9,6.0,52.1701,4.42726,-4.3,1.06439,272.435,4.56414,141.889,1.14206,188.743,0.926153,0.140223,236.131,4.69056,4.19074,-2.20003509521484,22.0009689331055,35.0,22.0,-879374.0,3568.68,pp-riro,4,0,-1,-1
1570534045.9,2019-10-08,13:27:25.900,14.0,9.0,20.229999542236303,-18.3,9.6,5.4,-24.8,-0.6,178.1,-18.1518,9.14271,5.01715,2.05165,-3.0602,0.10363,-25.4736,0.372121,177.825,-0.229298,-0.0711536,0.0174768,269.9,6.0,52.1701,4.42726,-4.3,1.07935,279.01,4.5642,142.82399999999998,-0.7579670000000001,188.143,0.921473,0.153527,236.21400000000003,4.67541,4.170380000000001,-0.100700378417969,22.0009689331055,35.0,22.0,-879252.0,1169.05,pp-riro,4,0,-1,-1
1570534046.0,2019-10-08,13:27:26.000,14.0,9.0,20.229999542236303,-18.2,9.4,6.0,-25.8,-1.5,177.7,-18.245,9.20099,5.4888,-3.44295,-9.37906,7.26226,-27.2645,-0.799732,177.965,-0.290545,-0.0744471999999999,-0.209735,268.6,5.5,52.1701,4.42726,-4.3,1.08933,280.012,4.56423,143.73,-2.658,187.543,0.91681,0.166659,236.3,4.64992,4.14933,2.01311492919922,22.0009689331055,35.0,22.0,-879138.0,2122.75,pp-riro,4,0,-1,-1
1570534046.1,2019-10-08,13:27:26.100,14.0,11.0,20.090000152587898,-18.0,9.9,6.3,-27.5,-2.9,176.9,-18.245,9.20099,5.4888,-3.44295,-9.37906,7.26226,-27.2645,-0.799732,177.965,-0.290545,-0.0744471999999999,-0.209735,268.6,5.5,52.1701,4.42726,-4.3,1.07547,270.8,4.56424,144.635,-4.17801,186.843,0.911847,0.177031,236.32,4.61581,4.11321,4.10968017578125,22.0009689331055,35.0,22.0,-878754.0,4245.5,pp-riro,4,0,-1,-1
1570534046.2,2019-10-08,13:27:26.200,14.0,10.0,20.090000152587898,-17.5,10.5,7.0,-28.3,-4.4,175.5,-18.3716,9.24829,6.00027,-0.211336,1.84394,2.70056,-28.4431,-1.95045,177.43400000000003,-0.2094599999999999,-0.191799,-0.285066,268.6,5.5,52.1701,4.42726,-4.3,1.05774,270.48400000000004,4.56426,145.599,-6.0780400000000006,186.143,0.906588,0.189857,236.4,4.57042,4.05532,6.21306610107422,22.0009689331055,35.0,22.0,-878473.0,2153.51,pp-riro,4,0,-1,-1
1570534046.3,2019-10-08,13:27:26.300,14.0,9.0,19.9200000762939,-17.0,10.6,7.9,-28.9,-6.1,173.5,-18.0449,10.3284,7.3191,3.14511,8.93018,8.76815,-31.0545,-6.29896,175.438,-0.330088,-0.156336,-0.220329,268.6,5.5,52.1701,4.42726,-4.3,1.08766,275.574,4.56428,146.563,-7.59805,185.343,0.901059,0.199916,236.412,4.51692,4.01041,8.33007049560547,22.0009689331055,35.0,22.0,-878218.0,3014.92,pp-riro,4,0,-1,-1
1570534046.4,2019-10-08,13:27:26.400,14.0,9.0,19.6900005340576,-16.4,11.1,8.6,-29.8,-8.8,171.3,-17.6267,10.6638,8.326130000000001,3.06503,2.20555,10.0329,-31.8944,-8.95558,173.547,-0.117088,-0.316954,-0.553357,268.6,5.5,52.1701,4.42726,-4.3,1.0727,263.693,4.56429,147.585,-9.49808,184.543,0.8952100000000001,0.212373,236.49,4.44827,3.95352,10.4419631958008,22.0009689331055,35.0,22.0,-877997.0,4214.73,pp-riro,4,0,-1,-1
1570534046.5,2019-10-08,13:27:26.500,14.0,10.0,19.3799991607666,-15.5,11.9,9.2,-30.5,-11.1,168.3,-17.0046,11.3957,8.99462,10.6036,2.92763,4.84846,-32.4401,-12.1035,171.30900000000003,-0.401791,-0.180028,-0.739219,268.6,5.5,52.1701,4.42726,-4.3,1.01785,235.213,4.56431,148.637,-11.0181,183.643,0.889023,0.222081,236.514,4.37542,3.88358,12.5504531860352,22.0009689331055,35.0,22.0,-877503.0,5076.14,pp-riro,4,0,-1,-1
1570534046.6,2019-10-08,13:27:26.600,14.0,9.0,19.1499996185303,-14.6,12.4,9.9,-31.0,-14.1,165.2,-16.0361,12.2214,9.7382,11.8214,9.4279,3.88854,-33.0046,-15.918,169.021,-0.421818,-0.314312,-0.8563379999999999,268.6,5.5,52.1701,4.42726,-4.5,0.992362,231.592,4.56432,149.805,-12.1581,182.743,0.8825139999999999,0.229055,236.61,4.29638,3.82184,14.6589431762695,22.0009689331055,35.0,22.0,-877233.0,1876.63,pp-riro,4,0,-1,-1
1570534046.7,2019-10-08,13:27:26.700,14.0,10.0,18.9599990844727,-13.7,13.2,11.0,-30.7,-16.8,161.4,-15.3637,13.0504,10.862,6.61221,5.9293,12.5905,-33.6614,-19.3779,165.91099999999997,0.0421625,-0.0426038,-0.815128,268.6,5.5,52.1701,4.42726,-4.5,1.00898,235.849,4.5643400000000005,151.032,-13.6781,181.643,0.8751479999999999,0.238375,236.626,4.20985,3.74451,16.7657318115234,22.0009689331055,35.0,22.0,-877151.0,922.935,pp-riro,4,0,-1,-1
1570534046.8,2019-10-08,13:27:26.800,14.0,10.0,18.8700008392334,-12.4,14.0,11.8,-30.4,-20.1,157.2,-15.3637,13.0504,10.862,6.61221,5.9293,12.5905,-33.6614,-19.3779,165.91099999999997,0.0421625,-0.0426038,-0.815128,268.6,5.5,52.1701,4.42726,-4.5,1.00511,230.417,4.56435,152.346,-14.8181,180.643,0.8678530000000001,0.245002,236.772,4.114809999999999,3.66189,18.8861465454102,22.0009689331055,35.0,22.0,-876893.0,2922.63,pp-riro,4,0,-1,-1
1570534046.9,2019-10-08,13:27:26.900,14.0,10.0,18.5799999237061,-10.9,14.9,12.6,-29.9,-23.3,152.5,-14.3279,13.914,11.8626,8.95213,8.00866,10.0251,-33.3761,-23.0673,162.507,-0.189781,-0.233013,-0.715912,268.6,5.5,52.1701,4.42726,-4.5,0.992916,232.051,4.564369999999999,153.719,-15.9581,179.44299999999998,0.8598100000000001,0.251469,236.821,4.01556,3.57122,20.9878234863281,22.0009689331055,35.0,22.0,-876602.0,861.4060000000001,pp-riro,4,0,-1,-1
1570534047.0,2019-10-08,13:27:27.000,14.0,10.0,18.4400005340576,-9.8,15.7,13.7,-28.2,-26.4,147.2,-13.6771,14.4403,12.3072,16.4594,13.7799,11.5043,-33.2857,-24.8924,160.64700000000002,-0.385259,-0.12605,-0.559908,271.0,6.1,52.1701,4.42726,-4.5,1.00289,236.065,4.5644,155.15,-17.4781,178.243,0.851432,0.2601949999999999,236.955,3.90915,3.4957,23.099723815918,22.0009689331055,35.0,22.0,-876559.0,799.877,pp-riro,4,0,-1,-1
1570534047.1,2019-10-08,13:27:27.100,14.0,10.0,18.2000007629395,-8.2,16.5,14.6,-25.7,-29.7,141.0,-10.9217,16.6727,14.4859,14.6065,9.79208,11.0051,-31.163,-32.5597,150.935,-0.2640099999999999,0.00408803,-1.0735,271.0,6.1,52.1701,4.42726,-4.5,1.01951,241.875,4.56445,156.727,-18.238,176.94299999999998,0.8425729999999999,0.263812,237.076,3.79503,3.41026,25.2116165161133,22.0009689331055,35.0,22.0,-876385.0,2184.28,pp-riro,4,0,-1,-1
1570534047.2,2019-10-08,13:27:27.200,14.0,10.0,18.1499996185303,-6.4,17.2,15.4,-22.9,-33.4,133.7,-9.23862,17.5829,15.607,21.3224,6.31371,15.5826,-29.2352,-36.9058,145.123,-0.290906,-0.257764,-1.06802,271.0,6.1,52.1701,4.42726,-4.5,1.02062,244.223,4.56449,158.304,-18.618,175.544,0.833573,0.264992,237.113,3.66837,3.32411,27.3201065063477,22.0009689331055,35.0,22.0,-876106.0,1507.46,pp-riro,4,0,-1,-1
1570534047.3,2019-10-08,13:27:27.300,14.0,11.0,18.0,-4.4,17.6,16.1,-18.7,-36.4,126.0,-6.24535,18.6886,17.0119,22.0562,13.6209,8.32952,-24.9945,-44.3414,135.036,-0.801404,-0.298743,-1.25226,271.0,6.1,52.1701,4.42726,-4.5,1.0245,244.052,4.56453,159.969,-19.3779,174.044,0.823881,0.268424,237.185,3.54409,3.23457,29.411560058593803,22.0009689331055,35.0,22.0,-875885.0,2307.34,pp-riro,4,0,-1,-1
1570534047.4,2019-10-08,13:27:27.400,14.0,9.0,18.1000003814697,-2.2,17.7,16.5,-13.9,-38.9,116.9,-3.87571,19.4012,17.5928,23.9091,5.75514,10.5079,-19.7189,-47.9357,125.15,-0.319467,-0.0314035,-1.28852,271.0,6.1,52.1701,4.42726,-4.5,1.01951,244.97,4.56458,161.66299999999998,-19.7579,172.544,0.814243,0.269445,237.269,3.4104,3.14309,31.2134857177734,22.0009689331055,35.0,22.0,-875662.0,2122.75,pp-riro,4,0,-1,-1
1570534047.5,2019-10-08,13:27:27.500,14.0,10.0,18.1000003814697,0.2,17.7,16.9,-8.5,-40.8,107.5,-0.996416,19.3198,17.9153,25.2298,-4.37395,1.37481,-14.0617,-50.9123,114.331,-0.464833,-0.210044,-1.14211,271.0,6.1,52.1701,4.42726,-4.5,1.02394,241.717,4.56462,163.357,-19.7578,170.94400000000002,0.804461,0.268152,237.271,3.28149,3.0464900000000004,32.67138671875,22.0009689331055,23.0044822692871,22.0,-875492.0,1784.34,pp-riro,4,0,-1,-1
1570534047.6,2019-10-08,13:27:27.600,14.0,10.0,18.1499996185303,2.7,17.3,16.9,-2.3,-42.0,97.6,1.88147,19.2675,17.9539,33.1322,5.1305,1.73013,-7.13972,-53.1781,103.133,-0.387304,-0.4879159999999999,-1.31518,271.0,6.1,52.1701,4.42726,-4.5,1.01896,234.538,4.56467,165.11,-19.7578,169.24400000000003,0.794209,0.266842,237.266,3.15167,2.9457,33.7682037353516,22.0009689331055,23.0044822692871,22.0,-875345.0,2891.86,pp-ro,1,1,-1,-1
1570534047.7,2019-10-08,13:27:27.700,14.0,12.0,18.0499992370605,5.1,17.0,16.5,3.1,-42.3,87.2,1.88147,19.2675,17.9539,33.1322,5.1305,1.73013,-7.13972,-53.1781,103.133,-0.387304,-0.4879159999999999,-1.31518,271.0,6.1,52.1701,4.42726,-4.5,0.980172,219.017,4.56471,166.774,-19.3777,167.644,0.784646,0.263371,237.263,3.0200400000000003,2.84735,34.648727416992195,22.0009689331055,23.0044822692871,22.0,-874968.0,3691.74,pp-ro,1,1,-1,-1
1570534047.8,2019-10-08,13:27:27.800,14.0,11.0,17.8999996185303,7.3,16.4,16.3,9.6,-41.5,76.7,4.71994,19.0232,17.585,29.4037,-9.49653,-4.63238,0.716558,-53.4582,90.5407,-0.743341,0.0340873,-1.3147,271.0,6.1,52.1701,4.42726,-4.5,0.972969,219.519,4.56476,168.468,-18.9976,166.044,0.774992,0.259946,237.304,2.88572,2.7572,34.9501953125,22.0009689331055,23.0044822692871,22.0,-874800.0,1261.34,pp-ro,1,1,-1,-1
1570534047.9,2019-10-08,13:27:27.900,14.0,11.0,17.7000007629395,9.1,16.0,15.9,15.8,-40.0,66.2,8.20204,18.485,17.2254,15.1207,-4.11993,-0.520259,12.9136,-53.2206,71.6412,-0.356038,-0.134156,-1.21168,271.0,6.1,52.1701,4.42726,-4.5,0.997348,234.346,4.5648,170.045,-18.2376,164.544,0.7661,0.254452,237.324,2.74929,2.68358,34.9416656494141,22.0009689331055,23.0044822692871,22.0,-874734.0,461.467,pp-ro,1,1,-1,-1
1570534048.0,2019-10-08,13:27:28.000,14.0,12.0,17.75,10.9,15.1,15.5,21.9,-37.9,56.4,10.5561,17.7655,16.7344,26.037,-15.3984,-4.65259,19.9789,-51.0952,58.995,-0.735765,0.0443849,-1.50976,269.7,5.6,52.1701,4.42726,-4.5,1.0173,242.267,4.56484,171.593,-17.4775,163.04399999999998,0.757279,0.249069,237.346,2.61668,2.60545,34.526092529296896,22.0009689331055,23.0044822692871,22.0,-874613.0,1476.7,pp-ro,1,1,-1,-1
1570534048.1,2019-10-08,13:27:28.100,14.0,10.0,17.7399997711182,12.3,13.9,14.6,27.2,-35.1,46.7,10.5561,17.7655,16.7344,26.037,-15.3984,-4.65259,19.9789,-51.0952,58.995,-0.735765,0.0443849,-1.50976,269.7,5.6,52.1701,4.42726,-4.5,1.01674,235.984,4.56489,173.112,-15.9574,161.54399999999998,0.748735,0.239446,237.316,2.48124,2.53156,33.742645263671896,22.0009689331055,23.0044822692871,22.0,-874410.0,2307.34,pp-ro,1,1,-1,-1
1570534048.2,2019-10-08,13:27:28.200,14.0,9.0,17.7900009155273,13.6,12.9,13.4,31.3,-31.8,38.6,10.5561,17.7655,16.7344,26.037,-15.3984,-4.65259,19.9789,-51.0952,58.995,-0.735765,0.0443849,-1.50976,269.7,5.6,52.1701,4.42726,-4.5,0.986267,213.524,4.56493,174.485,-14.8173,160.244,0.7410899999999999,0.232199,237.366,2.35675,2.45283,32.5947265625,22.0009689331055,22.3527679443359,22.0,-874054.0,3999.38,pp-ro,1,1,-1,-1
1570534048.3,2019-10-08,13:27:28.300,14.0,11.0,17.7399997711182,14.3,12.0,12.1,34.7,-28.3,31.9,13.3812,16.0453,15.5185,23.407,-8.523660000000001,-11.3697,30.4213,-46.4268,41.8876,-0.223487,-0.0522437,-1.03293,269.7,5.6,52.1701,4.42726,-4.5,0.931967,190.837,4.56497,175.799,-13.6772,158.944,0.733588,0.225084,237.393,2.24463,2.39013,31.0993804931641,22.0009689331055,21.3535079956055,22.0,-873679.0,3261.04,pp-ro,1,1,-1,-1
1570534048.4,2019-10-08,13:27:28.400,14.0,12.0,17.7399997711182,15.2,11.4,10.9,37.0,-23.9,25.8,16.5048,13.3758,11.76,12.771,-7.716839999999999,-10.5663,39.0094,-34.1395,22.7261,-0.00405565,0.387477,-1.16058,269.7,5.6,52.1701,4.42726,-4.5,0.934737,203.73,4.56501,177.084,-12.1571,157.844,0.726849,0.215943,237.532,2.12839,2.32603,29.7436828613281,22.0009689331055,20.2906513214111,22.0,-873519.0,246.116,pp-ro,1,1,-1,-1
1570534048.5,2019-10-08,13:27:28.500,14.0,13.0,17.8799991607666,16.4,10.2,10.2,38.6,-19.7,20.6,17.0315,12.819,11.1004,12.0677,-5.25942,-11.592,39.49,-31.3036,19.803,-0.144735,0.0147863,-1.06471,269.7,5.6,52.1701,4.42726,-4.5,0.958008,214.576,4.56505,178.252,-10.6371,156.744,0.7204010000000001,0.2069599999999999,237.604,2.02292,2.25109,27.154899597168,22.0009689331055,19.0076808929443,22.0,-873554.0,-676.819,pp-ro,1,1,-1,-1
1570534048.6,2019-10-08,13:27:28.600,14.0,10.0,17.9300003051758,17.0,9.0,9.2,40.4,-16.4,15.6,17.5753,12.0937,10.5686,9.77351,-16.3298,-2.66073,40.0237,-28.9323,16.9751,-0.225537,0.0794687999999999,-0.961378,269.7,5.6,52.1701,4.42726,-4.4,0.988483,220.669,4.5650900000000005,179.304,-8.73697,155.744,0.714611,0.1960039999999999,237.66,1.93132,2.18557,25.0634460449219,22.0009689331055,17.885696411132802,22.0,-873495.0,1199.82,pp-ro,1,1,-1,-1
1570534048.7,2019-10-08,13:27:28.700,14.0,10.0,18.0300006866455,17.1,8.4,7.7,41.5,-13.0,11.9,18.6215,9.99484,8.77919,2.81294,-7.94625,-15.4223,42.2826,-23.1671,10.2228,-0.386052,0.196252,-1.05759,269.7,5.6,52.1701,4.42726,-4.4,0.950251,201.797,4.56514,180.267,-7.2169,154.944,0.7096020000000001,0.1872869999999999,237.815,1.85113,2.12837,23.1048278808594,22.0009689331055,16.9151973724365,22.0,-873037.0,2768.8,pp-ro,1,1,-1,-1
1570534048.8,2019-10-08,13:27:28.800,14.0,10.0,17.8799991607666,17.7,7.8,6.8,42.6,-9.2,9.1,18.7816,9.15481,7.17817,1.6453400000000002,-3.24897,-9.61654,42.6313,-18.3173,6.78872,-0.336958,0.199458,-1.12944,269.7,5.6,52.1701,4.42726,-4.4,0.944156,201.352,4.565180000000001,181.173,-5.31682,154.244,0.705075,0.17657,237.998,1.77662,2.07528,21.319938659668,22.0009689331055,16.007015228271502,22.0,-872943.0,1753.58,pp-ro,1,1,-1,-1
1570534048.9,2019-10-08,13:27:28.900,14.0,11.0,17.5799999237061,18.4,7.0,6.4,43.7,-6.2,5.6,19.0486,8.78621,6.59778,1.18389,-13.2868,-5.30238,42.7596,-15.904000000000002,5.12205,-0.171771,0.265664,-0.806106,269.7,5.6,52.1701,4.42726,-4.4,0.95413,209.797,4.56522,182.02,-3.79675,153.545,0.7006359999999999,0.168046,238.163,1.70298,2.02951,19.664474487304695,22.0009689331055,15.2556114196777,22.0,-872870.0,369.174,pp-ro,1,1,-1,-1
1570534049.0,2019-10-08,13:27:29.000,14.0,12.0,17.229999542236303,18.4,6.5,5.4,45.1,-3.2,2.2,19.7111,7.74897,6.04973,9.71521,-5.07849,-2.27252,43.791,-12.264,1.7527400000000002,0.349233,0.110351,-0.712386,287.5,5.3,52.1701,4.42726,-4.4,0.972415,212.614,4.56531,182.779,-2.2766900000000003,152.945,0.6967270000000001,0.159604,238.33900000000003,1.63027,1.98686,18.9116897583008,22.0009689331055,14.5502548217773,22.0,-872661.0,2430.39,pp-ro,1,1,-1,-1
1570534049.1,2019-10-08,13:27:29.100,14.0,12.0,16.9200000762939,18.5,5.8,4.7,46.1,-0.5,-0.5,19.7332,6.28223,4.13932,1.10647,-6.122669999999999,-6.8579300000000005,45.7966,-4.96787,-4.43211,0.2523559999999999,0.0132526,-0.7947069999999999,287.5,5.3,52.1701,4.42726,-4.4,0.962441,213.688,4.56545,183.509,0.00339251,152.445,0.693194,0.146992,238.568,1.57194,1.94765,17.5287399291992,22.0009689331055,13.8965263366699,22.0,-872471.0,1292.11,pp-ro,1,1,-1,-1
1570534049.2,2019-10-08,13:27:29.200,14.0,12.0,16.8099994659424,19.0,5.2,4.0,47.5,2.4,-3.3,19.7332,6.28223,4.13932,1.10647,-6.122669999999999,-6.8579300000000005,45.7966,-4.96787,-4.43211,0.2523559999999999,0.0132526,-0.7947069999999999,287.5,5.3,52.1701,4.42726,-4.4,0.969644,216.727,4.56559,184.181,1.90346,151.945,0.68976,0.136539,238.775,1.50841,1.90222,16.026565551757802,22.0009689331055,13.1264572143555,22.0,-872431.0,738.3480000000001,pp-ro,1,1,-1,-1
1570534049.3,2019-10-08,13:27:29.300,14.0,11.0,16.7600002288818,19.3,4.3,3.4,48.5,4.7,-5.6,19.7332,6.28223,4.13932,1.10647,-6.122669999999999,-6.8579300000000005,45.7966,-4.96787,-4.43211,0.2523559999999999,0.0132526,-0.7947069999999999,287.5,5.3,52.1701,4.42726,-4.4,0.985713,224.262,4.56572,184.736,3.80353,151.445,0.6865899999999999,0.126149,238.908,1.45849,1.85481,14.8105239868164,22.0009689331055,12.3127937316895,22.0,-872315.0,1261.34,pp-ro,1,1,-1,-1
1570534049.4,2019-10-08,13:27:29.400,14.0,10.0,16.6599998474121,19.5,3.5,2.6,49.3,6.1,-7.7,20.4018,4.06949,2.4073900000000004,3.66783,-8.54974,-9.55585,47.4184,2.61983,-10.5542,-0.0572286,0.102959,-0.622881,287.5,5.3,52.1701,4.42726,-4.4,0.987375,225.586,4.56586,185.203,6.0836,151.045,0.683896,0.1137599999999999,239.064,1.42421,1.80537,13.8056716918945,22.0009689331055,11.4446582794189,22.0,-872054.0,1938.16,pp-ro,1,1,-1,-1
1570534049.5,2019-10-08,13:27:29.500,14.0,10.0,16.5,19.7,2.9,2.0,50.6,7.7,-9.5,20.4348,3.66155,2.00281,-1.7724400000000002,-8.59169,-9.20777,47.9091,3.85182,-11.3941,0.223385,0.0278249,-0.432608,287.5,5.3,52.1701,4.42726,-4.3,0.989591,227.078,4.566,185.612,7.60365,150.645,0.681372,0.105517,239.172,1.38796,1.76688,13.3321990966797,22.0009689331055,10.7952098846436,22.0,-871970.0,1599.75,pp-ro,1,1,-1,-1
1570534049.6,2019-10-08,13:27:29.600,14.0,10.0,16.3899993896484,19.8,2.2,1.8,51.5,9.0,-11.3,20.5161,2.83796,1.46068,4.48583,-5.27636,-3.63646,48.9592,5.69182,-13.0645,-0.0596825,0.010123,-0.55106,287.5,5.3,52.1701,4.42726,-4.3,0.997348,230.768,4.56614,185.933,9.88371,150.345,0.6792729999999999,0.0932128999999999,239.316,1.35836,1.7441,12.2387847900391,22.0009689331055,10.449239730835,22.0,-871808.0,1661.28,pp-ro,1,1,-1,-1
1570534049.7,2019-10-08,13:27:29.700,14.0,10.0,16.3400001525879,19.6,1.6,1.4,52.1,9.8,-13.8,20.5739,1.86115,0.92979,-3.3997,-5.5985,-2.05534,50.3255,8.02763,-15.8684,0.109095,-0.11239,-0.437615,287.5,5.3,52.1701,4.42726,-4.3,0.997348,229.776,4.56628,186.196,11.7838,150.045,0.67732,0.0829798,239.418,1.3265,1.7171,11.4519271850586,22.0009689331055,10.0178823471069,22.0,-871624.0,2153.51,pp-ro,1,1,-1,-1
1570534049.8,2019-10-08,13:27:29.800,14.0,9.0,16.3899993896484,19.5,1.1,0.9,52.7,10.9,-15.6,20.4584,1.51384,0.696651,-4.43829,-6.32873,-9.70341,50.6152,8.544310000000001,-16.8894,-0.01184,-0.1439089999999999,-0.256909,287.5,5.3,52.1701,4.42726,-4.3,0.997348,231.605,4.566409999999999,186.371,14.0638,149.845,0.6757989999999999,0.0707259,239.553,1.29962,1.68935,10.7434234619141,22.0009689331055,9.56173610687256,22.0,-871440.0,1692.05,pp-ro,1,1,-1,-1
1570534049.9,2019-10-08,13:27:29.900,14.0,10.0,16.3899993896484,19.3,0.4,0.6,53.5,11.9,-17.3,20.3452,1.2049299999999998,0.399835,-2.84329,-7.65361,-2.56302,50.8399,9.2405,-17.8283,0.209392,0.0478119,-0.504471,287.5,5.3,52.1701,4.42726,-4.3,1.0067700000000002,236.73,4.56655,186.546,15.9639,149.645,0.674295,0.0605383,239.683,1.27391,1.66145,10.1473236083984,22.0009689331055,9.1055793762207,22.0,-871290.0,1476.7,pp-ro,1,1,-1,-1
1570534050.0,2019-10-08,13:27:30.000,14.0,11.0,16.4400005340576,19.1,0.0,0.2,53.6,13.0,-19.0,20.0901,0.554059,0.0146398,2.17843,-6.43465,-6.97132,51.142,10.4824,-19.4451,0.151186,-0.0969763,-0.458241,272.6,5.0,52.1701,4.42726,-4.3,1.01785,242.959,4.5666400000000005,186.575,17.8639,149.545,0.673447,0.050313,239.777,1.24691,1.63863,9.49671936035156,22.0009689331055,8.72413158416748,22.0,-871073.0,1384.4,pp-ro,1,1,-1,-1
1570534050.1,2019-10-08,13:27:30.100,14.0,12.0,16.5,19.1,-0.5,-0.1,53.9,13.9,-20.6,19.9186,-0.286457,-0.435237,-3.3917,-5.36595,-5.46649,51.3519,12.5296,-22.0751,0.134161,-0.146227,-0.3523929999999999,272.6,5.0,52.1701,4.42726,-4.3,1.02394,244.882,4.56668,186.604,20.144,149.445,0.672446,0.0381904,239.918,1.22498,1.61745,9.28382873535156,22.0009689331055,8.39753723144531,22.0,-870984.0,1753.58,pp-ro,1,1,-1,-1
1570534050.2,2019-10-08,13:27:30.200,14.0,11.0,16.6599998474121,19.0,-1.1,-0.6,53.8,14.5,-22.4,19.8634,-0.839419,-0.808761,-0.457018,-4.79165,-5.81705,51.4432,13.7917,-23.6434,0.1200529999999999,-0.13157,-0.301093,272.6,5.0,52.1701,4.42726,-4.3,1.02727,252.94,4.566730000000001,186.546,22.044,149.346,0.671717,0.0280658999999999,239.978,1.20354,1.58333,8.81546783447266,22.0009689331055,7.7978229522705105,22.0,-870788.0,1692.05,pp-ro,1,1,-1,-1
1570534050.3,2019-10-08,13:27:30.300,14.0,11.0,16.8600006103516,18.9,-1.7,-0.9,53.4,15.2,-24.4,19.8634,-0.839419,-0.808761,-0.457018,-4.79165,-5.81705,51.4432,13.7917,-23.6434,0.1200529999999999,-0.13157,-0.301093,272.6,5.0,52.1701,4.42726,-4.3,1.06273,265.803,4.5667800000000005,186.4,23.9441,149.346,0.6714899999999999,0.0178797,240.046,1.17855,1.55732,8.44758605957031,22.0009689331055,7.33945369720459,22.0,-870624.0,2122.75,pp-ro,1,1,-1,-1
1570534050.4,2019-10-08,13:27:30.400,14.0,13.0,17.0699996948242,18.7,-1.9,-1.1,52.9,16.1,-26.0,19.8351,-1.51579,-1.12602,-0.0020375,-8.70763,-8.967360000000001,51.0542,14.3521,-25.4186,-0.0360717,-0.144955,-0.23499,272.6,5.0,52.1701,4.42726,-4.3,1.06273,268.16,4.56682,186.224,25.8441,149.446,0.671615,0.00769261,240.17,1.15538,1.54777,7.98773956298828,22.0009689331055,7.19613218307495,22.0,-870474.0,2984.16,pp-ro,1,1,-1,-1
1570534050.5,2019-10-08,13:27:30.500,14.0,13.0,17.3299999237061,18.8,-2.3,-1.6,52.7,17.1,-27.7,19.7398,-2.26755,-1.53721,-1.7351,-1.81835,-5.03701,50.6004,15.3552,-27.8976,0.0040989,-0.118624,-0.260811,272.6,5.0,52.1701,4.42726,-4.2,1.06882,277.139,4.56686,186.049,27.7441,149.446,0.671363,-0.00248549,240.246,1.12985,1.52103,7.50063323974609,22.0009689331055,6.73695182800293,22.0,-870278.0,1476.7,pp-ro,1,1,-1,-1
1570534050.6,2019-10-08,13:27:30.600,14.0,12.0,17.479999542236303,18.9,-3.1,-1.8,52.2,18.2,-29.3,19.7398,-2.26755,-1.53721,-1.7351,-1.81835,-5.03701,50.6004,15.3552,-27.8976,0.0040989,-0.118624,-0.260811,272.6,5.0,52.1701,4.42726,-4.2,1.11315,297.497,4.56691,185.757,29.6442,149.546,0.671687,-0.0127488999999999,240.30900000000003,1.1042299999999998,1.49469,7.11232757568359,22.0009689331055,6.25861120223999,22.0,-870084.0,1876.63,pp-ro,1,1,-1,-1
1570534050.7,2019-10-08,13:27:30.700,14.0,12.0,17.7800006866455,18.6,-3.5,-2.2,51.2,18.3,-31.3,19.927,-3.43602,-2.12934,0.530038,-6.71625,-3.49707,49.1068,17.7075,-31.1109,0.10549,-0.108641,-0.340219,272.6,5.0,52.1701,4.42726,-4.2,1.11814,298.413,4.56695,185.435,31.9242,149.746,0.672193,-0.0250287,240.477,1.08823,1.47051,6.69505310058594,22.0009689331055,5.83373308181763,22.0,-869953.0,2461.16,pp-ro,1,1,-1,-1
1570534050.8,2019-10-08,13:27:30.800,14.0,12.0,18.020000457763697,18.4,-3.7,-2.6,50.9,19.3,-32.6,19.6333,-3.960080000000001,-2.38762,-9.09598,-1.41217,-7.064030000000001,48.4682,18.1593,-32.9187,0.0352221,-0.173023,-0.189925,272.6,5.0,52.1701,4.42726,-4.2,1.11094,293.705,4.567,185.026,33.4442,149.846,0.672878,-0.0334095,240.431,1.0661,1.45079,6.14153289794922,22.0009689331055,5.46279764175415,22.0,-869648.0,3137.98,pp-ro,1,1,-1,-1
1570534050.9,2019-10-08,13:27:30.900,14.0,12.0,18.3600006103516,18.2,-4.2,-3.0,50.4,20.3,-33.8,19.3747,-4.22072,-2.85847,-1.41347,-0.93385,-1.9198,48.1893,19.2176,-34.0552,0.0460067,-0.0223578,-0.28623,272.6,5.0,52.1701,4.42726,-4.2,1.10539,292.903,4.56704,184.647,35.7243,150.14600000000002,0.673734,-0.0457434,240.654,1.04775,1.42399,5.950775146484379,22.0009689331055,4.97755002975464,22.0,-869317.0,3199.51,pp-ro,1,1,-1,-1
1570534051.0,2019-10-08,13:27:31.000,14.0,11.0,18.6900005340576,18.0,-4.5,-3.2,50.1,21.5,-35.1,19.3147,-4.4618,-3.00625,-0.422055,-2.59057,-4.14738,47.9857,19.7494,-34.5236,-0.105891,-0.1275099999999999,-0.1295609999999999,259.3,4.4,52.1701,4.42726,-4.2,1.11038,301.224,4.56705,184.179,37.2443,150.346,0.6748069999999999,-0.0542016999999999,240.652,1.02331,1.409,5.62718200683594,22.0009689331055,4.68489360809326,22.0,-869093.0,1907.4,pp-ro,1,1,-1,-1
1570534051.1,2019-10-08,13:27:31.100,14.0,10.0,18.9300003051758,17.8,-4.8,-3.6,49.5,22.2,-36.5,18.8719,-5.36503,-3.49955,-1.83244,-0.00896543,-4.62415,46.8878,21.6641,-37.5234,-0.0298497,-0.0584151999999999,-0.246276,259.3,4.4,52.1701,4.42726,-4.2,1.13642,306.881,4.56701,183.683,39.1443,150.64600000000002,0.67604,-0.0646091999999999,240.761,1.00539,1.38689,5.1605224609375,22.0009689331055,4.26157188415527,22.0,-868916.0,2276.57,pp-ro,1,1,-1,-1
1570534051.2,2019-10-08,13:27:31.200,14.0,9.0,19.159999847412102,17.7,-5.0,-3.8,49.6,22.7,-36.8,18.6281,-5.70717,-3.79517,-2.73762,-2.66603,-8.09683,46.2993,22.7517,-38.6551,-0.061456,0.0334205999999999,-0.266629,259.3,4.4,52.1701,4.42726,-4.2,1.127,309.54400000000004,4.56698,183.42,39.9043,150.846,0.67694,-0.0688286,240.811,0.998492,1.37372,4.78923034667969,22.0009689331055,3.97888159751892,22.0,-868415.0,2491.92,pp-ro,1,1,-1,-1
1570534051.3,2019-10-08,13:27:31.300,14.0,10.0,19.4699993133545,17.5,-5.3,-4.0,49.4,23.5,-38.1,18.574,-5.83726,-3.91394,5.99586,-3.50381,-1.79329,46.4231,23.3632,-39.1003,0.0911742,0.038931,-0.1580089999999999,259.3,4.4,52.1701,4.42726,-4.2,1.13698,311.699,4.56695,182.923,42.1844,151.247,0.678197,-0.0812265,241.073,0.981859,1.36083,4.295326232910161,22.0009689331055,3.76720333099365,22.0,-868317.0,1845.87,pp-ro,1,1,-1,-1
1570534051.4,2019-10-08,13:27:31.400,14.0,10.0,19.7399997711182,17.3,-5.7,-4.2,49.3,24.0,-39.2,18.574,-5.83726,-3.91394,5.99586,-3.50381,-1.79329,46.4231,23.3632,-39.1003,0.0911742,0.038931,-0.1580089999999999,259.3,4.4,52.1701,4.42726,-4.2,1.14695,316.995,4.56692,182.31,43.7044,151.547,0.679815,-0.0898294,241.067,0.96876,1.34261,4.104576110839839,22.0009689331055,3.3838574886322004,22.0,-868017.0,3568.68,pp-ro,1,1,-1,-1
1570534051.5,2019-10-08,13:27:31.500,14.0,10.0,20.1000003814697,17.0,-5.8,-4.4,49.4,24.6,-39.8,18.0124,-6.52433,-4.19146,-1.18862,-3.65581,-5.11756,45.9529,24.5701,-41.0557,0.0236509,-0.0579306,-0.110293,259.3,4.4,52.1701,4.42726,-4.2,1.15526,317.961,4.56688,181.696,45.6044,151.947,0.681478,-0.100423,241.208,0.961445,1.3322,3.7946014404296897,22.0009689331055,3.18069505691528,22.0,-867617.0,2645.75,pp-ro,1,1,-1,-1
1570534051.6,2019-10-08,13:27:31.600,14.0,10.0,20.229999542236303,17.0,-6.1,-4.5,49.3,25.1,-40.6,17.9352,-6.61463,-4.25546,-4.74412,-1.59935,-1.51868,46.0509,25.0182,-41.3119,-0.190349,0.0905892,-0.18364,259.3,4.4,52.1701,4.42726,-4.1,1.15415,316.453,4.56685,181.083,47.1244,152.347,0.683334,-0.109067,241.291,0.951843,1.32495,3.4812240600585898,22.0009689331055,3.00283432006836,22.0,-867401.0,4060.91,pp-ro,1,1,-1,-1
1570534051.7,2019-10-08,13:27:31.700,14.0,10.0,20.229999542236303,16.6,-6.4,-4.7,49.4,24.8,-41.6,17.7721,-6.998760000000001,-4.4351,-2.11215,-0.243484,2.10489,46.1992,25.7666,-41.8782,0.250763,-0.12761,-0.137014,259.3,4.4,52.1701,4.42726,-4.1,1.14307,321.29,4.56682,180.411,49.0244,152.747,0.68504,-0.119775,241.419,0.951055,1.3063,3.20701599121094,22.0009689331055,2.64061498641968,22.0,-867036.0,2953.39,pp-ro,1,1,-1,-1
1570534051.8,2019-10-08,13:27:31.800,14.0,10.0,20.1800003051758,16.4,-6.5,-4.8,49.5,25.3,-42.4,17.4486,-7.242030000000001,-4.55501,-10.0258,-0.398432,-6.09402,45.9861,25.5775,-42.9809,0.148232,-0.0474809,-0.0605925999999999,259.3,4.4,52.1701,4.42726,-4.1,1.17521,334.93300000000005,4.5667800000000005,179.739,50.5445,153.14700000000002,0.686958,-0.128541,241.485,0.941556,1.30039,3.0111541748046897,22.0009689331055,2.4898264408111603,22.0,-866913.0,1322.87,pp-ro,1,1,-1,-1
1570534051.9,2019-10-08,13:27:31.900,14.0,10.0,20.1900005340576,16.2,-7.0,-4.9,49.9,25.5,-42.7,17.09,-7.60686,-4.7504,2.32337,-1.82672,-5.15939,46.3249,26.5278,-43.6256,0.0528385,0.0303098999999999,-0.0796901999999999,259.3,4.4,52.1701,4.42726,-4.1,1.19072,340.982,4.56675,179.03799999999998,52.0645,153.64700000000002,0.689231,-0.137374,241.605,0.941438,1.28321,2.72161865234375,22.0009689331055,2.08370304107666,22.0,-866578.0,3322.56,pp-ro,1,1,-1,-1
1570534052.0,2019-10-08,13:27:32.000,14.0,10.0,20.1900005340576,16.2,-7.3,-4.9,49.9,25.5,-43.8,16.9152,-8.05821,-4.799519999999999,-3.93535,-1.87073,-3.61783,46.2612,26.5732,-44.4042,0.0648709,-0.0997136,-0.0469065,258.7,3.9,52.1701,4.42726,-4.1,1.18851,339.69199999999995,4.56671,178.27900000000002,53.9645,154.14700000000002,0.6913199999999999,-0.148274,241.779,0.935964,1.28188,2.4167633056640603,22.0009689331055,2.04622983932495,22.0,-866223.0,3291.8,pp-ro,1,1,-1,-1
1570534052.1,2019-10-08,13:27:32.100,14.0,10.0,20.3999996185303,16.0,-7.3,-5.1,49.9,25.2,-44.4,16.7623,-8.093110000000001,-4.83665,-6.14036,-1.08144,-2.63233,46.4359,26.4879,-45.1531,-0.00524774,-0.118005,0.152865,258.7,3.9,52.1701,4.42726,-4.1,1.18961,340.654,4.56666,177.52,55.4845,154.64700000000002,0.6936479999999999,-0.1572329999999999,241.883,0.938516,1.27463,2.15958404541016,22.0009689331055,1.83538365364075,22.0,-865858.0,4091.68,pp-ro,1,1,-1,-1
1570534052.2,2019-10-08,13:27:32.200,14.0,10.0,20.5799999237061,15.9,-7.6,-5.1,50.2,25.4,-45.1,16.7623,-8.093110000000001,-4.83665,-6.14036,-1.08144,-2.63233,46.4359,26.4879,-45.1531,-0.00524774,-0.118005,0.152865,258.7,3.9,52.1701,4.42726,-4.1,1.19183,346.68,4.56662,176.731,57.3845,155.14700000000002,0.6956979999999999,-0.168211,242.069,0.935268,1.27098,2.04547882080078,22.0009689331055,1.76315271854401,22.0,-865547.0,2830.33,pp-ro,1,1,-1,-1
1570534052.3,2019-10-08,13:27:32.300,14.0,10.0,20.8700008392334,15.7,-7.9,-5.2,49.9,25.3,-46.1,16.5779,-8.521989999999999,-4.87426,-2.72851,-8.91717,-1.6470900000000002,46.5002,26.7697,-46.1247,-0.0339085,-0.24993,-0.1048619999999999,258.7,3.9,52.1701,4.42726,-4.1,1.2151,353.996,4.56657,175.972,58.5245,155.648,0.6982510000000001,-0.175276,242.11,0.929521,1.25839,1.88367462158203,22.0009689331055,1.38261365890503,22.0,-865270.0,3076.45,pp-ro,1,1,-1,-1
1570534052.4,2019-10-08,13:27:32.400,14.0,10.0,20.9599990844727,15.6,-8.2,-5.2,49.8,25.4,-46.7,16.3365,-8.77897,-4.957990000000001,1.61877,-3.28033,2.86151,46.3781,26.4878,-47.1978,-0.00543831,-0.107857,-0.0194015,258.7,3.9,52.1701,4.42726,-4.1,1.21843,356.708,4.56652,175.06599999999997,60.4245,156.148,0.70049,-0.1865079999999999,242.242,0.928789,1.25506,1.8087387084960904,22.0009689331055,-35.0,22.0,-864749.0,2891.86,pp-ro,1,1,-1,-1
1570534052.5,2019-10-08,13:27:32.500,14.0,10.0,20.9599990844727,15.1,-8.4,-5.4,49.8,24.9,-47.0,15.979,-8.93976,-5.10331,-11.7621,1.49446,-1.71712,46.1615,26.3564,-47.7424,-0.006,0.0451761,-0.0909261,258.7,3.9,52.1701,4.42725,-3.9,1.22286,354.145,4.56648,174.19,61.9446,156.648,0.7029310000000001,-0.195778,242.317,0.937342,1.23407,1.58733367919922,22.0009689331055,-35.0,22.0,-864554.0,3876.33,pp-ro,1,1,-1,-1
1570534052.6,2019-10-08,13:27:32.600,14.0,10.0,20.9599990844727,14.8,-8.6,-5.4,49.2,24.6,-47.3,15.6079,-9.28257,-5.17471,-9.06863,1.29287,-2.39553,46.0998,26.2487,-47.792,-0.0591813999999999,-0.0365519,0.0901411,258.7,3.9,52.1701,4.42725,-3.9,1.18906,338.63800000000003,4.56643,173.31400000000002,63.0846,157.148,0.705676,-0.203147,242.307,0.942246,1.22509,1.29098510742188,22.0009689331055,-35.0,22.0,-863825.0,3999.38,pp-ro,1,1,-1,-1
1570534052.7,2019-10-08,13:27:32.700,14.0,9.0,21.0,14.4,-8.5,-5.3,49.3,23.8,-47.5,15.0986,-9.26918,-5.0113,2.38721,2.18609,2.81969,46.0889,25.8083,-47.888000000000005,-0.249251,0.0503929,0.0805116999999999,258.7,3.9,52.1701,4.42725,-3.9,1.17687,328.64300000000003,4.5663800000000005,172.437,64.9846,157.748,0.707991,-0.214416,242.574,0.956884,1.22705,0.7357635498046879,22.0009689331055,-35.0,22.0,-863397.0,4583.91,pp-ro,1,1,-1,-1
1570534052.8,2019-10-08,13:27:32.800,14.0,10.0,21.2099990844727,14.4,-8.4,-5.2,49.4,23.7,-47.5,14.9381,-9.10054,-5.00442,-3.82214,1.50236,1.92677,46.0218,25.5967,-47.7204,-0.116491,-0.0153824,-0.0852517,258.7,3.9,52.1701,4.42725,-3.9,1.16524,323.834,4.566330000000001,171.532,66.1246,158.248,0.710737,-0.221908,242.566,0.963032,1.23873,-0.180915832519531,22.0009689331055,-35.0,22.0,-863154.0,4737.73,pp-ro,1,1,-1,-1
1570534052.9,2019-10-08,13:27:32.900,14.0,11.0,21.1700000762939,14.4,-8.4,-4.9,49.6,23.2,-47.7,14.9618,-9.12527,-5.01768,-1.94797,3.4285300000000003,2.30087,46.1675,25.7618,-47.5891,0.0393797,0.157408,0.147602,258.7,3.9,52.1701,4.42725,-3.9,1.14972,316.627,4.56629,170.685,68.0246,158.84799999999998,0.712865,-0.2331599999999999,242.886,0.974154,1.25847,-1.45417022705078,22.0009689331055,-35.0,22.0,-862643.0,3045.68,pp-ro,1,1,-1,-1
1570534053.0,2019-10-08,13:27:33.000,14.0,11.0,21.1299991607666,14.6,-8.5,-4.6,49.4,22.2,-48.3,14.9324,-9.21532,-4.64352,4.83882,-4.67324,-2.75088,46.2871,25.3563,-47.6969,-0.142341,-0.045081,0.0285629999999999,266.1,5.4,52.1701,4.42725,-3.9,1.1475,319.057,4.566269999999999,169.77900000000002,69.1646,159.34799999999998,0.715537,-0.2407389999999999,242.9,0.983975,1.27912,-3.0756072998046897,22.0009689331055,-35.0,22.0,-862307.0,3230.27,pp-ro,1,1,-1,-1
1570534053.1,2019-10-08,13:27:33.100,14.0,11.0,20.9200000762939,14.9,-8.4,-4.3,49.5,21.4,-48.4,15.2332,-9.11033,-4.1549,-0.673133,1.2794299999999998,1.2322799999999998,46.8001,24.3103,-47.6666,0.0097404,0.0736979,0.245383,266.1,5.4,52.1701,4.42725,-3.9,1.15526,320.328,4.566269999999999,168.87400000000002,71.0646,159.84799999999998,0.717385,-0.252202,243.146,1.00002,1.31021,-5.05888366699219,22.0009689331055,-35.0,22.0,-862045.0,2522.69,pp-ro,1,1,-1,-1
1570534053.2,2019-10-08,13:27:33.200,14.0,11.0,20.7099990844727,15.3,-8.5,-3.8,50.6,20.3,-47.3,15.2539,-9.05379,-3.93558,0.102781,1.0860299999999998,1.7948099999999998,47.1947,24.1056,-47.3688,0.0332825,-0.0997933999999999,0.143814,266.1,5.4,52.1701,4.42725,-3.9,1.15194,312.511,4.56628,167.998,72.2046,160.248,0.719599,-0.259814,243.138,1.03137,1.34375,-7.171875,22.0009689331055,-35.0,22.0,-861656.0,4307.03,pp-ro,1,1,-1,-1
1570534053.3,2019-10-08,13:27:33.300,14.0,13.0,20.6700000762939,16.0,-8.4,-3.1,51.6,18.4,-46.8,15.8729,-9.01629,-3.01066,8.36634,3.68884,-0.843413,48.802,22.5674,-45.3622,0.0612593,0.0142362,0.236506,266.1,5.4,52.1701,4.42725,-3.9,1.13476,303.545,4.56629,167.12099999999998,73.7246,160.648,0.721368,-0.269361,243.255,1.06671,1.39845,-9.28827667236328,22.0009689331055,-35.0,22.0,-861380.0,5106.9,pp-ro,1,1,-1,-1
1570534053.4,2019-10-08,13:27:33.400,14.0,13.0,20.5400009155273,16.7,-8.0,-2.5,52.7,16.0,-46.0,16.197,-8.83275,-2.65469,6.00508,5.29054,12.3504,49.5578,21.8067,-44.6225,0.0614438,-0.00885944,0.3024449999999999,266.1,5.4,52.1701,4.42725,-3.9,1.10816,293.176,4.56629,166.245,75.6247,160.94899999999998,0.722356,-0.280813,243.436,1.11337,1.45687,-11.394439697265598,22.0009689331055,-35.0,22.0,-860985.0,3814.8,pp-ro,1,1,-1,-1
1570534053.5,2019-10-08,13:27:33.500,14.0,11.0,20.409999847412102,17.6,-7.8,-1.6,54.1,13.5,-44.5,16.3946,-8.62438,-2.19038,5.55398,3.91238,4.84483,50.0148,20.771,-44.1485,0.015891,-0.2228389999999999,0.382496,266.1,5.4,52.1701,4.42725,-3.9,1.11204,301.978,4.5663,165.398,77.1447,161.149,0.7233350000000001,-0.290333,243.468,1.1687299999999998,1.52127,-13.4937744140625,22.0009689331055,-35.0,22.0,-860724.0,2307.34,pp-ro,1,1,-1,-1
1570534053.6,2019-10-08,13:27:33.600,14.0,10.0,20.2800006866455,18.3,-7.5,-0.3,55.7,10.4,-42.5,17.7309,-7.84618,-0.2534929999999999,2.17502,2.23031,11.6552,53.0702,15.9194,-40.1752,0.26858,0.168081,0.731264,266.1,5.4,52.1701,4.42725,-3.8,1.15027,314.121,4.56631,164.61,79.0447,161.349,0.723679,-0.301596,243.676,1.23925,1.59833,-15.6033477783203,22.0009689331055,-35.0,22.0,-860483.0,2338.1,pp-ro,1,1,-1,-1
1570534053.7,2019-10-08,13:27:33.700,14.0,10.0,20.3299999237061,19.1,-6.7,1.0,57.5,6.4,-40.6,17.7309,-7.84618,-0.2534929999999999,2.17502,2.23031,11.6552,53.0702,15.9194,-40.1752,0.26858,0.168081,0.731264,266.1,5.4,52.1701,4.42725,-3.8,1.15027,310.991,4.566319999999999,163.85,80.5647,161.349,0.72373,-0.310908,243.662,1.31923,1.68714,-17.7095031738281,22.0009689331055,-35.0,22.0,-860257.0,4307.03,pp-ro,1,1,-1,-1
1570534053.8,2019-10-08,13:27:33.800,14.0,10.0,20.5,19.7,-5.5,2.6,59.0,1.8,-38.3,18.5962,-6.58569,1.93021,0.21033,10.4758,15.6061,55.7671,10.5096,-35.7621,0.169743,0.0409481,0.839074,266.1,5.4,52.1701,4.42725,-3.8,1.12091,301.85,4.566319999999999,163.207,82.8447,161.149,0.721909,-0.3236429999999999,243.862,1.4149200000000002,1.7963900000000002,-19.8293228149414,22.0009689331055,-35.0,22.0,-859699.0,2614.98,pp-ro,1,1,-1,-1
1570534053.9,2019-10-08,13:27:33.900,14.0,8.0,20.9300003051758,20.3,-4.3,4.2,60.7,-2.3,-35.4,19.0752,-5.41493,3.5049900000000003,4.97726,11.3965,11.9697,57.0935,6.18799,-32.9861,0.3074429999999999,0.134346,1.05473,266.1,5.4,52.1701,4.42725,-3.8,1.12479,303.286,4.566330000000001,162.65200000000002,84.3648,160.849,0.7204430000000001,-0.332419,243.815,1.50881,1.89873,-21.9406051635742,22.0009689331055,-35.0,22.0,-859548.0,2861.1,pp-ro,1,1,-1,-1
