time,date,time_of_day,airspeed_temperature,airspeed_angle_of_attack,airspeed_apparent_windspeed,kite_0_vx,kite_0_vy,kite_0_vz,kite_0_roll,kite_0_pitch,kite_0_yaw,kite_1_vx,kite_1_vy,kite_1_vz,kite_1_ax,kite_1_ay,kite_1_az,kite_1_roll,kite_1_pitch,kite_1_yaw,kite_1_roll_rate,kite_1_pitch_rate,kite_1_yaw_rate,ground_upwind_direction,ground_wind_velocity,ground_pos_latitude,ground_pos_longitude,ground_pos_altitude,ground_tether_reelout_speed,ground_tether_force,est_upwind_direction,kite_pos_east,kite_pos_north,kite_height,kite_elevation,kite_azimuth,kite_distance,kite_heading,kite_course,kite_actual_steering,kite_actual_depower,kite_set_steering,kite_set_depower,ground_mech_energy,ground_mech_power,flight_phase,flight_phase_index,phase,pattern,pattern_section
1570537226.9,2019-10-08,14:20:26.900,15.0,8.0,15.6499996185303,10.0,-3.4,2.2,16.2,-0.4,-64.2,7.919630000000001,-3.53255,2.38064,10.3377,5.07171,1.10402,16.8993,13.5519,-71.0532,0.0847972,0.293607,0.7792439999999999,246.3,5.6,52.1701,4.42724,8.7,-2.70669,108.913,4.42325,54.9395,0.380318,232.289,1.33855,0.282217,238.698,0.468829,1.30443,-33.753204345703104,22.0637912750244,-35.0,22.0,-710641.0,1538.22,pp-riro,4,0,-1,-1
1570537227.0,2019-10-08,14:20:27.000,15.0,8.0,15.359999656677198,11.0,-2.5,2.4,18.0,-1.9,-59.3,9.70767,-1.81993,2.94975,10.957,8.25203,4.00497,21.1632,12.4907,-60.1085,0.0691916,0.190911,0.878331,246.3,5.6,52.1701,4.42724,8.7,-2.66901,104.656,4.42322,54.589,1.90037,232.189,1.33975,0.254373,238.528,0.587214,1.43536,-34.507598876953104,22.030834197998,-35.0,22.0,-710818.0,-1661.28,pp-riro,4,0,-1,-1
1570537227.1,2019-10-08,14:20:27.100,15.0,8.0,15.0699996948242,11.9,-1.5,2.7,19.8,-3.5,-54.5,10.5833,-0.90504,3.28126,9.43874,10.5619,3.96783,23.2307,11.2024,-54.5681,0.041291,0.185873,0.947571,246.3,5.6,52.1701,4.42724,8.7,-2.65073,102.447,4.42318,54.3845,2.66039,231.989,1.34026,0.240325,238.294,0.690601,1.54776,-34.903564453125,22.0061168670654,-35.0,22.0,-711203.0,-5322.26,pp-riro,4,0,-1,-1
1570537227.2,2019-10-08,14:20:27.200,15.0,9.0,14.890000343322802,12.7,-0.5,3.0,21.5,-4.9,-49.5,10.9912,-0.402723,3.3942,7.84859,10.3165,4.9351,24.2867,10.554,-51.6673,0.158859,0.231128,0.913087,247.5,5.7,52.1701,4.42724,8.7,-2.64408,101.131,4.42317,54.2092,3.80043,231.689,1.34041,0.2192219999999999,237.977,0.804535,1.65437,-34.970123291015604,22.0009689331055,-35.0,22.0,-711756.0,-5506.84,pp-riro,4,0,-1,-1
1570537227.3,2019-10-08,14:20:27.300,15.0,9.0,14.6499996185303,13.5,0.4,3.4,23.4,-6.6,-44.2,12.035,1.11735,3.93229,7.71042,9.63026,2.94187,27.1085,8.39962,-43.0415,0.115945,0.168264,0.952769,247.5,5.7,52.1701,4.42724,8.7,-2.64353,98.8971,4.42319,54.18,4.94047,231.489,1.33996,0.198269,237.796,0.924765,1.7449599999999998,-34.970123291015604,22.0009689331055,-35.0,22.0,-712256.0,-5137.67,pp-riro,4,0,-1,-1
1570537227.4,2019-10-08,14:20:27.400,15.0,9.0,14.4700002670288,14.1,1.6,3.8,24.8,-8.3,-39.2,12.3446,1.61984,4.13927,9.04025,11.8685,6.5724,28.0712,7.5639,-40.164,0.288645,0.2300739999999999,0.990509,247.5,5.7,52.1701,4.42724,8.7,-2.6668,96.7691,4.4232,54.2384,6.84054,231.289,1.33869,0.16374,237.662,1.05362,1.8622,-34.975250244140604,22.0009689331055,-35.0,22.0,-713377.0,-7537.3,pp-riro,4,0,-1,-1
1570537227.5,2019-10-08,14:20:27.500,15.0,9.0,14.3400001525879,14.8,2.7,4.2,26.0,-10.0,-34.1,12.9509,2.6136,4.55459,6.93526,10.405,3.90983,29.4884,5.6609,-34.6156,0.175151,0.1190099999999999,0.896855,247.5,5.7,52.1701,4.42724,8.7,-2.6701200000000003,95.4139,4.42321,54.4136,7.980580000000001,230.989,1.33706,0.143554,237.446,1.16976,1.94889,-34.9906158447266,22.0009689331055,-35.0,22.0,-713790.0,-7291.18,pp-riro,4,0,-1,-1
1570537227.6,2019-10-08,14:20:27.600,15.0,9.0,14.2799997329712,15.2,3.9,4.7,27.1,-12.1,-29.3,13.5072,3.71262,4.95559,3.59246,11.5655,3.26709,30.7692,3.48255,-29.1755,0.177402,0.195547,1.08053,247.5,5.7,52.1701,4.42724,8.7,-2.72331,90.999,4.42322,54.6765,9.50064,230.58900000000003,1.33462,0.117127,237.173,1.28854,2.0462,-34.9923248291016,22.0009689331055,-35.0,22.0,-715289.0,-12090.4,pp-riro,4,0,-1,-1
1570537227.7,2019-10-08,14:20:27.700,15.0,9.0,14.2200002670288,15.5,5.1,5.1,28.0,-14.2,-24.0,13.9294,4.81027,5.39101,2.45081,11.996,4.7611,31.8447,1.26136,-23.7058,0.101409,0.1657529999999999,1.00199,247.5,5.7,52.1701,4.42724,8.7,-2.73883,90.3756,4.42323,55.0854,11.0207,230.289,1.33153,0.0917005,237.042,1.41484,2.13682,-34.9991455078125,22.0009689331055,-35.0,22.0,-715885.0,-11167.5,pp-riro,4,0,-1,-1
1570537227.8,2019-10-08,14:20:27.800,15.0,9.0,14.1599998474121,15.8,6.3,5.5,28.6,-16.3,-18.8,14.2643,6.502669999999999,6.01839,0.96429,10.149,5.170719999999999,32.7681,-2.1796900000000003,-15.5884,0.122445,0.184917,0.968347,247.5,5.7,52.1701,4.42724,8.6,-2.79091,89.7821,4.42324,55.6111,12.9208,229.789,1.3272700000000002,0.0608566,236.775,1.54446,2.22695,-34.9974365234375,22.0009689331055,-35.0,22.0,-717109.0,-13505.6,pp-riro,4,0,-1,-1
1570537227.9,2019-10-08,14:20:27.900,15.0,8.0,14.0900001525879,15.9,7.6,5.9,29.1,-18.1,-13.4,14.3959,7.6381,6.36402,-0.403429,13.1561,4.950069999999999,33.211,-4.5181,-10.0698,0.181649,0.2061989999999999,1.03933,247.5,5.7,52.1701,4.42724,8.6,-2.84189,89.258,4.42325,56.1952,14.0608,229.389,1.32344,0.0439569999999999,236.59,1.6615400000000002,2.30819,-34.9974365234375,22.0009689331055,-35.0,22.0,-718551.0,-14367.0,pp-riro,4,0,-1,-1
1570537228.0,2019-10-08,14:20:28.000,15.0,8.0,14.0900001525879,15.9,8.9,6.4,29.2,-20.1,-7.9,14.4763,8.79803,6.78833,-1.12935,12.6312,4.65906,33.2817,-6.555460000000001,-4.48787,0.0106962999999999,0.2332159999999999,0.952914,247.5,5.7,52.1701,4.42724,8.6,-2.89951,90.5687,4.42329,57.013000000000005,15.5809,228.889,1.3181,0.0223301,236.397,1.7852,2.39251,-34.9974365234375,22.0009689331055,-35.0,22.0,-719898.0,-12490.4,pp-riro,4,0,-1,-1
1570537228.1,2019-10-08,14:20:28.100,15.0,9.0,14.1499996185303,15.8,10.1,6.8,29.4,-22.0,-2.4,14.4688,9.33346,7.014710000000001,-0.902839,10.1661,4.86722,33.1022,-7.592919999999999,-1.58057,0.105208,0.261367,1.04393,247.5,5.7,52.1701,4.42724,8.6,-2.94606,93.6359,4.4233,57.86,17.480999999999998,228.289,1.31197,-0.00431371,236.155,1.91207,2.47475,-34.9974365234375,22.0009689331055,-35.0,22.0,-721200.0,-13290.3,pp-riro,4,0,-1,-1
1570537228.2,2019-10-08,14:20:28.200,15.0,9.0,14.2799997329712,15.6,11.4,7.2,29.1,-23.7,3.2,14.3373,10.4861,7.42485,-3.03327,11.5748,1.72775,32.6577,-9.5941,4.10157,0.0794483,0.290049,0.995237,245.9,5.8,52.1701,4.42724,8.6,-2.99149,97.2048,4.42327,58.8822,19.001,227.789,1.30557,-0.0230272,236.042,2.03076,2.55257,-34.9974365234375,22.0009689331055,-35.0,22.0,-722748.0,-11136.7,pp-riro,4,0,-1,-1
1570537228.3,2019-10-08,14:20:28.300,15.0,9.0,14.460000038147,15.4,12.7,7.6,28.6,-25.2,9.0,14.3373,10.4861,7.42485,-3.03327,11.5748,1.72775,32.6577,-9.5941,4.10157,0.0794483,0.290049,0.995237,245.9,5.8,52.1701,4.42724,8.6,-3.0059,99.6292,4.42325,60.0213,20.5211,227.08900000000003,1.29841,-0.0403089,235.782,2.14902,2.62494,-34.9974365234375,22.0009689331055,-35.0,22.0,-723152.0,-7691.12,pp-riro,4,0,-1,-1
1570537228.4,2019-10-08,14:20:28.400,15.0,10.0,14.6999998092651,15.2,14.1,8.1,28.1,-26.7,15.0,13.9091,12.8168,8.2053,0.17973,12.7019,5.47071,31.2766,-12.8911,15.7604,0.0139865,0.232533,0.94945,245.9,5.8,52.1701,4.42724,8.6,-3.00645,107.305,4.42323,61.3356,22.0412,226.389,1.2904799999999998,-0.0558241,235.584,2.26736,2.69535,-34.9974365234375,22.0009689331055,-35.0,22.0,-723763.0,-6275.96,pp-riro,4,0,-1,-1
1570537228.5,2019-10-08,14:20:28.500,15.0,9.0,14.890000343322802,15.1,14.8,8.4,27.8,-27.4,17.8,13.7401,14.0026,8.67186,-2.9007,10.1728,4.98959,30.2243,-14.2935,21.9657,0.0563550999999999,0.295245,1.02006,245.9,5.8,52.1701,4.42724,8.6,-2.96988,118.282,4.42321,62.7375,23.9412,225.989,1.28196,-0.0753738,235.754,2.3341,2.74022,-34.9991455078125,22.0009689331055,-35.0,22.0,-723753.0,1661.28,pp-riro,4,0,-1,-1
1570537228.6,2019-10-08,14:20:28.600,15.0,10.0,15.1800003051758,14.6,16.1,9.0,26.7,-29.7,27.1,13.3227,15.2254,9.203,-6.28021,12.6261,5.003480000000001,29.0804,-15.6787,28.3549,0.0124202,0.314027,1.02994,245.9,5.8,52.1701,4.42724,8.6,-2.81418,134.997,4.42319,64.2563,25.0813,224.789,1.27306,-0.0829453999999999,235.134,2.4968,2.8038,-34.9991455078125,22.0009689331055,-23.0044822692871,22.0,-722357.0,12613.4,pp-riro,4,0,-1,-1
1570537228.7,2019-10-08,14:20:28.700,15.0,10.0,15.4099998474121,14.0,18.2,9.8,26.0,-30.3,33.5,12.7908,16.5289,9.68053,-5.4819,15.1739,2.12683,27.5913,-17.1385,34.7389,-0.0548399,0.287255,1.03298,245.9,5.8,52.1701,4.42724,8.6,-2.7404900000000003,138.585,4.42317,65.9503,26.6014,224.289,1.26376,-0.0941761,235.292,2.60904,2.89018,-34.9991455078125,22.0009689331055,-22.031885147094695,22.0,-721468.0,16674.4,pp-riro,4,0,-1,-1
1570537228.8,2019-10-08,14:20:28.800,15.0,11.0,15.75,12.8,19.5,10.3,24.1,-32.1,40.3,11.9869,17.7252,10.1506,-9.55519,12.2812,6.74003,26.1815,-18.2065,41.2607,-0.0646385,0.276761,1.01419,245.9,5.8,52.1701,4.42724,8.5,-2.54933,144.136,4.42315,67.7611,28.1214,222.789,1.25268,-0.104149,234.557,2.72843,2.96933,-34.8096923828125,22.0009689331055,-21.1888732910156,22.0,-719682.0,19289.3,pp-riro,4,0,-1,-1
1570537228.9,2019-10-08,14:20:28.900,15.0,11.0,16.1399993896484,11.8,20.9,10.7,22.5,-33.0,47.5,11.6399,18.35,10.3453,-10.0398,13.2444,3.26705,25.3487,-18.8666,44.6829,0.1045059999999999,0.309462,1.04329,245.9,5.8,52.1701,4.42724,8.5,-2.34931,150.734,4.4231300000000005,69.7764,29.2615,221.789,1.24203,-0.107826,234.34,2.84368,3.03441,-34.222564697265604,22.0009689331055,-20.442907333374,22.0,-717824.0,19566.2,pp-riro,4,0,-1,-1
1570537229.0,2019-10-08,14:20:29.000,15.0,11.0,16.520000457763697,11.2,21.4,10.9,21.6,-33.3,50.9,11.6399,18.35,10.3453,-10.0398,13.2444,3.26705,25.3487,-18.8666,44.6829,0.1045059999999999,0.309462,1.04329,245.9,5.8,52.1701,4.42724,8.5,-2.09776,157.864,4.423109999999999,70.7402,30.0215,221.289,1.23655,-0.112076,234.252,2.89945,3.06765,-33.278717041015604,22.0009689331055,-20.140251159668,22.0,-715772.0,20981.4,pp-riro,4,0,-1,-1
1570537229.1,2019-10-08,14:20:29.100,15.0,11.0,16.8299999237061,9.9,22.5,11.3,19.7,-34.5,58.3,9.60813,20.5688,11.1317,-13.0035,10.4279,4.07376,21.4716,-21.0172,58.4023,0.0312062,0.142564,1.03134,245.9,5.8,52.1701,4.42724,8.5,-1.82903,164.63099999999997,4.42309,72.96,31.1616,220.08900000000003,1.22482,-0.114354,233.951,3.01415,3.1317,-31.9832763671875,22.0009689331055,-19.4496269226074,22.0,-713579.0,21842.8,pp-riro,4,0,-1,-1
1570537229.2,2019-10-08,14:20:29.200,15.0,10.0,17.0900001525879,8.5,23.5,11.6,18.0,-34.8,65.3,9.60813,20.5688,11.1317,-13.0035,10.4279,4.07376,21.4716,-21.0172,58.4023,0.0312062,0.142564,1.03134,250.2,5.6,52.1701,4.42724,8.5,-1.35362,170.68,4.42309,75.2089,32.3017,218.988,1.2131,-0.116371,233.786,3.12005,3.19491,-30.3276977539062,22.0009689331055,-18.7887859344482,22.0,-710616.0,18366.4,pp-riro,4,0,-1,-1
1570537229.3,2019-10-08,14:20:29.300,15.0,10.0,17.3500003814697,7.0,24.2,11.6,15.7,-34.6,72.3,6.35614,22.6638,11.6018,-14.5377,5.152340000000001,1.81288,16.2063,-23.229,75.2565,0.2081489999999999,0.173849,0.8761690000000001,250.2,5.6,52.1701,4.42724,8.5,-1.19626,170.884,4.423109999999999,77.5747,33.0617,217.888,1.20153,-0.11359,233.637,3.2211,3.25197,-28.3341827392578,22.0009689331055,-18.1230373382568,22.0,-709756.0,16151.4,pp-riro,4,0,-1,-1
1570537229.4,2019-10-08,14:20:29.400,15.0,9.0,17.5,5.4,24.8,11.7,13.7,-34.5,79.1,5.6014800000000005,22.9059,11.6351,-16.0296,4.79015,2.33801,15.3526,-23.5915,78.3791,0.175931,0.139059,0.961326,250.2,5.6,52.1701,4.42724,8.5,-0.691495,168.489,4.4231300000000005,79.9697,33.4418,216.688,1.1902700000000002,-0.106819,233.382,3.3153900000000003,3.3067,-26.2211990356445,22.0009689331055,-17.390701293945302,22.0,-708057.0,9260.11,pp-riro,4,0,-1,-1
1570537229.5,2019-10-08,14:20:29.500,15.0,9.0,17.6499996185303,3.8,25.2,11.7,11.5,-34.1,85.5,4.18466,23.5343,11.6981,-13.9214,2.77046,1.82441,13.586,-23.9956,84.5935,0.14894,0.167044,1.08071,250.2,5.6,52.1701,4.42724,8.5,-0.382317,164.52,4.42315,82.5691,34.5818,215.488,1.17707,-0.107385,233.343,3.41004,3.36588,-24.1201553344727,22.0009689331055,-16.9111194610596,22.0,-707478.0,4491.62,pp-riro,4,0,-1,-1
1570537229.6,2019-10-08,14:20:29.600,15.0,8.0,17.75,2.5,25.4,11.5,9.5,-33.6,91.3,2.16375,23.8847,11.4268,-15.3631,-0.379687,-1.03746,10.7626,-24.2884,93.0138,-0.154507,0.276179,0.735258,250.2,5.6,52.1701,4.42724,8.5,-0.210551,161.539,4.42317,85.0517,34.9619,214.388,1.1656,-0.100786,233.278,3.49013,3.40722,-22.0976257324219,22.0009689331055,-16.5090847015381,22.0,-707352.0,2491.92,pp-riro,4,0,-1,-1
1570537229.7,2019-10-08,14:20:29.700,15.0,8.0,17.7999992370605,1.2,25.4,11.2,7.6,-32.8,97.0,2.16375,23.8847,11.4268,-15.3631,-0.379687,-1.03746,10.7626,-24.2884,93.0138,-0.154507,0.276179,0.735258,250.2,5.6,52.1701,4.42724,8.5,0.182847,154.179,4.42318,87.5635,34.9619,213.388,1.15474,-0.0906763999999999,233.29,3.56695,3.44515,-20.3362350463867,22.0009689331055,-16.0595569610596,22.0,-707469.0,-2215.04,pp-riro,4,0,-1,-1
1570537229.8,2019-10-08,14:20:29.800,15.0,8.0,17.7999992370605,-0.1,25.3,10.9,5.9,-31.5,101.9,0.970996,24.0329,11.0652,-8.1211,2.78393,-0.586436,8.92198,-24.0447,98.3247,0.187605,0.269257,1.01184,250.2,5.6,52.1701,4.42724,8.4,0.315273,153.054,4.4232,90.1629,34.962,212.288,1.14335,-0.0807277,233.276,3.63455,3.4836400000000003,-18.5270538330078,22.0009689331055,-15.6570777893066,22.0,-707634.0,-3261.04,pp-riro,4,0,-1,-1
1570537229.9,2019-10-08,14:20:29.900,15.0,8.0,17.7000007629395,-1.1,25.1,10.7,4.4,-30.8,106.4,-0.183693,23.9804,10.7848,-10.0155,1.04184,-0.672876,7.3883,-23.3883,103.015,0.2762699999999999,0.202919,0.7861100000000001,250.2,5.6,52.1701,4.42724,8.4,0.216646,162.359,4.42322,92.6747,34.962,211.288,1.13242,-0.0715789,233.353,3.69509,3.51214,-17.9143218994141,22.0009689331055,-15.4759483337402,22.0,-707410.0,-338.409,pp-riro,4,0,-1,-1
1570537230.0,2019-10-08,14:20:30.000,15.0,9.0,17.6000003814697,-2.2,24.9,10.8,2.6,-29.5,110.7,-1.7104700000000002,23.7887,10.5829,-7.760510000000001,-4.49709,2.53038,4.78854,-22.4149,109.696,-0.0569985,0.236234,0.666985,250.2,5.6,52.1701,4.42724,8.4,0.287015,174.169,4.42324,95.1573,34.9621,210.288,1.12158,-0.0629543,233.449,3.756380000000001,3.54352,-16.8475875854492,22.0009689331055,-15.2737579345703,22.0,-707518.0,-2153.51,pp-riro,4,0,-1,-1
1570537230.1,2019-10-08,14:20:30.100,15.0,10.0,17.5400009155273,-3.3,24.8,10.9,0.6,-28.3,114.7,-2.19822,23.684,10.6481,-15.5967,-1.15814,0.928319,3.92916,-22.0474,111.652,-0.0648694,0.20667,0.572022,250.2,5.6,52.1701,4.42724,8.4,0.3169349999999999,188.066,4.42326,97.7276,34.9621,209.188,1.11022,-0.0544332,233.522,3.81346,3.57501,-15.9054412841797,22.0009689331055,-15.1354484558105,22.0,-707417.0,892.17,pp-riro,4,0,-1,-1
1570537230.2,2019-10-08,14:20:30.200,15.0,10.0,17.5400009155273,-4.3,24.7,10.7,-1.1,-27.2,118.4,-3.6658,23.6318,10.5773,-8.77513,1.73063,-2.80201,0.842046,-20.8186,117.368,-0.019333,0.2237469999999999,0.497809,256.4,5.5,52.1701,4.42724,8.4,0.328571,189.224,4.4233,100.21,34.5821,208.088,1.09962,-0.0432091999999999,233.535,3.86387,3.6025,-15.4241333007812,22.0009689331055,-14.975459098815902,22.0,-707401.0,246.116,pp-riro,4,0,-1,-1
1570537230.3,2019-10-08,14:20:30.300,15.0,11.0,17.5900001525879,-5.4,24.5,10.8,-3.0,-25.7,121.4,-4.66969,23.6183,10.4258,-11.5688,0.410884,0.243951,-1.3086,-19.9579,120.516,-0.403587,0.162791,0.450846,256.4,5.5,52.1701,4.42724,8.4,0.331341,194.375,4.42336,102.722,33.8221,206.988,1.08933,-0.0290492,233.537,3.90441,3.62903,-15.0827789306641,22.0009689331055,-14.7570304870605,22.0,-707368.0,584.525,pp-riro,4,0,-1,-1
1570537230.4,2019-10-08,14:20:30.400,15.0,11.0,17.6900005340576,-6.4,24.5,10.9,-5.2,-25.0,124.6,-4.66969,23.6183,10.4258,-11.5688,0.410884,0.243951,-1.3086,-19.9579,120.516,-0.403587,0.162791,0.450846,256.4,5.5,52.1701,4.42724,8.4,0.353505,210.74,4.42342,105.175,33.0622,205.888,1.07917,-0.0156019,233.548,3.94395,3.65146,-14.881378173828098,22.0009689331055,-14.6653890609741,22.0,-707362.0,-153.822,pp-riro,4,0,-1,-1
1570537230.5,2019-10-08,14:20:30.500,15.0,11.0,17.840000152587898,-7.4,24.3,11.1,-7.0,-23.8,127.4,-6.24017,23.6265,10.6337,-14.2287,0.459949,0.702783,-4.88788,-18.688,124.939,-0.371975,0.1332539999999999,0.324453,256.4,5.5,52.1701,4.42724,8.4,0.388966,226.779,4.4234800000000005,107.629,32.6822,204.688,1.0683200000000002,-0.00589828,233.558,3.98426,3.677,-14.7823867797852,22.0009689331055,-14.7137861251831,22.0,-707338.0,399.9380000000001,pp-riro,4,0,-1,-1
1570537230.6,2019-10-08,14:20:30.600,15.0,13.0,17.9400005340576,-8.5,24.1,11.3,-9.5,-23.1,130.2,-7.19833,23.3984,10.767,-13.8685,-1.68908,3.32464,-7.38921,-17.742,127.692,-0.329059,-0.0514809999999999,0.570082,256.4,5.5,52.1701,4.42724,8.4,0.410021,239.533,4.42354,110.053,31.9222,203.488,1.05793,0.00653491,233.533,4.01915,3.70312,-14.6560821533203,22.0009689331055,35.0,22.0,-707242.0,707.5830000000001,pp-riro,4,0,-1,-1
1570537230.7,2019-10-08,14:20:30.700,15.0,13.0,18.0300006866455,-9.6,24.0,11.5,-11.3,-22.3,132.8,-8.30979,23.3369,10.8805,-8.805480000000001,0.274851,-1.41447,-10.0043,-17.4326,130.34,-0.373404,0.109703,0.476255,256.4,5.5,52.1701,4.42724,8.4,0.565718,244.758,4.4236,112.477,31.1623,202.188,1.04727,0.0185145,233.457,4.05232,3.7282,-14.6885147094727,22.0009689331055,35.0,22.0,-707987.0,-13997.8,pp-riro,4,0,-1,-1
1570537230.8,2019-10-08,14:20:30.800,15.0,12.0,18.0799999237061,-10.6,23.6,11.4,-13.7,-21.7,135.4,-8.86273,23.2471,10.8712,-9.30262,-2.12966,-3.74357,-11.2785,-16.9745,131.49,-0.403507,0.0849811,0.47805,256.4,5.5,52.1701,4.42725,8.4,1.18297,233.045,4.42366,114.901,29.6423,200.887,1.03725,0.0362546999999999,233.317,4.079330000000001,3.75011,-14.528076171875,22.0009689331055,35.0,22.0,-709730.0,14459.3,pp-riro,4,0,-1,-1
1570537230.9,2019-10-08,14:20:30.900,15.0,11.0,18.1800003051758,-11.1,23.1,11.0,-15.7,-21.5,138.2,-9.81142,22.9245,10.9928,-2.93696,-4.7881800000000005,-4.59403,-13.6351,-16.2396,134.107,-0.231922,-0.124327,0.434372,256.4,5.5,52.1701,4.42725,8.4,0.889302,213.598,4.423719999999999,117.238,28.8823,199.587,1.02673,0.0471235,233.268,4.11179,3.76626,-13.9750823974609,22.0009689331055,35.0,22.0,-708099.0,9321.64,pp-riro,4,0,-1,-1
1570537231.0,2019-10-08,14:20:31.000,15.0,9.0,18.2199993133545,-11.9,22.6,11.0,-16.8,-20.3,139.6,-10.8285,22.2538,10.4826,-5.90302,-6.947960000000001,0.0162059,-16.5593,-16.2742,137.428,-0.147824,-0.0270115,0.404985,256.4,5.5,52.1701,4.42725,8.4,0.909249,223.859,4.423780000000001,119.516,27.7423,198.287,1.01669,0.0605265,233.177,4.12999,3.78614,-13.0619583129883,22.0009689331055,35.0,22.0,-708552.0,-8429.47,pp-riro,4,0,-1,-1
1570537231.1,2019-10-08,14:20:31.100,15.0,9.0,18.3700008392334,-12.7,22.0,11.4,-18.3,-19.6,141.3,-10.8285,22.2538,10.4826,-5.90302,-6.947960000000001,0.0162059,-16.5593,-16.2742,137.428,-0.147824,-0.0270115,0.404985,256.4,5.5,52.1701,4.42725,8.4,1.08101,254.664,4.42384,121.853,26.2223,196.987,1.00665,0.0766148999999999,233.109,4.14649,3.80046,-11.800651550293,22.0009689331055,35.0,22.0,-708848.0,2830.33,pp-riro,4,0,-1,-1
1570537231.2,2019-10-08,14:20:31.200,15.0,10.0,18.3700008392334,-13.1,21.5,11.1,-19.2,-19.8,143.2,-12.0888,21.3547,10.9803,-9.26932,-8.05475,0.2013059999999999,-19.1791,-15.543,140.252,-0.0525040999999999,-0.233233,0.224879,251.3,6.3,52.1701,4.42725,8.4,1.01286,247.493,4.42389,124.014,25.0823,195.787,0.99707,0.0889334,233.112,4.16141,3.81259,-10.1843338012695,22.0009689331055,35.0,22.0,-708248.0,-430.703,pp-riro,4,0,-1,-1
1570537231.3,2019-10-08,14:20:31.300,15.0,10.0,18.5599994659424,-13.6,21.1,11.1,-19.8,-18.9,144.0,-12.5432,20.792,10.838,-4.37011,-10.0883,0.718683,-20.2232,-15.8564,142.118,-0.0467546,-0.0899848,0.115774,251.3,6.3,52.1701,4.42725,8.4,1.03669,248.984,4.42394,126.146,23.9423,194.587,0.987528,0.10088,233.131,4.17035,3.82364,-8.2044677734375,22.0009689331055,35.0,22.0,-708250.0,-30.7645,pp-riro,4,0,-1,-1
1570537231.4,2019-10-08,14:20:31.400,15.0,9.0,18.6000003814697,-14.0,20.7,11.4,-20.0,-18.3,144.5,-13.0824,20.4472,10.7985,-6.98986,-3.74134,0.75056,-21.0944,-16.0705,143.325,-0.100377,-0.0626087,0.230388,251.3,6.3,52.1701,4.42725,8.4,1.03226,255.117,4.42399,128.278,22.4223,193.287,0.97792,0.1153759999999999,233.062,4.17053,3.82572,-6.09148406982422,22.0009689331055,35.0,22.0,-707920.0,3630.21,pp-riro,4,0,-1,-1
1570537231.5,2019-10-08,14:20:31.500,15.0,9.0,18.7900009155273,-14.0,20.3,11.6,-20.3,-18.8,145.5,-13.6581,19.9516,11.3666,-3.22106,-4.4313,3.98224,-22.1091,-16.2859,144.757,-0.161091,-0.18481,-0.107171,251.3,6.3,52.1701,4.42725,8.4,1.04445,253.499,4.42404,130.29399999999998,21.2823,192.087,0.968648,0.126439,233.081,4.17097,3.81955,-4.00409698486328,22.0009689331055,35.0,22.0,-707837.0,738.3480000000001,pp-riro,4,0,-1,-1
1570537231.6,2019-10-08,14:20:31.600,15.0,9.0,18.7900009155273,-13.9,20.2,11.7,-20.2,-18.9,145.5,-13.6009,19.8067,11.436,5.0386,-0.3281429999999999,2.93229,-22.3591,-17.3398,145.63,0.0841436,-0.15825,-0.186073,251.3,6.3,52.1701,4.42725,8.4,1.03281,249.784,4.4240900000000005,132.36700000000002,19.3823,190.787,0.959268,0.142907,233.016,4.15641,3.80292,-1.8876953125,22.0009689331055,35.0,22.0,-707445.0,4614.67,pp-riro,4,0,-1,-1
1570537231.7,2019-10-08,14:20:31.700,15.0,9.0,18.9300003051758,-13.9,20.1,12.1,-20.2,-19.2,144.7,-13.6009,19.8067,11.436,5.0386,-0.3281429999999999,2.93229,-22.3591,-17.3398,145.63,0.0841436,-0.15825,-0.186073,251.3,6.3,52.1701,4.42725,8.4,1.03558,249.232,4.42413,134.38299999999998,18.2424,189.587,0.949862,0.15333,233.098,4.133769999999999,3.79063,0.218002319335938,22.0009689331055,35.0,22.0,-707203.0,1538.22,pp-riro,4,0,-1,-1
1570537231.8,2019-10-08,14:20:31.800,15.0,10.0,19.020000457763697,-13.6,20.2,12.6,-20.4,-20.0,144.1,-13.7031,19.7814,11.6884,-1.00658,4.80195,4.49899,-22.3616,-17.916,145.409,0.160191,-0.106581,-0.0300028,251.3,6.3,52.1701,4.42725,8.4,1.03724,249.329,4.424180000000001,136.34,17.1024,188.287,0.940362,0.163443,233.094,4.10984,3.76526,2.32819366455078,22.0009689331055,35.0,22.0,-707055.0,2768.8,pp-riro,4,0,-1,-1
1570537231.9,2019-10-08,14:20:31.900,15.0,9.0,19.2000007629395,-13.1,20.4,13.0,-20.4,-20.8,143.3,-13.7186,19.7522,12.05,2.36009,1.98467,7.54921,-22.5851,-18.4774,145.09799999999998,-0.140867,-0.266499,-0.209578,251.3,6.3,52.1701,4.42725,8.4,1.02671,250.36,4.4242300000000006,138.384,15.2024,186.887,0.930551,0.178741,233.041,4.07903,3.72946,4.419654846191411,22.0009689331055,35.0,22.0,-706804.0,2184.28,pp-riro,4,0,-1,-1
1570537232.0,2019-10-08,14:20:32.000,15.0,10.0,19.340000152587898,-12.7,20.8,13.8,-20.4,-21.7,141.5,-13.3222,20.1834,12.7028,0.156645,9.21226,4.11791,-22.9095,-20.7752,144.584,-0.236248,-0.0588513,-0.292133,251.3,6.3,52.1701,4.42725,8.4,1.04389,258.083,4.42428,140.399,14.0624,185.487,0.920475,0.188307,233.056,4.0382,3.69481,6.52814483642578,22.0009689331055,35.0,22.0,-706667.0,1445.93,pp-riro,4,0,-1,-1
1570537232.1,2019-10-08,14:20:32.100,15.0,9.0,19.5699996948242,-12.0,21.0,14.7,-20.7,-23.0,139.9,-13.3222,20.1834,12.7028,0.156645,9.21226,4.11791,-22.9095,-20.7752,144.584,-0.236248,-0.0588513,-0.292133,251.3,6.3,52.1701,4.42725,8.4,1.07215,278.461,4.42433,142.415,12.9224,184.087,0.910358,0.197596,233.103,3.99709,3.65297,7.58409118652344,22.0009689331055,35.0,22.0,-706439.0,1169.05,pp-riro,4,0,-1,-1
1570537232.2,2019-10-08,14:20:32.200,15.0,11.0,19.7000007629395,-11.0,21.3,15.5,-21.2,-25.1,137.7,-12.0614,21.2849,14.8534,7.977419999999999,5.45607,8.67267,-24.1451,-24.8953,141.058,-0.274839,-0.374693,-0.373247,250.7,7.7,52.1701,4.42725,8.4,1.10041,289.468,4.42437,144.576,11.7824,182.487,0.899183,0.206698,233.115,3.94127,3.60247,9.69258880615234,22.0009689331055,35.0,22.0,-706284.0,1938.16,pp-riro,4,0,-1,-1
1570537232.3,2019-10-08,14:20:32.300,15.0,10.0,19.7900009155273,-9.8,21.6,16.2,-21.3,-27.1,135.1,-12.0614,21.2849,14.8534,7.977419999999999,5.45607,8.67267,-24.1451,-24.8953,141.058,-0.274839,-0.374693,-0.373247,250.7,7.7,52.1701,4.42725,8.4,1.10595,291.918,4.42442,146.65,10.6425,180.886,0.8882629999999999,0.215523,233.108,3.88182,3.54744,11.8078842163086,22.0009689331055,35.0,22.0,-706148.0,2707.28,pp-riro,4,0,-1,-1
1570537232.4,2019-10-08,14:20:32.400,15.0,11.0,19.7000007629395,-8.6,21.8,17.3,-21.1,-29.2,131.6,-11.0841,21.7824,15.7136,5.42636,1.72953,8.3513,-24.6054,-27.6954,139.189,-0.0657331,-0.324306,-0.592947,250.7,7.7,52.1701,4.42725,8.4,1.10872,296.985,4.42447,148.753,9.8825,179.18599999999998,0.8768540000000001,0.221605,233.094,3.81243,3.4929900000000003,13.9027481079102,22.0009689331055,35.0,22.0,-705859.0,2799.57,pp-riro,4,0,-1,-1
1570537232.5,2019-10-08,14:20:32.500,15.0,10.0,19.7000007629395,-7.0,21.9,18.1,-20.4,-31.8,127.6,-8.64289,22.6705,17.8446,25.0767,2.91476,12.5169,-25.1697,-33.1966,133.34,-0.265353,-0.257838,-0.46916,250.7,7.7,52.1701,4.42725,8.4,1.13642,311.116,4.42451,150.856,9.12254,177.486,0.8654270000000001,0.2274969999999999,233.114,3.73395,3.42952,16.012939453125,22.0009689331055,35.0,22.0,-705562.0,2153.51,pp-riro,4,0,-1,-1
1570537232.6,2019-10-08,14:20:32.600,15.0,10.0,19.6900005340576,-5.2,22.0,18.9,-18.9,-34.6,122.2,-8.64289,22.6705,17.8446,25.0767,2.91476,12.5169,-25.1697,-33.1966,133.34,-0.265353,-0.257838,-0.46916,250.7,7.7,52.1701,4.42725,8.4,1.1464,314.639,4.42456,153.075,7.98258,175.58599999999998,0.8531110000000001,0.235723,233.08,3.63583,3.3584,18.1282424926758,22.0009689331055,35.0,22.0,-705248.0,3537.92,pp-riro,4,0,-1,-1
1570537232.7,2019-10-08,14:20:32.700,15.0,10.0,19.6900005340576,-3.4,22.1,19.5,-16.0,-37.1,116.1,-6.042680000000001,23.1227,19.3498,8.4149,-4.30502,6.40639,-23.7247,-39.248000000000005,127.258,-0.177393,-0.427143,-1.23043,250.7,7.7,52.1701,4.42725,8.4,1.14252,313.957,4.42461,155.178,7.60263,173.78599999999997,0.8413069999999999,0.238823,233.109,3.53741,3.2930900000000003,20.2486572265625,22.0009689331055,35.0,22.0,-705074.0,3384.09,pp-riro,4,0,-1,-1
1570537232.8,2019-10-08,14:20:32.800,15.0,10.0,19.8700008392334,-1.3,22.0,20.0,-12.7,-40.1,109.3,-4.09456,23.4483,20.196,20.0415,4.6634400000000005,13.4302,-21.4135,-42.5311,121.274,-0.0653358,-0.150638,-0.909737,250.7,7.7,52.1701,4.42725,8.4,1.14695,315.881,4.42466,157.34,7.6027,171.886,0.828973,0.239447,233.149,3.43307,3.22099,22.3605575561523,22.0009689331055,35.0,22.0,-704765.0,2984.16,pp-riro,4,0,-1,-1
1570537232.9,2019-10-08,14:20:32.900,15.0,10.0,20.090000152587898,1.0,21.7,20.3,-7.9,-42.8,101.0,-4.09456,23.4483,20.196,20.0415,4.6634400000000005,13.4302,-21.4135,-42.5311,121.274,-0.0653358,-0.150638,-0.909737,250.7,7.7,52.1701,4.42725,8.4,1.15305,326.272,4.42471,159.472,7.22275,169.986,0.81679,0.242421,233.192,3.31491,3.14102,24.4588241577148,22.0009689331055,23.0044822692871,22.0,-704485.0,2522.69,pp-riro,4,0,-1,-1
1570537233.0,2019-10-08,14:20:33.000,15.0,10.0,20.2600002288818,3.5,21.1,20.5,-2.2,-44.1,91.3,-1.84566,23.4954,21.0141,30.7619,-6.40326,9.31527,-17.875,-45.9275,114.262,-0.0891101,-0.210936,-0.8315389999999999,250.7,7.7,52.1701,4.42725,8.4,1.18906,334.009,4.42475,161.545,7.60283,168.08599999999998,0.804685,0.240606,233.254,3.19164,3.05697,26.5690231323242,22.0009689331055,23.0044822692871,22.0,-704101.0,4337.79,pp-ro,1,1,-1,-1
1570537233.1,2019-10-08,14:20:33.100,15.0,10.0,20.340000152587898,6.0,20.3,20.3,4.2,-44.5,81.1,5.10249,22.6546,21.8692,28.8211,-5.08345,-1.24079,-2.78305,-52.5187,89.2793,-0.293853,-0.275076,-1.25396,250.7,7.7,52.1701,4.42725,8.4,1.18075,332.626,4.4248,163.531,7.9829,166.28599999999997,0.793155,0.23881,233.361,3.06566,2.97017,28.611083984375,22.0009689331055,23.0044822692871,22.0,-703836.0,5229.96,pp-ro,1,1,-1,-1
1570537233.2,2019-10-08,14:20:33.200,15.0,11.0,20.2999992370605,8.6,19.2,19.7,12.2,-43.7,69.2,8.073780000000001,21.9081,21.4966,26.2072,-17.0695,-7.0816,6.33796,-53.404,76.1083,-0.5806020000000001,0.0407648,-1.34205,242.3,7.8,52.1701,4.42725,8.4,1.16745,332.827,4.42483,165.488,8.362969999999999,164.386,0.781419,0.2370699999999999,233.407,2.91743,2.87403,30.317626953125,22.0009689331055,23.0044822692871,22.0,-703495.0,2522.69,pp-ro,1,1,-1,-1
1570537233.3,2019-10-08,14:20:33.300,15.0,11.0,20.2999992370605,11.1,18.0,19.3,19.5,-41.6,57.9,11.1989,20.7455,21.0429,27.3877,-11.257,-6.56785,15.7752,-52.876000000000005,61.6195,-0.3698639999999999,-0.175424,-1.35575,242.3,7.8,52.1701,4.42725,8.4,1.1901700000000002,338.034,4.42483,167.357,9.88307,162.686,0.770375,0.228575,233.608,2.77401,2.78406,31.6835632324219,22.0009689331055,23.0044822692871,22.0,-703209.0,3414.86,pp-ro,1,1,-1,-1
1570537233.4,2019-10-08,14:20:33.400,15.0,12.0,20.2900009155273,12.2,16.3,18.2,23.1,-40.5,52.3,11.1989,20.7455,21.0429,27.3877,-11.257,-6.56785,15.7752,-52.876000000000005,61.6195,-0.3698639999999999,-0.175424,-1.35575,242.3,7.8,52.1701,4.42725,8.4,1.1840700000000002,341.42400000000004,4.42483,168.204,10.2631,161.786,0.765021,0.226619,233.608,2.69986,2.71959,32.681594848632805,22.0009689331055,23.0044822692871,22.0,-702826.0,3476.39,pp-ro,1,1,-1,-1
1570537233.5,2019-10-08,14:20:33.500,15.0,15.0,20.4599990844727,14.6,15.5,17.6,29.0,-36.8,41.7,14.1241,19.1894,20.2468,33.8852,-20.1629,-10.2719,24.4333,-50.871,48.3359,-0.309068,-0.0201388,-1.37791,242.3,7.8,52.1701,4.42725,8.4,1.1990299999999998,341.782,4.42483,170.628,12.1632,160.086,0.752265,0.2163909999999999,234.285,2.54902,2.6326400000000003,33.321975708007805,22.0009689331055,23.0044822692871,22.0,-702547.0,3230.27,pp-ro,1,1,-1,-1
1570537233.6,2019-10-08,14:20:33.600,15.0,15.0,20.6700000762939,16.8,13.8,16.4,33.8,-32.6,32.7,15.5267,18.429,19.7053,29.6864,-17.9784,-9.6997,28.4701,-48.7745,41.4073,-0.7914760000000001,-0.0862006,-1.69914,242.3,7.8,52.1701,4.42725,8.4,1.18851,345.642,4.4248400000000006,171.359,12.9233,158.586,0.745291,0.212279,233.838,2.40372,2.5264900000000003,33.6098022460938,22.0009689331055,23.0044822692871,22.0,-702095.0,4307.03,pp-ro,1,1,-1,-1
1570537233.7,2019-10-08,14:20:33.700,15.0,16.0,20.6700000762939,18.8,12.0,15.1,37.9,-27.9,24.2,15.5267,18.429,19.7053,29.6864,-17.9784,-9.6997,28.4701,-48.7745,41.4073,-0.7914760000000001,-0.0862006,-1.69914,242.3,7.8,52.1701,4.42725,8.4,1.22286,354.084,4.4248400000000006,172.702,14.4434,156.985,0.736029,0.204112,233.835,2.25787,2.4228400000000003,33.604705810546896,22.0009689331055,21.7840919494629,22.0,-701715.0,3568.68,pp-ro,1,1,-1,-1
1570537233.8,2019-10-08,14:20:33.800,15.0,14.0,20.3700008392334,20.0,9.0,12.5,42.6,-20.5,12.5,20.6756,14.5751,16.6739,24.3694,-5.6834,-4.26467,38.4375,-39.1034,20.8093,-0.494508,-0.104149,-1.83065,242.3,7.8,52.1701,4.42725,8.4,1.2151,353.034,4.4248400000000006,174.36700000000002,17.4835,154.985,0.724136,0.187614,233.944,2.0447900000000003,2.28936,33.180618286132805,22.0009689331055,19.524953842163104,22.0,-701422.0,5414.55,pp-ro,1,1,-1,-1
1570537233.9,2019-10-08,14:20:33.900,15.0,16.0,19.979999542236303,20.8,7.4,10.6,44.7,-15.2,6.2,23.0827,11.1234,13.732,5.68279,-23.6637,-24.1192,42.8754,-31.0099,8.72837,0.120484,-0.191843,-1.59063,242.3,7.8,52.1701,4.42725,8.4,1.20014,343.233,4.4248400000000006,175.27200000000002,19.3836,153.785,0.7171810000000001,0.177402,233.978,1.91244,2.1956900000000004,32.386962890625,22.0009689331055,17.9022254943848,22.0,-701045.0,3384.09,pp-ro,1,1,-1,-1
1570537234.0,2019-10-08,14:20:34.000,15.0,15.0,19.75,21.3,5.9,8.6,45.7,-10.2,1.0,23.0827,11.1234,13.732,5.68279,-23.6637,-24.1192,42.8754,-31.0099,8.72837,0.120484,-0.191843,-1.59063,242.3,7.8,52.1701,4.42725,8.4,1.17743,324.61,4.42485,176.03099999999998,21.6636,152.785,0.711101,0.165092,234.093,1.79646,2.10339,31.2390441894531,22.0009689331055,16.2721366882324,22.0,-700494.0,6460.54,pp-ro,1,1,-1,-1
1570537234.1,2019-10-08,14:20:34.100,15.0,15.0,19.659999847412102,21.4,5.0,7.7,46.5,-7.7,-1.5,24.0862,7.84443,10.1826,8.29338,-17.9725,-20.8217,45.0992,-21.5215,-1.34396,-0.0719511999999999,0.0624211,-1.37569,242.3,7.8,52.1701,4.42725,8.4,1.14252,324.206,4.42485,176.382,22.4237,152.385,0.708575,0.161088,234.168,1.73787,2.05487,29.7368621826172,22.0009689331055,15.3986396789551,22.0,-700080.0,2830.33,pp-ro,1,1,-1,-1
1570537234.2,2019-10-08,14:20:34.200,15.0,13.0,19.5699996948242,21.4,3.4,6.1,47.0,-2.4,-6.5,24.0862,7.84443,10.1826,8.29338,-17.9725,-20.8217,45.0992,-21.5215,-1.34396,-0.0719511999999999,0.0624211,-1.37569,242.0,6.4,52.1701,4.42725,8.4,1.20679,338.671,4.424869999999999,176.907,24.7037,151.685,0.704022,0.148795,234.33900000000003,1.6191,1.9701,27.8872528076172,22.0009689331055,13.8687477111816,22.0,-699848.0,4430.09,pp-ro,1,1,-1,-1
1570537234.3,2019-10-08,14:20:34.300,15.0,14.0,19.4300003051758,21.1,2.1,4.4,47.4,2.2,-10.9,24.5971,4.86311,6.959,2.92215,-21.6892,-15.8536,45.2562,-12.771,-8.781889999999999,0.120024,-0.184558,-1.15484,242.0,6.4,52.1701,4.42725,8.4,1.19072,330.464,4.42491,177.31599999999997,26.6038,151.085,0.700203,0.138558,234.468,1.51481,1.88679,25.792381286621104,22.0009689331055,12.350118637084998,22.0,-699474.0,7045.07,pp-ro,1,1,-1,-1
1570537234.4,2019-10-08,14:20:34.400,15.0,13.0,19.3899993896484,20.9,1.1,2.8,47.9,6.8,-15.1,24.5971,4.86311,6.959,2.92215,-21.6892,-15.8536,45.2562,-12.771,-8.781889999999999,0.120024,-0.184558,-1.15484,242.0,6.4,52.1701,4.42725,8.4,1.1475,318.774,4.42494,177.608,29.2639,150.685,0.696973,0.124164,234.749,1.4156,1.81181,23.6838989257812,22.0009689331055,10.9729890823364,22.0,-698841.0,2553.45,pp-ro,1,1,-1,-1
1570537234.5,2019-10-08,14:20:34.500,15.0,11.0,19.4300003051758,20.5,-0.4,1.0,48.0,13.4,-21.2,23.4999,0.298355,1.38911,-6.3541,-13.6975,-16.4829,44.9019,3.92317,-21.5011,-0.0415815999999999,0.2119989999999999,-0.7864220000000001,242.0,6.4,52.1701,4.42725,8.4,1.1630200000000002,331.13199999999995,4.424980000000001,177.783,32.3039,150.285,0.693779,0.107663,235.023,1.2704799999999998,1.7112,21.5788116455078,22.0009689331055,9.092241287231449,22.0,-698593.0,2338.1,pp-ro,1,1,-1,-1
1570537234.6,2019-10-08,14:20:34.600,15.0,11.0,19.5699996948242,20.1,-1.0,0.3,48.0,15.1,-23.1,23.2793,-0.362188,0.7037399999999999,8.02277,-7.16863,-6.0804,44.6198,6.45849,-23.8238,0.192907,-0.173713,-1.34565,242.0,6.4,52.1701,4.42725,8.4,1.17632,334.654,4.42502,177.783,33.444,150.185,0.6928880000000001,0.101425,235.11900000000003,1.23094,1.6696099999999998,19.4669189453125,22.0009689331055,8.29918766021729,22.0,-698499.0,1661.28,pp-ro,1,1,-1,-1
1570537234.7,2019-10-08,14:20:34.700,15.0,13.0,19.479999542236303,19.5,-1.8,-0.9,47.9,18.2,-26.7,22.8763,-1.13189,0.0759387,-13.3434,-9.87481,-20.5764,44.4417,8.52307,-25.7641,0.0838873,-0.0230972,-0.8327549999999999,242.0,6.4,52.1701,4.42725,8.4,1.18574,329.966,4.42506,177.725,35.724000000000004,150.085,0.691535,0.0889659,235.346,1.15841,1.60324,17.3584289550781,22.0009689331055,7.033987522125241,22.0,-698103.0,5199.2,pp-ro,1,1,-1,-1
1570537234.8,2019-10-08,14:20:34.800,15.0,12.0,19.340000152587898,19.0,-2.8,-2.0,48.1,20.9,-29.7,21.6016,-2.66391,-2.10716,-10.7124,-10.0954,-11.2975,44.2535,14.418,-30.9913,0.400731,0.128018,-0.613933,242.0,6.4,52.1701,4.42726,8.6,1.15637,329.958,4.4251,177.52,37.624,150.085,0.691037,0.0784396,235.488,1.097,1.53032,15.2499389648438,22.0009689331055,5.60150241851807,22.0,-697641.0,3660.97,pp-ro,1,1,-1,-1
1570537234.9,2019-10-08,14:20:34.900,15.0,11.0,19.2000007629395,18.5,-3.8,-2.9,48.2,23.1,-32.9,21.6016,-2.66391,-2.10716,-10.7124,-10.0954,-11.2975,44.2535,14.418,-30.9913,0.400731,0.128018,-0.613933,242.0,6.4,52.1701,4.42726,8.6,1.20513,348.186,4.42514,177.257,39.5241,150.185,0.690967,0.0678668,235.665,1.04025,1.46357,13.141448974609402,22.0009689331055,4.27450275421143,22.0,-697336.0,3291.8,pp-ro,1,1,-1,-1
1570537235.0,2019-10-08,14:20:35.000,15.0,12.0,19.1100006103516,18.0,-4.5,-3.7,48.3,24.7,-35.5,20.4777,-4.17314,-3.69836,-3.34869,-9.24466,-5.38521,43.8726,19.6016,-35.3969,0.0378063,0.0496666,-0.744161,242.0,6.4,52.1701,4.42726,8.6,1.2018,347.91900000000004,4.42517,176.877,41.8041,150.285,0.690915,0.0551289,235.836,0.999402,1.41028,11.077239990234402,22.0009689331055,3.22159242630005,22.0,-696949.0,3630.21,pp-ro,1,1,-1,-1
1570537235.1,2019-10-08,14:20:35.100,15.0,11.0,19.0699996948242,17.5,-5.1,-4.3,48.6,26.0,-38.0,20.4777,-4.17314,-3.69836,-3.34869,-9.24466,-5.38521,43.8726,19.6016,-35.3969,0.0378063,0.0496666,-0.744161,242.0,6.4,52.1701,4.42726,8.6,1.20513,347.38699999999994,4.42521,176.41,43.3241,150.585,0.69216,0.0463554,235.952,0.961065,1.36468,8.66558837890625,22.0009689331055,2.25181102752686,22.0,-696752.0,3568.68,pp-ro,1,1,-1,-1
1570537235.2,2019-10-08,14:20:35.200,15.0,11.0,19.1100006103516,17.1,-5.8,-4.7,49.1,27.2,-40.0,18.6932,-6.06006,-5.51575,-11.7071,-0.979152,-1.89231,44.4532,25.5447,-41.169,0.182165,-0.0663906,-0.545075,240.1,6.4,52.1701,4.42726,8.6,1.20458,355.957,4.4252400000000005,175.855,45.6042,150.885,0.693084,0.0334083,236.159,0.932364,1.32801,6.80916595458984,22.0009689331055,1.4841960668563798,22.0,-696342.0,3999.38,pp-ro,1,1,-1,-1
1570537235.3,2019-10-08,14:20:35.300,15.0,11.0,19.25,16.5,-6.4,-5.0,48.8,27.5,-42.4,17.7239,-6.9956,-6.0159,-12.247,-4.50222,-6.15707,44.7034,27.4451,-43.9595,0.126038,-0.145723,-0.294995,240.1,6.4,52.1701,4.42726,8.6,1.22895,362.01,4.42526,175.271,47.1242,151.285,0.694864,0.0244719,236.279,0.907504,1.29105,5.14008331298828,22.0009689331055,0.6568058729171751,22.0,-696177.0,1322.87,pp-ro,1,1,-1,-1
1570537235.4,2019-10-08,14:20:35.400,15.0,10.0,19.340000152587898,15.9,-6.5,-5.3,49.1,27.9,-44.0,17.0276,-7.25475,-6.28158,-9.71313,-1.8669,-1.7811099999999995,45.0504,28.3484,-45.5007,-0.0642194,-0.0784438,-0.174268,240.1,6.4,52.1701,4.42726,8.6,1.19737,349.267,4.42528,174.628,49.0242,151.685,0.6964779999999999,0.0134252,236.446,0.8917579999999999,1.26842,4.387298583984379,22.0009689331055,0.1278843134641649,22.0,-695313.0,5476.08,pp-ro,1,1,-1,-1
1570537235.5,2019-10-08,14:20:35.500,15.0,11.0,19.4300003051758,15.4,-6.9,-5.5,49.2,28.2,-45.0,16.2635,-7.43328,-6.41804,-4.189080000000001,-1.16104,2.09346,45.2978,29.2909,-46.3442,0.298438,0.157875,-0.1219369999999999,240.1,6.4,52.1701,4.42726,8.6,1.19294,348.093,4.42536,173.898,50.5442,152.185,0.698871,0.00417114,236.549,0.8827870000000001,1.2417,2.68585968017578,22.0009689331055,-0.534886479377747,22.0,-695183.0,2522.69,pp-ro,1,1,-1,-1
1570537235.6,2019-10-08,14:20:35.600,15.0,11.0,19.4400005340576,15.1,-7.3,-5.6,49.2,28.1,-45.8,16.2635,-7.43328,-6.41804,-4.189080000000001,-1.16104,2.09346,45.2978,29.2909,-46.3442,0.298438,0.157875,-0.1219369999999999,240.1,6.4,52.1701,4.42726,8.6,1.21067,345.635,4.42534,173.197,51.6842,152.685,0.701442,-0.00295039,236.603,0.8794379999999999,1.22283,1.5226058959960902,22.0009689331055,-1.05967211723328,22.0,-694861.0,4460.85,pp-ro,1,1,-1,-1
1570537235.7,2019-10-08,14:20:35.700,15.0,12.0,19.5300006866455,14.9,-7.5,-5.8,49.4,28.0,-46.4,15.8468,-7.81964,-6.47773,0.905638,-1.39083,5.5286,45.6727,29.7317,-46.8221,0.0761336,-0.0546146999999999,-0.3238769999999999,240.1,6.4,52.1701,4.42726,8.6,1.1802,336.418,4.42535,172.408,53.5843,153.185,0.7036020000000001,-0.0142951,236.773,0.881128,1.21071,0.548408508300781,22.0009689331055,-1.42030191421509,22.0,-694205.0,3076.45,pp-ro,1,1,-1,-1
1570537235.8,2019-10-08,14:20:35.800,15.0,11.0,19.6200008392334,14.6,-7.7,-5.7,49.2,27.5,-46.5,15.8468,-7.81964,-6.47773,0.905638,-1.39083,5.5286,45.6727,29.7317,-46.8221,0.0761336,-0.0546146999999999,-0.3238769999999999,240.1,6.4,52.1701,4.42725,9.0,1.18574,335.48800000000006,4.42537,171.62,55.1043,153.685,0.706015,-0.0236680999999999,236.873,0.8919219999999999,1.20651,-0.310630798339844,22.0009689331055,-1.64684784412384,22.0,-694039.0,3168.74,pp-ro,1,1,-1,-1
1570537235.9,2019-10-08,14:20:35.900,15.0,12.0,19.75,14.8,-7.9,-5.7,49.6,26.9,-46.6,15.3252,-8.28551,-6.3543,-0.508101,-0.665287,0.920064,45.833,29.0525,-47.4019,0.0305517999999999,0.0304724,0.18953,240.1,6.4,52.1701,4.42725,9.0,1.17521,334.112,4.42539,170.80200000000002,56.6243,154.285,0.708778,-0.0331219,237.03,0.903955,1.21328,-1.00358581542969,22.0009689331055,-1.68319046497345,22.0,-693483.0,2799.57,pp-ro,1,1,-1,-1
1570537236.0,2019-10-08,14:20:36.000,15.0,12.0,19.9300003051758,14.9,-8.1,-5.6,49.7,26.3,-46.7,15.5512,-8.57117,-6.2983,0.0971938,-3.06611,1.14501,46.0827,28.7013,-47.1086,0.0435351,0.0129002,0.0488587,240.1,6.4,52.1701,4.42725,9.0,1.18075,331.431,4.42542,169.955,58.1443,154.785,0.711251,-0.0426601,237.115,0.91608,1.22114,-1.5360946655273402,22.0009689331055,-1.68382322788239,22.0,-693331.0,2922.63,pp-ro,1,1,-1,-1
1570537236.1,2019-10-08,14:20:36.100,15.0,10.0,20.1100006103516,14.8,-8.2,-5.4,50.0,25.0,-47.0,15.4608,-8.774389999999999,-5.95638,-1.3705200000000002,-0.767135,3.81391,45.9963,27.3304,-47.4036,-0.0638252,-0.218775,0.1205859999999999,240.1,6.4,52.1701,4.42725,9.0,1.16856,328.551,4.42544,169.108,59.2843,155.285,0.714025,-0.0502308,237.11900000000003,0.932764,1.22856,-1.80577087402344,22.0009689331055,-1.72490882873535,22.0,-692820.0,5260.73,pp-ro,1,1,-1,-1
1570537236.2,2019-10-08,14:20:36.200,15.0,10.0,20.1100006103516,14.7,-8.0,-5.0,50.1,24.2,-46.8,15.4608,-8.774389999999999,-5.95638,-1.3705200000000002,-0.767135,3.81391,45.9963,27.3304,-47.4036,-0.0638252,-0.218775,0.1205859999999999,253.2,6.2,52.1701,4.42725,9.0,1.17632,324.022,4.4255,168.261,61.1843,155.785,0.716055,-0.0618735,237.327,0.952243,1.25486,-1.75968933105469,22.0009689331055,-1.33370423316956,22.0,-692413.0,3261.04,pp-ro,1,1,-1,-1
1570537236.3,2019-10-08,14:20:36.300,15.0,11.0,20.0599994659424,14.7,-7.8,-4.5,50.7,23.6,-46.2,15.4608,-8.774389999999999,-5.95638,-1.3705200000000002,-0.767135,3.81391,45.9963,27.3304,-47.4036,-0.0638252,-0.218775,0.1205859999999999,253.2,6.2,52.1701,4.42725,9.0,1.16413,314.53700000000003,4.4256,167.41400000000002,62.3243,156.185,0.718436,-0.0695948,237.287,0.971447,1.28635,-1.64704132080078,22.0009689331055,-0.8774520754814151,22.0,-692103.0,5752.96,pp-ro,1,1,-1,-1
1570537236.4,2019-10-08,14:20:36.400,15.0,11.0,19.979999542236303,14.9,-7.4,-4.1,50.7,22.6,-46.5,15.5214,-8.284130000000001,-4.48078,3.81825,-1.66101,-1.53789,47.4491,23.2274,-47.41,0.1418039999999999,-0.188411,0.178205,253.2,6.2,52.1701,4.42725,9.0,1.1065,291.648,4.42571,166.625,64.2243,156.585,0.7198829999999999,-0.0811588,237.503,0.987502,1.32804,-1.35346984863281,22.0009689331055,-0.142483904957771,22.0,-691545.0,5076.14,pp-ro,1,1,-1,-1
1570537236.5,2019-10-08,14:20:36.500,15.0,11.0,19.8899993896484,15.2,-7.2,-3.8,51.2,22.2,-46.2,15.5214,-8.284130000000001,-4.48078,3.81825,-1.66101,-1.53789,47.4491,23.2274,-47.41,0.1418039999999999,-0.188411,0.178205,253.2,6.2,52.1701,4.42725,9.0,1.0993,291.103,4.42586,165.80700000000002,65.3644,156.985,0.722115,-0.0889853999999999,237.505,1.00089,1.3598,-0.9950485229492192,22.0009689331055,0.318810731172562,22.0,-691235.0,2953.39,pp-ro,1,1,-1,-1
1570537236.6,2019-10-08,14:20:36.600,15.0,12.0,19.5300006866455,15.2,-7.4,-3.4,51.5,21.9,-45.9,15.8845,-7.99776,-4.14207,2.19809,-3.10593,1.26285,48.0565,22.372,-47.6842,-0.0779961,-0.0777799,0.0942923,253.2,6.2,52.1701,4.42725,9.0,1.12368,312.658,4.42591,165.077,67.2644,157.284,0.722981,-0.100453,237.725,1.01571,1.37826,-0.4727783203125,22.0009689331055,0.6318533420562739,22.0,-691103.0,369.174,pp-ro,1,1,-1,-1
1570537236.7,2019-10-08,14:20:36.700,15.0,12.0,19.3099994659424,15.3,-7.4,-3.2,51.9,20.8,-45.6,15.9618,-8.22983,-3.38825,3.18091,0.928282,-2.90918,48.9559,20.4631,-47.2268,-0.0957728,-0.222097,0.128589,253.2,6.2,52.1701,4.42725,9.0,1.16524,320.491,4.426019999999999,164.259,68.4044,157.584,0.724823,-0.108226,237.683,1.0376,1.39438,0.1072998046875,22.0009689331055,0.8032513856887821,22.0,-690985.0,2091.99,pp-ro,1,1,-1,-1
1570537236.8,2019-10-08,14:20:36.800,15.0,12.0,19.1200008392334,15.5,-7.5,-3.3,51.9,19.9,-45.7,16.2545,-8.24901,-3.2937199999999995,7.1554,-4.343030000000001,-3.26559,49.006,19.4371,-47.7465,0.099289,-0.212339,0.177181,253.2,6.2,52.1701,4.42726,9.5,1.15194,330.467,4.42612,163.441,69.9244,157.884,0.72622,-0.117991,237.76,1.05378,1.39825,0.4649581909179689,22.0009689331055,0.7684935927391049,22.0,-690376.0,2030.46,pp-ro,1,1,-1,-1
1570537236.9,2019-10-08,14:20:36.900,15.0,11.0,19.1200008392334,15.2,-8.1,-2.9,51.6,18.4,-45.9,16.2545,-8.24901,-3.2937199999999995,7.1554,-4.343030000000001,-3.26559,49.006,19.4371,-47.7465,0.099289,-0.212339,0.177181,253.2,6.2,52.1701,4.42726,9.5,1.1741,342.506,4.42622,162.594,71.4444,158.084,0.7273310000000001,-0.12784,237.764,1.07614,1.3961,0.7544937133789059,22.0009689331055,0.637840807437897,22.0,-690376.0,0.0,pp-ro,1,1,-1,-1
1570537237.0,2019-10-08,14:20:37.000,15.0,12.0,19.1700000762939,14.9,-8.0,-2.6,51.4,17.2,-45.8,16.1228,-8.311910000000001,-3.2547200000000003,-3.20628,-5.32609,4.15441,48.9914,18.8919,-47.9288,0.346231,-0.227037,0.0555476,253.2,6.2,52.1701,4.42726,9.5,1.2173200000000002,338.329,4.42633,161.77700000000002,72.9644,158.284,0.7283189999999999,-0.137638,237.801,1.09851,1.41113,0.827728271484375,22.0009689331055,0.861156404018402,22.0,-689919.0,6399.01,pp-ro,1,1,-1,-1
1570537237.1,2019-10-08,14:20:37.100,15.0,12.0,19.2600002288818,14.7,-7.5,-2.4,51.3,15.9,-45.1,15.7748,-8.8254,-2.90837,-7.52745,-6.64215,4.42847,49.2281,17.1386,-47.9026,-0.0879578999999999,-0.0913686,0.185998,253.2,6.2,52.1701,4.42726,9.5,1.18241,319.126,4.42643,160.93,74.4844,158.584,0.729649,-0.147519,237.898,1.12943,1.43756,0.7187271118164059,22.0009689331055,1.27519834041595,22.0,-689484.0,8737.12,pp-ro,1,1,-1,-1
1570537237.2,2019-10-08,14:20:37.200,15.0,12.0,19.1299991607666,14.8,-7.3,-2.1,51.5,15.3,-44.9,15.7748,-8.8254,-2.90837,-7.52745,-6.64215,4.42847,49.2281,17.1386,-47.9026,-0.0879578999999999,-0.0913686,0.185998,249.6,6.3,52.1701,4.42726,9.5,1.1065,298.548,4.42652,160.141,76.0044,158.684,0.730155,-0.1572619999999999,237.913,1.1458,1.46628,0.608024597167969,22.0009689331055,1.82164180278778,22.0,-688859.0,4583.91,pp-ro,1,1,-1,-1
1570537237.3,2019-10-08,14:20:37.300,15.0,15.0,18.9400005340576,14.8,-7.3,-1.8,51.3,15.3,-44.5,15.5248,-8.58794,-2.71685,-4.26682,4.47314,-1.58791,49.5424,15.9294,-47.8172,-0.00528654,0.120441,0.323277,249.6,6.3,52.1701,4.42726,9.5,1.12091,299.068,4.4266,159.352,77.1445,158.884,0.731394,-0.165069,237.884,1.15582,1.4849,0.8345413208007809,22.0009689331055,2.07805991172791,22.0,-688694.0,1999.69,pp-ro,1,1,-1,-1
1570537237.4,2019-10-08,14:20:37.400,15.0,13.0,18.6100006103516,14.8,-7.4,-1.7,51.1,14.8,-45.2,15.5281,-8.08745,-2.1004,4.56165,-1.46177,3.88983,49.8259,14.9329,-46.5834,0.288286,0.00897916,-0.00308074,249.6,6.3,52.1701,4.42726,9.5,1.11925,303.648,4.42668,158.564,79.0445,159.084,0.731654,-0.176701,238.114,1.16155,1.4937,1.09171295166016,22.0009689331055,2.26476001739502,22.0,-688214.0,2522.69,pp-ro,1,1,-1,-1
1570537237.5,2019-10-08,14:20:37.500,15.0,11.0,18.3799991607666,14.6,-7.4,-1.6,51.4,15.1,-44.6,15.4497,-8.26684,-1.84823,2.51103,-3.23575,-2.92617,49.3998,14.398,-47.0623,0.0406589,0.046284,-0.0907819,249.6,6.3,52.1701,4.42726,9.5,1.12811,310.241,4.42676,157.833,80.1845,159.284,0.732671,-0.184425,238.144,1.17015,1.49888,1.8513107299804696,22.0009689331055,-35.0,22.0,-688112.0,1999.69,pp-ro,1,1,-1,-1
1570537237.6,2019-10-08,14:20:37.600,15.0,13.0,18.3799991607666,14.7,-7.6,-1.4,51.2,14.9,-45.7,15.4497,-8.26684,-1.84823,2.51103,-3.23575,-2.92617,49.3998,14.398,-47.0623,0.0406589,0.046284,-0.0907819,249.6,6.3,52.1701,4.42726,9.5,1.1513799999999998,318.146,4.42684,157.045,81.7045,159.384,0.733001,-0.194179,238.206,1.1661,1.5097200000000002,2.25666046142578,22.0009689331055,-35.0,22.0,-687934.0,1876.63,pp-ro,1,1,-1,-1
1570537237.7,2019-10-08,14:20:37.700,15.0,14.0,18.6100006103516,14.7,-7.8,-1.6,50.8,14.8,-47.1,15.4497,-8.26684,-1.84823,2.51103,-3.23575,-2.92617,49.3998,14.398,-47.0623,0.0406589,0.046284,-0.0907819,249.6,6.3,52.1701,4.42726,9.5,1.15415,317.331,4.42692,156.19799999999998,83.2245,159.584,0.733741,-0.204087,238.30900000000003,1.15727,1.50066,2.3196792602539102,22.0009689331055,-35.0,22.0,-687545.0,4491.62,pp-ro,1,1,-1,-1
1570537237.8,2019-10-08,14:20:37.800,15.0,14.0,18.7600002288818,14.6,-7.9,-1.5,50.3,14.8,-47.8,15.4507,-8.713610000000001,-1.6394099999999998,-2.20997,-0.0758943,2.78689,48.8215,13.7557,-49.4648,0.0824348,-0.11366,-0.182695,249.6,6.3,52.1701,4.42726,9.8,1.14861,324.6,4.427,155.409,84.3645,159.784,0.734798,-0.211954,238.328,1.15415,1.50476,2.0267333984375,22.0009689331055,-35.0,22.0,-687236.0,2091.99,pp-ro,1,1,-1,-1
1570537237.9,2019-10-08,14:20:37.900,15.0,15.0,18.8500003814697,14.4,-8.1,-1.4,50.3,13.9,-48.3,15.2478,-8.80903,-1.51966,0.366117,-3.67028,3.53227,48.975,13.8509,-50.0913,0.112422,0.0589811,0.22149,249.6,6.3,52.1701,4.42726,9.8,1.17798,329.681,4.42708,154.562,86.2645,159.884,0.7346189999999999,-0.223752,238.525,1.16729,1.50577,1.35740661621094,22.0009689331055,-35.0,22.0,-687039.0,2584.22,pp-ro,1,1,-1,-1
1570537238.0,2019-10-08,14:20:38.000,15.0,15.0,18.9899997711182,14.5,-8.3,-1.6,50.8,13.8,-48.7,15.0668,-8.78942,-1.48855,-0.933535,-3.9269,-1.1086200000000002,48.926,13.9383,-50.0112,0.176816,0.108425,0.110968,249.6,6.3,52.1701,4.42726,9.8,1.16357,324.309,4.42716,153.715,87.4045,160.084,0.735743,-0.231796,238.526,1.1691200000000002,1.49801,0.33721923828125,22.0009689331055,-35.0,22.0,-686554.0,5260.73,pp-ro,1,1,-1,-1
1570537238.1,2019-10-08,14:20:38.100,15.0,15.0,19.2199993133545,14.7,-8.7,-1.4,50.4,13.5,-49.2,15.1478,-9.08721,-1.67923,-2.52768,-2.08459,0.694379,48.6568,14.6541,-49.997,-0.3363739999999999,0.0198459,0.0282712999999999,249.6,6.3,52.1701,4.42726,9.8,1.15305,322.27,4.42724,152.839,89.3046,160.284,0.73583,-0.243614,238.801,1.17492,1.50637,-1.0377197265625,22.0009689331055,-35.0,22.0,-686269.0,2091.99,pp-ro,1,1,-1,-1
1570537238.2,2019-10-08,14:20:38.200,15.0,15.0,19.3600006103516,14.8,-8.6,-1.2,50.3,11.6,-50.3,15.2808,-9.43536,-1.35863,3.81034,-0.7825949999999999,7.69585,49.0374,13.8889,-50.5883,-0.0926763,-0.224507,0.107146,255.9,6.2,52.1701,4.42726,9.8,1.16524,324.194,4.42734,151.99200000000002,90.4446,160.484,0.736874,-0.251727,238.824,1.19041,1.52589,-2.77521514892578,22.0009689331055,-35.0,22.0,-685947.0,4030.15,pp-ro,1,1,-1,-1
1570537238.3,2019-10-08,14:20:38.300,15.0,12.0,19.5400009155273,15.0,-8.2,-0.8,50.6,10.2,-50.3,15.2808,-9.43536,-1.35863,3.81034,-0.7825949999999999,7.69585,49.0374,13.8889,-50.5883,-0.0926763,-0.224507,0.107146,255.9,6.2,52.1701,4.42726,9.8,1.16025,330.876,4.42744,151.05700000000002,91.5846,160.684,0.738097,-0.26003,238.8,1.21337,1.56628,-4.833587646484379,22.0025119781494,-35.0,22.0,-685645.0,1876.63,pp-ro,1,1,-1,-1
1570537238.4,2019-10-08,14:20:38.400,15.0,13.0,19.590000152587898,15.3,-7.9,-0.2,51.4,8.7,-49.2,15.1723,-9.25188,-1.09166,1.23314,8.4438,9.41453,49.1911,12.6832,-50.9364,0.134785,-0.00239983,0.239384,255.9,6.2,52.1701,4.42726,9.8,1.18075,328.779,4.4275400000000005,150.269,93.4846,160.784,0.737499,-0.2716739999999999,239.106,1.25363,1.61598,-6.94828796386719,22.0025119781494,-35.0,22.0,-685158.0,5476.08,pp-ro,1,1,-1,-1
1570537238.5,2019-10-08,14:20:38.500,15.0,12.0,19.7600002288818,15.9,-7.7,0.3,52.5,7.9,-47.3,15.6734,-8.2584,0.402785,9.1503,5.11798,10.9457,51.229,11.2084,-46.8328,0.304282,0.134918,0.13737,255.9,6.2,52.1701,4.42726,9.8,1.16191,322.84,4.42764,149.48,95.0046,160.784,0.737101,-0.281415,239.21,1.29348,1.66097,-9.06980895996094,22.0009689331055,-35.0,22.0,-684880.0,5260.73,pp-ro,1,1,-1,-1
1570537238.6,2019-10-08,14:20:38.600,15.0,10.0,20.1200008392334,17.0,-7.3,1.1,54.6,6.3,-45.9,15.6734,-8.2584,0.402785,9.1503,5.11798,10.9457,51.229,11.2084,-46.8328,0.304282,0.134918,0.13737,255.9,6.2,52.1701,4.42726,9.8,1.14473,311.333,4.42779,148.691,96.5246,160.784,0.736657,-0.2911849999999999,239.327,1.33725,1.72958,-11.1793823242188,22.0009689331055,-35.0,22.0,-684515.0,3537.92,pp-ro,1,1,-1,-1
1570537238.7,2019-10-08,14:20:38.700,15.0,15.0,20.25,17.8,-7.0,2.4,56.1,4.1,-44.7,16.5199,-7.90423,1.0303,11.567,2.47398,9.42794,52.2688,9.28547,-45.7656,0.6702640000000001,-0.189425,0.301782,255.9,6.2,52.1701,4.42726,9.8,1.14141,324.163,4.42785,147.961,98.0446,160.684,0.735722,-0.300666,239.425,1.38623,1.80496,-13.2684783935547,22.0009689331055,-35.0,22.0,-684174.0,2645.75,pp-ro,1,1,-1,-1
1570537238.8,2019-10-08,14:20:38.800,15.0,14.0,20.5499992370605,18.3,-6.7,3.6,57.7,0.4,-42.9,17.6314,-7.06102,3.06623,5.06601,3.42125,14.1288,55.1254,5.954330000000001,-42.8004,0.198262,0.0887268,0.676311,255.9,6.2,52.1701,4.42726,10.1,1.23616,368.822,4.42795,147.289,100.325,160.384,0.732796,-0.3135159999999999,239.754,1.46431,1.87166,-15.3763427734375,22.0019989013672,-35.0,22.0,-684162.0,1353.64,pp-ro,1,1,-1,-1
1570537238.9,2019-10-08,14:20:38.900,15.0,13.0,20.7199993133545,19.1,-6.2,4.5,58.6,-1.8,-41.9,18.1834,-6.31858,4.46172,5.6763900000000005,5.04542,10.8284,57.0172,2.30871,-39.8466,0.125754,0.0776695,0.9044,255.9,6.2,52.1701,4.42726,10.1,1.2533299999999998,379.999,4.42805,146.939,101.085,160.184,0.731785,-0.318246,239.725,1.50797,1.92727,-17.487625122070302,22.0025119781494,-35.0,22.0,-683967.0,3722.5,pp-ro,1,1,-1,-1
1570537239.0,2019-10-08,14:20:39.000,15.0,13.0,21.1000003814697,20.0,-5.6,6.3,60.6,-6.6,-39.3,18.1834,-6.31858,4.46172,5.6763900000000005,5.04542,10.8284,57.0172,2.30871,-39.8466,0.125754,0.0776695,0.9044,255.9,6.2,52.1701,4.42726,10.1,1.27384,396.117,4.42815,146.325,102.605,159.684,0.72922,-0.32725,239.662,1.60765,2.01375,-19.6040267944336,22.003026962280305,-35.0,22.0,-683705.0,1876.63,pp-ro,1,1,-1,-1
1570537239.1,2019-10-08,14:20:39.100,15.0,13.0,21.510000228881804,20.2,-4.2,8.4,62.2,-11.7,-36.7,18.9397,-5.67575,6.17354,6.42746,9.927,21.1449,58.5111,-2.18051,-36.5895,0.231314,-0.0837309,1.01336,255.9,6.2,52.1701,4.42726,10.1,1.30708,401.862,4.42826,145.77,104.885,158.984,0.7246319999999999,-0.339573,239.845,1.71374,2.13202,-21.7204284667969,22.003026962280305,-35.0,22.0,-683358.0,4645.44,pp-ro,1,1,-1,-1
1570537239.2,2019-10-08,14:20:39.200,15.0,12.0,21.7900009155273,20.0,-2.3,10.6,63.6,-17.9,-34.0,18.9999,-4.40461,8.05815,1.06381,14.0064,15.7224,59.963,-7.700069999999999,-32.8253,0.241361,0.0724133999999999,0.970708,248.6,5.5,52.1701,4.42726,10.1,1.27217,379.059,4.42833,145.42,107.165,158.084,0.718901,-0.351032,240.045,1.83519,2.26611,-23.8419494628906,22.0025119781494,-35.0,22.0,-682664.0,7198.89,pp-ro,1,1,-1,-1
1570537239.3,2019-10-08,14:20:39.300,15.0,12.0,22.0,19.7,-0.1,12.3,64.7,-24.1,-29.6,18.8704,-2.57323,10.1581,-1.48122,20.3991,19.8479,61.1562,-13.4163,-28.67,0.559512,0.4296279999999999,1.28855,248.6,5.5,52.1701,4.42726,10.1,1.19183,336.408,4.42839,145.274,108.685,156.983,0.7132850000000001,-0.35831,239.918,1.97151,2.3908400000000003,-25.9720077514648,22.0025119781494,-35.0,22.0,-681579.0,7075.83,pp-ro,1,1,-1,-1
1570537239.4,2019-10-08,14:20:39.400,15.0,10.0,22.1100006103516,19.3,2.0,14.1,64.9,-29.5,-25.0,18.1417,0.6637569999999999,12.6723,1.07346,24.2277,17.2899,61.8496,-21.5045,-20.8157,0.230812,-0.00967359,1.10922,248.6,5.5,52.1701,4.42726,10.1,1.16025,327.402,4.42845,145.332,110.965,155.783,0.705635,-0.36816,240.215,2.09865,2.51123,-28.0730438232422,22.0025119781494,-35.0,22.0,-681169.0,3076.45,pp-ro,1,1,-1,-1
1570537239.5,2019-10-08,14:20:39.500,15.0,11.0,22.190000534057603,18.4,4.0,16.2,64.3,-36.4,-19.4,17.8664,1.66027,13.5597,-6.19243,23.765,19.8028,61.5162,-24.4643,-17.923,0.056409,0.236583,1.13479,248.6,5.5,52.1701,4.42726,10.1,1.17022,334.22,4.4285,145.595,112.485,154.483,0.698454,-0.3739159999999999,240.241,2.24991,2.63192,-30.1007080078125,22.0019989013672,-35.0,22.0,-681033.0,2430.39,pp-ro,1,1,-1,-1
1570537239.6,2019-10-08,14:20:39.600,15.0,12.0,22.3099994659424,16.9,6.2,17.9,63.1,-43.2,-13.1,16.0608,4.60295,16.0411,-15.8343,28.5915,19.1732,57.8857,-33.4883,-6.55934,0.373278,0.0288757,1.3206,248.6,5.5,52.1701,4.42726,10.1,1.19737,345.80300000000005,4.42856,146.033,114.385,153.083,0.689952,-0.380634,240.508,2.40168,2.75878,-31.3910217285156,22.0025119781494,-35.0,22.0,-680821.0,2184.28,pp-ro,1,1,-1,-1
1570537239.7,2019-10-08,14:20:39.700,15.0,13.0,22.3799991607666,15.4,8.6,19.2,60.7,-50.2,-6.2,14.7042,6.80116,17.4841,-13.7636,19.7426,16.1291,54.1324,-39.794,1.46995,0.20751,0.307797,1.45402,248.6,5.5,52.1701,4.42726,10.1,1.19793,337.087,4.42866,146.704,115.905,151.483,0.680941,-0.384919,240.631,2.55237,2.87955,-33.1012115478516,22.0025119781494,-35.0,22.0,-680393.0,5076.14,pp-ro,1,1,-1,-1
1570537239.8,2019-10-08,14:20:39.800,15.0,12.0,22.5,13.4,10.9,20.4,54.6,-56.4,4.9,12.9973,8.99615,18.4967,-11.9963,25.2333,12.5949,48.5612,-45.899,11.0521,0.450991,0.406384,1.6809900000000002,248.6,5.5,52.1701,4.42725,10.2,1.16967,337.816,4.428669999999999,147.668,117.425,149.783,0.671016,-0.388088,240.893,2.71667,3.00255,-34.0774841308594,22.0025119781494,-35.0,22.0,-679884.0,4399.32,pp-ro,1,1,-1,-1
1570537239.9,2019-10-08,14:20:39.900,15.0,12.0,22.4599990844727,11.0,12.7,21.3,44.9,-62.5,19.2,9.72443,11.7066,19.6731,-22.1101,18.6199,5.02283,34.9848,-52.55,31.4225,0.000238615,0.317994,1.50973,248.6,5.5,52.1701,4.42725,10.2,1.2212,353.152,4.428730000000001,148.749,118.945,148.083,0.660877,-0.390831,241.252,2.88595,3.11727,-34.7055816650391,22.0035419464111,-35.0,22.0,-679649.0,2830.33,pp-ro,1,1,-1,-1
1570537240.0,2019-10-08,14:20:40.000,15.0,14.0,22.530000686645497,8.6,15.0,21.3,29.3,-65.2,38.9,9.72443,11.7066,19.6731,-22.1101,18.6199,5.02283,34.9848,-52.55,31.4225,0.000238615,0.317994,1.50973,248.6,5.5,52.1701,4.42725,10.2,1.20458,346.341,4.428780000000001,150.092,119.705,146.283,0.6511140000000001,-0.389637,241.362,3.0481,3.23761,-34.9445190429688,22.003026962280305,-23.0139999389648,22.0,-679090.0,5783.72,pp-ro,1,1,-1,-1
1570537240.1,2019-10-08,14:20:40.100,15.0,13.0,22.690000534057603,5.9,17.0,21.6,11.6,-65.9,62.2,9.72443,11.7066,19.6731,-22.1101,18.6199,5.02283,34.9848,-52.55,31.4225,0.000238615,0.317994,1.50973,248.6,5.5,52.1701,4.42725,10.2,1.19072,343.283,4.42884,151.66899999999998,120.465,144.483,0.6409060000000001,-0.387685,241.642,3.21917,3.35503,-34.9513549804688,22.0025119781494,-23.0116176605225,22.0,-678849.0,4491.62,pp-ro,1,1,-1,-1
1570537240.2,2019-10-08,14:20:40.200,15.0,13.0,22.719999313354503,2.9,18.5,21.4,-4.1,-63.6,81.7,4.912059999999999,15.387,20.1023,-26.433000000000003,11.151,4.5767,9.73786,-54.3088,64.0017,0.276995,0.278967,1.4713,251.5,5.4,52.1701,4.42725,10.2,1.20291,350.422,4.42888,153.392,120.845,142.683,0.631016,-0.383757,241.849,3.37089,3.47002,-34.753372192382805,22.003026962280305,-23.0139999389648,22.0,-678577.0,2645.75,pp-ro,1,1,-1,-1
1570537240.3,2019-10-08,14:20:40.300,15.0,13.0,22.9099998474121,0.2,19.9,20.6,-16.0,-59.1,97.1,2.04918,16.7412,20.0555,-24.8878,11.2367,-1.59395,-2.05057,-52.2897,79.2513,0.169037,0.395264,1.49053,251.5,5.4,52.1701,4.42725,10.2,1.21787,358.94199999999995,4.42889,155.232,121.605,140.88299999999998,0.6203529999999999,-0.381027,242.348,3.52284,3.57851,-34.113327026367195,22.003026962280305,-23.0139999389648,22.0,-678270.0,2861.1,pp-ro,1,1,-1,-1
1570537240.4,2019-10-08,14:20:40.400,15.0,13.0,22.940000534057603,-2.6,20.8,19.6,-25.9,-54.0,110.8,2.04918,16.7412,20.0555,-24.8878,11.2367,-1.59395,-2.05057,-52.2897,79.2513,0.169037,0.395264,1.49053,251.5,5.4,52.1701,4.42725,10.2,1.22175,361.974,4.42891,157.306,120.845,139.083,0.611494,-0.3715719999999999,242.266,3.67896,3.68106,-33.1148681640625,22.003026962280305,-23.0139999389648,22.0,-677618.0,4983.85,pp-ro,1,1,-1,-1
1570537240.5,2019-10-08,14:20:40.500,15.0,13.0,23.1299991607666,-5.1,21.4,18.3,-31.4,-47.7,120.2,-1.73394,18.4082,18.8118,-25.9072,1.036,-8.457230000000001,-16.8947,-46.9529,98.8385,-0.0643649999999999,0.191198,1.40178,251.5,5.4,52.1701,4.42725,10.2,1.24059,381.565,4.42893,159.321,120.845,137.482,0.602305,-0.365457,242.669,3.82937,3.77813,-31.7682189941406,22.003026962280305,-23.0139999389648,22.0,-677426.0,676.819,pp-ro,1,1,-1,-1
1570537240.6,2019-10-08,14:20:40.600,15.0,14.0,23.2399997711182,-7.4,21.8,16.6,-35.6,-41.0,127.7,-6.4017,19.2307,16.5339,-16.8701,-0.727274,-5.89164,-29.9003,-36.1734,118.502,-0.0875809999999999,0.400003,1.70228,251.5,5.4,52.1701,4.42725,10.2,1.27661,390.016,4.42894,161.453,120.465,135.982,0.59378,-0.357575,243.044,3.97744,3.8748,-30.061447143554695,22.004056930542003,-23.018762588501,22.0,-677391.0,676.819,pp-ro,1,1,-1,-1
1570537240.7,2019-10-08,14:20:40.700,15.0,14.0,23.350000381469695,-9.7,21.8,14.8,-37.2,-33.9,133.1,-7.53388,19.1846,15.7123,-15.001,-5.68906,-17.4477,-32.2707,-32.8606,122.36,-0.317656,0.147583,1.35314,251.5,5.4,52.1701,4.42725,10.2,1.28824,398.516,4.42896,163.556,119.705,134.582,0.586159,-0.348382,243.295,4.11917,3.9727,-28.0815887451172,22.004571914672898,-23.0211448669434,22.0,-676865.0,5691.43,pp-ro,1,1,-1,-1
