time,date,time_of_day,airspeed_temperature,airspeed_angle_of_attack,airspeed_apparent_windspeed,kite_0_vx,kite_0_vy,kite_0_vz,kite_0_roll,kite_0_pitch,kite_0_yaw,kite_1_vx,kite_1_vy,kite_1_vz,kite_1_ax,kite_1_ay,kite_1_az,kite_1_roll,kite_1_pitch,kite_1_yaw,kite_1_roll_rate,kite_1_pitch_rate,kite_1_yaw_rate,ground_upwind_direction,ground_wind_velocity,ground_pos_latitude,ground_pos_longitude,ground_pos_altitude,ground_tether_reelout_speed,ground_tether_force,est_upwind_direction,kite_pos_east,kite_pos_north,kite_height,kite_elevation,kite_azimuth,kite_distance,kite_heading,kite_course,kite_actual_steering,kite_actual_depower,kite_set_steering,kite_set_depower,ground_mech_energy,ground_mech_power,flight_phase,flight_phase_index,phase,pattern,pattern_section
1570536822.9,2019-10-08,14:13:42.900,15.0,7.0,14.1599998474121,13.1,-2.6,2.5,19.5,-1.2,-57.7,12.0728,-1.96515,3.0309,4.78143,9.36183,2.97022,22.836,13.3287,-57.7581,0.213035,0.149141,0.963843,255.9,5.0,52.1701,4.427219999999999,2.7,-2.8806700000000003,91.1344,4.51312,59.5836,-2.65974,237.006,1.32426,0.24388,244.395,0.535127,1.3822299999999998,-34.9547729492188,22.016416549682603,-35.0,22.0,-750642.0,-11905.9,pp-riro,4,0,-1,-1
1570536823.0,2019-10-08,14:13:43.000,15.0,7.0,13.9700002670288,13.8,-1.5,3.0,21.6,-2.8,-52.6,12.6753,-0.932308,3.46747,5.15721,8.15344,5.50584,25.0738,11.8623,-52.041,0.14606,0.176561,0.915242,255.9,5.0,52.1701,4.427219999999999,2.7,-2.90782,91.0105,4.5132,59.3499,-1.13969,236.806,1.32518,0.218433,244.132,0.6555479999999999,1.49958,-34.971832275390604,22.0019989013672,-35.0,22.0,-751254.0,-11598.2,pp-riro,4,0,-1,-1
1570536823.1,2019-10-08,14:13:43.100,15.0,5.0,13.6499996185303,14.3,-0.5,3.4,23.1,-4.5,-47.3,13.1589,0.041287,3.9953,3.3077300000000003,8.78838,5.97731,27.0513,10.3144,-46.284,0.135114,0.181386,1.01942,255.9,5.0,52.1701,4.427219999999999,2.7,-2.95825,83.5188,4.51327,59.2038,0.380367,236.606,1.3256,0.192692,243.901,0.780501,1.60081,-34.971832275390604,21.9983940124512,-35.0,22.0,-752597.0,-13413.3,pp-riro,4,0,-1,-1
1570536823.2,2019-10-08,14:13:43.200,15.0,6.0,13.3199996948242,14.7,0.6,3.7,24.9,-6.2,-42.2,13.5281,1.12352,4.32607,3.8166,11.8952,1.50725,29.001,8.66506,-40.2953,0.275831,0.176564,1.05201,249.0,4.3,52.1701,4.427219999999999,2.7,-3.04967,70.4311,4.51326,59.2038,1.90042,236.406,1.32529,0.167039,243.71400000000003,0.902324,1.70215,-34.9906158447266,21.997879028320305,-35.0,22.0,-754572.0,-22827.2,pp-riro,4,0,-1,-1
1570536823.3,2019-10-08,14:13:43.300,15.0,7.0,12.9799995422363,15.2,1.7,4.2,26.4,-7.6,-37.3,13.7116,1.7166,4.52936,4.46035,11.1103,8.34864,29.9122,7.70217,-37.4012,0.104649,0.184973,0.949371,249.0,4.3,52.1701,4.427219999999999,2.7,-3.18487,67.3671,4.51323,59.2914,3.04047,236.106,1.32445,0.147925,243.456,1.0131,1.7939900000000002,-34.9940185546875,21.9983940124512,-35.0,22.0,-757685.0,-31102.9,pp-riro,4,0,-1,-1
1570536823.4,2019-10-08,14:13:43.400,15.0,6.0,12.9799995422363,15.7,2.6,4.6,28.1,-9.3,-32.5,14.2707,3.1802900000000003,5.2317,1.77787,9.45053,7.32085,32.3613,4.92994,-29.4003,0.1502099999999999,0.243664,0.904789,249.0,4.3,52.1701,4.427219999999999,2.7,-3.33779,75.6175,4.5132,59.4958,4.56052,235.806,1.32295,0.122673,243.238,1.12943,1.87221,-34.9974365234375,21.9983940124512,-35.0,22.0,-760841.0,-30579.9,pp-riro,4,0,-1,-1
1570536823.5,2019-10-08,14:13:43.500,15.0,6.0,13.119999885559098,16.1,3.6,5.2,29.0,-10.8,-27.3,14.2707,3.1802900000000003,5.2317,1.77787,9.45053,7.32085,32.3613,4.92994,-29.4003,0.1502099999999999,0.243664,0.904789,249.0,4.3,52.1701,4.427219999999999,2.7,-3.44805,87.3092,4.51316,59.7587,6.4606,235.506,1.32091,0.0915313,243.055,1.25757,1.96135,-34.9974365234375,21.9983940124512,-35.0,22.0,-763363.0,-23134.9,pp-riro,4,0,-1,-1
1570536823.6,2019-10-08,14:13:43.600,15.0,5.0,13.4499998092651,16.4,4.6,5.8,29.9,-13.0,-22.2,14.2707,3.1802900000000003,5.2317,1.77787,9.45053,7.32085,32.3613,4.92994,-29.4003,0.1502099999999999,0.243664,0.904789,249.0,4.3,52.1701,4.427219999999999,2.7,-3.52507,87.1468,4.51314,60.1384,7.600639999999999,235.106,1.31846,0.0735256,242.794,1.37366,2.03503,-35.0042724609375,21.9983940124512,-35.0,22.0,-764990.0,-15812.9,pp-riro,4,0,-1,-1
1570536823.7,2019-10-08,14:13:43.700,15.0,7.0,13.5200004577637,16.4,5.8,6.1,30.5,-15.2,-17.1,15.0477,5.95621,6.647939999999999,-0.172101,10.8873,3.57869,35.0928,-1.83113,-12.5578,0.0843765,0.2018849999999999,0.971636,249.0,4.3,52.1701,4.427219999999999,2.7,-3.58879,76.1311,4.5131,60.6349,9.50072,234.606,1.31492,0.0438371,242.501,1.50106,2.12837,-35.0076751708984,21.9983940124512,-35.0,22.0,-767068.0,-21719.7,pp-riro,4,0,-1,-1
1570536823.8,2019-10-08,14:13:43.800,15.0,8.0,13.5799999237061,16.4,7.0,6.5,31.0,-17.5,-11.8,15.022,6.53797,6.84064,-1.34048,10.8995,4.5360000000000005,35.261,-2.94117,-9.91845,0.165549,0.253628,0.928091,249.0,4.3,52.1701,4.427219999999999,2.7,-3.77552,69.8302,4.51307,61.219,11.0208,234.006,1.31099,0.0212067999999999,242.132,1.62487,2.21261,-35.0076751708984,21.9983940124512,-35.0,22.0,-771902.0,-35348.4,pp-riro,4,0,-1,-1
1570536823.9,2019-10-08,14:13:43.900,15.0,15.0,13.390000343322802,16.4,8.1,7.0,31.4,-19.9,-6.6,14.9379,7.641139999999999,7.21218,0.354412,10.1664,3.70235,35.6132,-5.41402,-4.5467900000000006,0.138228,0.155263,1.0305,249.0,4.3,52.1701,4.427219999999999,2.7,-3.8481,73.0873,4.51305,61.9784,12.9209,233.406,1.30592,-0.00620434,241.84,1.7513900000000002,2.2941,-35.0076751708984,21.9983940124512,-35.0,22.0,-773758.0,-35409.9,pp-riro,4,0,-1,-1
1570536824.0,2019-10-08,14:13:44.000,15.0,17.0,13.380000114440902,16.5,9.3,7.6,31.5,-22.0,-1.0,15.0076,9.15458,7.877510000000001,-0.0380566999999999,8.62321,3.63096,35.245,-8.7718,3.98018,0.0801903,0.293224,0.99755,249.0,4.3,52.1701,4.427219999999999,2.7,-3.97,82.6259,4.513,62.8546,14.4409,232.806,1.30055,-0.0264466,241.574,1.87507,2.3677,-35.0093841552734,21.9983940124512,-35.0,22.0,-776806.0,-28395.6,pp-riro,4,0,-1,-1
1570536824.1,2019-10-08,14:13:44.100,15.0,17.0,13.1800003051758,16.4,10.5,8.2,30.9,-24.2,4.7,14.9854,9.64528,8.17366,0.244549,11.8664,4.60957,35.0611,-9.84197,6.9482800000000005,0.09176,0.16797,1.07312,249.0,4.3,52.1701,4.427219999999999,2.7,-4.053669999999999,90.128,4.512980000000001,63.7892,15.961,232.106,1.29473,-0.0457741,241.24,1.99856,2.44168,-35.0076751708984,21.9983940124512,-35.0,22.0,-779201.0,-21719.7,pp-riro,4,0,-1,-1
1570536824.2,2019-10-08,14:13:44.200,15.0,9.0,12.9799995422363,16.1,11.7,8.6,30.3,-26.6,10.4,14.9663,10.175,8.39407,-1.61082,8.69149,3.37812,34.5708,-10.9738,9.90786,0.0298902,0.221516,1.02594,244.8,4.6,52.1701,4.427219999999999,2.7,-4.12182,94.6033,4.51293,64.8406,17.8611,231.306,1.28783,-0.0693309999999999,240.885,2.12544,2.52018,-35.0076751708984,21.9983940124512,-35.0,22.0,-781738.0,-16735.9,pp-riro,4,0,-1,-1
1570536824.3,2019-10-08,14:13:44.300,15.0,8.0,12.9799995422363,15.8,13.0,9.1,29.2,-28.6,16.8,14.8853,10.696,8.63749,-2.58641,10.6236,5.13898,34.1424,-12.0766,12.9294,0.0478976,0.236193,0.994843,244.8,4.6,52.1701,4.427219999999999,2.7,-4.138999999999999,98.6239,4.51287,66.0673,19.0011,230.406,1.28084,-0.080522,240.443,2.24808,2.5881,-35.0059814453125,21.9983940124512,-35.0,22.0,-783084.0,-13567.1,pp-riro,4,0,-1,-1
1570536824.4,2019-10-08,14:13:44.400,15.0,12.0,13.1800003051758,15.3,14.1,9.6,27.7,-30.5,23.4,14.1325,12.8967,9.41894,-4.52275,9.03969,3.93785,31.2555,-16.1062,25.2201,0.071423,0.2011,1.06582,244.8,4.6,52.1701,4.427219999999999,2.7,-4.14066,101.558,4.51281,67.4108,20.9012,229.506,1.27246,-0.101107,240.112,2.37969,2.6611,-35.0059814453125,21.9994239807129,-23.0,22.0,-783661.0,-11044.5,pp-riro,4,0,-1,-1
1570536824.5,2019-10-08,14:13:44.500,15.0,9.0,13.8999996185303,14.8,15.4,10.1,26.4,-31.7,30.1,13.7449,13.9237,9.89298,-5.3525,12.1802,5.75707,29.4959,-17.8201,31.9087,0.144245,0.346219,1.04617,244.8,4.6,52.1701,4.427219999999999,2.7,-4.135669999999999,112.251,4.51275,68.8127,22.4213,228.606,1.26419,-0.115344,239.789,2.5018,2.73124,-35.0059814453125,21.9994239807129,-23.0,22.0,-784282.0,-5876.02,pp-riro,4,0,-1,-1
1570536824.6,2019-10-08,14:13:44.600,15.0,9.0,14.710000038147,14.0,16.7,10.6,24.5,-33.3,37.2,13.7449,13.9237,9.89298,-5.3525,12.1802,5.75707,29.4959,-17.8201,31.9087,0.144245,0.346219,1.04617,244.8,4.6,52.1701,4.427219999999999,2.7,-4.06087,124.914,4.51269,70.4483,23.9413,227.506,1.25471,-0.127901,239.364,2.6279,2.8061,-34.906982421875,21.9994239807129,-23.0,22.0,-783785.0,8060.3,pp-riro,4,0,-1,-1
1570536824.7,2019-10-08,14:13:44.700,15.0,10.0,15.5799999237061,13.6,17.3,10.8,22.7,-34.2,44.2,13.1294,15.1282,10.404000000000002,-6.84288,12.194,4.735180000000001,27.4754,-19.0126,38.614,-0.0146375,0.320526,1.02284,244.8,4.6,52.1701,4.427219999999999,2.7,-3.86472,135.71200000000002,4.512630000000001,72.1423,25.4614,226.406,1.24494,-0.139559,238.982,2.74706,2.84592,-34.4512634277344,21.9994239807129,-23.0,22.0,-781352.0,18704.8,pp-riro,4,0,-1,-1
1570536824.8,2019-10-08,14:13:44.800,15.0,9.0,16.1399993896484,12.6,18.5,11.3,21.9,-34.5,47.6,11.4608,17.2797,11.2932,-10.8188,13.9103,4.75063,23.2151,-21.2577,52.2428,0.151754,0.330106,1.0144,244.8,4.6,52.1701,4.427219999999999,2.7,-3.78327,140.491,4.512580000000001,73.0185,25.8414,225.906,1.24049,-0.140363,238.816,2.79978,2.90947,-33.6354370117188,21.9994239807129,-23.0,22.0,-780221.0,21535.1,pp-riro,4,0,-1,-1
1570536824.9,2019-10-08,14:13:44.900,15.0,10.0,16.4099998474121,11.3,19.8,11.7,20.0,-34.8,54.7,11.4608,17.2797,11.2932,-10.8188,13.9103,4.75063,23.2151,-21.2577,52.2428,0.151754,0.330106,1.0144,244.8,4.6,52.1701,4.427219999999999,2.7,-3.59378,151.097,4.51253,74.9462,27.3615,224.806,1.22976,-0.150187,238.544,2.91525,2.99035,-32.4611663818359,21.9994239807129,-23.0,22.0,-777418.0,29195.5,pp-riro,4,0,-1,-1
1570536825.0,2019-10-08,14:13:45.000,15.0,9.0,16.7800006866455,9.4,21.5,12.3,17.6,-34.9,64.8,9.70759,18.8694,11.8878,-14.4047,9.81571,4.63629,20.1279,-22.024,62.0698,0.0603442,0.240513,0.945156,244.8,4.6,52.1701,4.427219999999999,2.7,-3.34056,162.504,4.51247,78.0129,28.8816,223.006,1.21376,-0.154651,238.016,3.0694,3.09018,-30.93701171875,21.9994239807129,-21.9585647583008,22.0,-774200.0,35563.8,pp-riro,4,0,-1,-1
1570536825.1,2019-10-08,14:13:45.100,15.0,10.0,17.0400009155273,8.7,21.9,12.5,16.4,-34.7,67.9,9.70759,18.8694,11.8878,-14.4047,9.81571,4.63629,20.1279,-22.024,62.0698,0.0603442,0.240513,0.945156,244.8,4.6,52.1701,4.427219999999999,2.7,-3.04967,175.003,4.5124,79.0351,29.2616,222.406,1.20858,-0.154599,237.838,3.11522,3.12062,-29.061279296875,21.9994239807129,-21.5941104888916,22.0,-770243.0,40486.1,pp-riro,4,0,-1,-1
1570536825.2,2019-10-08,14:13:45.200,15.0,10.0,17.4500007629395,7.4,22.7,12.7,14.7,-34.8,74.5,8.53374,19.9434,12.203,-11.2006,8.37547,0.4623239999999999,18.1154,-22.7435,68.3605,-0.0728843999999999,0.179509,0.990321,250.3,4.1,52.1701,4.427219999999999,2.7,-2.67566,182.83900000000003,4.51234,81.2841,30.0217,221.106,1.19729,-0.153748,237.479,3.21188,3.17596,-27.0148468017578,21.9994239807129,-21.0118103027344,22.0,-765897.0,43316.4,pp-riro,4,0,-1,-1
1570536825.3,2019-10-08,14:13:45.300,15.0,10.0,17.75,6.0,23.3,12.8,12.6,-35.0,80.7,5.37798,21.7371,12.5947,-12.8264,6.0887400000000005,0.343163,13.2345,-24.1142,83.5338,0.129433,0.102248,0.8826950000000001,250.3,4.1,52.1701,4.427219999999999,2.7,-2.07559,178.507,4.51229,83.53299999999999,31.1618,219.906,1.18562,-0.1569549999999999,237.292,3.30519,3.2347900000000003,-25.1903076171875,21.9994239807129,-20.5106639862061,22.0,-760342.0,33656.3,pp-riro,4,0,-1,-1
1570536825.4,2019-10-08,14:13:45.400,15.0,10.0,18.0,4.6,23.7,12.5,10.8,-34.6,86.9,4.67899,21.9342,12.5097,-10.0024,1.23532,-5.331259999999999,12.1548,-24.375,86.7458,-0.160156,0.0731886,0.91059,250.3,4.1,52.1701,4.427219999999999,2.7,-1.72209,172.797,4.51221,85.8404,31.5418,218.606,1.17458,-0.1519569999999999,236.96400000000003,3.39198,3.28445,-23.6030044555664,21.9994239807129,-19.949510574340803,22.0,-757508.0,25749.9,pp-riro,4,0,-1,-1
1570536825.5,2019-10-08,14:13:45.500,15.0,9.0,18.2000007629395,3.0,24.0,12.3,8.5,-34.0,93.1,3.34729,22.259,12.231,-14.0579,3.8541,-0.854267,10.5592,-24.5277,92.3793,0.117122,0.148969,0.827609,250.3,4.1,52.1701,4.427219999999999,2.7,-1.54921,170.22,4.51219,88.2938,31.9219,217.406,1.16314,-0.146718,236.812,3.47902,3.34015,-22.2597732543945,21.9994239807129,-19.301073074340803,22.0,-756385.0,21935.1,pp-riro,4,0,-1,-1
1570536825.6,2019-10-08,14:13:45.600,15.0,8.0,18.2900009155273,1.7,23.9,12.1,6.8,-33.0,98.4,2.02618,22.4657,12.0072,-9.53499,-1.9692,-2.23062,8.634030000000001,-24.2662,97.539,0.0816164,0.200317,0.722498,250.3,4.1,52.1701,4.427219999999999,2.7,-1.05165,164.27700000000002,4.5121400000000005,90.6303,32.3019,216.206,1.1521,-0.142127,236.648,3.55506,3.3836800000000005,-21.0974578857422,21.9994239807129,-18.911512374877898,22.0,-754016.0,13505.6,pp-riro,4,0,-1,-1
1570536825.7,2019-10-08,14:13:45.700,15.0,8.0,18.340000152587898,0.4,23.8,11.7,4.5,-32.4,103.7,1.4174,22.4454,11.8815,-11.3755,-2.75856,-6.750430000000001,7.73928,-24.0804,100.156,0.0992315,0.161384,0.731052,250.3,4.1,52.1701,4.427219999999999,2.8,-0.73693,161.393,4.51209,93.0253,32.3019,215.006,1.1413,-0.1339119999999999,236.484,3.62709,3.4258,-20.128005981445305,21.9994239807129,-18.4566478729248,22.0,-753030.0,8767.88,pp-riro,4,0,-1,-1
1570536825.8,2019-10-08,14:13:45.800,15.0,7.0,18.2399997711182,-0.7,23.5,11.3,2.8,-31.3,108.8,1.4174,22.4454,11.8815,-11.3755,-2.75856,-6.750430000000001,7.73928,-24.0804,100.156,0.0992315,0.161384,0.731052,250.3,4.1,52.1701,4.427219999999999,2.8,-0.596747,160.409,4.51204,95.3619,32.302,213.906,1.13087,-0.12625,236.417,3.69912,3.46164,-19.3087539672852,21.9994239807129,-18.1418781280518,22.0,-752667.0,6860.48,pp-riro,4,0,-1,-1
1570536825.9,2019-10-08,14:13:45.900,15.0,8.0,18.1399993896484,-1.9,23.2,10.8,1.2,-30.0,113.4,-1.44991,21.8598,10.6914,-20.0856,-1.435,-6.54593,3.31026,-22.1008,112.33,0.0547773,0.262273,0.522805,250.3,4.1,52.1701,4.427219999999999,2.8,-0.328017,155.16899999999998,4.51199,97.6985,32.302,212.806,1.1204,-0.118917,236.378,3.76576,3.5036,-18.6994400024414,21.9994239807129,-17.7354793548584,22.0,-752254.0,3261.04,pp-riro,4,0,-1,-1
1570536826.0,2019-10-08,14:13:46.000,15.0,7.0,18.2399997711182,-2.9,22.7,10.5,-0.2,-28.8,117.3,-2.00069,21.6592,10.4484,-11.1476,-1.82798,-5.08621,2.71638,-21.5202,114.497,0.08405,0.16868,0.650595,250.3,4.1,52.1701,4.427219999999999,2.8,-0.0609491,151.49,4.51194,99.9766,31.9221,211.806,1.11076,-0.108615,236.381,3.81989,3.53567,-18.1908187866211,21.9994239807129,-17.4172992706299,22.0,-752140.0,492.232,pp-riro,4,0,-1,-1
1570536826.1,2019-10-08,14:13:46.100,15.0,7.0,18.1399993896484,-4.1,22.2,9.9,-1.7,-27.2,121.1,-3.4564,20.9204,9.87649,-10.9253,-1.17539,-4.24228,0.515649,-20.2439,119.97,-0.133051,0.0291807,0.503468,250.3,4.1,52.1701,4.427219999999999,2.8,0.160684,152.868,4.51189,102.284,31.9221,210.706,1.10035,-0.102016,236.385,3.87857,3.58287,-17.960403442382802,21.9994239807129,-16.964994430542,22.0,-752258.0,-1784.34,pp-riro,4,0,-1,-1
1570536826.2,2019-10-08,14:13:46.200,15.0,7.0,18.1900005340576,-4.9,21.8,9.5,-3.1,-25.5,124.3,-4.39056,20.5715,9.33819,-15.0459,-2.99764,-5.38212,-0.687578,-19.1008,123.266,-0.371697,0.291434,0.478155,246.0,5.6,52.1701,4.427219999999999,2.8,0.28092,156.945,4.511880000000001,104.475,31.1621,209.806,1.09156,-0.0893671,236.441,3.92486,3.608530000000001,-17.5576019287109,21.9994239807129,-16.6995716094971,22.0,-752206.0,2984.16,pp-riro,4,0,-1,-1
1570536826.3,2019-10-08,14:13:46.300,15.0,8.0,18.0400009155273,-5.6,21.3,9.5,-4.6,-23.9,127.7,-4.39056,20.5715,9.33819,-15.0459,-2.99764,-5.38212,-0.687578,-19.1008,123.266,-0.371697,0.291434,0.478155,246.0,5.6,52.1701,4.427219999999999,2.8,0.233269,160.564,4.51186,106.694,30.4021,208.806,1.08241,-0.0770622,236.448,3.97448,3.62862,-17.1786956787109,21.9994239807129,-16.6007041931152,22.0,-752175.0,584.525,pp-riro,4,0,-1,-1
1570536826.4,2019-10-08,14:13:46.400,15.0,8.0,18.0400009155273,-6.4,20.9,9.5,-6.4,-22.8,131.3,-4.92176,20.1483,9.15383,-5.34959,-7.393110000000001,2.38276,-2.38955,-17.0782,126.612,-0.239454,0.126816,0.54611,246.0,5.6,52.1701,4.427219999999999,2.8,0.313057,177.56599999999997,4.51184,108.826,30.0222,207.806,1.07315,-0.0686291,236.49,4.0275300000000005,3.65617,-16.7690734863281,21.9994239807129,-16.4852027893066,22.0,-752219.0,861.4060000000001,pp-riro,4,0,-1,-1
1570536826.5,2019-10-08,14:13:46.500,15.0,10.0,17.7900009155273,-7.3,20.5,9.2,-7.7,-21.5,134.3,-5.61612,19.7546,9.2464,-11.936,-2.68481,-2.83318,-4.09135,-16.0696,130.116,-0.096224,0.0917434,0.488573,246.0,5.6,52.1701,4.427219999999999,2.8,0.306962,184.416,4.511819999999999,110.871,29.2622,206.806,1.06453,-0.0574771999999999,236.468,4.07121,3.6889,-16.6291198730469,21.9994239807129,-16.173412322998,22.0,-752183.0,0.0,pp-riro,4,0,-1,-1
1570536826.6,2019-10-08,14:13:46.600,15.0,12.0,17.7399997711182,-8.3,20.1,9.1,-9.2,-20.9,136.8,-7.133439999999999,19.3287,8.77011,-12.4451,-2.01419,-3.13933,-6.78115,-14.4059,134.591,0.0276067999999999,0.107859,0.445564,246.0,5.6,52.1701,4.427219999999999,2.8,0.324692,189.517,4.5118,112.886,28.5022,205.806,1.05596,-0.0467279,236.456,4.10295,3.72436,-16.567672729492198,21.9994239807129,-15.8380041122437,22.0,-752183.0,0.0,pp-riro,4,0,-1,-1
1570536826.7,2019-10-08,14:13:46.700,15.0,11.0,17.5900001525879,-9.4,19.5,9.2,-10.6,-20.5,138.9,-8.23516,18.9273,8.778939999999999,-16.1186,-3.2902400000000003,-1.47674,-8.496939999999999,-14.0149,137.007,-0.0821966,-0.0615936,0.311323,246.0,5.6,52.1701,4.427219999999999,3.1,0.354059,210.808,4.51178,114.931,27.7422,204.706,1.04703,-0.0362407,236.396,4.12747,3.76413,-16.243385314941403,21.9994239807129,-15.4778261184692,22.0,-752139.0,30.7645,pp-riro,4,0,-1,-1
1570536826.8,2019-10-08,14:13:46.800,15.0,12.0,17.379999160766598,-10.3,19.0,9.1,-12.0,-20.1,141.2,-9.20056,18.4172,8.593910000000001,-6.46175,-7.68743,2.77435,-10.1923,-13.925999999999998,139.075,-0.298322,0.0507288,0.381198,246.0,5.6,52.1701,4.427219999999999,3.1,0.370127,216.272,4.51176,116.829,26.6022,203.606,1.03888,-0.0232529,236.246,4.15287,3.79544,-15.9941940307617,21.9994239807129,-15.1940135955811,22.0,-752134.0,92.2935,pp-riro,4,0,-1,-1
1570536826.9,2019-10-08,14:13:46.900,15.0,11.0,17.1800003051758,-11.0,18.5,9.2,-14.3,-19.3,143.5,-9.20056,18.4172,8.593910000000001,-6.46175,-7.68743,2.77435,-10.1923,-13.925999999999998,139.075,-0.298322,0.0507288,0.381198,246.0,5.6,52.1701,4.427219999999999,3.1,0.382871,218.472,4.51176,118.698,25.8422,202.605,1.0306799999999998,-0.0137422,236.233,4.1844,3.81973,-15.5538482666016,21.9994239807129,-15.1666088104248,22.0,-752072.0,769.112,pp-riro,4,0,-1,-1
1570536827.0,2019-10-08,14:13:47.000,15.0,13.0,16.9699993133545,-11.5,17.9,9.2,-15.6,-18.9,146.0,-9.57456,18.0946,8.64695,-12.8332,-5.95867,1.22308,-11.1499,-13.7804,140.043,-0.387677,-0.0987425,0.215353,246.0,5.6,52.1701,4.427219999999999,3.1,0.369573,209.117,4.51172,120.597,24.7022,201.505,1.0224,-0.00136524,236.132,4.21321,3.83739,-15.2022552490234,21.9994239807129,-15.244807243347198,22.0,-751975.0,1015.23,pp-riro,4,0,-1,-1
1570536827.1,2019-10-08,14:13:47.100,15.0,11.0,16.9699993133545,-12.0,17.2,8.9,-17.8,-18.7,148.7,-10.4475,17.3347,8.6244,-5.2676,-7.103960000000001,2.13957,-14.0365,-13.4523,143.524,-0.146452,-0.0378330999999999,0.4875279999999999,246.0,5.6,52.1701,4.427219999999999,3.1,0.346301,195.814,4.5117,122.32,23.1822,200.505,1.01514,0.0133942,236.013,4.241169999999999,3.85989,-15.1732330322266,21.9994239807129,35.0,22.0,-751877.0,953.699,pp-riro,4,0,-1,-1
1570536827.2,2019-10-08,14:13:47.200,15.0,11.0,17.020000457763697,-12.5,16.5,8.5,-19.1,-18.2,150.5,-10.4475,17.3347,8.6244,-5.2676,-7.103960000000001,2.13957,-14.0365,-13.4523,143.524,-0.146452,-0.0378330999999999,0.4875279999999999,241.7,5.9,52.1701,4.427219999999999,3.1,0.596747,180.933,4.51165,124.043,22.0422,199.505,1.00754,0.0248769,235.956,4.26138,3.88807,-15.2073745727539,21.9994239807129,35.0,22.0,-752699.0,-10490.7,pp-riro,4,0,-1,-1
1570536827.3,2019-10-08,14:13:47.300,15.0,11.0,16.9699993133545,-12.8,15.7,8.0,-19.9,-17.1,152.0,-10.907,16.7248,8.45492,-11.4132,-4.58634,-4.42871,-15.7272,-12.9587,146.063,-0.153417,-0.0410184,0.335004,241.7,5.9,52.1701,4.427219999999999,3.1,0.778486,174.976,4.51159,125.621,20.9022,198.605,1.00063,0.0359159,235.927,4.28316,3.91454,-15.1442260742188,21.9994239807129,35.0,22.0,-753421.0,-13444.1,pp-riro,4,0,-1,-1
1570536827.4,2019-10-08,14:13:47.400,15.0,10.0,16.8099994659424,-12.9,15.1,7.3,-20.7,-16.7,153.8,-11.9874,14.7183,7.23583,1.71151,-5.74322,-7.52808,-18.944000000000003,-12.1784,151.11,0.0226692,-0.131077,0.193066,241.7,5.9,52.1701,4.427219999999999,3.1,0.961887,147.929,4.5115300000000005,127.227,19.3822,197.705,0.993758,0.0496445,235.902,4.30081,3.93241,-14.7004623413086,21.9994239807129,35.0,22.0,-753467.0,12798.0,pp-riro,4,0,-1,-1
1570536827.5,2019-10-08,14:13:47.500,15.0,6.0,16.4400005340576,-13.2,14.5,6.8,-20.6,-15.8,154.3,-12.195,14.5005,6.87337,-4.03727,-2.88939,-8.81921,-19.0768,-12.3153,151.674,-0.0518052,-0.0352260999999999,0.121053,241.7,5.9,52.1701,4.427219999999999,3.1,0.750782,132.64600000000002,4.511480000000001,128.658,18.2422,196.905,0.987467,0.060034,235.918,4.30732,3.95852,-13.8846206665039,21.9994239807129,35.0,22.0,-752788.0,676.819,pp-riro,4,0,-1,-1
1570536827.6,2019-10-08,14:13:47.600,15.0,9.0,16.4400005340576,-13.7,14.1,7.0,-20.8,-16.0,155.2,-12.7367,13.7797,6.66642,-6.36616,-5.71005,3.2234,-19.3531,-11.6616,152.803,0.0683145,-0.0371004,0.167756,241.7,5.9,52.1701,4.427219999999999,3.1,0.922547,177.487,4.511369999999999,130.06,17.1022,196.205,0.981467,0.0702743,236.018,4.30967,3.97429,-12.7206039428711,21.9994239807129,35.0,22.0,-753334.0,-492.232,pp-riro,4,0,-1,-1
1570536827.7,2019-10-08,14:13:47.700,15.0,8.0,16.379999160766598,-14.1,14.0,7.1,-20.9,-16.0,156.0,-13.2619,13.5476,6.815060000000001,-2.72364,-1.20333,-1.86922,-19.7439,-12.1023,154.185,-0.0882881,-0.205703,0.185388,241.7,5.9,52.1701,4.427219999999999,3.1,0.928642,184.755,4.51136,131.433,15.5822,195.405,0.975449,0.0830223,236.01,4.3102800000000006,3.97842,-11.204986572265598,21.9994239807129,35.0,22.0,-753160.0,3445.62,pp-riro,4,0,-1,-1
1570536827.8,2019-10-08,14:13:47.800,15.0,13.0,16.6499996185303,-14.5,14.0,7.0,-20.5,-16.0,157.1,-13.4238,13.5144,6.768,-3.1071,0.467121,-2.29723,-19.833,-12.2903,154.865,0.012747,-0.148558,0.230365,241.7,5.9,52.1701,4.427219999999999,3.1,0.913682,195.134,4.5113,132.77700000000002,14.0622,194.705,0.969699,0.0955696,236.088,4.31536,3.98388,-9.32411956787109,21.9994239807129,35.0,22.0,-753040.0,-461.467,pp-riro,4,0,-1,-1
1570536827.9,2019-10-08,14:13:47.900,15.0,10.0,16.9599990844727,-15.2,13.8,7.3,-20.5,-15.9,157.7,-13.6925,13.5519,6.69314,-7.841139999999999,-0.399526,-1.7802900000000002,-20.0017,-12.6612,155.48,0.127716,-0.1708059999999999,0.194178,241.7,5.9,52.1701,4.427219999999999,3.1,0.994578,233.429,4.51125,134.12,12.9222,193.805,0.963272,0.105091,236.042,4.31672,3.99868,-7.22307586669922,21.9994239807129,35.0,22.0,-753076.0,953.699,pp-riro,4,0,-1,-1
1570536828.0,2019-10-08,14:13:48.000,15.0,9.0,17.4699993133545,-15.5,13.6,7.8,-20.8,-15.7,158.0,-14.0514,13.4954,6.810239999999999,-4.7391,-1.20314,4.05103,-20.0548,-13.0956,156.041,0.0380084,-0.152268,0.168173,241.7,5.9,52.1701,4.427219999999999,3.1,1.00788,241.687,4.51119,135.464,11.0222,193.005,0.957268,0.120013,236.057,4.31055,3.9914,-5.10496520996094,21.9994239807129,35.0,22.0,-753038.0,707.5830000000001,pp-riro,4,0,-1,-1
1570536828.1,2019-10-08,14:13:48.100,15.0,8.0,17.8700008392334,-15.4,13.6,8.0,-21.2,-16.0,158.7,-14.8928,13.3215,7.43279,-0.589725,-3.17408,3.14754,-21.148000000000003,-13.9394,157.344,-0.169349,-0.181423,-0.0146672,241.7,5.9,52.1701,4.427219999999999,3.1,1.02505,235.023,4.5111300000000005,136.749,9.88218,192.105,0.950935,0.129118,236.013,4.30985,3.97692,-2.99539184570312,21.9994239807129,35.0,22.0,-752879.0,2491.92,pp-riro,4,0,-1,-1
1570536828.2,2019-10-08,14:13:48.200,15.0,10.0,18.1200008392334,-15.1,13.7,8.2,-21.8,-16.3,159.2,-14.9112,13.4062,7.636769999999999,-0.447058,5.5079,-2.8089,-22.1286,-15.3541,158.639,-0.2686159999999999,-0.144723,0.0601035,246.6,4.9,52.1701,4.427219999999999,3.1,0.982942,220.456,4.511080000000001,138.122,7.98216,191.105,0.944172,0.1435779999999999,235.929,4.30202,3.94901,-0.89605712890625,21.9994239807129,35.0,22.0,-752481.0,3507.15,pp-riro,4,0,-1,-1
1570536828.3,2019-10-08,14:13:48.300,15.0,9.0,18.2099990844727,-14.7,13.5,8.6,-22.6,-16.5,158.9,-14.7586,13.5156,7.97255,2.36726,-1.97266,1.91274,-22.8652,-16.1329,158.791,-0.00401961,-0.137839,-0.148045,246.6,4.9,52.1701,4.427219999999999,3.1,0.975739,218.123,4.51105,139.378,6.46215,190.205,0.937899,0.155007,235.894,4.286519999999999,3.92367,1.21604156494141,21.9994239807129,35.0,22.0,-752288.0,1692.05,pp-riro,4,0,-1,-1
1570536828.4,2019-10-08,14:13:48.400,15.0,6.0,18.2099990844727,-14.1,13.6,9.0,-23.6,-17.0,158.2,-14.3414,13.4819,8.51774,7.832789999999999,3.35914,5.31251,-23.676,-16.9164,158.6,-0.316783,-0.150632,-0.0147358,246.6,4.9,52.1701,4.427219999999999,3.1,0.970198,202.455,4.511019999999999,140.66299999999998,4.94214,189.205,0.931212,0.16625,235.816,4.26276,3.88397,3.31090545654297,21.9994239807129,35.0,22.0,-752001.0,2676.51,pp-riro,4,0,-1,-1
1570536828.5,2019-10-08,14:13:48.500,15.0,7.0,18.409999847412102,-13.2,14.0,9.1,-24.5,-17.7,157.1,-14.0902,13.6279,8.67404,2.07072,4.08561,2.39081,-24.1453,-17.5182,158.475,-0.33554,-0.145793,-0.176598,246.6,4.9,52.1701,4.427219999999999,3.1,0.912574,177.078,4.5109900000000005,141.977,3.80214,188.305,0.924585,0.174629,235.862,4.2339,3.83372,5.43302154541016,21.9994239807129,35.0,22.0,-751557.0,4614.67,pp-riro,4,0,-1,-1
1570536828.6,2019-10-08,14:13:48.600,15.0,8.0,18.3999996185303,-12.5,14.5,9.6,-25.0,-18.0,155.4,-13.7767,13.8838,8.84397,9.75342,6.4532300000000005,3.03216,-24.5873,-18.1222,158.06,-0.423325,-0.193497,-0.305795,246.6,4.9,52.1701,4.427219999999999,3.1,0.8926270000000001,174.185,4.51095,143.291,2.66215,187.405,0.917929,0.182859,235.924,4.20094,3.78116,7.536407470703121,21.9994239807129,35.0,22.0,-751446.0,2122.75,pp-riro,4,0,-1,-1
1570536828.7,2019-10-08,14:13:48.700,15.0,9.0,18.4500007629395,-11.7,14.6,10.7,-26.1,-19.1,153.6,-13.7767,13.8838,8.84397,9.75342,6.4532300000000005,3.03216,-24.5873,-18.1222,158.06,-0.423325,-0.193497,-0.305795,246.6,4.9,52.1701,4.42721,3.0,0.936953,194.358,4.51092,144.69299999999998,1.14214,186.305,0.910443,0.1935579999999999,235.896,4.15701,3.72191,9.64148712158203,21.9994239807129,35.0,22.0,-751485.0,-338.409,pp-riro,4,0,-1,-1
1570536828.8,2019-10-08,14:13:48.800,15.0,8.0,18.2099990844727,-10.7,15.1,11.2,-26.8,-20.3,151.0,-12.7275,14.7602,9.38454,0.68153,5.64818,10.4208,-25.8357,-19.7391,155.97299999999998,-0.0871726999999999,-0.119573,-0.192468,246.6,4.9,52.1701,4.42721,3.0,0.945265,195.275,4.51089,146.095,0.382161,185.305,0.903165,0.1988849999999999,235.97,4.10564,3.66129,11.7499771118164,21.9994239807129,35.0,22.0,-751402.0,1661.28,pp-riro,4,0,-1,-1
1570536828.9,2019-10-08,14:13:48.900,15.0,10.0,18.0599994659424,-9.5,15.5,11.5,-27.2,-21.7,147.6,-12.7275,14.7602,9.38454,0.68153,5.64818,10.4208,-25.8357,-19.7391,155.97299999999998,-0.0871726999999999,-0.119573,-0.192468,246.6,4.9,52.1701,4.42721,3.0,0.923655,190.824,4.51086,147.614,-0.757827,184.105,0.894957,0.206667,235.977,4.03975,3.5951699999999995,13.8584671020508,21.9994239807129,35.0,22.0,-751102.0,1292.11,pp-riro,4,0,-1,-1
1570536829.0,2019-10-08,14:13:49.000,15.0,9.0,17.9599990844727,-9.1,15.9,12.0,-26.8,-22.6,145.8,-11.5866,15.3689,10.9911,9.89167,7.752000000000001,5.15996,-27.3474,-22.5103,154.325,-0.341819,-0.424867,-0.292015,246.6,4.9,52.1701,4.42721,3.0,0.929196,193.711,4.51082,148.315,-1.13782,183.605,0.891307,0.2092369999999999,236.029,4.00479,3.56421,15.977180480957,21.9994239807129,35.0,22.0,-751065.0,707.5830000000001,pp-riro,4,0,-1,-1
1570536829.1,2019-10-08,14:13:49.100,15.0,9.0,17.7199993133545,-8.1,16.2,13.3,-26.9,-24.7,141.5,-10.1428,16.4503,11.7898,2.63077,9.06126,9.75103,-28.0586,-26.0127,149.745,-0.117818,0.0506748,-0.71806,246.6,4.9,52.1701,4.42721,3.0,0.945819,201.042,4.51079,150.681,-2.6577900000000003,182.305,0.8800100000000001,0.2192349999999999,236.531,3.91933,3.49672,18.078857421875,21.9994239807129,35.0,22.0,-750972.0,1107.52,pp-riro,4,0,-1,-1
1570536829.2,2019-10-08,14:13:49.200,15.0,10.0,17.3600006103516,-5.8,16.9,14.0,-25.5,-29.2,134.8,-8.125910000000001,17.4131,14.0971,8.327869999999999,8.908610000000001,2.3384400000000003,-28.2346,-32.3864,143.239,-0.423864,-0.3840679999999999,-0.8375549999999999,250.3,4.1,52.1701,4.42721,3.0,0.940832,195.47,4.5107800000000005,152.316,-3.03775,180.305,0.8692479999999999,0.221555,236.05,3.78883,3.3846199999999995,20.190750122070305,21.9994239807129,35.0,22.0,-750706.0,2061.22,pp-riro,4,0,-1,-1
1570536829.3,2019-10-08,14:13:49.300,15.0,10.0,17.1100006103516,-5.2,17.4,14.3,-24.6,-30.5,132.0,-6.555210000000001,18.3415,14.7181,16.2918,14.6009,11.7688,-27.2922,-35.8804,138.273,-0.18775,-0.179796,-0.71007,250.3,4.1,52.1701,4.42721,3.0,0.933075,194.974,4.51079,153.076,-3.41773,179.705,0.8651260000000001,0.223921,236.08900000000003,3.73899,3.3512800000000005,22.309455871582,21.9994239807129,35.0,22.0,-750518.0,1753.58,pp-riro,4,0,-1,-1
1570536829.4,2019-10-08,14:13:49.400,15.0,10.0,16.8500003814697,-4.0,18.0,15.1,-21.7,-33.0,125.4,-5.85735,18.8569,15.1368,16.0355,9.57218,13.6498,-26.3652,-37.6346,135.409,-0.123019,-0.0979785,-0.880468,250.3,4.1,52.1701,4.42721,3.0,0.938616,203.932,4.51077,154.828,-3.79769,178.305,0.855606,0.2261449999999999,236.176,3.63019,3.29145,24.4145431518555,21.9994239807129,35.0,22.0,-750464.0,1015.23,pp-riro,4,0,-1,-1
1570536829.5,2019-10-08,14:13:49.500,15.0,10.0,16.8999996185303,-2.3,17.8,15.9,-17.5,-36.6,118.3,-4.56137,19.4162,16.2765,15.7264,-0.6407430000000001,11.9987,-24.0624,-41.3514,129.135,-0.298385,-0.282646,-1.02437,250.3,4.1,52.1701,4.42721,3.0,0.98128,235.247,4.510759999999999,156.55100000000002,-4.17765,176.805,0.8459040000000001,0.228307,236.19,3.51175,3.21775,26.5196228027344,21.9994239807129,35.0,22.0,-750543.0,-1568.99,pp-riro,4,0,-1,-1
1570536829.6,2019-10-08,14:13:49.600,15.0,10.0,16.9500007629395,-0.2,17.8,16.2,-12.3,-40.0,109.4,-2.48281,19.4502,17.1801,20.3048,1.25516,9.76406,-20.3836,-45.8386,121.822,-0.340778,-0.436645,-1.34646,250.3,4.1,52.1701,4.42721,3.0,1.04167,244.474,4.510759999999999,158.304,-4.17759,175.205,0.835859,0.228016,236.166,3.37914,3.13039,28.631530761718803,21.9994239807129,35.0,22.0,-750542.0,1845.87,pp-riro,4,0,-1,-1
1570536829.7,2019-10-08,14:13:49.700,15.0,11.0,17.1499996185303,1.9,17.6,16.0,-6.4,-41.5,99.6,-0.093819,19.6106,17.5062,26.0771,2.0351,4.05788,-14.8183,-49.9374,112.798,-0.0363265,-0.0708202,-1.25904,250.3,4.1,52.1701,4.42721,2.8,0.964103,211.897,4.51075,160.056,-4.17753,173.705,0.8261,0.227731,236.239,3.24739,3.04259,30.5765075683594,21.9994239807129,23.0,22.0,-749851.0,3722.5,pp-riro,4,0,-1,-1
1570536829.8,2019-10-08,14:13:49.800,15.0,11.0,17.25,4.9,17.0,15.9,3.4,-42.5,84.9,3.51685,19.3337,17.2765,23.1905,-2.62441,-0.10412,-3.35733,-53.3713,95.2448,0.0701871999999999,0.025315,-1.24321,250.3,4.1,52.1701,4.42721,2.8,0.956346,211.272,4.51075,162.656,-3.79744,171.405,0.811447,0.224984,236.328,3.05883,2.91709,32.163848876953104,21.9994239807129,23.0,22.0,-749774.0,1476.7,pp-ro,1,1,-1,-1
1570536829.9,2019-10-08,14:13:49.900,15.0,11.0,17.3500003814697,5.8,16.8,15.8,6.5,-42.0,80.2,5.75791,19.0076,17.1683,21.5161,-8.657910000000001,1.7247400000000002,5.04232,-54.0241,83.1276,-0.524571,-0.048882,-1.06511,250.3,4.1,52.1701,4.42721,2.8,0.976293,219.515,4.51074,163.444,-3.4174,170.705,0.8070149999999999,0.222552,236.36,2.99931,2.88001,33.4003295898438,21.9994239807129,23.0,22.0,-749716.0,676.819,pp-ro,1,1,-1,-1
1570536830.0,2019-10-08,14:13:50.000,15.0,12.0,17.3500003814697,8.0,16.3,15.6,13.6,-40.6,69.4,5.75791,19.0076,17.1683,21.5161,-8.657910000000001,1.7247400000000002,5.04232,-54.0241,83.1276,-0.524571,-0.048882,-1.06511,250.3,4.1,52.1701,4.42721,2.8,0.98405,226.606,4.51074,165.167,-3.03733,169.105,0.797093,0.2200389999999999,236.402,2.85751,2.78759,34.2842407226562,21.9994239807129,23.0,22.0,-749438.0,1845.87,pp-ro,1,1,-1,-1
1570536830.1,2019-10-08,14:13:50.100,15.0,10.0,17.4500007629395,10.0,15.2,15.4,18.9,-39.0,60.8,5.75791,19.0076,17.1683,21.5161,-8.657910000000001,1.7247400000000002,5.04232,-54.0241,83.1276,-0.524571,-0.048882,-1.06511,250.3,4.1,52.1701,4.42721,2.8,0.988483,229.805,4.510730000000001,166.68599999999998,-2.27726,167.705,0.7883979999999999,0.215317,236.462,2.74256,2.69907,34.798614501953104,21.9994239807129,23.0,22.0,-749392.0,861.4060000000001,pp-ro,1,1,-1,-1
1570536830.2,2019-10-08,14:13:50.200,14.0,12.0,17.5499992370605,11.9,14.2,14.8,22.8,-36.9,52.8,11.7864,16.9226,15.9537,18.803,-9.34924,-6.675960000000001,22.9185,-50.8227,54.9166,-0.1425789999999999,-0.187606,-1.03503,242.3,5.5,52.1701,4.42721,2.8,1.00455,233.051,4.51071,168.176,-0.75717,166.305,0.7798,0.206179,236.518,2.63345,2.61269,34.972320556640604,21.9994239807129,23.0,22.0,-749118.0,2799.57,pp-ro,1,1,-1,-1
1570536830.3,2019-10-08,14:13:50.300,15.0,12.0,17.5499992370605,13.7,13.3,13.9,26.9,-34.3,44.8,13.8825,15.9647,15.2833,17.1524,-8.94506,-6.28144,28.2423,-48.3365,44.859,-0.2187619999999999,-0.0248626,-1.14293,242.3,5.5,52.1701,4.42721,2.8,1.0006700000000002,237.125,4.510669999999999,169.636,0.382909,164.905,0.771256,0.199463,236.58,2.51665,2.52432,34.8258666992188,21.9994239807129,22.2784233093262,22.0,-749000.0,2184.28,pp-ro,1,1,-1,-1
1570536830.4,2019-10-08,14:13:50.400,15.0,11.0,17.3999996185303,15.5,12.3,13.6,30.4,-31.0,37.2,16.1196,15.0358,14.6359,18.6144,-11.5953,2.76696,32.0962,-44.1579,35.6274,0.138311,0.0445895999999999,-1.32079,242.3,5.5,52.1701,4.42721,2.8,1.02561,250.771,4.510619999999999,170.921,1.90299,163.605,0.763501,0.190631,236.61,2.39773,2.44723,34.2774353027344,21.9994239807129,20.9998092651367,22.0,-748966.0,0.0,pp-ro,1,1,-1,-1
1570536830.5,2019-10-08,14:13:50.500,15.0,12.0,17.2399997711182,16.8,11.1,12.7,34.3,-27.9,29.3,17.0773,14.1939,14.3635,16.3399,-6.4994,-1.97287,33.8876,-42.5015,31.6764,0.327575,-0.192687,-1.01575,242.3,5.5,52.1701,4.42721,2.8,1.04832,254.64,4.51058,172.118,3.42307,162.305,0.755963,0.181923,236.599,2.27526,2.37125,33.3611450195312,21.9994239807129,19.744197845459,22.0,-748788.0,2584.22,pp-ro,1,1,-1,-1
1570536830.6,2019-10-08,14:13:50.600,15.0,12.0,17.3400001525879,17.7,9.5,11.3,37.3,-24.5,21.9,18.8337,12.8619,13.4113,24.1094,-16.8933,-10.0822,37.6878,-38.5646,23.1452,-0.19622,0.0103181,-1.0749,242.3,5.5,52.1701,4.42721,2.8,1.02893,245.962,4.51054,173.22799999999998,4.94315,161.105,0.74895,0.173324,236.616,2.15459,2.28445,32.094024658203104,21.9994239807129,18.2586708068848,22.0,-748466.0,2830.33,pp-ro,1,1,-1,-1
1570536830.7,2019-10-08,14:13:50.700,15.0,8.0,17.4400005340576,18.6,8.3,10.0,39.0,-20.1,15.8,19.3826,11.9829,12.6303,7.29662,-17.9576,-14.5245,39.1526,-36.4016,19.1166,-0.2446719999999999,-0.228647,-1.3923299999999998,242.3,5.5,52.1701,4.42721,2.7,1.00289,227.28,4.51049,174.192,6.84323,160.105,0.7429,0.16263,236.692,2.03757,2.20633,30.4658203125,21.9994239807129,16.8986682891846,22.0,-748039.0,3261.04,pp-ro,1,1,-1,-1
1570536830.8,2019-10-08,14:13:50.800,15.0,11.0,17.6900005340576,19.4,7.1,8.8,40.6,-16.2,10.1,21.0168,9.67006,10.3311,3.4759300000000004,-7.282030000000001,-8.20352,41.9003,-28.8856,8.71637,-0.0332808,0.00362397,-1.31464,242.3,5.5,52.1701,4.42721,2.7,0.989037,221.21400000000003,4.51045,175.03900000000002,8.36329,159.205,0.737494,0.154196,236.759,1.92848,2.1296,28.4935607910156,21.9994239807129,15.5604114532471,22.0,-747868.0,3261.04,pp-ro,1,1,-1,-1
1570536830.9,2019-10-08,14:13:50.900,15.0,11.0,17.5900001525879,19.8,5.8,7.6,42.0,-12.2,4.7,21.0168,9.67006,10.3311,3.4759300000000004,-7.282030000000001,-8.20352,41.9003,-28.8856,8.71637,-0.0332808,0.00362397,-1.31464,242.3,5.5,52.1701,4.42721,2.7,0.970198,218.031,4.51041,175.798,10.6434,158.405,0.732491,0.141514,236.876,1.82361,2.0594900000000003,26.3850784301758,21.9994239807129,14.3209924697876,22.0,-747642.0,1661.28,pp-ro,1,1,-1,-1
1570536831.0,2019-10-08,14:13:51.000,15.0,15.0,17.4400005340576,19.7,4.6,6.3,42.2,-8.3,0.4,21.9842,6.54145,7.35434,1.59277,-18.7645,-5.63558,43.3545,-19.4785,-1.17945,0.0173678,-0.346555,-1.02571,242.3,5.5,52.1701,4.42721,2.7,0.978509,212.282,4.51036,176.382,12.9234,157.805,0.728536,0.128888,237.023,1.7320400000000002,1.99466,24.2919235229492,21.9994239807129,13.149402618408198,22.0,-747387.0,2799.57,pp-ro,1,1,-1,-1
1570536831.1,2019-10-08,14:13:51.100,15.0,14.0,17.0300006866455,19.6,3.7,5.1,42.7,-4.6,-3.1,22.0464,5.3001,5.85529,-7.75468,-14.191,-16.0937,43.3644,-14.8979,-5.63537,-0.289681,0.3942449999999999,-1.05436,242.3,5.5,52.1701,4.42721,2.7,0.946927,201.467,4.51032,176.96599999999998,14.4435,157.205,0.724683,0.1206339999999999,237.148,1.6490200000000002,1.93444,22.7131042480469,21.9994239807129,12.094407081604,22.0,-747102.0,2522.69,pp-ro,1,1,-1,-1
1570536831.2,2019-10-08,14:13:51.200,14.0,14.0,16.870000839233402,19.9,2.9,4.1,43.0,-1.3,-6.2,21.9338,4.1914,4.6119,-1.42646,-15.97,-12.0588,42.7832,-9.77853,-8.8257,-0.289987,0.257513,-0.931373,238.3,5.7,52.1701,4.42721,2.7,0.942494,196.985,4.510269999999999,177.40400000000002,16.7236,156.705,0.721329,0.1081319999999999,237.294,1.57845,1.87892,20.601203918457,21.9994239807129,11.0992422103882,22.0,-747030.0,1353.64,pp-ro,1,1,-1,-1
1570536831.3,2019-10-08,14:13:51.300,15.0,14.0,16.8199996948242,19.7,2.1,3.3,43.3,1.6,-9.2,21.765,2.68536,3.05853,-4.364730000000001,-9.46773,-9.41713,42.7833,-3.99753,-13.3668,0.0785022,0.161732,-0.92117,238.3,5.7,52.1701,4.42721,2.7,0.938616,196.036,4.5102,177.755,18.6236,156.305,0.718571,0.0977953999999999,237.43400000000003,1.51278,1.83352,18.4961242675781,21.9994239807129,10.2935781478882,22.0,-746830.0,2215.04,pp-ro,1,1,-1,-1
1570536831.4,2019-10-08,14:13:51.400,14.0,12.0,16.9200000762939,20.1,1.5,2.1,43.3,4.2,-12.1,21.765,2.68536,3.05853,-4.364730000000001,-9.46773,-9.41713,42.7833,-3.99753,-13.3668,0.0785022,0.161732,-0.92117,238.3,5.7,52.1701,4.42721,2.7,0.951913,205.367,4.51014,178.017,20.9037,156.005,0.716199,0.0853593,237.623,1.4536,1.7751599999999998,16.4387283325195,21.9994239807129,9.21034812927246,22.0,-746683.0,799.877,pp-ro,1,1,-1,-1
1570536831.5,2019-10-08,14:13:51.500,15.0,12.0,16.979999542236303,20.6,0.7,1.2,44.1,6.5,-14.5,21.7871,2.2642,2.53382,5.55083,-5.77093,-7.599410000000001,42.6029,-1.87823,-14.7043,0.13793,0.293795,-0.785698,238.3,5.7,52.1701,4.42721,2.7,0.970752,223.806,4.51008,178.222,22.8037,155.705,0.7140489999999999,0.0750523999999999,237.754,1.40277,1.72075,14.137786865234402,21.9994239807129,8.20871543884277,22.0,-746575.0,892.17,pp-ro,1,1,-1,-1
1570536831.6,2019-10-08,14:13:51.600,15.0,11.0,17.0300006866455,20.7,0.0,0.6,44.7,8.7,-17.5,22.2923,0.44018,0.5054069999999999,1.15501,-13.4411,-7.274089999999999,42.7243,4.514880000000001,-19.0297,0.267968,-0.1104329999999999,-0.5046,238.3,5.7,52.1701,4.42721,2.7,1.01896,251.719,4.51004,178.30900000000003,25.0838,155.505,0.712339,0.0625905,237.918,1.34786,1.6844,12.463592529296902,21.9994239807129,7.54732942581177,22.0,-746620.0,-584.525,pp-ro,1,1,-1,-1
1570536831.7,2019-10-08,14:13:51.700,15.0,10.0,17.0300006866455,20.5,-0.6,-0.1,45.4,10.3,-20.0,22.3648,-0.0779543,0.222705,2.12239,-8.96396,-5.44305,42.9071,5.54311,-20.5046,0.130923,-0.0174145,-0.708426,238.3,5.7,52.1701,4.42721,2.7,1.0427799999999998,259.688,4.50995,178.30900000000003,27.3639,155.405,0.7111109999999999,0.0501643,238.104,1.3066,1.64762,10.8950042724609,21.9994239807129,6.8587970733642605,22.0,-746623.0,-61.529,pp-ro,1,1,-1,-1
1570536831.8,2019-10-08,14:13:51.800,15.0,11.0,17.0300006866455,20.5,-1.2,-0.8,46.6,12.1,-22.3,22.2533,-0.4713779999999999,-0.0909952,-3.28018,-4.56018,-8.18717,43.2413,6.70538,-21.7718,0.0495536,0.0998676,-0.559715,238.3,5.7,52.1701,4.42721,2.7,1.05442,254.83,4.50989,178.25099999999998,29.2639,155.305,0.710134,0.0397816,238.221,1.26377,1.60929,9.47287750244141,21.9994239807129,6.13465785980225,22.0,-746363.0,3907.09,pp-ro,1,1,-1,-1
1570536831.9,2019-10-08,14:13:51.900,15.0,11.0,17.0799999237061,20.5,-2.0,-1.4,48.0,13.2,-24.3,21.813,-1.87503,-1.4869,-4.76781,-10.6697,-2.99265,45.0492,11.1203,-25.8476,0.5165420000000001,0.0704328,-0.323201,238.3,5.7,52.1701,4.42721,2.7,1.03558,263.91700000000003,4.50982,178.105,31.544,155.305,0.70948,0.0272742999999999,238.403,1.2349,1.57001,8.22618103027344,21.9994239807129,5.376948356628421,22.0,-745975.0,338.409,pp-ro,1,1,-1,-1
1570536832.0,2019-10-08,14:13:52.000,15.0,12.0,17.229999542236303,20.9,-2.7,-2.2,49.5,14.3,-26.2,22.0938,-2.73513,-2.14558,5.86321,-7.834569999999999,-5.459,46.3906,12.8155,-27.4131,0.276481,-0.0607550999999999,-0.406091,238.3,5.7,52.1701,4.42721,2.7,1.08877,287.178,4.50976,177.9,33.444,155.305,0.709097,0.0168048,238.509,1.20587,1.52884,7.677764892578121,21.9994239807129,4.57218360900879,22.0,-745988.0,338.409,pp-ro,1,1,-1,-1
1570536832.1,2019-10-08,14:13:52.100,15.0,13.0,17.4300003051758,21.0,-3.6,-2.6,50.9,14.8,-28.4,22.0938,-2.73513,-2.14558,5.86321,-7.834569999999999,-5.459,46.3906,12.8155,-27.4131,0.276481,-0.0607550999999999,-0.406091,238.3,5.7,52.1701,4.42721,2.7,1.10816,305.153,4.5097,177.579,35.724000000000004,155.505,0.7094060000000001,0.00416889,238.73,1.18245,1.49703,6.65587615966797,21.9994239807129,3.91635298728943,22.0,-745908.0,1507.46,pp-ro,1,1,-1,-1
1570536832.2,2019-10-08,14:13:52.200,15.0,11.0,17.8299999237061,21.1,-4.7,-3.2,52.0,15.0,-29.5,22.0938,-2.73513,-2.14558,5.86321,-7.834569999999999,-5.459,46.3906,12.8155,-27.4131,0.276481,-0.0607550999999999,-0.406091,264.3,6.2,52.1701,4.42721,2.7,1.17687,350.256,4.50971,177.199,37.6241,155.605,0.709689,-0.0065423,238.805,1.17424,1.45257,5.49604034423828,21.9994239807129,3.0124363899231,22.0,-745973.0,-1169.05,pp-ro,1,1,-1,-1
1570536832.3,2019-10-08,14:13:52.300,15.0,11.0,18.4599990844727,21.2,-5.7,-3.6,53.4,15.1,-30.0,22.2298,-3.55809,-2.68229,-0.6820149999999999,-8.73119,-2.49441,47.7715,13.6926,-29.2286,0.268312,-0.15674,-0.353213,264.3,6.2,52.1701,4.42721,2.7,1.25721,380.676,4.5098,176.673,40.2841,155.805,0.710164,-0.0215956,238.98,1.1771,1.42236,4.475852966308589,21.9994239807129,2.387957572937009,22.0,-746008.0,461.467,pp-ro,1,1,-1,-1
1570536832.4,2019-10-08,14:13:52.400,15.0,12.0,19.159999847412102,20.9,-6.4,-3.8,53.9,14.6,-31.4,22.2685,-6.08312,-3.88435,-8.91416,-8.33498,-4.85145,50.1673,15.4033,-31.4739,-0.0855674,-0.0713971,0.0755481,264.3,6.2,52.1701,4.42721,2.7,1.26663,380.593,4.50989,176.08900000000003,42.5642,156.105,0.711245,-0.0346743,239.14,1.17573,1.4013,3.6651611328125,21.9994239807129,1.9076126813888503,22.0,-745437.0,7198.89,pp-ro,1,1,-1,-1
1570536832.5,2019-10-08,14:13:52.500,15.0,11.0,19.7099990844727,20.7,-6.8,-4.2,54.3,15.0,-31.7,21.8987,-6.699439999999999,-4.16235,3.2617700000000003,0.32285,-7.18825,50.7387,15.3631,-32.714,0.074107,-0.0940092,-0.1440519999999999,264.3,6.2,52.1701,4.42721,2.7,1.26829,380.201,4.5099800000000005,175.446,44.4642,156.305,0.712335,-0.0458031999999999,239.144,1.17451,1.38155,3.2325592041015603,21.9994239807129,1.45158040523529,22.0,-744937.0,2368.87,pp-ro,1,1,-1,-1
1570536832.6,2019-10-08,14:13:52.600,15.0,12.0,20.2399997711182,20.4,-7.3,-4.1,54.5,15.3,-32.5,21.7605,-7.246410000000001,-4.42715,-5.71824,-6.491230000000001,-1.54852,51.2525,16.1254,-32.62,-0.0908033,0.0866677,-0.0955845,264.3,6.2,52.1701,4.42721,2.7,1.26552,373.858,4.5101,174.745,46.7442,156.605,0.7135670000000001,-0.0590922,239.261,1.17014,1.37579,2.4695587158203103,21.9994239807129,1.26932799816132,22.0,-744623.0,5999.08,pp-ro,1,1,-1,-1
1570536832.7,2019-10-08,14:13:52.700,15.0,12.0,20.6200008392334,20.1,-7.5,-4.4,54.4,14.9,-32.8,21.6437,-7.54615,-4.39447,5.52511,-5.61076,2.17275,51.34,16.0131,-32.8969,-0.0846306,-0.0921421,-0.137899,264.3,6.2,52.1701,4.4272,2.7,1.21898,352.396,4.51016,173.957,49.0242,157.005,0.715259,-0.0724702,239.405,1.18051,1.36424,1.8530197143554696,21.9994239807129,0.936724603176117,22.0,-743900.0,6737.42,pp-ro,1,1,-1,-1
1570536832.8,2019-10-08,14:13:52.800,15.0,11.0,21.0499992370605,20.1,-7.9,-4.5,53.9,15.3,-33.1,21.6437,-7.54615,-4.39447,5.52511,-5.61076,2.17275,51.34,16.0131,-32.8969,-0.0846306,-0.0921421,-0.137899,264.3,6.2,52.1701,4.4272,2.7,1.19626,344.73400000000004,4.51025,173.226,50.5443,157.305,0.7169800000000001,-0.0817658,239.389,1.17806,1.35673,1.4136047363281203,21.9994239807129,0.6702972650527951,22.0,-743454.0,4060.91,pp-ro,1,1,-1,-1
1570536832.9,2019-10-08,14:13:52.900,14.0,13.0,21.25,20.1,-8.5,-4.5,53.5,15.0,-33.6,21.4032,-7.703469999999999,-4.37502,-8.154539999999999,-1.58685,-1.96547,51.165,16.0189,-33.2851,-0.0781246,-0.04507,-0.1240579999999999,264.3,6.2,52.1701,4.4272,2.7,1.22341,361.655,4.51035,172.438,52.8243,157.705,0.7185189999999999,-0.095218,239.575,1.18488,1.35046,1.05254364013672,21.9994239807129,0.451511710882187,22.0,-743109.0,1445.93,pp-ro,1,1,-1,-1
1570536833.0,2019-10-08,14:13:53.000,15.0,13.0,21.25,20.2,-8.8,-4.4,52.8,14.9,-34.4,21.0386,-8.050460000000001,-4.68475,-2.9475,-3.87206,0.913067,50.8269,16.4213,-33.5839,-0.198038,-0.1012,-0.11527,264.3,6.2,52.1701,4.4272,2.7,1.23394,362.294,4.51044,171.56099999999998,54.7243,158.105,0.7205159999999999,-0.106822,239.636,1.18443,1.35574,0.790252685546875,21.9994239807129,0.415855467319489,22.0,-742684.0,5014.61,pp-ro,1,1,-1,-1
1570536833.1,2019-10-08,14:13:53.100,15.0,13.0,21.4599990844727,20.2,-9.0,-4.2,52.7,14.7,-35.0,21.2238,-9.14828,-4.63434,2.89198,-2.1228,3.36147,49.8516,16.1623,-34.5239,-0.208986,-0.0644474,-0.0838893999999999,264.3,6.2,52.1701,4.4272,2.7,1.21399,353.894,4.51053,170.685,57.0043,158.505,0.722114,-0.120419,239.806,1.18896,1.36631,0.517753601074219,21.9994239807129,0.523680865764618,22.0,-742182.0,4891.55,pp-ro,1,1,-1,-1
1570536833.2,2019-10-08,14:13:53.200,15.0,13.0,21.5799999237061,20.3,-9.2,-4.0,52.4,14.6,-35.8,21.2238,-9.14828,-4.63434,2.89198,-2.1228,3.36147,49.8516,16.1623,-34.5239,-0.208986,-0.0644474,-0.0838893999999999,258.9,6.3,52.1701,4.4272,2.7,1.21178,351.276,4.51058,169.75099999999998,58.9044,158.905,0.724116,-0.132198,239.866,1.1886,1.37744,0.403640747070312,21.9994239807129,0.593989729881287,22.0,-741967.0,3907.09,pp-ro,1,1,-1,-1
1570536833.3,2019-10-08,14:13:53.300,15.0,9.0,21.8299999237061,20.1,-9.4,-3.7,52.3,14.6,-36.4,21.2238,-9.14828,-4.63434,2.89198,-2.1228,3.36147,49.8516,16.1623,-34.5239,-0.208986,-0.0644474,-0.0838893999999999,258.9,6.3,52.1701,4.4272,2.7,1.19128,339.38699999999994,4.51064,168.81599999999997,61.1844,159.205,0.725381,-0.1459599999999999,239.976,1.1907299999999998,1.3879,0.37298583984375,21.9994239807129,0.727830171585083,22.0,-741307.0,4399.32,pp-ro,1,1,-1,-1
1570536833.4,2019-10-08,14:13:53.400,15.0,11.0,21.7099990844727,19.8,-9.4,-3.2,51.9,14.7,-37.3,21.3566,-9.75731,-4.05103,-2.20925,-1.7939,-0.300563,49.1801,16.0705,-36.0328,-0.323696,-0.144609,-0.2818969999999999,258.9,6.3,52.1701,4.4272,2.7,1.17078,311.404,4.51066,167.852,62.7044,159.405,0.727055,-0.15579,239.825,1.18544,1.40571,0.565444946289062,21.9994239807129,0.946795761585236,22.0,-740819.0,5783.72,pp-ro,1,1,-1,-1
1570536833.5,2019-10-08,14:13:53.500,15.0,8.0,21.4200000762939,19.4,-9.3,-3.7,51.8,14.7,-37.3,20.8217,-10.1012,-3.3112699999999995,-6.12136,-4.12025,0.611975,48.9404,16.0109,-37.609,0.0626529,0.00888689,-0.0106933,258.9,6.3,52.1701,4.4272,2.7,1.13421,289.837,4.5107,166.888,64.9844,159.705,0.728233,-0.16964,239.959,1.19472,1.3934799999999998,0.7578964233398441,21.9994239807129,0.634869456291199,22.0,-740383.0,8029.53,pp-ro,1,1,-1,-1
1570536833.6,2019-10-08,14:13:53.600,15.0,8.0,20.9599990844727,18.9,-9.2,-3.6,51.7,13.8,-37.9,20.641,-10.0379,-3.43414,-4.93424,0.8453629999999999,-3.4967300000000003,48.6385,15.9684,-37.928,0.050457,0.0180775,0.00553769,258.9,6.3,52.1701,4.4272,2.7,1.06273,272.813,4.51074,165.953,67.2644,160.105,0.72955,-0.183439,240.206,1.20818,1.39919,0.9248046875,21.9994239807129,-35.0,22.0,-739794.0,1292.11,pp-ro,1,1,-1,-1
1570536833.7,2019-10-08,14:13:53.700,14.0,9.0,20.6200008392334,18.8,-9.5,-3.2,52.0,13.8,-38.3,20.641,-10.0379,-3.43414,-4.93424,0.8453629999999999,-3.4967300000000003,48.6385,15.9684,-37.928,0.050457,0.0180775,0.00553769,258.9,6.3,52.1701,4.4272,2.8,1.0788,283.882,4.5108,165.486,68.0244,160.305,0.730574,-0.188415,240.231,1.20674,1.40671,0.8856353759765621,21.9994239807129,-35.0,22.0,-739730.0,1261.34,pp-ro,1,1,-1,-1
1570536833.8,2019-10-08,14:13:53.800,15.0,8.0,20.2800006866455,18.8,-9.3,-3.0,52.1,13.6,-39.2,20.641,-10.0379,-3.43414,-4.93424,0.8453629999999999,-3.4967300000000003,48.6385,15.9684,-37.928,0.050457,0.0180775,0.00553769,258.9,6.3,52.1701,4.4272,2.8,1.1126,297.05,4.51082,164.02599999999998,71.0645,160.805,0.732576,-0.207273,240.443,1.21129,1.4314,0.538192749023438,21.9994239807129,-35.0,22.0,-739625.0,1261.34,pp-ro,1,1,-1,-1
1570536833.9,2019-10-08,14:13:53.900,15.0,10.0,20.2000007629395,19.1,-8.9,-2.8,52.3,13.9,-39.7,19.8108,-9.97049,-2.8497,2.89759,5.4103,4.047619999999999,49.1124,15.1432,-39.4252,0.35699,-0.188872,-0.0985588999999999,258.9,6.3,52.1701,4.4272,2.8,1.1126,285.579,4.51088,163.091,72.5845,161.105,0.7341840000000001,-0.217227,240.462,1.20828,1.46097,-0.180915832519531,21.9994239807129,-35.0,22.0,-739262.0,4983.85,pp-ro,1,1,-1,-1
1570536834.0,2019-10-08,14:13:54.000,14.0,9.0,20.2399997711182,19.2,-9.2,-2.6,52.5,13.7,-40.1,19.8108,-9.97049,-2.8497,2.89759,5.4103,4.047619999999999,49.1124,15.1432,-39.4252,0.35699,-0.188872,-0.0985588999999999,258.9,6.3,52.1701,4.4272,2.8,1.08323,291.064,4.5109,162.624,73.7245,161.205,0.734379,-0.224146,240.56,1.21072,1.4663,-1.27666473388672,21.9994239807129,-35.0,22.0,-738870.0,2215.04,pp-ro,1,1,-1,-1
1570536834.1,2019-10-08,14:13:54.100,15.0,9.0,20.3700008392334,19.4,-9.7,-2.2,52.7,12.7,-40.8,20.2021,-10.265,-2.1311400000000003,1.47511,-3.00652,2.04986,49.4306,15.0306,-40.3285,-0.0255352999999999,0.0138992,0.0886513999999999,258.9,6.3,52.1701,4.4272,2.8,1.15027,307.73400000000004,4.51094,161.631,75.6245,161.505,0.7356020000000001,-0.236182,240.681,1.223,1.47837,-2.72742462158203,21.9994239807129,-35.0,22.0,-738807.0,2245.81,pp-ro,1,1,-1,-1
1570536834.2,2019-10-08,14:13:54.200,15.0,10.0,20.4599990844727,19.5,-9.6,-2.1,53.0,11.6,-41.1,20.2021,-10.265,-2.1311400000000003,1.47511,-3.00652,2.04986,49.4306,15.0306,-40.3285,-0.0255352999999999,0.0138992,0.0886513999999999,251.0,6.3,52.1701,4.4272,2.8,1.13975,303.214,4.51089,160.579,77.5245,161.705,0.736592,-0.2482739999999999,240.716,1.24143,1.4942,-4.51954650878906,21.9994239807129,-35.0,22.0,-738496.0,5937.55,pp-ro,1,1,-1,-1
1570536834.3,2019-10-08,14:13:54.300,15.0,9.0,20.3700008392334,19.5,-9.2,-1.3,54.5,10.3,-40.7,20.2594,-10.4867,-1.94927,0.6312409999999999,0.329531,2.49621,49.7588,14.8211,-40.2794,-0.0132668,-0.123969,0.0804793,251.0,6.3,52.1701,4.4272,2.8,1.10539,299.175,4.5108,159.644,79.4246,161.905,0.737216,-0.2600679999999999,240.848,1.27062,1.54016,-6.60863494873047,21.9994239807129,-35.0,22.0,-738114.0,2522.69,pp-ro,1,1,-1,-1
1570536834.4,2019-10-08,14:13:54.400,15.0,9.0,20.3700008392334,19.9,-9.3,-0.5,54.9,9.1,-39.8,20.2588,-9.72585,-0.939481,0.289775,-5.68951,8.47207,51.3435,13.1249,-39.2172,0.0640095,0.100587,0.235898,251.0,6.3,52.1701,4.4272,2.8,1.11371,285.55400000000003,4.51072,158.71,81.7046,162.005,0.736977,-0.273755,241.06,1.30592,1.57964,-8.72162628173828,21.9994239807129,-35.0,22.0,-737693.0,4860.79,pp-ro,1,1,-1,-1
1570536834.5,2019-10-08,14:13:54.500,14.0,8.0,20.3700008392334,20.3,-8.3,0.7,56.3,4.7,-39.0,20.2588,-9.72585,-0.939481,0.289775,-5.68951,8.47207,51.3435,13.1249,-39.2172,0.0640095,0.100587,0.235898,251.0,6.3,52.1701,4.4272,2.8,1.0583,265.757,4.51064,157.746,83.6046,162.005,0.736907,-0.285608,241.079,1.37957,1.6612,-10.824371337890598,21.9994239807129,-35.0,22.0,-737179.0,4460.85,pp-ro,1,1,-1,-1
1570536834.6,2019-10-08,14:13:54.600,15.0,8.0,20.2900009155273,20.4,-7.9,1.2,56.5,3.3,-38.7,20.4663,-8.79764,0.910771,-0.9296,9.86261,8.13228,53.3559,9.16016,-36.2998,0.0811785,-0.1776309999999999,0.505528,251.0,6.3,52.1701,4.4272,2.8,1.05109,264.639,4.51054,156.87,85.8846,162.005,0.7360439999999999,-0.299067,241.30900000000003,1.41042,1.6998400000000002,-12.930534362793,21.9994239807129,-35.0,22.0,-737062.0,2245.81,pp-ro,1,1,-1,-1
1570536834.7,2019-10-08,14:13:54.700,15.0,9.0,20.3299999237061,21.3,-7.2,3.1,58.4,-0.1,-36.2,20.4663,-8.79764,0.910771,-0.9296,9.86261,8.13228,53.3559,9.16016,-36.2998,0.0811785,-0.1776309999999999,0.505528,251.0,6.3,52.1701,4.4272,2.7,1.08489,282.12,4.51048,155.701,88.9247,161.705,0.7338319999999999,-0.317006,241.452,1.49631,1.80177,-15.026458740234402,21.9994239807129,-35.0,22.0,-736872.0,1230.58,pp-ro,1,1,-1,-1
1570536834.8,2019-10-08,14:13:54.800,15.0,10.0,20.3299999237061,21.6,-6.9,3.7,59.1,-1.8,-35.5,20.7467,-8.07643,1.99775,5.76091,7.059760000000001,12.4261,54.6385,6.61805,-34.8332,0.159738,0.0503283,0.466233,251.0,6.3,52.1701,4.4272,2.7,1.09154,285.29,4.5104,155.351,89.6847,161.605,0.733318,-0.3215739999999999,241.44,1.5298,1.83431,-17.132614135742198,21.9994239807129,-35.0,22.0,-736753.0,2276.57,pp-ro,1,1,-1,-1
1570536834.9,2019-10-08,14:13:54.900,15.0,13.0,20.3700008392334,22.3,-5.9,5.0,60.4,-5.6,-33.2,20.7467,-8.07643,1.99775,5.76091,7.059760000000001,12.4261,54.6385,6.61805,-34.8332,0.159738,0.0503283,0.466233,251.0,6.3,52.1701,4.4272,2.7,1.10207,294.798,4.51032,154.65,91.9647,161.205,0.7305699999999999,-0.334415,241.581,1.6151799999999998,1.91476,-19.2524337768555,21.9994239807129,-35.0,22.0,-736528.0,2276.57,pp-ro,1,1,-1,-1
1570536835.0,2019-10-08,14:13:55.000,15.0,10.0,20.4200000762939,22.8,-5.3,6.8,61.3,-10.0,-30.2,21.4224,-7.134,4.00448,6.02192,7.83616,14.154000000000002,56.5107,2.6177900000000003,-31.6131,0.220154,-0.0866654,0.762788,251.0,6.3,52.1701,4.4272,2.7,1.15526,327.48,4.5102400000000005,154.065,94.2447,160.705,0.72716,-0.346838,241.753,1.71609,1.99315,-21.3756637573242,21.9994239807129,-35.0,22.0,-736375.0,522.996,pp-ro,1,1,-1,-1
1570536835.1,2019-10-08,14:13:55.100,14.0,8.0,20.6299991607666,22.7,-4.0,9.1,62.4,-16.0,-27.7,22.0101,-4.00916,8.95398,-4.65037,12.9102,16.8552,58.1225,-11.0977,-21.5174,0.00973973,0.0609973,1.19295,251.0,6.3,52.1701,4.4272,2.7,1.1741,328.699,4.51015,153.51,96.5248,159.905,0.722681,-0.35908,241.769,1.83201,2.10325,-23.485237121582,21.9994239807129,-35.0,22.0,-736289.0,1692.05,pp-ro,1,1,-1,-1
1570536835.2,2019-10-08,14:13:55.200,15.0,11.0,21.0499992370605,22.5,-1.9,10.7,63.1,-22.0,-24.4,22.0101,-4.00916,8.95398,-4.65037,12.9102,16.8552,58.1225,-11.0977,-21.5174,0.00973973,0.0609973,1.19295,248.4,5.4,52.1701,4.4272,2.7,1.1574799999999998,310.765,4.51009,153.189,98.8048,159.005,0.717282,-0.37058,241.892,1.9557,2.21676,-25.601638793945305,21.9994239807129,-35.0,22.0,-735717.0,6645.13,pp-ro,1,1,-1,-1
1570536835.3,2019-10-08,14:13:55.300,14.0,10.0,21.5,22.0,0.2,12.9,63.9,-28.1,-20.3,21.4464,-1.95409,10.568,-7.38266,18.2545,16.8946,58.5451,-17.1556,-17.6287,0.4296939999999999,0.0827782,1.33123,248.4,5.4,52.1701,4.4272,2.7,1.11094,303.645,4.51002,153.043,101.085,157.905,0.710805,-0.381352,242.021,2.08728,2.34368,-27.7043914794922,21.9994239807129,-35.0,22.0,-735247.0,3630.21,pp-ro,1,1,-1,-1
1570536835.4,2019-10-08,14:13:55.400,15.0,7.0,21.75,20.8,1.8,15.2,63.4,-34.4,-16.6,21.4464,-1.95409,10.568,-7.38266,18.2545,16.8946,58.5451,-17.1556,-17.6287,0.4296939999999999,0.0827782,1.33123,248.4,5.4,52.1701,4.4272,2.7,1.1669,324.134,4.50995,153.16,102.985,156.705,0.703947,-0.389522,242.116,2.21336,2.46068,-29.7729949951172,21.9994239807129,-35.0,22.0,-735101.0,1815.1,pp-ro,1,1,-1,-1
1570536835.5,2019-10-08,14:13:55.500,14.0,6.0,21.9099998474121,18.1,5.4,17.0,60.9,-44.2,-7.9,20.4348,0.8961040000000001,13.7812,-11.4063,15.9532,24.3768,57.3641,-25.6733,-10.1182,0.0899385,0.121364,1.2948,248.4,5.4,52.1701,4.4272,2.7,1.13254,289.54400000000004,4.50988,153.56799999999998,106.025,154.605,0.691867,-0.401748,242.337,2.42994,2.6574,-31.5173187255859,21.9994239807129,-35.0,22.0,-734539.0,6706.66,pp-ro,1,1,-1,-1
1570536835.6,2019-10-08,14:13:55.600,15.0,6.0,21.8700008392334,16.8,6.6,17.6,59.5,-47.1,-4.1,20.4348,0.8961040000000001,13.7812,-11.4063,15.9532,24.3768,57.3641,-25.6733,-10.1182,0.0899385,0.121364,1.2948,248.4,5.4,52.1701,4.4272,2.7,1.08988,265.488,4.50981,153.86,107.165,153.805,0.686986,-0.4057949999999999,242.515,2.5024900000000003,2.73306,-32.908355712890604,21.9994239807129,-35.0,22.0,-734126.0,7506.54,pp-ro,1,1,-1,-1
1570536835.7,2019-10-08,14:13:55.700,14.0,7.0,22.0599994659424,14.9,8.9,18.6,56.1,-51.7,4.7,17.703,3.85963,15.7868,-18.1375,25.603,6.95748,53.8626,-34.7431,-6.830189999999999e-05,0.247745,0.26982,1.54856,248.4,5.4,52.1701,4.4272,2.4,1.01452,245.453,4.50974,154.62,108.685,152.305,0.6783060000000001,-0.4100279999999999,242.727,2.63596,2.8598,-33.934112548828104,21.9994239807129,-35.0,22.0,-733604.0,4153.21,pp-ro,1,1,-1,-1
1570536835.8,2019-10-08,14:13:55.800,15.0,6.0,22.0200004577637,12.9,11.0,19.8,51.0,-55.7,14.8,17.703,3.85963,15.7868,-18.1375,25.603,6.95748,53.8626,-34.7431,-6.830189999999999e-05,0.247745,0.26982,1.54856,248.4,5.4,52.1701,4.4272,2.4,1.0378,263.309,4.50966,155.642,109.825,150.705,0.669322,-0.411767,242.895,2.76498,2.97979,-34.6219482421875,21.9994239807129,-35.0,22.0,-733615.0,-953.699,pp-ro,1,1,-1,-1
1570536835.9,2019-10-08,14:13:55.900,14.0,10.0,21.6100006103516,10.6,12.4,21.0,44.6,-60.2,24.6,17.703,3.85963,15.7868,-18.1375,25.603,6.95748,53.8626,-34.7431,-6.830189999999999e-05,0.247745,0.26982,1.54856,248.4,5.4,52.1701,4.4272,2.4,1.08822,282.394,4.50959,156.752,111.345,149.005,0.6592899999999999,-0.414828,243.252,2.88554,3.08663,-34.9479370117188,21.9994239807129,-35.0,22.0,-733571.0,1169.05,pp-ro,1,1,-1,-1
1570536836.0,2019-10-08,14:13:56.000,15.0,11.0,21.1200008392334,8.4,14.0,21.1,33.1,-63.7,39.9,9.56971,11.5336,20.0461,-23.8039,11.8406,-0.664133,32.822,-50.3512,38.4212,0.180844,0.131954,1.3011700000000002,248.4,5.4,52.1701,4.4272,2.4,1.09542,285.659,4.509519999999999,158.007,112.485,147.205,0.6492100000000001,-0.415799,243.492,3.02694,3.18945,-34.982086181640604,21.9994239807129,-23.0,22.0,-733255.0,3384.09,pp-ro,1,1,-1,-1
1570536836.1,2019-10-08,14:13:56.100,14.0,13.0,20.8199996948242,6.3,15.5,21.2,17.3,-65.5,59.7,9.56971,11.5336,20.0461,-23.8039,11.8406,-0.664133,32.822,-50.3512,38.4212,0.180844,0.131954,1.3011700000000002,248.4,5.4,52.1701,4.4272,2.4,1.0921,280.072,4.50945,159.468,113.245,145.405,0.639282,-0.414564,243.715,3.17917,3.2842,-34.982086181640604,21.9994239807129,-23.0,22.0,-732878.0,2738.04,pp-ro,1,1,-1,-1
1570536836.2,2019-10-08,14:13:56.200,14.0,13.0,20.9899997711182,4.2,16.6,21.1,1.0,-65.0,79.5,7.4409,12.8095,19.8593,-16.8976,12.3057,-0.595001,23.2996,-53.1369,51.3772,-0.00368624,0.324504,1.32282,245.9,5.8,52.1701,4.4272,2.4,1.086,276.3,4.50941,161.045,113.625,143.605,0.629672,-0.411464,243.862,3.32381,3.3694800000000003,-34.936004638671896,21.9994239807129,-23.0,22.0,-732676.0,3814.8,pp-ro,1,1,-1,-1
1570536836.3,2019-10-08,14:13:56.300,14.0,11.0,21.1499996185303,1.6,17.4,20.1,-12.9,-62.2,96.7,7.4409,12.8095,19.8593,-16.8976,12.3057,-0.595001,23.2996,-53.1369,51.3772,-0.00368624,0.324504,1.32282,245.9,5.8,52.1701,4.4272,2.4,1.06495,269.91200000000003,4.50936,162.68,114.385,141.805,0.619436,-0.4097979999999999,244.249,3.4668400000000004,3.47444,-34.4751586914062,21.9994239807129,-23.0,22.0,-732339.0,2922.63,pp-ro,1,1,-1,-1
1570536836.4,2019-10-08,14:13:56.400,15.0,12.0,21.2000007629395,-0.6,18.1,18.8,-23.3,-57.4,110.2,2.26873,15.4992,19.2745,-21.6981,9.47559,-5.3796,-6.06354,-51.6692,88.5751,-0.0994388999999999,0.297093,1.42508,245.9,5.8,52.1701,4.4272,2.4,1.06384,263.731,4.50932,164.46200000000002,114.385,140.005,0.609971,-0.4046369999999999,244.403,3.61232,3.5697300000000003,-33.6661529541016,21.9994239807129,-23.0,22.0,-732102.0,2738.04,pp-ro,1,1,-1,-1
1570536836.5,2019-10-08,14:13:56.500,14.0,10.0,21.3500003814697,-2.8,18.7,17.8,-29.9,-51.7,119.8,2.26873,15.4992,19.2745,-21.6981,9.47559,-5.3796,-6.06354,-51.6692,88.5751,-0.0994388999999999,0.297093,1.42508,245.9,5.8,52.1701,4.4272,2.4,1.04777,266.79200000000003,4.50927,166.243,114.385,138.505,0.601518,-0.399549,244.754,3.75176,3.66248,-32.4970092773438,21.9994239807129,-23.0,22.0,-731657.0,1907.4,pp-ro,1,1,-1,-1
