time,date,time_of_day,airspeed_temperature,airspeed_angle_of_attack,airspeed_apparent_windspeed,kite_0_vx,kite_0_vy,kite_0_vz,kite_0_roll,kite_0_pitch,kite_0_yaw,kite_1_vx,kite_1_vy,kite_1_vz,kite_1_ax,kite_1_ay,kite_1_az,kite_1_roll,kite_1_pitch,kite_1_yaw,kite_1_roll_rate,kite_1_pitch_rate,kite_1_yaw_rate,ground_upwind_direction,ground_wind_velocity,ground_pos_latitude,ground_pos_longitude,ground_pos_altitude,ground_tether_reelout_speed,ground_tether_force,est_upwind_direction,kite_pos_east,kite_pos_north,kite_height,kite_elevation,kite_azimuth,kite_distance,kite_heading,kite_course,kite_actual_steering,kite_actual_depower,kite_set_steering,kite_set_depower,ground_mech_energy,ground_mech_power,flight_phase,flight_phase_index,phase,pattern,pattern_section
1570542175.9,2019-10-08,15:42:55.900,14.0,10.0,14.5299997329712,9.3,-4.2,1.4,16.2,-0.3,-81.1,8.02438,-3.68462,1.54999,8.39489,6.53925,4.93621,17.7711,12.6514,-86.1373,0.137173,0.163405,0.7951020000000001,244.7,10.6,52.1701,4.427230000000001,-2.6,-1.19793,101.99,4.291440000000001,50.9672,14.4408,248.315,1.3606200000000002,0.144847,253.903,0.440421,1.45436,-33.21044921875,22.0576114654541,-35.0,22.0,2233200.0,-3076.45,pp-riro,4,0,-1,-1
1570542176.0,2019-10-08,15:42:56.000,14.0,10.0,14.1599998474121,10.4,-3.6,1.6,17.2,-2.0,-76.9,9.06541,-3.15025,1.94571,10.0383,3.03431,1.051,19.6817,11.6103,-81.2963,0.0436404,0.1719099999999999,0.887167,244.7,10.6,52.1701,4.427230000000001,-2.6,-1.20125,97.0748,4.29137,50.5583,15.5809,248.115,1.3607200000000002,0.12208,253.693,0.541115,1.56757,-34.154296875,22.0267143249512,-35.0,22.0,2232980.0,-2368.87,pp-riro,4,0,-1,-1
1570542176.1,2019-10-08,15:42:56.100,14.0,10.0,13.9099998474121,11.4,-3.0,1.8,18.8,-3.4,-72.3,9.06541,-3.15025,1.94571,10.0383,3.03431,1.051,19.6817,11.6103,-81.2963,0.0436404,0.1719099999999999,0.887167,244.7,10.6,52.1701,4.427230000000001,-2.7,-1.23283,85.4554,4.29129,50.1786,16.7209,248.015,1.36069,0.0994393999999999,253.592,0.6488,1.66543,-34.493942260742195,22.007146835327102,-35.0,22.0,2232550.0,-5291.49,pp-riro,4,0,-1,-1
1570542176.2,2019-10-08,15:42:56.200,14.0,10.0,13.710000038147,12.4,-2.3,2.1,20.5,-4.8,-67.7,11.0376,-1.75604,2.38723,7.36645,8.80693,3.39855,22.9573,9.5616,-71.1038,0.0710693999999999,0.108696,0.817597,244.7,10.6,52.1701,4.427230000000001,-2.7,-1.35639,86.0977,4.29122,49.9157,17.8609,247.815,1.36004,0.0775065,253.423,0.756174,1.7617599999999998,-34.8967437744141,22.0019989013672,-35.0,22.0,2231360.0,-8367.94,pp-riro,4,0,-1,-1
1570542176.3,2019-10-08,15:42:56.300,14.0,8.0,13.4499998092651,13.3,-1.7,2.6,21.9,-6.7,-62.9,12.3132,-0.7909510000000001,2.99392,7.64416,4.28379,2.12865,25.2178,7.384889999999999,-63.3854,-0.00586165,0.108714,0.938466,244.7,10.6,52.1701,4.427230000000001,-2.7,-1.3974,88.95100000000001,4.29114,49.682,19.001,247.715,1.3592799999999998,0.0559565,253.362,0.8684790000000001,1.84311,-34.971832275390604,22.0009689331055,-35.0,22.0,2230950.0,-7629.59,pp-riro,4,0,-1,-1
1570542176.4,2019-10-08,15:42:56.400,14.0,10.0,13.1899995803833,14.2,-0.9,3.0,23.0,-8.3,-58.2,12.3132,-0.7909510000000001,2.99392,7.64416,4.28379,2.12865,25.2178,7.384889999999999,-63.3854,-0.00586165,0.108714,0.938466,244.7,10.6,52.1701,4.427230000000001,-2.7,-1.46112,89.2667,4.29107,49.536,20.521,247.415,1.35738,0.0285758,253.159,0.984532,1.93512,-34.970123291015604,22.0009689331055,-35.0,22.0,2230300.0,-6522.07,pp-riro,4,0,-1,-1
1570542176.5,2019-10-08,15:42:56.500,14.0,10.0,13.0500001907349,15.0,-0.1,3.3,24.0,-10.1,-53.3,12.3132,-0.7909510000000001,2.99392,7.64416,4.28379,2.12865,25.2178,7.384889999999999,-63.3854,-0.00586165,0.108714,0.938466,244.2,10.4,52.1701,4.427230000000001,-2.7,-1.52816,82.0393,4.29099,49.4191,22.0411,247.215,1.35531,0.00183099,253.068,1.10419,2.01771,-34.973541259765604,22.0009689331055,-35.0,22.0,2229520.0,-8460.23,pp-riro,4,0,-1,-1
1570542176.6,2019-10-08,15:42:56.600,14.0,9.0,12.9799995422363,15.8,0.7,3.6,24.9,-11.8,-48.3,13.9085,0.7407189999999999,3.70965,5.452719999999999,8.9766,3.43161,27.5483,4.07711,-52.6715,0.194567,0.1426619999999999,0.925395,244.2,10.4,52.1701,4.427230000000001,-2.7,-1.62568,78.0461,4.29093,49.4483,23.1811,247.015,1.35321,-0.0169190999999999,252.981,1.21722,2.08667,-34.9940185546875,22.0009689331055,-35.0,22.0,2228410.0,-11413.6,pp-riro,4,0,-1,-1
1570542176.7,2019-10-08,15:42:56.700,14.0,9.0,13.0500001907349,16.5,1.6,4.0,25.6,-13.4,-43.5,14.6434,1.61204,4.06494,5.79014,7.819719999999999,2.4148,28.6481,2.1337,-47.5709,0.127406,0.1226599999999999,0.968488,244.2,10.4,52.1701,4.427230000000001,-2.7,-1.73372,80.8558,4.29087,49.5651,25.0812,246.716,1.34933,-0.0469406999999999,252.892,1.33779,2.16892,-34.9940185546875,22.0009689331055,-35.0,22.0,2227150.0,-12459.6,pp-riro,4,0,-1,-1
1570542176.8,2019-10-08,15:42:56.800,14.0,10.0,13.0500001907349,17.1,2.6,4.4,26.3,-15.1,-38.5,15.6371,2.8408,4.70241,5.27896,7.765289999999999,3.03028,29.8044,-0.646889,-39.7952,0.251786,0.197757,0.928989,244.2,10.4,52.1701,4.427230000000001,-2.7,-1.84011,83.8443,4.29079,49.7696,26.6013,246.416,1.34566,-0.0692545,252.795,1.4540799999999998,2.24511,-34.9940185546875,22.0009689331055,-35.0,22.0,2225990.0,-11844.3,pp-riro,4,0,-1,-1
1570542176.9,2019-10-08,15:42:56.900,14.0,10.0,13.0500001907349,17.4,3.1,4.7,26.4,-16.0,-36.2,15.9022,3.30674,4.91266,4.9309,8.62302,2.84825,30.0554,-1.56143,-37.1637,0.0790416,0.139297,0.957463,244.2,10.4,52.1701,4.427230000000001,-2.7,-1.92156,82.0888,4.29075,49.9156,27.7413,246.216,1.34289,-0.0856215,252.751,1.51419,2.28736,-34.9957275390625,22.0009689331055,-35.0,22.0,2224800.0,-12182.7,pp-riro,4,0,-1,-1
1570542177.0,2019-10-08,15:42:57.000,14.0,10.0,13.119999885559098,17.9,4.1,5.1,26.7,-17.9,-31.0,16.5917,4.708080000000001,5.47031,4.4817,9.07689,4.48162,30.5593,-4.49437,-29.2766,0.0884136,0.214466,0.91299,244.2,10.4,52.1701,4.427230000000001,-2.7,-2.02018,80.2561,4.290690000000001,50.2661,29.2614,245.816,1.33846,-0.105478,252.603,1.63159,2.3554,-34.9957275390625,22.0009689331055,-35.0,22.0,2223430.0,-13721.0,pp-riro,4,0,-1,-1
1570542177.1,2019-10-08,15:42:57.100,14.0,10.0,13.25,18.3,5.1,5.4,26.9,-19.5,-25.8,16.9955,5.65561,5.792330000000001,4.15585,9.82189,1.6154700000000002,30.4145,-6.3609800000000005,-24.0033,0.0935681,0.227377,0.959713,244.2,10.4,52.1701,4.427230000000001,-2.7,-2.15981,85.5769,4.29063,50.7042,31.1614,245.416,1.33289,-0.129308,252.529,1.75097,2.42413,-34.9974365234375,22.0009689331055,-35.0,22.0,2221390.0,-13167.2,pp-riro,4,0,-1,-1
1570542177.2,2019-10-08,15:42:57.200,14.0,9.0,13.390000343322802,18.7,6.2,5.8,27.0,-21.0,-20.5,16.9955,5.65561,5.792330000000001,4.15585,9.82189,1.6154700000000002,30.4145,-6.3609800000000005,-24.0033,0.0935681,0.227377,0.959713,244.2,10.4,52.1701,4.427230000000001,-2.7,-2.20913,88.4418,4.29057,51.2591,33.0615,245.016,1.32681,-0.151025,252.49400000000003,1.86855,2.49282,-34.9991455078125,22.0009689331055,-35.0,22.0,2220780.0,-12398.1,pp-riro,4,0,-1,-1
1570542177.3,2019-10-08,15:42:57.300,14.0,9.0,13.5200004577637,19.0,7.4,6.3,26.7,-22.6,-14.9,17.328,6.672339999999999,6.19541,4.46026,12.3486,5.35313,30.3144,-8.008519999999999,-18.3667,0.115515,0.225266,0.932895,244.2,10.4,52.1701,4.427230000000001,-2.7,-2.28891,94.3489,4.29051,51.9016,34.9616,244.416,1.32015,-0.170916,252.3,1.98867,2.56287,-34.9991455078125,22.0009689331055,-35.0,22.0,2219230.0,-9721.58,pp-riro,4,0,-1,-1
1570542177.4,2019-10-08,15:42:57.400,14.0,9.0,13.6499996185303,19.1,8.6,6.7,26.3,-24.3,-9.6,17.7293,8.26792,6.8637,2.1164,11.5285,3.31705,29.4503,-10.4006,-9.85644,0.0426958,0.223476,0.969304,244.2,10.4,52.1701,4.427230000000001,-2.7,-2.32327,98.3504,4.29045,52.6902,36.8617,243.916,1.31303,-0.188542,252.25,2.1009,2.63033,-35.0008544921875,22.0009689331055,-35.0,22.0,2218450.0,-7691.12,pp-riro,4,0,-1,-1
1570542177.5,2019-10-08,15:42:57.500,14.0,11.0,13.8400001525879,19.2,9.9,7.1,26.0,-25.6,-4.3,17.8835,9.38279,7.191139999999999,2.18418,14.6442,3.3438800000000004,28.6355,-11.8197,-4.11197,-0.0114406,0.248685,0.939563,247.4,9.8,52.1701,4.427230000000001,-2.7,-2.33158,106.046,4.29039,53.5664,38.7617,243.316,1.30546,-0.204402,252.14,2.20848,2.69691,-35.0025634765625,22.0009689331055,-35.0,22.0,2217920.0,-4091.68,pp-riro,4,0,-1,-1
1570542177.6,2019-10-08,15:42:57.600,14.0,12.0,14.0900001525879,19.4,11.1,7.5,25.5,-26.5,1.3,18.0072,10.5456,7.58286,1.88785,12.0446,6.4023,27.7951,-13.0726,1.42497,0.0571155999999999,0.334061,0.9337,247.4,9.8,52.1701,4.427230000000001,-2.7,-2.3205,111.207,4.29038,54.5886,40.6618,242.616,1.29727,-0.218207,251.984,2.31597,2.75219,-34.9991455078125,22.0009689331055,-35.0,22.0,2217740.0,-3261.04,pp-riro,4,0,-1,-1
1570542177.7,2019-10-08,15:42:57.700,14.0,13.0,14.3400001525879,19.4,12.4,8.0,24.9,-27.6,7.0,18.1337,11.7545,8.01625,0.4278149999999999,12.8638,6.00788,26.9345,-14.045,7.33745,0.0828228999999999,0.317429,0.943385,247.4,9.8,52.1701,4.427230000000001,-2.7,-2.22353,129.664,4.29038,55.7569,42.5619,241.916,1.2885799999999998,-0.229975,251.88,2.4227,2.81087,-35.0008544921875,22.0009689331055,-23.0044822692871,22.0,2218300.0,6429.78,pp-riro,4,0,-1,-1
1570542177.8,2019-10-08,15:42:57.800,14.0,12.0,14.5299997329712,19.4,13.8,8.6,23.9,-28.8,12.8,18.0977,12.9204,8.53691,-0.5659420000000001,13.3271,3.77024,25.7776,-15.1661,13.4076,0.141402,0.223742,1.0288,247.4,9.8,52.1701,4.427230000000001,-2.7,-2.07892,142.042,4.290369999999999,56.9836,44.462,241.116,1.27956,-0.240573,251.716,2.52887,2.86876,-34.9991455078125,22.0009689331055,-23.0044822692871,22.0,2219470.0,12736.5,pp-riro,4,0,-1,-1
1570542177.9,2019-10-08,15:42:57.900,14.0,12.0,14.9399995803833,19.2,15.2,9.1,23.1,-30.0,19.4,18.0508,13.5645,8.79367,-0.11889,10.9439,4.66471,25.0892,-15.7379,16.5034,0.131543,0.294883,0.979743,247.4,9.8,52.1701,4.427230000000001,-2.7,-1.98916,146.63299999999998,4.29036,58.4731,46.3621,240.316,1.2697200000000002,-0.2483659999999999,251.635,2.64343,2.92509,-34.7687377929688,22.0009689331055,-23.0044822692871,22.0,2220230.0,14397.8,pp-riro,4,0,-1,-1
1570542178.0,2019-10-08,15:42:58.000,14.0,12.0,15.4700002670288,18.7,16.7,9.6,21.9,-31.1,25.9,17.807000000000002,14.9019,9.21359,-2.49078,14.6001,3.90735,23.713,-16.9015,22.8497,0.140958,0.2210639999999999,1.03034,247.4,9.8,52.1701,4.427230000000001,-2.7,-1.76032,154.529,4.29036,60.0211,48.2621,239.316,1.25944,-0.255197,251.404,2.75357,2.9877,-34.1474609375,22.0009689331055,-23.0044822692871,22.0,2221830.0,16582.1,pp-riro,4,0,-1,-1
1570542178.1,2019-10-08,15:42:58.100,14.0,11.0,15.9700002670288,18.3,18.2,10.1,20.6,-31.8,32.4,17.4499,16.2931,9.67224,-4.22458,11.6021,5.26766,22.2438,-18.0053,29.3126,0.0193013,0.167644,1.04792,247.4,9.8,52.1701,4.427230000000001,-2.7,-1.51652,162.257,4.29035,61.7151,50.1622,238.416,1.24883,-0.2604619999999999,251.331,2.8598,3.04311,-33.171188354492195,22.0009689331055,-23.0044822692871,22.0,2223470.0,16766.6,pp-riro,4,0,-1,-1
1570542178.2,2019-10-08,15:42:58.200,14.0,12.0,16.3600006103516,17.6,19.6,10.5,19.0,-32.4,39.0,17.0,17.6975,10.1117,-6.38659,10.858,3.38816,20.4448,-19.0832,35.9243,0.0250585,0.154166,0.965857,247.4,9.8,52.1701,4.427230000000001,-2.7,-1.20679,167.658,4.29035,63.5843,51.6823,237.416,1.2384700000000002,-0.260469,251.158,2.96148,3.09586,-31.8450317382812,22.0009689331055,-23.0044822692871,22.0,2225080.0,15105.4,pp-riro,4,0,-1,-1
1570542178.3,2019-10-08,15:42:58.300,14.0,9.0,16.729999542236303,16.7,20.9,10.7,17.4,-33.4,46.1,16.2916,18.9618,10.4342,-5.45949,12.6962,0.5290189999999999,18.741,-20.2103,42.4877,0.137688,0.161834,1.06348,247.4,9.8,52.1701,4.427230000000001,-2.7,-0.9026,171.467,4.29033,65.5412,53.9624,236.316,1.2259,-0.266764,251.103,3.07511,3.15521,-30.1604309082031,22.0009689331055,-23.0044822692871,22.0,2226370.0,12213.5,pp-riro,4,0,-1,-1
1570542178.4,2019-10-08,15:42:58.400,14.0,10.0,17.1000003814697,15.7,22.0,10.9,15.5,-33.6,52.7,14.9793,20.7062,10.7696,-10.8234,15.7911,-1.29441,15.9357,-22.098000000000003,52.0544,-0.066991,0.0382065,0.898075,247.4,9.8,52.1701,4.427230000000001,-2.7,-0.549096,175.93900000000002,4.2903400000000005,67.6148,55.1025,235.316,1.21583,-0.261738,250.961,3.16964,3.20094,-28.1839904785156,22.0025119781494,-22.5027923583984,22.0,2227250.0,7844.94,pp-riro,4,0,-1,-1
1570542178.5,2019-10-08,15:42:58.500,14.0,9.0,17.5599994659424,14.4,23.0,11.1,13.7,-33.7,58.8,13.9566,21.7737,10.9675,-9.48507,13.3796,-0.2435,14.3047,-23.006,58.0812,0.353473,0.0305125,0.699904,246.8,9.2,52.1701,4.427230000000001,-2.7,-0.0254877999999999,177.482,4.29033,69.8054,57.0026,234.216,1.20348,-0.262717,250.956,3.26114,3.2576400000000003,-26.415771484375,22.0025119781494,-21.9623222351074,22.0,2227700.0,153.822,pp-riro,4,0,-1,-1
1570542178.6,2019-10-08,15:42:58.600,14.0,9.0,17.8500003814697,13.0,23.9,11.2,11.9,-33.3,64.7,13.3104,22.2314,10.9786,-10.4311,8.56245,3.33094,13.4361,-23.2656,61.0256,0.164069,0.264862,0.844284,246.8,9.2,52.1701,4.427230000000001,-2.7,0.169549,173.266,4.2903,72.1419,58.1426,233.116,1.19248,-0.256273,250.855,3.3435,3.30811,-24.8916168212891,22.0025119781494,-21.3117046356201,22.0,2227550.0,-2830.33,pp-riro,4,0,-1,-1
1570542178.7,2019-10-08,15:42:58.700,14.0,7.0,18.1499996185303,11.6,24.4,10.9,10.2,-33.5,70.3,11.9605,23.0064,10.9364,-15.5371,4.3680900000000005,-0.941132,12.0386,-23.6759,66.5439,0.19995,0.030888,0.714267,246.8,9.2,52.1701,4.427230000000001,-2.7,0.3618159999999999,156.874,4.29028,74.5077,59.2827,232.116,1.18153,-0.24998,250.886,3.42022,3.35306,-23.587646484375,22.0025119781494,-20.7860221862793,22.0,2227430.0,2676.51,pp-riro,4,0,-1,-1
1570542178.8,2019-10-08,15:42:58.800,14.0,10.0,18.5300006866455,10.2,24.8,10.8,8.8,-32.7,75.3,11.2981,23.3291,10.7813,-15.0738,-1.57105,0.5575260000000001,11.2118,-23.6734,69.0178,-0.00496764,0.257904,0.7862319999999999,246.8,9.2,52.1701,4.427230000000001,-2.7,0.193375,159.00799999999998,4.29026,76.9026,60.8028,231.016,1.16946,-0.246879,250.957,3.49277,3.39974,-23.0124588012695,22.0025119781494,-20.372594833374,22.0,2227650.0,553.761,pp-riro,4,0,-1,-1
1570542178.9,2019-10-08,15:42:58.900,14.0,9.0,18.9599990844727,9.1,25.3,11.2,6.9,-32.3,80.3,11.2981,23.3291,10.7813,-15.0738,-1.57105,0.5575260000000001,11.2118,-23.6734,69.0178,-0.00496764,0.257904,0.7862319999999999,246.8,9.2,52.1701,4.427230000000001,-2.7,0.364586,195.156,4.29024,79.3268,61.5628,230.016,1.15919,-0.2378219999999999,250.978,3.55946,3.43136,-21.7699279785156,22.0025119781494,-20.039930343627898,22.0,2227490.0,1169.05,pp-riro,4,0,-1,-1
1570542179.0,2019-10-08,15:42:59.000,14.0,9.0,19.3299999237061,7.9,25.6,11.4,5.0,-31.9,85.1,8.40208,24.4546,11.0191,-13.7999,2.93133,-1.04937,6.69637,-23.0762,81.5206,0.0666221,0.0436822,0.577652,246.8,9.2,52.1701,4.427230000000001,-2.7,0.328017,194.493,4.29021,81.9554,62.3229,228.916,1.14813,-0.2279739999999999,251.005,3.62242,3.46336,-20.9848098754883,22.0019989013672,-19.7354564666748,22.0,2227580.0,1753.58,pp-riro,4,0,-1,-1
1570542179.1,2019-10-08,15:42:59.100,14.0,7.0,19.3700008392334,6.9,25.9,11.3,2.5,-31.7,90.2,7.30205,24.7308,10.8436,-10.8826,2.04374,-4.45234,4.66776,-23.2001,86.2121,-0.226879,0.0929815,0.78283,246.8,9.2,52.1701,4.427230000000001,-2.6,0.336328,193.877,4.29018,84.4964,63.0829,227.816,1.1373,-0.219101,251.036,3.6896,3.49128,-20.373779296875,22.0019989013672,-19.5403938293457,22.0,2227580.0,-153.822,pp-riro,4,0,-1,-1
1570542179.2,2019-10-08,15:42:59.200,14.0,10.0,19.3299999237061,5.9,26.4,11.2,0.7,-30.4,94.8,7.30205,24.7308,10.8436,-10.8826,2.04374,-4.45234,4.66776,-23.2001,86.2121,-0.226879,0.0929815,0.78283,246.8,9.2,52.1701,4.427230000000001,-2.6,0.3629239999999999,220.547,4.29015,87.0666,64.223,226.716,1.12555,-0.213294,251.208,3.75717,3.524,-19.9163665771484,22.003026962280305,-19.3880882263184,22.0,2227640.0,-61.529,pp-riro,4,0,-1,-1
1570542179.3,2019-10-08,15:42:59.300,14.0,10.0,19.229999542236303,4.4,27.1,11.5,-0.9,-29.0,99.1,6.83972,24.9025,10.7525,-5.30353,0.549391,0.764404,3.34896,-23.0518,88.5942,-0.258817,0.198959,0.922176,246.8,9.2,52.1701,4.427230000000001,-2.6,0.390074,230.481,4.29014,89.8121,64.6031,225.516,1.11471,-0.201318,251.191,3.81653,3.5659,-19.5681838989258,22.0025119781494,-18.8757648468018,22.0,2227620.0,-246.116,pp-riro,4,0,-1,-1
1570542179.4,2019-10-08,15:42:59.400,14.0,10.0,19.270000457763697,2.8,27.3,11.6,-3.2,-28.9,102.9,4.30366,26.2588,10.909,-16.5768,5.28824,0.337947,-1.45095,-20.9564,97.5774,0.0264135,0.245879,0.6519689999999999,246.8,9.2,52.1701,4.427230000000001,-2.6,0.4399409999999999,263.957,4.2901,92.5283,64.9831,224.316,1.10391,-0.1899799999999999,251.201,3.86208,3.60808,-19.4606628417969,22.0035419464111,-18.390697479248,22.0,2227690.0,430.703,pp-riro,4,0,-1,-1
1570542179.5,2019-10-08,15:42:59.500,14.0,8.0,19.270000457763697,1.3,27.1,11.5,-4.7,-28.1,106.6,3.48849,26.3081,11.1053,-9.44835,-2.88364,-0.371744,-2.57005,-20.7365,99.8455,-0.155847,-0.0335288,0.892927,248.2,10.4,52.1701,4.427230000000001,-2.6,0.462105,276.943,4.29009,95.1861,64.9832,223.116,1.09399,-0.176717,251.125,3.90875,3.64468,-19.0510330200195,22.0035419464111,-17.9421825408936,22.0,2227690.0,30.7645,pp-riro,4,0,-1,-1
1570542179.6,2019-10-08,15:42:59.600,14.0,9.0,19.6299991607666,-0.1,27.2,11.5,-6.6,-26.0,110.2,1.32429,26.1225,10.9761,-13.5313,-2.7517,-0.436518,-5.51615,-20.2294,105.013,-0.0685674,0.00234481,0.418605,248.2,10.4,52.1701,4.427230000000001,-2.6,0.514188,290.346,4.29006,97.99,65.3632,221.816,1.08264,-0.16593,251.151,3.96485,3.68141,-18.7864837646484,22.003026962280305,-17.6537685394287,22.0,2227800.0,1784.34,pp-riro,4,0,-1,-1
1570542179.7,2019-10-08,15:42:59.700,14.0,10.0,20.0400009155273,-1.7,27.3,11.4,-8.1,-24.6,113.6,-0.1408579999999999,26.2851,10.9172,-13.3204,3.43882,-3.5237300000000005,-7.74091,-18.6285,108.434,-0.148415,0.0119519,0.5284439999999999,248.2,10.4,52.1701,4.427230000000001,-2.6,0.502553,288.11400000000003,4.290030000000001,100.648,65.3633,220.616,1.07259,-0.15361,251.145,4.01299,3.72389,-18.1413192749023,22.0035419464111,-17.1599922180176,22.0,2227910.0,2030.46,pp-riro,4,0,-1,-1
1570542179.8,2019-10-08,15:42:59.800,14.0,10.0,20.3899993896484,-3.3,27.2,11.2,-9.5,-23.6,116.7,-1.9584,26.4976,10.8261,-18.2647,6.788930000000001,-0.5803020000000001,-9.71397,-17.5217,111.982,-0.108537,0.109418,0.606173,248.2,10.4,52.1701,4.427230000000001,-2.6,0.508648,303.079,4.29,103.364,64.9833,219.316,1.06282,-0.138852,251.011,4.05229,3.76471,-17.7624206542969,22.004056930542003,-16.6533050537109,22.0,2228020.0,646.054,pp-riro,4,0,-1,-1
1570542179.9,2019-10-08,15:42:59.900,14.0,11.0,20.6399993896484,-4.8,26.9,11.0,-10.8,-22.1,119.5,-1.9584,26.4976,10.8261,-18.2647,6.788930000000001,-0.5803020000000001,-9.71397,-17.5217,111.982,-0.108537,0.109418,0.606173,248.2,10.4,52.1701,4.427230000000001,-2.6,0.562394,334.25800000000004,4.289969999999999,106.022,64.6033,218.116,1.05332,-0.1248359999999999,250.975,4.09194,3.8033,-17.325485229492198,22.004056930542003,-16.214483261108402,22.0,2228040.0,184.587,pp-riro,4,0,-1,-1
1570542180.0,2019-10-08,15:43:00.000,14.0,10.0,21.1000003814697,-6.6,26.4,11.1,-11.4,-20.6,122.1,-3.4632300000000003,26.2475,10.6024,-15.8324,-3.04915,1.85218,-11.5175,-16.659000000000002,115.252,-0.0672059,0.216175,0.711268,248.2,10.4,52.1701,4.427230000000001,-2.6,0.638303,367.437,4.2899400000000005,108.709,64.2233,216.916,1.04366,-0.1111619999999999,250.987,4.12943,3.84953,-16.8663635253906,22.004056930542003,-15.6680278778076,22.0,2228180.0,1692.05,pp-riro,4,0,-1,-1
1570542180.1,2019-10-08,15:43:00.100,14.0,8.0,21.6399993896484,-8.1,26.0,10.6,-12.9,-19.5,125.0,-7.51973,25.1234,10.1476,-7.47232,-6.19147,-5.15135,-15.026,-13.9884,122.456,-0.251198,-0.0282638,0.429452,248.2,10.4,52.1701,4.427219999999999,-2.3,0.642181,368.984,4.28991,111.279,63.0834,215.716,1.03555,-0.093237,250.79,4.165080000000001,3.8893,-16.245094299316403,22.004571914672898,-15.0854396820068,22.0,2228290.0,2245.81,pp-riro,4,0,-1,-1
1570542180.2,2019-10-08,15:43:00.200,14.0,9.0,22.1599998474121,-9.4,25.5,10.5,-14.0,-17.8,128.1,-7.51973,25.1234,10.1476,-7.47232,-6.19147,-5.15135,-15.026,-13.9884,122.456,-0.251198,-0.0282638,0.429452,248.2,10.4,52.1701,4.427219999999999,-2.3,0.642181,372.229,4.28988,113.849,62.3234,214.616,1.02688,-0.0783467,250.81,4.21141,3.92162,-15.6750259399414,22.004571914672898,-14.7807960510254,22.0,2228520.0,2338.1,pp-riro,4,0,-1,-1
1570542180.3,2019-10-08,15:43:00.300,14.0,8.0,22.440000534057603,-10.7,24.6,10.3,-15.1,-17.1,131.3,-8.72183,24.5761,9.91967,-17.9891,2.06947,-0.408981,-16.5562,-12.8705,125.526,-0.00251473,0.1054539999999999,0.530659,248.2,10.4,52.1701,4.427219999999999,-2.3,0.655479,378.044,4.28985,116.361,61.5634,213.416,1.01809,-0.0640898,250.751,4.2516300000000005,3.95915,-15.400238037109402,22.004571914672898,-14.424571990966802,22.0,2228730.0,2030.46,pp-riro,4,0,-1,-1
1570542180.4,2019-10-08,15:43:00.400,14.0,10.0,22.75,-11.7,24.2,9.8,-16.3,-15.4,134.5,-10.0287,23.7972,9.68664,-18.4336,-4.19214,-2.83433,-17.7906,-11.9458,128.947,-0.406447,0.00916321,0.472442,248.2,10.4,52.1701,4.427219999999999,-2.3,0.663791,382.463,4.28981,118.902,60.4234,212.316,1.00991,-0.0475938,250.732,4.29881,3.98636,-14.8779678344727,22.004571914672898,-14.2209739685059,22.0,2228960.0,2368.87,pp-riro,4,0,-1,-1
1570542180.5,2019-10-08,15:43:00.500,14.0,11.0,22.8199996948242,-12.8,23.5,9.6,-17.1,-14.4,137.4,-10.0287,23.7972,9.68664,-18.4336,-4.19214,-2.83433,-17.7906,-11.9458,128.947,-0.406447,0.00916321,0.472442,248.9,10.6,52.1701,4.427219999999999,-2.3,0.669331,387.681,4.28978,121.297,58.9034,211.216,1.00261,-0.0294818,250.58900000000003,4.33439,4.01438,-14.5007705688477,22.004571914672898,-13.9392881393433,22.0,2229330.0,2461.16,pp-riro,4,0,-1,-1
1570542180.6,2019-10-08,15:43:00.600,14.0,10.0,22.9799995422363,-13.7,22.7,9.3,-17.7,-13.5,140.5,-12.0259,22.6521,9.03184,-12.3026,-4.58932,-1.15069,-19.9965,-9.75901,135.16299999999998,0.060874,-0.00811833,0.550906,248.9,10.6,52.1701,4.427219999999999,-2.3,0.674872,393.632,4.28979,123.634,57.7634,210.116,0.994799,-0.0144807,250.541,4.37459,4.04229,-14.2464599609375,22.004571914672898,-13.7927274703979,22.0,2229430.0,2184.28,pp-riro,4,0,-1,-1
1570542180.7,2019-10-08,15:43:00.700,14.0,10.0,23.010000228881804,-14.6,21.9,8.9,-18.9,-12.7,143.2,-13.0002,21.7533,8.70332,-7.613389999999999,-3.97674,-5.00235,-20.8536,-9.25644,138.579,-0.0244238,-0.240614,0.508008,248.9,10.6,52.1701,4.427219999999999,-2.3,0.699806,403.9980000000001,4.2898,125.824,56.6234,209.116,0.98755,-0.000283215,250.534,4.40878,4.07338,-14.0552978515625,22.004571914672898,-13.585467338562,22.0,2229620.0,2184.28,pp-riro,4,0,-1,-1
1570542180.8,2019-10-08,15:43:00.800,14.0,10.0,23.010000228881804,-15.5,21.1,8.4,-19.5,-11.9,146.4,-13.5234,21.303,8.4557,-16.6959,-6.22235,-3.97654,-21.1033,-9.25826,140.186,-0.0923619,-0.130181,0.52057,248.9,10.6,52.1701,4.427219999999999,-2.3,0.710334,409.652,4.28981,128.07299999999998,54.7234,208.116,0.98103,0.0187809,250.419,4.4461900000000005,4.10301,-13.8948593139648,22.0056018829346,35.0,22.0,2229900.0,2922.63,pp-riro,4,0,-1,-1
1570542180.9,2019-10-08,15:43:00.900,14.0,10.0,23.1299991607666,-16.1,19.7,7.9,-19.9,-10.7,149.3,-13.5234,21.303,8.4557,-16.6959,-6.22235,-3.97654,-21.1033,-9.25826,140.186,-0.0923619,-0.130181,0.52057,248.9,10.6,52.1701,4.427219999999999,-2.3,0.726402,427.496,4.28982,130.20600000000002,53.2034,207.216,0.974448,0.034666,250.444,4.48578,4.13741,-13.5944671630859,22.0056018829346,35.0,22.0,2230130.0,1999.69,pp-riro,4,0,-1,-1
1570542181.0,2019-10-08,15:43:01.000,14.0,11.0,23.280000686645497,-16.7,18.6,6.8,-20.1,-9.6,151.4,-13.5234,21.303,8.4557,-16.6959,-6.22235,-3.97654,-21.1033,-9.25826,140.186,-0.0923619,-0.130181,0.52057,248.9,10.6,52.1701,4.427219999999999,-2.3,1.17576,434.046,4.28983,132.13299999999998,51.3034,206.316,0.968833,0.0522063999999999,250.315,4.51179,4.17926,-13.2838363647461,22.0050868988037,35.0,22.0,2227730.0,-27626.5,pp-riro,4,0,-1,-1
1570542181.1,2019-10-08,15:43:01.100,14.0,10.0,23.2000007629395,-17.0,17.4,6.0,-20.7,-9.0,154.0,-15.809,17.3986,6.24463,-3.3854900000000003,-8.57433,-6.80421,-22.8844,-7.787310000000001,151.12,0.0194288,-0.301008,0.385321,248.9,10.6,52.1701,4.42721,-2.0,1.4760799999999998,401.302,4.28984,133.97299999999998,49.7834,205.616,0.963365,0.0667722,250.41,4.54247,4.21455,-12.6233139038086,22.0050868988037,35.0,22.0,2227440.0,23196.4,pp-riro,4,0,-1,-1
1570542181.2,2019-10-08,15:43:01.200,14.0,8.0,23.1599998474121,-16.9,16.4,5.4,-21.2,-7.9,156.3,-16.0386,16.3751,5.47803,0.0972454,-6.3545,-3.27177,-23.0029,-7.32993,154.023,0.00769712,0.0463203,0.432313,248.9,10.6,52.1701,4.42721,-2.0,1.17299,363.316,4.28985,135.697,47.8834,204.916,0.958578,0.0833124,250.393,4.5723400000000005,4.231669999999999,-11.607780456543,22.0050868988037,35.0,22.0,2229230.0,-6552.84,pp-riro,4,0,-1,-1
1570542181.3,2019-10-08,15:43:01.300,14.0,9.0,22.7000007629395,-17.0,15.4,5.3,-21.4,-6.6,158.8,-15.8178,15.3078,5.051159999999999,1.4474200000000002,-11.7178,-5.01077,-22.8093,-5.702319999999999,156.269,0.386684,-0.0287393,0.436435,248.9,10.6,52.1701,4.42721,-2.0,1.25832,372.762,4.28986,137.245,46.3634,204.316,0.954042,0.0967548,250.461,4.60966,4.2483,-10.2423629760742,22.0050868988037,35.0,22.0,2228940.0,-5599.14,pp-riro,4,0,-1,-1
1570542181.4,2019-10-08,15:43:01.400,14.0,10.0,22.3099994659424,-17.1,14.8,5.0,-21.9,-5.2,160.7,-16.0885,14.389,4.8863900000000005,-3.54829,-7.837269999999999,-3.99091,-22.6864,-4.8198,158.797,0.317958,-0.0822656,0.45398,248.9,10.6,52.1701,4.42721,-2.0,1.25223,373.331,4.28986,138.763,44.4633,203.716,0.949892,0.112441,250.46400000000003,4.63779,4.25926,-8.49803924560547,22.004571914672898,35.0,22.0,2229770.0,10644.5,pp-riro,4,0,-1,-1
1570542181.5,2019-10-08,15:43:01.500,14.0,10.0,21.9899997711182,-17.0,14.3,5.0,-22.4,-4.4,162.3,-16.0953,13.8545,4.550269999999999,0.353086,-1.78545,-2.88195,-22.9712,-4.03829,160.784,-0.279626,0.00739902,0.2392989999999999,247.8,10.1,52.1701,4.42721,-2.0,1.23006,358.157,4.28987,140.224,42.9433,203.116,0.945449,0.1253369999999999,250.525,4.6578800000000005,4.25836,-6.45161437988281,22.004571914672898,35.0,22.0,2230210.0,3630.21,pp-riro,4,0,-1,-1
1570542181.6,2019-10-08,15:43:01.600,14.0,11.0,21.5799999237061,-16.9,13.9,5.0,-23.1,-4.8,164.1,-16.0953,13.8545,4.550269999999999,0.353086,-1.78545,-2.88195,-22.9712,-4.03829,160.784,-0.279626,0.00739902,0.2392989999999999,247.8,10.1,52.1701,4.42721,-2.0,1.19737,348.735,4.28988,141.626,41.0433,202.516,0.941455,0.140431,250.51,4.66669,4.253430000000001,-4.3369140625,22.0056018829346,35.0,22.0,2230980.0,3630.21,pp-riro,4,0,-1,-1
1570542181.7,2019-10-08,15:43:01.700,14.0,11.0,21.1700000762939,-16.4,13.6,5.2,-24.6,-4.1,165.3,-16.0903,13.3073,4.59162,1.13263,0.373175,0.227907,-23.6828,-4.26071,164.308,-0.041543,-0.313151,0.204815,247.8,10.1,52.1701,4.42721,-2.0,1.21067,345.69699999999995,4.2899,142.969,39.5233,201.916,0.93721,0.152784,250.544,4.68055,4.2321800000000005,-2.23416900634766,22.0056018829346,35.0,22.0,2231320.0,4060.91,pp-riro,4,0,-1,-1
1570542181.8,2019-10-08,15:43:01.800,14.0,11.0,20.659999847412102,-16.2,13.5,5.5,-25.4,-3.1,165.8,-15.9894,13.1833,4.71729,-0.0952295,-5.6673800000000005,-0.0674997,-23.7993,-4.29838,165.205,-0.0226585,0.0500331,0.163057,247.8,10.1,52.1701,4.42721,-2.0,1.1802,330.605,4.28991,144.284,37.6233,201.316,0.933294,0.167404,250.522,4.685980000000001,4.20991,-0.14166259765625,22.004056930542003,35.0,22.0,2231850.0,5076.14,pp-riro,4,0,-1,-1
1570542181.9,2019-10-08,15:43:01.900,14.0,11.0,20.3199996948242,-15.8,13.9,5.8,-26.2,-2.3,164.6,-15.674,13.0595,5.19265,5.99316,-0.837457,4.93953,-25.7564,-3.27535,165.597,-0.115656,0.00285261,0.0897126,247.8,10.1,52.1701,4.42721,-2.0,1.14972,305.672,4.28992,145.627,36.1033,200.616,0.928656,0.179456,250.514,4.66772,4.17099,1.9603195190429696,22.004056930542003,35.0,22.0,2232360.0,5845.25,pp-riro,4,0,-1,-1
1570542182.0,2019-10-08,15:43:02.000,14.0,12.0,20.1499996185303,-15.7,13.9,6.3,-26.5,-2.6,164.0,-15.3887,13.4676,5.4170300000000005,-3.77631,7.98468,1.97127,-27.3857,-3.66391,165.418,-0.15724,-0.0914154,-0.14004,247.8,10.1,52.1701,4.42721,-2.0,1.12035,297.491,4.28993,146.299,35.3433,200.316,0.926431,0.18542,250.557,4.6514,4.15144,4.067108154296879,22.004056930542003,35.0,22.0,2232680.0,6091.37,pp-riro,4,0,-1,-1
1570542182.1,2019-10-08,15:43:02.100,14.0,10.0,19.840000152587898,-15.3,14.1,7.1,-27.8,-5.8,162.4,-15.3887,13.4676,5.4170300000000005,-3.77631,7.98468,1.97127,-27.3857,-3.66391,165.418,-0.15724,-0.0914154,-0.14004,247.8,10.1,52.1701,4.42721,-1.6,1.10706,300.99,4.2899400000000005,148.314,32.6832,199.216,0.919436,0.2055519999999999,250.504,4.57935,4.09967,6.18241119384766,22.004056930542003,35.0,22.0,2232960.0,1630.52,pp-riro,4,0,-1,-1
1570542182.2,2019-10-08,15:43:02.200,14.0,10.0,19.6100006103516,-14.4,14.4,7.8,-29.3,-8.3,160.4,-15.5489,13.6418,5.50937,-3.3312800000000005,8.84083,2.99874,-27.8546,-3.94129,165.141,-0.398461,-0.120264,-0.160931,247.8,10.1,52.1701,4.42721,-1.6,1.15083,319.635,4.28995,149.716,31.5432,198.416,0.913913,0.214788,250.557,4.51788,4.0404,8.28919219970703,22.004056930542003,35.0,22.0,2233050.0,830.6410000000001,pp-riro,4,0,-1,-1
1570542182.3,2019-10-08,15:43:02.300,14.0,11.0,19.340000152587898,-14.0,14.6,8.3,-29.4,-9.8,159.0,-14.8191,14.2523,7.70902,4.96005,2.68463,6.50079,-30.3682,-10.7873,162.562,-0.611571,-0.36305,-0.704242,247.8,10.1,52.1701,4.42721,-1.6,1.13809,299.386,4.28996,150.359,30.4032,198.016,0.911677,0.222913,250.484,4.47633,4.00514,10.4010848999023,22.0035419464111,35.0,22.0,2233680.0,5506.84,pp-riro,4,0,-1,-1
1570542182.4,2019-10-08,15:43:02.400,14.0,11.0,19.2900009155273,-13.1,15.4,9.1,-30.0,-12.5,156.1,-14.8191,14.2523,7.70902,4.96005,2.68463,6.50079,-30.3682,-10.7873,162.562,-0.611571,-0.36305,-0.704242,247.8,10.1,52.1701,4.42721,-1.6,1.086,278.11,4.289969999999999,151.819,29.2632,197.116,0.905652,0.232006,250.52,4.40094,3.93383,12.5061721801758,22.0035419464111,35.0,22.0,2234210.0,4491.62,pp-riro,4,0,-1,-1
1570542182.5,2019-10-08,15:43:02.500,14.0,11.0,19.0599994659424,-12.1,15.9,10.1,-30.4,-15.4,153.4,-13.1911,15.8828,9.58145,5.66437,5.73285,12.0019,-31.7925,-17.358,157.67700000000002,-0.2544389999999999,-0.291254,-0.817141,246.7,9.7,52.1701,4.42721,-1.6,1.0788,283.534,4.289969999999999,153.309,28.1232,196.216,0.899501,0.240986,250.59,4.32674,3.86225,14.6078491210938,22.0035419464111,35.0,22.0,2234480.0,2153.51,pp-riro,4,0,-1,-1
1570542182.6,2019-10-08,15:43:02.600,14.0,10.0,18.9699993133545,-10.7,16.7,11.0,-30.2,-18.7,149.3,-13.1911,15.8828,9.58145,5.66437,5.73285,12.0019,-31.7925,-17.358,157.67700000000002,-0.2544389999999999,-0.291254,-0.817141,246.7,9.7,52.1701,4.42721,-1.6,1.08988,291.011,4.28996,154.857,26.6032,195.216,0.8930870000000001,0.2523,250.595,4.22851,3.77248,16.719749450683597,22.003026962280305,35.0,22.0,2234530.0,1045.99,pp-riro,4,0,-1,-1
1570542182.7,2019-10-08,15:43:02.700,14.0,11.0,18.729999542236303,-9.4,17.4,12.4,-30.0,-22.4,144.6,-12.6223,16.2502,10.1396,10.5616,10.6281,14.1568,-32.1426,-19.176,155.998,-0.595384,-0.211092,-0.686438,246.7,9.7,52.1701,4.42721,-1.6,1.12257,296.583,4.28993,156.52200000000002,25.4632,194.116,0.8858159999999999,0.26119,250.656,4.12145,3.68518,18.8350524902344,22.003026962280305,35.0,22.0,2234670.0,2430.39,pp-riro,4,0,-1,-1
1570542182.8,2019-10-08,15:43:02.800,14.0,12.0,18.7800006866455,-7.6,18.1,13.3,-28.9,-25.6,139.3,-10.7686,17.676,12.0451,20.3005,13.7539,11.3404,-32.861,-24.9716,150.47899999999998,-0.645042,-0.246598,-0.758644,246.7,9.7,52.1701,4.42721,-1.6,1.1026200000000002,296.17,4.2899,158.216,24.7033,192.916,0.8779899999999999,0.2676,250.717,4.01507,3.5910800000000003,20.9418334960938,22.0035419464111,35.0,22.0,2235220.0,2184.28,pp-riro,4,0,-1,-1
1570542182.9,2019-10-08,15:43:02.900,14.0,13.0,18.8199996948242,-5.7,18.7,14.5,-27.2,-29.1,133.4,-6.966239999999999,19.4611,14.6266,22.7831,10.9445,8.76871,-32.0233,-33.4876,140.518,-0.142678,-0.333076,-1.07724,246.7,9.7,52.1701,4.42721,-1.6,1.11537,298.069,4.28988,159.997,24.3233,191.616,0.869455,0.2716449999999999,250.813,3.90193,3.4959800000000003,23.0588455200195,22.0035419464111,35.0,22.0,2235290.0,1292.11,pp-riro,4,0,-1,-1
1570542183.0,2019-10-08,15:43:03.000,14.0,13.0,18.9200000762939,-3.7,19.0,15.6,-24.3,-32.8,126.0,-4.97668,20.1583,15.9759,25.2316,5.05756,11.0151,-30.3107,-38.1593,134.72799999999998,-0.540221,-0.441875,-1.17881,246.7,9.7,52.1701,4.42721,-1.6,1.12368,303.796,4.28985,161.89600000000002,23.9433,190.216,0.86031,0.27571,250.929,3.77061,3.40362,25.1707382202148,22.003026962280305,35.0,22.0,2235600.0,3753.27,pp-riro,4,0,-1,-1
1570542183.1,2019-10-08,15:43:03.100,14.0,12.0,18.9599990844727,-1.1,19.2,16.4,-21.6,-36.3,118.4,-4.97668,20.1583,15.9759,25.2316,5.05756,11.0151,-30.3107,-38.1593,134.72799999999998,-0.540221,-0.441875,-1.17881,246.7,9.7,52.1701,4.427219999999999,-1.4,1.13919,310.322,4.28982,163.67700000000002,23.1834,188.816,0.8516739999999999,0.281848,250.957,3.64115,3.29178,27.2690124511719,22.0035419464111,35.0,22.0,2235960.0,2491.92,pp-riro,4,0,-1,-1
1570542183.2,2019-10-08,15:43:03.200,14.0,13.0,19.0100002288818,1.2,19.2,17.3,-16.6,-39.1,109.4,-1.00696,20.8166,17.644000000000002,30.4626,-1.5889799999999998,18.0525,-25.7887,-44.278,122.572,-0.32669,-0.00239429,-1.20713,246.7,9.7,52.1701,4.427219999999999,-1.4,1.13975,310.828,4.2898,165.547,23.1834,187.216,0.8419260000000001,0.283457,250.984,3.50646,3.19861,29.3672790527344,22.0035419464111,35.0,22.0,2236330.0,4060.91,pp-riro,4,0,-1,-1
1570542183.3,2019-10-08,15:43:03.300,14.0,14.0,18.909999847412102,3.8,18.9,17.8,-10.3,-42.2,98.8,1.76585,20.9064,18.6676,23.2333,-1.79957,13.3291,-20.9988,-48.1637,112.662,-0.398296,-0.165766,-1.41967,246.7,9.7,52.1701,4.427219999999999,-1.4,1.13753,313.74,4.28977,167.47400000000002,23.1835,185.516,0.831741,0.285051,251.0,3.35591,3.09689,31.1794281005859,22.0035419464111,35.0,22.0,2236630.0,2614.98,pp-riro,4,0,-1,-1
1570542183.4,2019-10-08,15:43:03.400,14.0,14.0,18.8700008392334,6.3,18.2,18.0,-3.1,-43.9,87.0,4.60553,20.6226,19.3243,29.6586,-1.22354,3.36082,-14.4887,-52.0659,101.536,-0.6099640000000001,-0.151916,-1.5276,246.7,9.7,52.1701,4.427219999999999,-1.4,1.15083,315.517,4.28974,169.285,23.9436,183.816,0.8215899999999999,0.28214,251.036,3.20508,3.00118,32.6441345214844,22.0035419464111,23.0163822174072,22.0,2236900.0,3107.21,pp-riro,4,0,-1,-1
1570542183.5,2019-10-08,15:43:03.500,14.0,14.0,18.7199993133545,8.7,17.4,17.9,4.8,-44.5,74.6,4.60553,20.6226,19.3243,29.6586,-1.22354,3.36082,-14.4887,-52.0659,101.536,-0.6099640000000001,-0.151916,-1.5276,244.9,9.4,52.1701,4.427219999999999,-1.4,1.13919,310.252,4.28971,171.00799999999998,24.7036,182.116,0.811688,0.279208,251.038,3.05231,2.90785,33.7579956054688,22.0035419464111,23.0163822174072,22.0,2237300.0,4307.03,pp-ro,1,1,-1,-1
1570542183.6,2019-10-08,15:43:03.600,14.0,13.0,18.6299991607666,11.3,16.4,17.5,12.7,-43.8,62.0,9.08158,19.5369,19.5224,35.9265,-9.18885,-3.823280000000001,-0.170773,-55.1013,79.2622,-0.3659929999999999,-0.150668,-1.24367,244.9,9.4,52.1701,4.427219999999999,-1.4,1.13365,311.631,4.28965,172.731,25.4637,180.316,0.801506,0.27638,250.995,2.8968,2.80375,34.5022583007812,22.0035419464111,23.0163822174072,22.0,2237480.0,3414.86,pp-ro,1,1,-1,-1
1570542183.7,2019-10-08,15:43:03.700,14.0,13.0,18.770000457763697,13.6,14.9,17.2,20.1,-41.6,50.2,12.0752,18.4024,19.1761,22.4312,-14.6849,-4.41499,9.8927,-55.3622,64.2737,-0.113717,-0.0169444,-1.58001,244.9,9.4,52.1701,4.427219999999999,-1.4,1.1536,323.076,4.289619999999999,174.308,26.2238,178.616,0.792008,0.273446,250.948,2.74315,2.70402,34.897384643554695,22.0035419464111,23.0163822174072,22.0,2237690.0,2030.46,pp-ro,1,1,-1,-1
1570542183.8,2019-10-08,15:43:03.800,14.0,12.0,19.0400009155273,15.7,13.2,16.4,26.4,-38.6,39.4,12.0752,18.4024,19.1761,22.4312,-14.6849,-4.41499,9.8927,-55.3622,64.2737,-0.113717,-0.0169444,-1.58001,244.9,9.4,52.1701,4.427219999999999,-1.4,1.16801,325.03700000000003,4.289569999999999,175.71,28.1239,177.016,0.782775,0.264082,250.997,2.5969900000000004,2.60526,34.9620971679688,22.0035419464111,23.0163822174072,22.0,2237960.0,3168.74,pp-ro,1,1,-1,-1
1570542183.9,2019-10-08,15:43:03.900,14.0,12.0,19.409999847412102,17.4,11.4,15.0,31.8,-34.7,29.2,16.2857,16.1906,18.3831,25.6695,-16.137,0.4808699999999999,23.4082,-51.5766,42.4527,-0.467289,-0.0196351,-1.44298,244.9,9.4,52.1701,4.427219999999999,-1.4,1.13919,307.356,4.28952,176.995,29.644,175.516,0.774285,0.256922,251.022,2.44468,2.50334,34.675979614257805,22.0035419464111,22.2454490661621,22.0,2238670.0,5106.91,pp-ro,1,1,-1,-1
1570542184.0,2019-10-08,15:43:04.000,14.0,13.0,19.6299991607666,18.8,9.6,13.7,35.5,-30.1,20.8,16.2857,16.1906,18.3831,25.6695,-16.137,0.4808699999999999,23.4082,-51.5766,42.4527,-0.467289,-0.0196351,-1.44298,244.9,9.4,52.1701,4.427219999999999,-1.4,1.1198,302.962,4.28947,178.076,31.544,174.21599999999998,0.766721,0.247594,251.112,2.30393,2.40855,33.9930114746094,22.0035419464111,20.566370010376,22.0,2239000.0,2307.34,pp-ro,1,1,-1,-1
1570542184.1,2019-10-08,15:43:04.100,14.0,13.0,19.4500007629395,20.1,8.0,12.5,38.4,-25.3,13.1,22.4831,10.2472,14.2262,4.77381,-19.2104,-14.0262,38.7034,-37.6749,11.2877,-0.351223,0.0358473,-1.57649,244.9,9.4,52.1701,4.427219999999999,-1.2,1.1303299999999998,303.235,4.28943,179.01,33.0641,173.116,0.7602800000000001,0.2403159999999999,251.211,2.16404,2.3189,32.952392578125,22.004056930542003,18.9694957733154,22.0,2239290.0,3630.21,pp-ro,1,1,-1,-1
1570542184.2,2019-10-08,15:43:04.200,14.0,14.0,19.2199993133545,20.8,6.4,10.9,41.1,-20.7,6.4,22.4831,10.2472,14.2262,4.77381,-19.2104,-14.0262,38.7034,-37.6749,11.2877,-0.351223,0.0358473,-1.57649,244.9,9.4,52.1701,4.427219999999999,-1.2,1.1242299999999998,304.688,4.28938,179.799,35.3442,172.116,0.754104,0.2288849999999999,251.397,2.03841,2.23434,31.549011230468803,22.004056930542003,17.438409805297898,22.0,2239500.0,3876.33,pp-ro,1,1,-1,-1
1570542184.3,2019-10-08,15:43:04.300,14.0,13.0,19.1700000762939,21.4,5.0,9.4,43.1,-15.6,0.0,24.1224,7.228639999999999,11.7319,16.2479,-14.3962,-20.636,42.3459,-29.3756,-0.0355443,-0.250148,-0.1255109999999999,-1.39757,244.9,9.4,52.1701,4.427219999999999,-1.2,1.12811,304.499,4.2893300000000005,180.441,36.8643,171.21599999999998,0.748967,0.221531,251.461,1.90552,2.15274,29.3076782226562,22.0035419464111,15.9618091583252,22.0,2239720.0,1999.69,pp-ro,1,1,-1,-1
1570542184.4,2019-10-08,15:43:04.400,14.0,12.0,19.4400005340576,21.7,3.7,8.0,44.5,-10.5,-5.7,25.0572,4.61683,9.07389,8.33863,-22.4411,-22.9689,43.771,-19.9166,-9.10552,0.395325,0.0345826,-1.1549,244.9,9.4,52.1701,4.427219999999999,-1.2,1.1126,296.238,4.289280000000001,180.967,39.1443,170.516,0.744269,0.210082,251.708,1.7820599999999998,2.0814,27.212814331054695,22.004056930542003,14.6501235961914,22.0,2240300.0,4153.21,pp-ro,1,1,-1,-1
1570542184.5,2019-10-08,15:43:04.500,14.0,12.0,19.6700000762939,21.9,2.3,6.3,45.5,-5.8,-11.0,25.1738,3.83222,8.24579,8.42646,-14.2629,-23.3946,44.3185,-17.2164,-11.9406,-0.347801,-0.0208810999999999,-1.3704,248.5,9.8,52.1701,4.427219999999999,-1.2,1.10706,296.213,4.28923,181.43400000000003,41.8044,169.916,0.739734,0.196696,252.066,1.6688,1.99795,26.1568603515625,22.0035419464111,13.0852375030518,22.0,2240460.0,2891.86,pp-ro,1,1,-1,-1
1570542184.6,2019-10-08,15:43:04.600,14.0,13.0,19.7999992370605,22.0,0.6,4.8,45.5,-1.7,-15.5,25.1738,3.83222,8.24579,8.42646,-14.2629,-23.3946,44.3185,-17.2164,-11.9406,-0.347801,-0.0208810999999999,-1.3704,248.5,9.8,52.1701,4.427219999999999,-1.2,1.12091,299.44,4.28921,181.639,43.7045,169.416,0.736574,0.18706,252.199,1.56968,1.90611,24.0483703613281,22.0035419464111,11.3250198364258,22.0,2240670.0,2122.75,pp-ro,1,1,-1,-1
1570542184.7,2019-10-08,15:43:04.700,14.0,14.0,19.7099990844727,21.5,-0.6,3.0,45.7,1.9,-18.9,24.8733,0.3084199999999999,4.57379,2.2659,-15.4074,-18.8282,44.444,-7.47364,-21.0037,-0.120595,0.068662,-0.8913610000000001,248.5,9.8,52.1701,4.427219999999999,-1.2,1.11925,298.788,4.28918,181.814,45.9845,169.016,0.733494,0.1754869999999999,252.462,1.49112,1.82118,21.9415817260742,22.0035419464111,9.69377708435059,22.0,2241020.0,3691.74,pp-ro,1,1,-1,-1
1570542184.8,2019-10-08,15:43:04.800,14.0,11.0,19.840000152587898,21.0,-2.0,1.4,45.9,5.5,-22.3,24.6162,-0.521025,3.66396,-9.40039,-16.8647,-11.877,44.4682,-4.87453,-22.7054,-0.134953,0.245121,-0.800709,248.5,9.8,52.1701,4.427219999999999,-1.2,1.11592,300.347,4.28915,181.784,47.8846,168.81599999999997,0.7317229999999999,0.165664,252.66,1.41142,1.72912,19.834793090820305,22.0035419464111,7.87722301483154,22.0,2241320.0,2338.1,pp-ro,1,1,-1,-1
1570542184.9,2019-10-08,15:43:04.900,14.0,12.0,19.9300003051758,20.3,-3.2,0.5,46.4,8.9,-25.3,23.465,-2.8512,1.01212,-10.1271,-11.3668,-11.1096,43.9061,1.86481,-27.8769,0.152964,0.276076,-0.8465719999999999,248.5,9.8,52.1701,4.427219999999999,-1.2,1.12867,304.277,4.28912,181.697,50.1646,168.616,0.7297899999999999,0.153892,252.906,1.34054,1.66445,17.2051391601562,22.0035419464111,6.60980367660522,22.0,2241560.0,2522.69,pp-ro,1,1,-1,-1
1570542185.0,2019-10-08,15:43:05.000,14.0,13.0,19.8899993896484,19.4,-4.1,-0.6,46.0,12.3,-28.2,23.0261,-3.5331900000000003,0.405536,-4.67368,-13.9888,-9.41106,43.6797,3.92838,-29.3948,0.00442662,0.3628659999999999,-0.87456,248.5,9.8,52.1701,4.427219999999999,-1.2,1.10816,281.092,4.28909,181.43400000000003,52.0647,168.516,0.728805,0.143847,253.035,1.26996,1.59564,15.1000595092773,22.0035419464111,5.22874069213867,22.0,2241960.0,4922.32,pp-ro,1,1,-1,-1
1570542185.1,2019-10-08,15:43:05.100,14.0,13.0,19.3500003814697,18.7,-4.5,-1.7,45.9,14.2,-30.3,21.417,-4.86452,-1.40936,-7.122330000000001,-1.59158,-11.9457,43.3289,9.24533,-33.6177,-0.418458,0.0687028,-0.6806409999999999,248.5,9.8,52.1701,4.427219999999999,-1.0,1.045,247.951,4.28906,181.142,53.9647,168.516,0.72814,0.133787,253.223,1.22811,1.5403,12.991569519043,22.003026962280305,4.10450839996338,22.0,2242580.0,5937.55,pp-ro,1,1,-1,-1
1570542185.2,2019-10-08,15:43:05.200,14.0,12.0,18.8899993896484,18.4,-5.4,-2.6,46.3,16.2,-31.9,20.553,-5.4498,-2.68206,-4.2456,-10.3456,-4.11426,43.2491,12.5615,-35.1459,0.111534,0.235146,-0.737467,248.5,9.8,52.1701,4.427219999999999,-1.0,1.01342,248.789,4.28903,180.733,55.8647,168.616,0.728014,0.123573,253.41,1.19107,1.47936,10.8864822387695,22.003026962280305,2.8435480594635,22.0,2242880.0,1568.99,pp-ro,1,1,-1,-1
1570542185.3,2019-10-08,15:43:05.300,14.0,10.0,18.5100002288818,18.3,-5.9,-3.0,46.6,17.5,-34.3,20.553,-5.4498,-2.68206,-4.2456,-10.3456,-4.11426,43.2491,12.5615,-35.1459,0.111534,0.235146,-0.737467,248.5,9.8,52.1701,4.427219999999999,-1.0,1.0788,279.505,4.28901,180.295,58.1448,168.71599999999998,0.727603,0.1114119999999999,253.677,1.155,1.45486,9.84075927734375,22.003026962280305,2.31817960739136,22.0,2242900.0,769.112,pp-ro,1,1,-1,-1
1570542185.4,2019-10-08,15:43:05.400,14.0,10.0,18.8899993896484,18.5,-6.3,-3.6,47.0,18.8,-37.2,20.1349,-6.77036,-3.58745,3.63347,-5.57055,-8.42304,43.5935,16.0908,-37.7023,0.0417666,0.033148,-0.636887,248.5,9.8,52.1701,4.427219999999999,-1.0,1.10373,296.319,4.28897,179.74,60.0448,168.81599999999997,0.727726,0.101008,253.792,1.11204,1.43031,7.43251800537109,22.0035419464111,1.7748011350631698,22.0,2243120.0,2399.63,pp-ro,1,1,-1,-1
1570542185.5,2019-10-08,15:43:05.500,14.0,12.0,18.9400005340576,18.6,-7.0,-3.7,47.2,19.8,-40.0,20.2204,-7.23458,-4.23632,-1.52846,-5.78635,-1.04797,43.9236,18.2486,-39.8182,0.202371,-0.113257,-0.607745,247.1,9.6,52.1701,4.427219999999999,-1.0,1.13144,315.185,4.28894,179.12599999999998,61.9448,169.016,0.728234,0.0904884,253.948,1.07401,1.41509,5.313804626464839,22.0035419464111,1.39806163311005,22.0,2243240.0,830.6410000000001,pp-ro,1,1,-1,-1
1570542185.6,2019-10-08,15:43:05.600,14.0,13.0,19.2600002288818,18.2,-7.6,-4.0,47.7,20.3,-42.5,20.2368,-7.586419999999999,-4.27496,1.06761,-4.34619,-3.04836,43.9082,18.9171,-41.2098,0.133869,-0.141242,-0.435026,247.1,9.6,52.1701,4.427219999999999,-1.0,1.1569200000000002,320.78,4.28892,178.425,64.2249,169.31599999999997,0.728859,0.0779577,254.221,1.04689,1.38802,3.88997650146484,22.0035419464111,0.769670128822327,22.0,2243280.0,892.17,pp-ro,1,1,-1,-1
1570542185.7,2019-10-08,15:43:05.700,14.0,11.0,19.2999992370605,18.2,-8.0,-4.8,49.0,20.8,-43.7,19.6874,-8.4181,-4.48378,-3.55751,-2.0168,-0.572746,45.2738,20.8572,-44.4289,0.3396929999999999,0.187866,-0.317983,247.1,9.6,52.1701,4.427219999999999,-1.0,1.15637,316.261,4.28889,177.695,65.7449,169.616,0.730171,0.0691301,254.298,1.03262,1.3541299999999998,2.68756103515625,22.003026962280305,-0.0177103877067569,22.0,2243700.0,4614.67,pp-ro,1,1,-1,-1
1570542185.8,2019-10-08,15:43:05.800,14.0,9.0,19.5300006866455,18.2,-8.7,-5.0,49.7,20.6,-45.7,19.4818,-9.20426,-5.34415,-4.1609300000000005,-8.33872,-10.7195,45.957,21.9313,-46.5769,0.242477,-0.203638,0.135213,247.1,9.6,52.1701,4.427219999999999,-1.0,1.1475,327.365,4.28886,176.84799999999998,68.0249,170.016,0.731309,0.0563192,254.574,1.01981,1.3374,1.6435317993164098,22.0035419464111,-0.47150531411171,22.0,2244180.0,1538.22,pp-ro,1,1,-1,-1
1570542185.9,2019-10-08,15:43:05.900,14.0,11.0,19.979999542236303,18.0,-8.9,-5.0,50.4,20.1,-47.2,19.4114,-9.5105,-5.403490000000001,-9.77876,-4.6601300000000005,2.92151,46.4184,21.654,-47.4005,0.357763,-0.2482219999999999,-0.132651,247.1,9.6,52.1701,4.427219999999999,-1.0,1.17521,347.54900000000004,4.288819999999999,175.972,69.5449,170.416,0.733171,0.0472022,254.645,1.01381,1.3341,0.7051010131835941,22.004571914672898,-0.685033917427063,22.0,2244190.0,215.351,pp-ro,1,1,-1,-1
1570542186.0,2019-10-08,15:43:06.000,14.0,11.0,20.4500007629395,17.8,-9.1,-4.8,51.3,20.6,-48.1,19.2495,-9.69429,-5.22604,-0.307178,-0.391946,3.67765,46.8402,21.5142,-48.4235,0.352884,-0.1239079999999999,-0.123332,247.1,9.6,52.1701,4.427219999999999,-1.0,1.25389,380.074,4.28881,175.095,71.825,170.81599999999997,0.7342350000000001,0.0343049,254.942,1.00592,1.34016,0.306564331054688,22.004571914672898,-0.6848624348640439,22.0,2244130.0,-553.761,pp-ro,1,1,-1,-1
1570542186.1,2019-10-08,15:43:06.100,14.0,10.0,20.9599990844727,17.2,-9.5,-4.5,51.4,20.9,-48.6,19.2021,-9.76579,-5.19034,-4.05619,-0.865425,2.21056,47.5732,21.9356,-49.247,0.0827901,-0.000949834,-0.160219,247.1,9.6,52.1701,4.427219999999999,-0.7,1.27106,379.56,4.28878,174.16099999999997,73.345,171.116,0.7358439999999999,0.0250127,254.935,1.00274,1.33321,-0.436935424804688,22.004056930542003,-0.964502453804016,22.0,2244580.0,5629.9,pp-ro,1,1,-1,-1
1570542186.2,2019-10-08,15:43:06.200,14.0,11.0,21.2999992370605,16.7,-9.5,-4.8,51.7,21.1,-48.2,18.5389,-9.99289,-4.77407,-5.66098,-1.57789,-1.87282,47.6937,22.2262,-50.5887,0.0453269,-0.121616,-0.231473,247.1,9.6,52.1701,4.427219999999999,-0.7,1.22508,351.04400000000004,4.28876,173.197,75.245,171.516,0.737372,0.0137846,255.101,1.01296,1.31786,-0.6929473876953121,22.004056930542003,-1.4201275110244798,22.0,2245260.0,6829.72,pp-ro,1,1,-1,-1
1570542186.3,2019-10-08,15:43:06.300,14.0,12.0,21.6200008392334,16.4,-9.4,-5.2,52.0,20.2,-47.3,17.5869,-9.85255,-5.01347,-11.244000000000002,2.5087900000000003,-3.47175,48.5187,22.3062,-49.5665,-0.0756763,0.100736,0.144954,247.1,9.6,52.1701,4.427219999999999,-0.7,1.1608,302.649,4.28873,172.262,76.765,171.916,0.739173,0.00444358,255.191,1.04083,1.30449,-1.06844329833984,22.0035419464111,-1.8495665788650504,22.0,2246040.0,8644.82,pp-ro,1,1,-1,-1
1570542186.4,2019-10-08,15:43:06.400,14.0,12.0,21.7099990844727,16.5,-9.6,-5.1,52.3,19.7,-46.9,17.4595,-9.77295,-5.342980000000001,4.46657,0.2564079999999999,-4.85391,48.7851,21.7742,-48.5772,-0.14926,-0.043731,0.301803,247.1,9.6,52.1701,4.427219999999999,-0.7,1.0760299999999998,295.384,4.28871,171.269,79.0451,172.21599999999998,0.739943,-0.00872714,255.42,1.06063,1.31444,-1.26472473144531,22.0035419464111,-1.7672274112701398,22.0,2246670.0,3876.33,pp-ro,1,1,-1,-1
1570542186.5,2019-10-08,15:43:06.500,14.0,11.0,21.6700000762939,17.0,-10.0,-4.7,52.2,19.2,-47.4,17.4595,-9.77295,-5.342980000000001,4.46657,0.2564079999999999,-4.85391,48.7851,21.7742,-48.5772,-0.14926,-0.043731,0.301803,245.5,9.7,52.1701,4.427219999999999,-0.7,1.15582,334.511,4.28868,170.27599999999998,80.5651,172.616,0.741775,-0.0182233,255.501,1.0671,1.33787,-1.65898895263672,22.004056930542003,-1.47342419624329,22.0,2246410.0,-3107.21,pp-ro,1,1,-1,-1
1570542186.6,2019-10-08,15:43:06.600,14.0,12.0,21.4599990844727,17.3,-9.9,-4.4,52.0,19.4,-47.8,17.5058,-9.8324,-5.321219999999999,0.127994,-3.32878,-2.91207,48.7154,21.2764,-48.2616,-0.0284517999999999,0.000605365,0.136907,245.5,9.7,52.1701,4.427219999999999,-0.7,1.26608,395.974,4.28863,169.25400000000002,82.4651,172.81599999999997,0.742614,-0.0296209,255.563,1.06776,1.3657700000000002,-1.82454681396484,22.004056930542003,-1.03495121002197,22.0,2246570.0,2061.22,pp-ro,1,1,-1,-1
1570542186.7,2019-10-08,15:43:06.700,14.0,12.0,21.340000152587898,17.8,-10.3,-4.2,51.5,18.6,-49.3,17.5058,-9.8324,-5.321219999999999,0.127994,-3.32878,-2.91207,48.7154,21.2764,-48.2616,-0.0284517999999999,0.000605365,0.136907,245.5,9.7,52.1701,4.427219999999999,-0.7,1.29378,409.65,4.2885800000000005,168.173,83.9851,173.31599999999997,0.74484,-0.0393606,255.68400000000003,1.06585,1.381,-1.7221374511718797,22.004056930542003,-0.947685480117798,22.0,2246630.0,1230.58,pp-ro,1,1,-1,-1
1570542186.8,2019-10-08,15:43:06.800,14.0,12.0,21.4300003051758,17.9,-10.7,-3.9,51.1,17.6,-50.6,17.6639,-10.1938,-5.16444,1.86988,-5.694380000000001,6.19835,48.5547,20.7978,-48.3169,0.00180336,-0.124109,0.146307,245.5,9.7,52.1701,4.427219999999999,-0.7,1.34033,426.239,4.28854,167.092,85.8851,173.516,0.745694,-0.0509316,255.742,1.06989,1.3916,-1.21010589599609,22.0050868988037,-0.8669586777687069,22.0,2246960.0,4399.32,pp-ro,1,1,-1,-1
1570542186.9,2019-10-08,15:43:06.900,14.0,10.0,21.510000228881804,17.6,-10.9,-3.6,51.2,16.4,-50.3,18.8311,-11.3814,-3.68362,-6.742430000000001,-5.503340000000001,0.904642,48.1287,15.3799,-53.1137,0.133267,-0.150884,0.1300319999999999,245.5,9.7,52.1701,4.427219999999999,-0.7,1.34365,432.709,4.28849,165.982,87.7851,173.71599999999998,0.746549,-0.0625867,255.8,1.09602,1.39832,-1.05137634277344,22.0050868988037,-0.8681557774543759,22.0,2247500.0,5137.67,pp-ro,1,1,-1,-1
1570542187.0,2019-10-08,15:43:07.000,14.0,10.0,21.6299991607666,17.3,-11.1,-3.3,51.4,15.4,-49.7,18.8311,-11.3814,-3.68362,-6.742430000000001,-5.503340000000001,0.904642,48.1287,15.3799,-53.1137,0.133267,-0.150884,0.1300319999999999,245.5,9.7,52.1701,4.427219999999999,-0.7,1.35861,428.74300000000005,4.2884400000000005,164.81400000000002,89.6851,173.916,0.747471,-0.0744021,255.84,1.12365,1.40517,-0.909713745117188,22.0056018829346,-0.8777818083763119,22.0,2247960.0,4799.26,pp-ro,1,1,-1,-1
1570542187.1,2019-10-08,15:43:07.100,14.0,10.0,21.75,17.0,-10.2,-2.9,51.9,15.3,-49.0,18.6731,-11.4975,-3.43602,1.81958,-0.0234477,9.04171,48.5351,15.1133,-53.3684,0.102838,-0.173941,-0.0485317,245.5,9.7,52.1701,4.427219999999999,-0.5,1.30597,387.622,4.28837,163.733,91.2051,174.016,0.748326,-0.0842113999999999,255.751,1.14029,1.44234,-0.7902374267578121,22.0050868988037,-0.267614305019379,22.0,2248880.0,10490.7,pp-ro,1,1,-1,-1
1570542187.2,2019-10-08,15:43:07.200,14.0,10.0,21.75,17.1,-10.1,-2.3,51.8,14.3,-50.0,18.1784,-10.7827,-2.42976,4.06016,-1.42456,5.557519999999999,49.5876,13.3554,-52.4997,0.0138125,-0.0981034,-0.0946322,245.5,9.7,52.1701,4.427219999999999,-0.5,1.20735,347.57199999999995,4.28835,162.623,93.1052,174.21599999999998,0.748984,-0.0959276,255.864,1.14831,1.4770299999999998,-0.8380279541015621,22.004056930542003,0.2934759259223939,22.0,2249800.0,8398.71,pp-ro,1,1,-1,-1
1570542187.3,2019-10-08,15:43:07.300,14.0,11.0,21.510000228881804,16.9,-9.9,-2.0,51.1,13.5,-49.7,18.2409,-10.7019,-2.18494,1.97605,0.0859593,4.24089,49.6747,12.823,-52.6451,0.188025,-0.246179,0.0419881,245.5,9.7,52.1701,4.427219999999999,-0.5,1.18684,344.574,4.2883,161.572,94.6252,174.31599999999997,0.7496649999999999,-0.105715,255.823,1.16855,1.49612,-0.6810073852539059,22.004571914672898,0.549127876758575,22.0,2250360.0,2953.39,pp-ro,1,1,-1,-1
1570542187.4,2019-10-08,15:43:07.400,14.0,12.0,21.1399993896484,16.6,-9.6,-1.8,51.9,13.2,-48.9,18.2409,-10.7019,-2.18494,1.97605,0.0859593,4.24089,49.6747,12.823,-52.6451,0.188025,-0.246179,0.0419881,245.5,9.7,52.1701,4.427219999999999,-0.5,1.20236,348.626,4.28825,160.579,96.5252,174.416,0.7496430000000001,-0.117098,255.976,1.19,1.51367,-0.034133911132813,22.004571914672898,0.827025949954987,22.0,2250460.0,1938.16,pp-ro,1,1,-1,-1
1570542187.5,2019-10-08,15:43:07.500,14.0,13.0,20.6800003051758,17.0,-9.8,-1.5,52.8,13.4,-48.1,18.2409,-10.7019,-2.18494,1.97605,0.0859593,4.24089,49.6747,12.823,-52.6451,0.188025,-0.246179,0.0419881,246.3,9.5,52.1701,4.427219999999999,-0.5,1.20845,355.607,4.288209999999999,159.586,98.0452,174.616,0.750373,-0.126738,256.069,1.2039799999999998,1.53396,0.3832015991210939,22.004571914672898,1.09583914279938,22.0,2251010.0,3353.33,pp-ro,1,1,-1,-1
1570542187.6,2019-10-08,15:43:07.600,14.0,14.0,20.3799991607666,17.3,-10.3,-1.0,53.2,13.0,-48.4,18.1352,-10.5742,-1.15999,5.77505,-5.0869,8.074489999999999,51.1518,12.4493,-51.0062,0.228214,0.196842,0.118713,246.3,9.5,52.1701,4.427219999999999,-0.5,1.22341,356.18300000000005,4.28815,158.563,99.9452,174.616,0.750011,-0.138179,256.168,1.21324,1.55176,0.7340545654296879,22.004056930542003,1.41203236579895,22.0,2251360.0,4276.26,pp-ro,1,1,-1,-1
1570542187.7,2019-10-08,15:43:07.700,14.0,17.0,20.2099990844727,17.1,-10.2,-1.0,53.0,12.8,-48.9,18.1352,-10.5742,-1.15999,5.77505,-5.0869,8.074489999999999,51.1518,12.4493,-51.0062,0.228214,0.196842,0.118713,246.3,9.5,52.1701,4.427219999999999,-0.5,1.21676,352.737,4.2881,158.00799999999998,100.705,174.71599999999998,0.7504609999999999,-0.143137,256.191,1.2131,1.55423,0.9929275512695308,22.004571914672898,1.3797106742858898,22.0,2251630.0,5045.38,pp-ro,1,1,-1,-1
1570542187.8,2019-10-08,15:43:07.800,14.0,16.0,20.0799999237061,17.0,-10.5,-1.3,52.4,11.9,-50.0,18.2138,-11.0212,-0.6666810000000001,-6.7156,2.41953,-11.1561,51.0094,11.7397,-52.0073,-0.00119859,-0.312257,0.185827,246.3,9.5,52.1701,4.427219999999999,-0.5,1.19959,346.14,4.28805,156.431,102.985,174.81599999999997,0.750971,-0.157878,256.198,1.22105,1.54296,1.3437805175781203,22.004571914672898,0.994593799114227,22.0,2252070.0,4399.32,pp-ro,1,1,-1,-1
1570542187.9,2019-10-08,15:43:07.900,14.0,15.0,19.9899997711182,17.0,-11.2,-1.1,51.9,10.3,-51.0,18.2138,-11.0212,-0.6666810000000001,-6.7156,2.41953,-11.1561,51.0094,11.7397,-52.0073,-0.00119859,-0.312257,0.185827,246.3,9.5,52.1701,4.427219999999999,-0.5,1.21012,362.75,4.288,155.321,104.885,174.916,0.750908,-0.169577,256.362,1.2367,1.5390700000000002,1.3761367797851598,22.0050868988037,0.841111123561859,22.0,2252420.0,3014.92,pp-ro,1,1,-1,-1
1570542188.0,2019-10-08,15:43:08.000,14.0,15.0,19.9400005340576,16.8,-11.2,-1.0,51.8,9.8,-51.2,18.0748,-11.635,-0.938228,-2.50913,-8.307360000000001,-6.722510000000001,50.2712,9.87079,-53.7072,-0.340897,-0.3259039999999999,0.175333,246.3,9.5,52.1701,4.427219999999999,-0.5,1.26719,389.856,4.28795,154.737,105.645,174.917,0.751059,-0.1746069999999999,256.321,1.24397,1.54214,1.1376953125,22.0050868988037,0.848059237003326,22.0,2252480.0,184.587,pp-ro,1,1,-1,-1
1570542188.1,2019-10-08,15:43:08.100,14.0,16.0,19.8999996185303,16.8,-11.1,-0.8,51.8,9.5,-51.7,17.7709,-11.9326,-0.6267199999999999,0.8329190000000001,0.229951,1.30514,50.2419,8.98428,-54.2995,0.0632899,-0.204732,-0.1545349999999999,246.3,9.5,52.1701,4.427219999999999,-0.2,1.2921200000000002,390.8730000000001,4.28789,153.627,107.545,175.017,0.750898,-0.1862579999999999,256.511,1.24978,1.56009,0.9060745239257808,22.0050868988037,-35.0,22.0,2252930.0,5814.49,pp-ro,1,1,-1,-1
1570542188.2,2019-10-08,15:43:08.200,14.0,12.0,20.25,16.9,-11.1,-0.9,51.5,9.6,-52.9,18.0475,-11.9583,-0.6590199999999999,0.2943739999999999,-3.00789,-2.7250400000000004,49.923,8.729389999999999,-55.5405,-0.2730039999999999,0.0994472,0.0193769,246.3,9.5,52.1701,4.427219999999999,-0.2,1.24724,369.473,4.28784,152.517,109.065,175.11700000000002,0.751258,-0.196242,256.559,1.24082,1.56531,0.8583831787109379,22.0050868988037,-35.0,22.0,2253650.0,7445.01,pp-ro,1,1,-1,-1
1570542188.3,2019-10-08,15:43:08.300,14.0,11.0,20.590000152587898,16.3,-11.3,-0.8,51.4,9.2,-53.7,18.0475,-11.9583,-0.6590199999999999,0.2943739999999999,-3.00789,-2.7250400000000004,49.923,8.729389999999999,-55.5405,-0.2730039999999999,0.0994472,0.0193769,246.3,9.5,52.1701,4.427219999999999,-0.2,1.23006,365.011,4.28779,151.378,110.965,175.217,0.751033,-0.207955,256.767,1.24422,1.5593,0.7527923583984379,22.0056018829346,-35.0,22.0,2254120.0,4091.68,pp-ro,1,1,-1,-1
1570542188.4,2019-10-08,15:43:08.400,14.0,13.0,21.1000003814697,15.7,-11.0,-0.6,51.2,9.2,-55.0,18.0475,-11.9583,-0.6590199999999999,0.2943739999999999,-3.00789,-2.7250400000000004,49.923,8.729389999999999,-55.5405,-0.2730039999999999,0.0994472,0.0193769,246.3,9.5,52.1701,4.427219999999999,-0.2,1.21399,339.624,4.28774,150.21,112.485,175.317,0.751408,-0.218117,256.811,1.2353299999999998,1.5695,0.316787719726562,22.004571914672898,-35.0,22.0,2254790.0,5660.67,pp-ro,1,1,-1,-1
1570542188.5,2019-10-08,15:43:08.500,14.0,12.0,21.1800003051758,15.6,-10.6,-0.8,50.7,9.1,-55.0,17.3259,-12.1191,-0.5502130000000001,-12.89,3.71772,1.86558,49.7307,8.85413,-56.2462,-0.0802286,-0.245365,-0.214002,247.0,8.6,52.1701,4.427219999999999,-0.2,1.1475,309.939,4.28769,149.1,114.385,175.417,0.750993,-0.229698,257.072,1.24485,1.57907,-0.4778976440429689,22.004571914672898,-35.0,22.0,2255570.0,7629.59,pp-ro,1,1,-1,-1
1570542188.6,2019-10-08,15:43:08.600,14.0,11.0,21.0599994659424,15.5,-10.3,-0.5,50.8,8.7,-55.2,17.3259,-12.1191,-0.5502130000000001,-12.89,3.71772,1.86558,49.7307,8.85413,-56.2462,-0.0802286,-0.245365,-0.214002,247.0,8.6,52.1701,4.427219999999999,-0.2,1.11869,306.675,4.28762,148.048,115.525,175.61700000000002,0.7519170000000001,-0.2378579999999999,257.11,1.25304,1.60319,-1.64874267578125,22.004571914672898,-35.0,22.0,2255820.0,4799.26,pp-ro,1,1,-1,-1
1570542188.7,2019-10-08,15:43:08.700,14.0,13.0,20.7600002288818,15.5,-10.3,-0.1,52.0,9.2,-54.7,16.2143,-10.8479,-0.0679687,-2.4117900000000003,-2.86019,3.71865,50.4428,10.1076,-55.9161,-0.0403459,0.28475,-0.0332181999999999,247.0,8.6,52.1701,4.427219999999999,-0.2,1.14861,309.343,4.28756,146.997,117.045,175.717,0.751895,-0.247613,257.263,1.25997,1.62564,-3.16436004638672,22.004571914672898,-35.0,22.0,2256080.0,3353.33,pp-ro,1,1,-1,-1
1570542188.8,2019-10-08,15:43:08.800,14.0,11.0,20.4200000762939,15.9,-10.1,0.1,52.5,9.1,-54.1,16.2143,-10.8479,-0.0679687,-2.4117900000000003,-2.86019,3.71865,50.4428,10.1076,-55.9161,-0.0403459,0.28475,-0.0332181999999999,247.0,8.6,52.1701,4.427219999999999,-0.2,1.13698,309.659,4.28749,145.916,118.945,175.817,0.75125,-0.25902,257.587,1.27665,1.65542,-5.031578063964839,22.004056930542003,-35.0,22.0,2256350.0,5229.96,pp-ro,1,1,-1,-1
1570542188.9,2019-10-08,15:43:08.900,14.0,12.0,20.0300006866455,16.7,-10.5,0.4,53.9,8.6,-52.8,16.2143,-10.8479,-0.0679687,-2.4117900000000003,-2.86019,3.71865,50.4428,10.1076,-55.9161,-0.0403459,0.28475,-0.0332181999999999,247.0,8.6,52.1701,4.427219999999999,-0.2,1.13975,321.76,4.2874300000000005,144.894,120.465,175.817,0.750781,-0.268635,257.716,1.30544,1.67616,-6.61887359619141,22.004056930542003,-35.0,22.0,2256560.0,799.877,pp-ro,1,1,-1,-1
1570542189.0,2019-10-08,15:43:09.000,14.0,12.0,20.0799999237061,17.4,-10.9,1.3,54.5,6.8,-52.2,17.427,-10.951,1.28449,9.96847,-2.2097,8.37853,52.5043,9.63971,-52.7624,0.33762,0.0700643,0.348815,247.0,8.6,52.1701,4.427219999999999,-0.2,1.18906,343.281,4.28736,143.813,122.365,175.817,0.749734,-0.279966,258.006,1.34321,1.71635,-9.25413513183594,22.004571914672898,-35.0,22.0,2256680.0,1845.87,pp-ro,1,1,-1,-1
1570542189.1,2019-10-08,15:43:09.100,14.0,14.0,20.0799999237061,18.3,-10.8,2.1,55.6,4.2,-51.8,17.7664,-11.0991,1.84236,2.91378,-3.08339,15.2911,53.0996,8.5672,-52.1589,-0.0961741,-0.145993,0.434776,247.0,8.6,52.1701,4.42721,-0.1,1.21676,366.693,4.2873,142.616,123.885,175.61700000000002,0.748948,-0.290137,257.93,1.38797,1.76719,-11.3654174804688,22.004571914672898,-35.0,22.0,2256940.0,2184.28,pp-ro,1,1,-1,-1
1570542189.2,2019-10-08,15:43:09.200,14.0,13.0,20.340000152587898,18.8,-10.7,3.4,56.5,1.3,-50.9,18.274,-10.9094,2.73373,-0.755269,5.91043,6.42157,53.5186,6.03436,-51.5488,0.283535,-0.209166,0.5917020000000001,247.0,8.6,52.1701,4.42721,-0.1,1.27051,385.264,4.28723,141.564,125.785,175.317,0.746872,-0.301321,258.067,1.44364,1.82704,-13.4493942260742,22.004571914672898,-35.0,22.0,2257080.0,1692.05,pp-ro,1,1,-1,-1
