time,date,time_of_day,airspeed_temperature,airspeed_angle_of_attack,airspeed_apparent_windspeed,kite_0_vx,kite_0_vy,kite_0_vz,kite_0_roll,kite_0_pitch,kite_0_yaw,kite_1_vx,kite_1_vy,kite_1_vz,kite_1_ax,kite_1_ay,kite_1_az,kite_1_roll,kite_1_pitch,kite_1_yaw,kite_1_roll_rate,kite_1_pitch_rate,kite_1_yaw_rate,ground_upwind_direction,ground_wind_velocity,ground_pos_latitude,ground_pos_longitude,ground_pos_altitude,ground_tether_reelout_speed,ground_tether_force,est_upwind_direction,kite_pos_east,kite_pos_north,kite_height,kite_elevation,kite_azimuth,kite_distance,kite_heading,kite_course,kite_actual_steering,kite_actual_depower,kite_set_steering,kite_set_depower,ground_mech_energy,ground_mech_power,flight_phase,flight_phase_index,phase,pattern,pattern_section
1570534726.8,2019-10-08,13:38:46.800,14.0,8.0,14.7700004577637,11.0,-3.1,3.1,18.4,-4.8,-58.9,9.44716,-2.52311,3.38956,9.25891,9.27593,1.1438,21.7361,10.2491,-59.7353,0.218482,0.224689,0.935088,268.3,4.2,52.1701,4.42711,-0.7,-2.95326,106.086,4.47196,44.6292,7.9805,238.673,1.38308,0.0634764,242.941,0.7392029999999999,1.52535,-34.9513549804688,22.0159015655518,-35.0,22.0,-1090180.0,-4307.03,pp-riro,4,0,-1,-1
1570534726.9,2019-10-08,13:38:46.900,14.0,8.0,14.6499996185303,11.8,-2.2,3.4,20.0,-6.2,-53.8,9.84783,-2.01141,3.56757,7.95217,11.5754,4.6566,22.6506,9.74759,-56.7923,0.191753,0.202734,0.959378,268.3,4.2,52.1701,4.42711,-0.7,-2.92943,101.142,4.47193,44.2787,9.50055,238.374,1.38305,0.0291008,242.637,0.867549,1.65008,-34.970123291015604,22.0025119781494,-35.0,22.0,-1090450.0,-1815.1,pp-riro,4,0,-1,-1
1570534727.0,2019-10-08,13:38:47.000,14.0,8.0,14.6499996185303,12.5,-1.1,3.8,21.5,-7.8,-48.4,11.3564,0.0386914,4.27269,4.56289,10.3563,3.95384,26.2067,6.94169,-45.3575,0.127846,0.188667,1.00824,265.9,4.8,52.1701,4.42711,-0.7,-2.94772,91.7559,4.47197,44.0742,10.2606,238.074,1.38296,0.0116949,242.336,0.984564,1.7648400000000002,-34.971832275390604,22.0009689331055,-35.0,22.0,-1091760.0,-11567.4,pp-riro,4,0,-1,-1
1570534727.1,2019-10-08,13:38:47.100,14.0,8.0,14.3999996185303,13.5,0.5,4.2,23.7,-10.3,-40.7,11.8611,1.07266,4.61931,3.61073,9.57391,4.38605,27.6925,5.25729,-39.5638,0.13474,0.171552,0.965105,265.9,4.8,52.1701,4.42711,-0.7,-2.95991,90.0387,4.47191,43.9281,12.1606,237.674,1.38132,-0.0295905,242.005,1.16905,1.9277,-34.9871978759766,22.0009689331055,-35.0,22.0,-1092270.0,-9967.69,pp-riro,4,0,-1,-1
1570534727.2,2019-10-08,13:38:47.200,14.0,8.0,14.2200002670288,13.8,1.0,4.4,24.3,-11.1,-38.3,12.3637,2.21475,4.94988,3.53742,9.589,1.5247,28.9335,3.37277,-33.8317,0.134049,0.124785,1.0476,265.9,4.8,52.1701,4.42711,-0.7,-3.0397,90.39,4.47186,43.9281,12.9207,237.574,1.3804,-0.0455347,241.946,1.22976,1.97865,-34.9871978759766,22.0009689331055,-35.0,22.0,-1094460.0,-14336.3,pp-riro,4,0,-1,-1
1570534727.3,2019-10-08,13:38:47.300,14.0,8.0,14.1000003814697,14.3,2.2,4.9,25.3,-12.9,-33.3,12.6533,2.74092,5.13601,5.5596,9.13417,3.7318,29.6802,2.39027,-31.0714,0.174084,0.2037,0.928759,265.9,4.8,52.1701,4.42711,-0.7,-3.06241,91.0191,4.47181,44.0157,14.4407,237.174,1.37791,-0.0764588,241.655,1.35424,2.08957,-34.9871978759766,22.0009689331055,-35.0,22.0,-1095190.0,-14674.7,pp-riro,4,0,-1,-1
1570534727.4,2019-10-08,13:38:47.400,14.0,8.0,14.0299997329712,14.6,3.4,5.3,26.2,-14.8,-28.3,13.0504,3.83835,5.62146,2.7119,8.32628,5.41299,30.5696,0.414846,-25.7037,0.042908,0.233784,1.02841,265.9,4.8,52.1701,4.42711,-0.7,-3.1145,88.803,4.47175,44.2494,15.5808,236.774,1.3752,-0.0979189,241.376,1.46947,2.18592,-34.9889068603516,22.0009689331055,-35.0,22.0,-1096630.0,-13813.3,pp-riro,4,0,-1,-1
1570534727.5,2019-10-08,13:38:47.500,14.0,8.0,13.8999996185303,14.8,4.6,5.6,26.8,-16.5,-23.3,13.318,6.13473,6.3519,0.0191181,8.59849,1.65756,32.0487,-3.46546,-15.2417,0.126268,0.2297809999999999,0.967014,265.9,4.8,52.1701,4.42711,-0.7,-3.20426,77.5489,4.4717,44.5707,17.4808,236.374,1.37096,-0.133078,241.174,1.5973700000000002,2.29051,-35.0059814453125,22.0009689331055,-35.0,22.0,-1099280.0,-19381.6,pp-riro,4,0,-1,-1
1570534727.6,2019-10-08,13:38:47.600,14.0,8.0,13.9700002670288,15.0,5.7,5.8,27.2,-18.1,-18.3,13.318,6.13473,6.3519,0.0191181,8.59849,1.65756,32.0487,-3.46546,-15.2417,0.126268,0.2297809999999999,0.967014,265.9,4.8,52.1701,4.42711,-0.5,-3.26355,74.8783,4.47165,45.038,18.6209,235.974,1.36713,-0.151329,240.954,1.7075,2.36722,-35.0059814453125,22.0009689331055,-35.0,22.0,-1100560.0,-23780.9,pp-riro,4,0,-1,-1
1570534727.7,2019-10-08,13:38:47.700,14.0,9.0,13.8400001525879,15.1,6.8,6.1,27.7,-19.6,-13.0,13.4315,7.147310000000001,6.60791,-0.0378887,11.9921,2.35145,32.6498,-5.361680000000001,-10.1843,0.1166799999999999,0.217727,0.910893,265.9,4.8,52.1701,4.42711,-0.5,-3.3727,75.8619,4.47159,45.6221,20.521,235.474,1.3614700000000002,-0.18192,240.729,1.83399,2.4548,-35.0042724609375,22.0009689331055,-35.0,22.0,-1103370.0,-29226.3,pp-riro,4,0,-1,-1
1570534727.8,2019-10-08,13:38:47.800,14.0,9.0,13.9700002670288,15.1,7.9,6.5,27.5,-21.3,-7.7,13.4714,8.130189999999999,6.89272,-0.310602,10.7624,2.3595200000000003,32.5449,-7.011080000000001,-4.82353,0.0175929,0.177853,0.940321,265.9,4.8,52.1701,4.42711,-0.5,-3.49127,83.3991,4.47154,46.2646,21.661,234.974,1.35672,-0.197061,240.463,1.94509,2.52696,-35.0076751708984,22.0009689331055,-35.0,22.0,-1105820.0,-23596.4,pp-riro,4,0,-1,-1
1570534727.9,2019-10-08,13:38:47.900,14.0,8.0,14.1599998474121,15.0,9.0,7.0,27.0,-22.8,-2.3,13.4769,9.13029,7.26426,-0.32429,11.869000000000002,5.90065,32.3514,-8.7357,0.8811629999999999,0.0627717,0.299134,0.923734,265.9,4.8,52.1701,4.42711,-0.5,-3.56829,88.8432,4.47149,47.0532,23.1811,234.374,1.3506200000000002,-0.216878,240.172,2.06084,2.60338,-35.0042724609375,22.0009689331055,-35.0,22.0,-1107960.0,-19258.6,pp-riro,4,0,-1,-1
1570534728.0,2019-10-08,13:38:48.000,14.0,8.0,14.5200004577637,14.9,10.1,7.2,26.6,-24.6,3.8,13.1831,10.518,7.75887,-0.769925,9.91325,1.39585,31.1361,-11.3909,9.48122,0.0680101999999999,0.260977,0.971263,245.3,4.8,52.1701,4.42711,-0.5,-3.61705,89.7125,4.471430000000001,47.9878,25.0811,233.774,1.34319,-0.240677,239.963,2.19188,2.6783,-35.0042724609375,22.0009689331055,-35.0,22.0,-1109730.0,-17812.6,pp-riro,4,0,-1,-1
1570534728.1,2019-10-08,13:38:48.100,14.0,9.0,14.9499998092651,14.8,11.2,7.4,25.7,-25.9,9.9,13.0696,11.5031,7.87719,-4.43278,8.43929,1.4246299999999998,29.9543,-12.8166,15.5909,0.131576,0.315145,1.1097,245.3,4.8,52.1701,4.42711,-0.5,-3.68576,95.4807,4.4713,48.9809,26.2212,233.074,1.33679,-0.2504929999999999,239.604,2.30619,2.73679,-35.0059814453125,22.0009689331055,-35.0,22.0,-1112250.0,-16766.6,pp-riro,4,0,-1,-1
1570534728.2,2019-10-08,13:38:48.200,14.0,10.0,15.1800003051758,14.5,12.6,7.8,24.7,-27.1,16.2,12.855,12.6324,8.19997,-3.02026,11.1476,5.10133,28.708,-14.1512,21.9268,0.0333115,0.315384,1.0466,245.3,4.8,52.1701,4.42711,-0.5,-3.6985,110.893,4.47117,50.1199,28.1213,232.374,1.32834,-0.270094,239.375,2.4314,2.81964,-35.0059814453125,22.0009689331055,-23.0044822692871,22.0,-1113310.0,-7445.01,pp-riro,4,0,-1,-1
1570534728.3,2019-10-08,13:38:48.300,14.0,10.0,15.3500003814697,14.1,13.8,8.4,23.5,-28.4,22.4,12.855,12.6324,8.19997,-3.02026,11.1476,5.10133,28.708,-14.1512,21.9268,0.0333115,0.315384,1.0466,245.3,4.8,52.1701,4.42711,-0.5,-3.65196,123.856,4.47104,51.4051,29.2613,231.574,1.32072,-0.276206,239.009,2.54103,2.88228,-35.0008544921875,22.0009689331055,-23.0044822692871,22.0,-1112870.0,8767.88,pp-riro,4,0,-1,-1
1570534728.4,2019-10-08,13:38:48.400,14.0,11.0,15.5200004577637,13.6,15.1,8.7,22.2,-29.4,28.7,12.855,12.6324,8.19997,-3.02026,11.1476,5.10133,28.708,-14.1512,21.9268,0.0333115,0.315384,1.0466,245.3,4.8,52.1701,4.42711,-0.5,-3.58768,126.717,4.47091,52.7778,31.1614,230.774,1.3112,-0.291875,238.774,2.65886,2.95598,-34.8284606933594,22.0009689331055,-23.0044822692871,22.0,-1112400.0,8921.7,pp-riro,4,0,-1,-1
1570534728.5,2019-10-08,13:38:48.500,14.0,11.0,15.75,12.8,16.4,9.1,20.8,-29.9,35.3,11.6841,15.4829,9.25083,-8.493210000000001,10.2498,1.42374,24.4852,-16.611,37.8772,0.00569197,0.195293,1.04621,245.3,4.8,52.1701,4.42711,-0.5,-3.46856,128.423,4.47078,54.2673,32.3014,229.874,1.3026799999999998,-0.295299,238.391,2.7675400000000003,3.02511,-34.0791931152344,22.0009689331055,-23.0044822692871,22.0,-1111010.0,13228.7,pp-riro,4,0,-1,-1
1570534728.6,2019-10-08,13:38:48.600,14.0,11.0,16.1900005340576,12.0,17.8,9.4,19.2,-30.3,41.9,11.049,16.6811,9.52863,-5.96818,11.2627,1.83298,22.8954,-17.48,43.9915,0.0288166,0.266958,0.972695,245.3,4.8,52.1701,4.42711,-0.2,-3.25025,135.097,4.47065,55.9613,33.4415,228.974,1.29342,-0.2969699999999999,238.074,2.87346,3.09118,-33.0722045898438,22.0009689331055,-22.3439540863037,22.0,-1108820.0,15443.8,pp-riro,4,0,-1,-1
1570534728.7,2019-10-08,13:38:48.700,14.0,11.0,16.520000457763697,11.3,19.0,9.7,17.8,-30.7,48.2,10.2968,17.7789,9.81156,-7.788460000000001,12.2627,1.33692,21.3393,-18.1848,50.0987,0.0901196,0.1943599999999999,0.979459,245.3,4.8,52.1701,4.42711,-0.2,-3.08347,148.371,4.47052,57.743,34.9616,227.974,1.28292,-0.302567,237.758,2.97742,3.14888,-31.7153015136719,22.0009689331055,-21.7355937957764,22.0,-1106870.0,21904.3,pp-riro,4,0,-1,-1
1570534728.8,2019-10-08,13:38:48.800,14.0,11.0,16.520000457763697,10.4,20.1,10.0,16.5,-30.8,54.7,9.53796,18.8666,10.079,-10.2302,10.6159,2.00157,19.5209,-18.8751,56.1965,-0.016073,0.107172,1.0308700000000002,245.3,4.8,52.1701,4.42711,-0.2,-2.95437,156.137,4.4704,59.6122,35.7216,226.974,1.27368,-0.297862,237.375,3.07416,3.19905,-30.0,22.0009689331055,-20.9803161621094,22.0,-1105470.0,26888.2,pp-riro,4,0,-1,-1
1570534728.9,2019-10-08,13:38:48.900,14.0,11.0,16.9400005340576,9.3,21.1,10.3,15.0,-30.9,61.1,9.12241,19.366,10.2429,-8.43166,13.1516,3.10878,18.7301,-19.2372,59.3124,0.20743,0.262686,0.977223,245.3,4.8,52.1701,4.42711,-0.2,-2.69395,166.63299999999998,4.470269999999999,61.5983,36.8617,225.974,1.26321,-0.297134,237.102,3.17232,3.25562,-27.9672317504883,22.0009689331055,-20.2536945343018,22.0,-1102390.0,32271.9,pp-riro,4,0,-1,-1
1570534729.0,2019-10-08,13:38:49.000,14.0,11.0,17.0400009155273,8.1,22.0,10.4,13.1,-30.8,67.5,8.16525,20.257,10.4816,-10.5713,10.5962,-0.995222,16.6001,-19.742,65.5326,0.117946,0.1158299999999999,0.849246,255.8,4.7,52.1701,4.42711,-0.2,-2.36593,165.62599999999998,4.47013,63.818000000000005,37.6217,224.874,1.25256,-0.2904199999999999,236.763,3.26476,3.3067900000000003,-25.896911621093803,22.0025119781494,-19.503108978271506,22.0,-1099170.0,31010.6,pp-riro,4,0,-1,-1
1570534729.1,2019-10-08,13:38:49.100,14.0,9.0,17.1900005340576,6.8,22.8,10.4,11.5,-30.5,73.3,6.54576,21.3838,10.4471,-10.8082,11.6547,0.799983,14.0799,-20.6318,73.8493,0.0930709,0.101852,0.754239,255.8,4.7,52.1701,4.42711,-0.2,-2.0678400000000003,162.94299999999998,4.47006,66.0086,38.7618,223.874,1.2413299999999998,-0.288645,236.6,3.35218,3.36312,-24.0314025878906,22.0025119781494,-18.8073139190674,22.0,-1096390.0,25196.1,pp-riro,4,0,-1,-1
1570534729.2,2019-10-08,13:38:49.200,14.0,9.0,17.2999992370605,5.5,23.5,10.4,10.1,-30.0,78.5,6.54576,21.3838,10.4471,-10.8082,11.6547,0.799983,14.0799,-20.6318,73.8493,0.0930709,0.101852,0.754239,255.8,4.7,52.1701,4.42711,-0.2,-1.7564400000000002,165.905,4.46999,68.2867,39.5218,222.774,1.23042,-0.282258,236.333,3.42662,3.4125300000000003,-22.3707122802734,22.0025119781494,-18.133186340332,22.0,-1094230.0,21627.4,pp-riro,4,0,-1,-1
1570534729.3,2019-10-08,13:38:49.300,14.0,8.0,17.5,4.4,24.0,10.5,8.3,-29.8,83.4,5.439019999999999,22.1834,10.392,-10.6693,3.30989,0.263866,12.4358,-20.7314,78.9995,0.00417012,0.229369,0.712274,255.8,4.7,52.1701,4.42711,-0.2,-1.45003,170.183,4.46992,70.6525,39.9019,221.674,1.21991,-0.271634,236.058,3.49216,3.4472,-20.9028854370117,22.0009689331055,-17.6415176391602,22.0,-1092180.0,19320.1,pp-riro,4,0,-1,-1
1570534729.4,2019-10-08,13:38:49.400,14.0,9.0,17.4500007629395,3.2,24.1,10.3,6.8,-29.6,88.3,3.80201,22.8417,10.4251,-12.1422,1.18954,0.583542,10.0892,-20.857,86.5322,-0.0693543,0.0603313999999999,0.7589560000000001,255.8,4.7,52.1701,4.42711,-0.2,-0.958562,161.131,4.4698400000000005,73.0182,40.2819,220.574,1.20934,-0.261579,235.812,3.5580000000000003,3.4836400000000003,-19.6330413818359,22.0019989013672,-17.1421756744385,22.0,-1090040.0,11905.9,pp-riro,4,0,-1,-1
1570534729.5,2019-10-08,13:38:49.500,14.0,9.0,17.4500007629395,2.1,24.3,9.9,5.3,-28.7,92.9,2.7272,22.9918,10.0238,-15.1951,-0.905597,-4.92809,8.58148,-21.0199,91.0753,0.0888018,0.114754,0.6315189999999999,255.8,4.7,52.1701,4.42711,-0.2,-0.680413,159.519,4.46977,75.4424,40.662,219.574,1.19867,-0.251726,235.707,3.62161,3.51853,-18.5885009765625,22.0025119781494,-16.6956253051758,22.0,-1089180.0,7537.3,pp-riro,4,0,-1,-1
1570534729.6,2019-10-08,13:38:49.600,14.0,8.0,17.7399997711182,1.1,24.6,9.8,3.7,-27.5,97.1,2.7272,22.9918,10.0238,-15.1951,-0.905597,-4.92809,8.58148,-21.0199,91.0753,0.0888018,0.114754,0.6315189999999999,255.8,4.7,52.1701,4.42712,0.1,-0.524162,160.91299999999998,4.46966,77.8958,40.662,218.574,1.18855,-0.238371,235.576,3.67769,3.54537,-17.699264526367198,22.0025119781494,-16.3077716827393,22.0,-1088870.0,5845.25,pp-riro,4,0,-1,-1
1570534729.7,2019-10-08,13:38:49.700,14.0,8.0,17.7399997711182,0.1,24.4,9.8,2.5,-26.7,100.8,2.29245,23.0479,9.77927,-7.36805,-0.916411,-3.42511,7.681080000000001,-21.0239,93.1007,0.0943396,0.134798,0.557142,255.8,4.7,52.1701,4.42712,0.1,-0.110816,159.18,4.46963,80.3492,41.042,217.574,1.1777,-0.229485,235.54,3.72889,3.5738,-17.322067260742198,22.0009689331055,-16.049827575683597,22.0,-1088460.0,1045.99,pp-riro,4,0,-1,-1
1570534729.8,2019-10-08,13:38:49.800,14.0,7.0,17.6900005340576,-0.8,24.2,9.4,0.5,-26.6,104.8,-0.547624,23.1066,9.09604,-9.5123,0.471985,-6.10001,3.3672,-19.4339,104.671,-0.115689,0.211911,0.5730149999999999,255.8,4.7,52.1701,4.42712,0.1,0.161792,147.875,4.46955,82.8903,41.0421,216.574,1.16717,-0.216915,235.499,3.77858,3.59836,-16.5932769775391,22.0009689331055,-15.7749471664429,22.0,-1088570.0,-1692.05,pp-riro,4,0,-1,-1
1570534729.9,2019-10-08,13:38:49.900,14.0,7.0,17.6900005340576,-1.7,23.9,8.9,-0.4,-25.3,107.9,-0.547624,23.1066,9.09604,-9.5123,0.471985,-6.10001,3.3672,-19.4339,104.671,-0.115689,0.211911,0.5730149999999999,255.8,4.7,52.1701,4.42712,0.1,0.263189,143.345,4.46948,85.256,40.6621,215.674,1.158,-0.202124,235.452,3.81841,3.62249,-16.164871215820302,22.0009689331055,-15.3952140808105,22.0,-1088690.0,-2338.1,pp-riro,4,0,-1,-1
1570534730.0,2019-10-08,13:38:50.000,14.0,7.0,17.5900001525879,-2.5,23.7,8.9,-1.8,-24.0,110.8,-1.39004,22.9137,8.63433,-6.28753,-0.351644,-3.91471,2.2229400000000004,-18.9176,107.789,-0.0985541,0.182825,0.479587,257.8,4.5,52.1701,4.42712,0.1,0.238255,144.561,4.46937,87.6802,40.6621,214.774,1.14794,-0.19129,235.519,3.8591,3.64354,-15.8678970336914,22.0009689331055,-15.2381763458252,22.0,-1088550.0,2030.46,pp-riro,4,0,-1,-1
1570534730.1,2019-10-08,13:38:50.100,14.0,9.0,17.4899997711182,-3.2,23.5,9.1,-3.2,-23.2,113.8,-2.5093400000000003,22.6284,8.5259,-7.99685,-5.56727,1.72164,0.1713039999999999,-17.7208,112.051,-0.1448289999999999,0.2575389999999999,0.469595,257.8,4.5,52.1701,4.42712,0.1,0.303083,172.862,4.46934,90.1336,40.2822,213.775,1.13816,-0.17724,235.47,3.8964,3.656530000000001,-15.5094757080078,22.0009689331055,-15.1609210968018,22.0,-1088620.0,-369.174,pp-riro,4,0,-1,-1
1570534730.2,2019-10-08,13:38:50.200,14.0,9.0,17.4899997711182,-3.9,23.4,9.1,-4.6,-22.4,116.9,-2.5093400000000003,22.6284,8.5259,-7.99685,-5.56727,1.72164,0.1713039999999999,-17.7208,112.051,-0.1448289999999999,0.2575389999999999,0.469595,257.8,4.5,52.1701,4.42712,0.1,0.302529,174.52900000000002,4.46928,92.4702,39.9022,212.775,1.12871,-0.164263,235.406,3.9364,3.67196,-15.2739410400391,22.0009689331055,-15.0586452484131,22.0,-1088550.0,738.3480000000001,pp-riro,4,0,-1,-1
1570534730.3,2019-10-08,13:38:50.300,14.0,9.0,17.5900001525879,-4.7,23.1,9.1,-6.1,-21.8,119.8,-3.92614,22.1497,8.65147,-2.45827,-3.63772,-1.3997,-2.92984,-15.9497,118.187,-0.308102,0.112724,0.450602,257.8,4.5,52.1701,4.42712,0.1,0.297542,172.71,4.46921,94.7776,39.5222,211.875,1.11949,-0.151898,235.448,3.97289,3.69262,-15.256866455078098,22.0009689331055,-14.8706073760986,22.0,-1088530.0,430.703,pp-riro,4,0,-1,-1
1570534730.4,2019-10-08,13:38:50.400,14.0,9.0,17.5900001525879,-5.7,23.0,9.1,-7.5,-21.2,122.3,-4.79418,22.0913,8.666139999999999,-4.65071,0.682249,2.47255,-4.80681,-15.345999999999998,120.525,-0.155857,-0.0797957,0.459221,257.8,4.5,52.1701,4.42712,0.1,0.303637,179.68200000000002,4.46915,97.2018,39.1422,210.775,1.10943,-0.1395819999999999,235.385,4.00338,3.720180000000001,-15.0947265625,22.0009689331055,-14.6137447357178,22.0,-1088500.0,276.88,pp-riro,4,0,-1,-1
1570534730.5,2019-10-08,13:38:50.500,14.0,10.0,17.7399997711182,-6.6,22.9,9.3,-8.7,-20.5,124.4,-5.29807,22.0172,8.7097,-7.440289999999999,-1.54142,7.04225,-5.452000000000001,-15.2778,121.594,-0.2209739999999999,0.1009419999999999,0.253303,257.8,4.5,52.1701,4.42712,0.1,0.327463,196.028,4.46908,99.4799,38.7623,209.775,1.10001,-0.128244,235.381,4.02945,3.74253,-14.903564453125,22.0019989013672,-14.4663066864014,22.0,-1088490.0,0.0,pp-riro,4,0,-1,-1
1570534730.6,2019-10-08,13:38:50.600,14.0,10.0,17.6900005340576,-7.3,22.5,9.5,-10.0,-20.2,126.7,-5.80657,22.0466,8.7506,-8.775960000000001,-0.174728,0.0861675,-6.26674,-15.1687,122.751,-0.361325,0.0340447,0.377888,257.8,4.5,52.1701,4.42712,0.4,0.367357,214.187,4.46902,101.787,37.6223,208.675,1.09125,-0.11067,235.205,4.05063,3.75375,-14.6526718139648,22.0025119781494,-14.3632802963257,22.0,-1088450.0,615.29,pp-riro,4,0,-1,-1
1570534730.7,2019-10-08,13:38:50.700,14.0,10.0,17.6399993896484,-8.1,22.1,9.6,-11.3,-20.0,129.1,-5.80657,22.0466,8.7506,-8.775960000000001,-0.174728,0.0861675,-6.26674,-15.1687,122.751,-0.361325,0.0340447,0.377888,257.8,4.5,52.1701,4.42712,0.4,0.377884,219.49400000000003,4.46895,103.978,36.8623,207.575,1.08229,-0.097259,235.069,4.07619,3.77368,-14.5366134643555,22.0025119781494,-14.2235651016235,22.0,-1088400.0,430.703,pp-riro,4,0,-1,-1
1570534730.8,2019-10-08,13:38:50.800,14.0,10.0,17.7399997711182,-8.9,21.7,9.7,-13.1,-19.7,131.4,-8.15276,21.0704,9.1492,-10.9534,-6.30605,3.4208199999999995,-11.3335,-14.796,129.722,-0.111792,-0.108668,0.168246,257.8,4.5,52.1701,4.42712,0.4,0.382871,218.882,4.46889,106.227,36.1023,206.475,1.07305,-0.0841108,234.988,4.1010800000000005,3.79403,-14.4051895141602,22.0025119781494,-14.124725341796902,22.0,-1088370.0,615.29,pp-riro,4,0,-1,-1
1570534730.9,2019-10-08,13:38:50.900,14.0,10.0,18.0300006866455,-9.6,21.5,9.7,-14.3,-19.3,133.7,-8.5478,20.9594,9.18091,-7.992369999999999,-0.734398,-0.586554,-12.2294,-14.822,130.89600000000002,-0.2124219999999999,-0.104098,0.318273,257.8,4.5,52.1701,4.42712,0.4,0.368465,214.36900000000003,4.46882,108.388,35.3423,205.475,1.06425,-0.071633,234.983,4.127269999999999,3.81051,-14.2089080810547,22.0025119781494,-14.1137952804565,22.0,-1088230.0,830.6410000000001,pp-riro,4,0,-1,-1
1570534731.0,2019-10-08,13:38:51.000,14.0,10.0,18.3700008392334,-10.4,21.1,9.4,-15.3,-18.8,136.5,-8.91387,20.775,9.12645,-3.4859400000000003,-2.76388,-1.06306,-13.1303,-14.8226,132.106,-0.214578,-0.0766183,0.46319,262.2,4.8,52.1701,4.42712,0.4,0.370681,216.471,4.46876,110.608,34.5823,204.375,1.05497,-0.0593951,234.945,4.1618,3.83663,-14.1116256713867,22.0025119781494,-13.9772310256958,22.0,-1088200.0,522.996,pp-riro,4,0,-1,-1
1570534731.1,2019-10-08,13:38:51.100,14.0,10.0,18.7000007629395,-11.1,20.2,9.4,-16.0,-18.5,138.8,-9.58746,20.3837,8.97503,-6.5505,-6.149430000000001,-1.7974599999999998,-14.5629,-14.4124,134.58100000000002,-0.0259621,-0.0476341,0.42936,262.2,4.8,52.1701,4.42712,0.4,0.387304,230.62,4.468719999999999,112.652,33.0623,203.275,1.04704,-0.0418048,234.743,4.18282,3.85764,-14.0894317626953,22.0025119781494,-13.741312980651902,22.0,-1088160.0,338.409,pp-riro,4,0,-1,-1
1570534731.2,2019-10-08,13:38:51.200,14.0,9.0,19.0300006866455,-11.8,19.5,9.1,-16.7,-17.8,140.7,-10.6859,19.2536,8.989189999999999,-1.85645,-12.2957,0.417109,-16.3174,-13.4921,138.091,-0.0495949,-0.0602555,0.433565,262.2,4.8,52.1701,4.42712,0.4,0.4211029999999999,240.902,4.46868,114.609,32.3023,202.275,1.03874,-0.0310167,234.721,4.2068900000000005,3.88708,-13.9426498413086,22.003026962280305,-13.5554332733154,22.0,-1088140.0,369.174,pp-riro,4,0,-1,-1
1570534731.3,2019-10-08,13:38:51.300,14.0,9.0,19.1700000762939,-12.3,19.1,8.7,-17.5,-16.7,142.7,-10.6859,19.2536,8.989189999999999,-1.85645,-12.2957,0.417109,-16.3174,-13.4921,138.091,-0.0495949,-0.0602555,0.433565,262.2,4.8,52.1701,4.42712,0.4,0.4122369999999999,233.18400000000003,4.46865,116.508,31.1623,201.275,1.0309700000000002,-0.0176122,234.642,4.23369,3.90503,-13.8163528442383,22.0025119781494,-13.525541305542,22.0,-1088020.0,1292.11,pp-riro,4,0,-1,-1
1570534731.4,2019-10-08,13:38:51.400,14.0,9.0,19.4400005340576,-13.0,18.4,8.6,-17.4,-16.1,145.1,-11.0603,18.8757,8.81606,-8.53426,-6.55096,-3.13406,-16.8329,-13.4218,139.06,-0.00826415,0.0310547,0.354243,262.2,4.8,52.1701,4.42712,0.4,0.402264,241.096,4.46861,118.377,29.6423,200.375,1.02377,-0.00158496,234.61,4.26017,3.92874,-13.5671615600586,22.003026962280305,-13.3026371002197,22.0,-1087890.0,246.116,pp-riro,4,0,-1,-1
1570534731.5,2019-10-08,13:38:51.500,14.0,9.0,19.5300006866455,-13.5,17.6,8.3,-17.6,-15.5,147.4,-11.5659,18.3534,8.42026,-4.97579,-5.43986,-3.10007,-17.7954,-12.3427,141.064,-0.0562554,0.225608,0.2740849999999999,262.2,4.8,52.1701,4.42712,0.4,0.4216569999999999,251.353,4.46858,120.13,28.5023,199.475,1.01656,0.0108553,234.592,4.28822,3.95444,-13.416961669921902,22.0035419464111,35.0,22.0,-1087890.0,30.7645,pp-riro,4,0,-1,-1
1570534731.6,2019-10-08,13:38:51.600,14.0,9.0,19.5300006866455,-14.3,17.0,8.1,-17.6,-14.7,149.5,-12.7764,16.8842,8.08617,-7.754230000000001,-8.73911,-2.48668,-18.7853,-11.1234,145.95600000000002,-0.0419176999999999,-0.0956587,0.290633,262.2,4.8,52.1701,4.42712,0.5,0.464321,269.344,4.46851,121.853,27.3623,198.675,1.00961,0.0229942,234.667,4.31543,3.98612,-13.3333358764648,22.0035419464111,35.0,22.0,-1087860.0,522.996,pp-riro,4,0,-1,-1
1570534731.7,2019-10-08,13:38:51.700,14.0,9.0,19.659999847412102,-14.8,16.4,8.0,-18.0,-14.0,152.1,-13.5312,16.2242,7.8354,-7.063910000000001,-6.07568,-3.13964,-18.8241,-10.6506,148.385,0.0742683,0.0972089,0.638037,262.2,4.8,52.1701,4.42712,0.5,0.888194,274.863,4.46851,123.488,25.4623,197.775,1.00324,0.0405404,234.548,4.34455,4.00179,-12.928825378418,22.0035419464111,35.0,22.0,-1089870.0,-21873.6,pp-riro,4,0,-1,-1
1570534731.8,2019-10-08,13:38:51.800,14.0,9.0,19.659999847412102,-14.9,16.0,7.3,-18.1,-13.0,154.7,-14.0962,15.4061,7.468839999999999,-2.5698,-5.80722,-8.14259,-19.0055,-9.0899,152.363,0.230582,-0.0753702,0.595823,262.2,4.8,52.1701,4.42712,0.5,1.18684,253.027,4.46847,125.124,24.3223,196.975,0.996449,0.051927,234.62,4.3815800000000005,4.01657,-12.165901184082,22.003026962280305,35.0,22.0,-1090250.0,14736.2,pp-riro,4,0,-1,-1
1570534731.9,2019-10-08,13:38:51.900,14.0,8.0,19.659999847412102,-15.1,15.2,6.9,-18.3,-12.0,157.0,-14.1383,14.9747,6.788539999999999,-0.209159,-3.46933,-2.64493,-19.2986,-8.52868,154.852,-0.0429228,-0.0862341,0.393302,262.2,4.8,52.1701,4.42712,0.5,0.908695,217.006,4.468430000000001,126.672,22.4223,196.175,0.990391,0.0687401999999999,234.591,4.40988,4.03472,-11.042839050293,22.003026962280305,35.0,22.0,-1088800.0,5568.37,pp-riro,4,0,-1,-1
1570534732.0,2019-10-08,13:38:52.000,14.0,7.0,19.5699996948242,-15.8,14.3,7.0,-18.2,-11.2,158.5,-14.371,14.6098,6.75002,-8.04159,-9.89952,2.18434,-19.1871,-8.3453,156.05,-0.00917732,-0.0696336999999999,0.2071239999999999,261.3,5.0,52.1701,4.42712,0.5,1.02949,232.886,4.4684,128.132,21.2823,195.475,0.984313,0.0793963999999999,234.694,4.42999,4.068169999999999,-9.55965423583984,22.003026962280305,35.0,22.0,-1089370.0,-3968.62,pp-riro,4,0,-1,-1
1570534732.1,2019-10-08,13:38:52.100,14.0,7.0,19.340000152587898,-15.7,13.6,6.8,-18.4,-10.7,160.2,-14.7342,14.165,6.8105,-3.78968,-10.6734,2.68998,-19.2046,-8.11952,157.092,0.247152,0.0522192999999999,0.4144229999999999,261.3,5.0,52.1701,4.42712,0.5,1.00178,228.518,4.46836,129.505,19.3823,194.775,0.978902,0.0954681,234.701,4.44574,4.07356,-7.72657775878906,22.0025119781494,35.0,22.0,-1088890.0,92.2935,pp-riro,4,0,-1,-1
1570534732.2,2019-10-08,13:38:52.200,14.0,7.0,19.1100006103516,-15.4,13.2,6.5,-19.0,-10.9,162.2,-15.1584,13.3602,6.63355,1.40326,-2.7874,-0.940833,-19.2654,-7.4876,158.859,-0.140041,-0.108303,0.361686,261.3,5.0,52.1701,4.42712,0.5,1.00344,214.775,4.468319999999999,130.878,17.8623,194.075,0.973196,0.108428,234.762,4.46156,4.0702,-5.63236236572266,22.0025119781494,35.0,22.0,-1088740.0,2953.39,pp-riro,4,0,-1,-1
1570534732.3,2019-10-08,13:38:52.300,14.0,7.0,18.8299999237061,-15.4,12.8,6.4,-19.3,-9.8,162.8,-14.9166,12.7332,6.27245,2.17431,-5.11252,-3.57545,-19.5313,-7.733969999999999,161.43200000000002,-0.2077639999999999,-0.0429509,0.227162,261.3,5.0,52.1701,4.42712,0.5,0.938061,199.326,4.46828,132.134,16.7223,193.475,0.967899,0.1182039999999999,234.886,4.47259,4.07527,-3.53131866455078,22.0019989013672,35.0,22.0,-1088200.0,4337.79,pp-riro,4,0,-1,-1
1570534732.4,2019-10-08,13:38:52.400,14.0,6.0,18.7800006866455,-15.6,12.5,6.7,-19.5,-9.1,162.9,-15.008,12.5015,6.267119999999999,-5.20594,-1.1579700000000002,0.193885,-19.9647,-7.868939999999999,162.434,0.00899126,-0.215048,0.0796531,261.3,5.0,52.1701,4.42712,0.5,0.946373,192.753,4.46824,133.39,14.8222,192.775,0.962622,0.133465,234.893,4.46825,4.07092,-1.4149169921875,22.0019989013672,35.0,22.0,-1088100.0,1784.34,pp-riro,4,0,-1,-1
1570534732.5,2019-10-08,13:38:52.500,14.0,8.0,18.5,-15.3,12.3,6.7,-20.3,-9.8,163.1,-15.008,12.5015,6.267119999999999,-5.20594,-1.1579700000000002,0.193885,-19.9647,-7.868939999999999,162.434,0.00899126,-0.215048,0.0796531,261.3,5.0,52.1701,4.42712,0.5,0.931412,185.449,4.4682,134.61700000000002,13.6822,192.075,0.95708,0.142901,234.95,4.45642,4.05929,0.6897735595703121,22.0025119781494,35.0,22.0,-1087920.0,3291.8,pp-riro,4,0,-1,-1
1570534732.6,2019-10-08,13:38:52.600,14.0,8.0,18.159999847412102,-14.9,12.5,6.7,-21.1,-10.1,163.0,-15.3351,12.1372,6.46432,-0.598424,1.11812,-4.39147,-20.3524,-8.594439999999999,163.248,-0.263883,-0.2250469999999999,-0.0324137,261.3,5.0,52.1701,4.42712,0.7,0.8992760000000001,171.49200000000002,4.46816,135.843,11.7822,191.475,0.951982,0.157694,235.064,4.43991,4.02844,2.79145050048828,22.0025119781494,35.0,22.0,-1087690.0,1999.69,pp-riro,4,0,-1,-1
1570534732.7,2019-10-08,13:38:52.700,14.0,10.0,17.8199996948242,-14.9,12.9,7.1,-21.9,-10.0,162.2,-14.9674,12.3147,6.459169999999999,1.56137,6.48655,-2.21069,-21.0898,-9.88547,163.451,0.0232043,-0.2011599999999999,-0.0903383999999999,261.3,5.0,52.1701,4.42712,0.7,0.8965049999999999,178.25400000000002,4.46812,137.07,10.6422,190.775,0.946343,0.166787,235.152,4.42218,4.00157,4.89653015136719,22.0025119781494,35.0,22.0,-1087530.0,276.88,pp-riro,4,0,-1,-1
1570534732.8,2019-10-08,13:38:52.800,14.0,9.0,17.6700000762939,-15.0,12.9,7.6,-22.3,-10.3,161.5,-14.9674,12.3147,6.459169999999999,1.56137,6.48655,-2.21069,-21.0898,-9.88547,163.451,0.0232043,-0.2011599999999999,-0.0903383999999999,261.3,5.0,52.1701,4.42712,0.7,0.91202,183.105,4.4680800000000005,138.384,9.1222,190.375,0.941209,0.178489,235.534,4.399859999999999,3.98494,7.001617431640621,22.0014839172363,35.0,22.0,-1087540.0,-153.822,pp-riro,4,0,-1,-1
1570534732.9,2019-10-08,13:38:52.900,14.0,10.0,17.520000457763697,-14.6,13.2,8.2,-23.4,-11.4,160.5,-15.1298,12.9161,7.110939999999999,-5.07206,2.3094200000000003,4.32682,-22.6657,-10.8847,162.42600000000002,-0.145484,-0.0256564,-0.226817,261.3,5.0,52.1701,4.42712,0.7,0.924209,184.835,4.46804,138.998,7.98218,189.575,0.937344,0.186989,235.208,4.36802,3.94465,9.110107421875,22.0009689331055,35.0,22.0,-1087420.0,1845.87,pp-riro,4,0,-1,-1
1570534733.0,2019-10-08,13:38:53.000,14.0,10.0,17.3600006103516,-14.0,13.7,8.7,-24.5,-13.1,159.0,-15.1298,12.9161,7.110939999999999,-5.07206,2.3094200000000003,4.32682,-22.6657,-10.8847,162.42600000000002,-0.145484,-0.0256564,-0.226817,260.1,4.9,52.1701,4.42712,0.7,0.910911,181.016,4.468,140.341,6.84218,188.775,0.930944,0.195678,235.326,4.32316,3.89483,11.218597412109402,22.0009689331055,35.0,22.0,-1087240.0,1722.81,pp-riro,4,0,-1,-1
1570534733.1,2019-10-08,13:38:53.100,14.0,9.0,17.1100006103516,-13.5,14.1,9.3,-25.4,-14.9,156.8,-14.4013,14.0626,8.73073,3.4843300000000004,2.61396,5.52399,-25.3487,-15.8586,160.03,-0.1368859999999999,-0.192157,-0.31369,260.1,4.9,52.1701,4.42712,0.7,0.910357,179.884,4.46799,141.656,5.70219,187.875,0.924358,0.204164,235.363,4.26789,3.84975,13.3202743530273,22.0009689331055,35.0,22.0,-1087060.0,1476.7,pp-riro,4,0,-1,-1
1570534733.2,2019-10-08,13:38:53.200,14.0,10.0,17.1100006103516,-12.8,14.7,10.1,-26.6,-16.6,154.0,-14.082,14.718,9.52959,7.96701,4.76129,10.5545,-26.3571,-18.2744,157.988,-0.386497,-0.367167,-0.471626,260.1,4.9,52.1701,4.42712,0.7,0.916452,188.859,4.467980000000001,143.08700000000002,4.182180000000001,186.875,0.917128,0.215185,235.401,4.20356,3.78844,15.435577392578098,22.0009689331055,35.0,22.0,-1086960.0,615.29,pp-riro,4,0,-1,-1
1570534733.3,2019-10-08,13:38:53.300,14.0,9.0,17.0599994659424,-11.9,15.1,11.0,-26.9,-19.4,150.6,-13.0956,15.607,10.9732,2.0455,6.33731,6.46309,-27.8327,-23.2762,154.204,-0.507393,-0.218664,-0.629163,260.1,4.9,52.1701,4.42712,0.7,0.938616,196.634,4.467980000000001,144.576,3.04219,185.875,0.909622,0.223372,235.502,4.12315,3.72585,17.537254333496097,22.0009689331055,35.0,22.0,-1086940.0,399.9380000000001,pp-riro,4,0,-1,-1
1570534733.4,2019-10-08,13:38:53.400,14.0,10.0,16.7399997711182,-10.8,15.5,11.9,-27.3,-22.5,146.8,-12.5307,15.9279,11.5159,8.08606,10.01,13.2215,-28.0959,-25.0284,152.816,-0.367942,-0.4371069999999999,-0.5671010000000001,260.1,4.9,52.1701,4.42712,0.7,0.943048,195.422,4.467969999999999,146.066,1.9022,184.775,0.901829,0.231392,235.543,4.03564,3.65682,19.6593704223633,22.0009689331055,35.0,22.0,-1086860.0,1415.17,pp-riro,4,0,-1,-1
1570534733.5,2019-10-08,13:38:53.500,14.0,10.0,16.7399997711182,-9.6,16.0,12.6,-27.1,-25.8,142.3,-12.5307,15.9279,11.5159,8.08606,10.01,13.2215,-28.0959,-25.0284,152.816,-0.367942,-0.4371069999999999,-0.5671010000000001,260.1,4.9,52.1701,4.42712,0.7,0.929196,185.386,4.467969999999999,147.614,0.762217,183.575,0.8935489999999999,0.239257,235.564,3.93849,3.58615,21.772972106933604,22.0009689331055,35.0,22.0,-1086630.0,2614.98,pp-riro,4,0,-1,-1
1570534733.6,2019-10-08,13:38:53.600,14.0,10.0,16.629999160766598,-8.0,16.5,13.2,-26.0,-28.9,137.4,-10.7625,16.765,12.9202,13.4297,5.87032,6.18702,-28.3515,-31.0133,148.014,-0.5323829999999999,-0.339084,-0.809537,260.1,4.9,52.1701,4.42712,0.9,0.905371,178.315,4.46796,149.25,-0.377767,182.275,0.8846860000000001,0.2469599999999999,235.584,3.83991,3.50156,23.8831634521484,22.0009689331055,35.0,22.0,-1086410.0,1753.58,pp-riro,4,0,-1,-1
1570534733.7,2019-10-08,13:38:53.700,14.0,10.0,16.479999542236303,-6.3,16.9,13.9,-24.7,-31.7,131.6,-9.22567,17.4623,13.651,19.5797,10.24,11.9889,-28.1088,-35.1158,143.711,-0.506382,-0.2223409999999999,-0.808491,260.1,4.9,52.1701,4.42712,0.9,0.908695,180.33900000000003,4.46795,150.856,-0.757729,181.075,0.876182,0.249455,235.683,3.73801,3.41805,25.9916534423828,22.0009689331055,35.0,22.0,-1086310.0,984.464,pp-riro,4,0,-1,-1
1570534733.8,2019-10-08,13:38:53.800,14.0,10.0,16.5300006866455,-4.7,17.3,14.7,-22.5,-34.4,125.4,-6.6249,18.3809,15.0182,17.1515,9.46444,10.1232,-26.5714,-40.9178,135.72799999999998,-0.620269,-0.256415,-0.810207,260.1,4.9,52.1701,4.42712,0.9,0.920331,187.882,4.46795,152.52100000000002,-1.5177,179.675,0.866934,0.254391,235.686,3.63232,3.33815,28.0950317382812,22.0009689331055,35.0,22.0,-1086210.0,984.464,pp-riro,4,0,-1,-1
1570534733.9,2019-10-08,13:38:53.900,14.0,10.0,16.5799999237061,-3.0,17.4,15.1,-18.9,-37.0,117.8,-4.81254,18.8419,15.7179,21.8476,1.79103,13.9093,-24.0273,-44.2993,129.168,-0.143811,0.0657385,-0.9046,260.1,4.9,52.1701,4.42712,0.9,0.934737,193.966,4.4679400000000005,154.244,-2.27767,178.375,0.857766,0.259212,235.826,3.51203,3.25992,30.1200714111328,22.0009689331055,35.0,22.0,-1086070.0,1169.05,pp-riro,4,0,-1,-1
1570534734.0,2019-10-08,13:38:54.000,14.0,10.0,16.5799999237061,-1.0,17.4,15.4,-14.8,-39.5,109.4,-2.81986,19.0803,16.2951,25.4943,8.85605,10.001,-20.4116,-48.0483,121.02,-0.350912,-0.249105,-1.08619,262.0,4.6,52.1701,4.42712,0.9,0.935845,194.28,4.4679400000000005,155.938,-2.27761,176.975,0.8484520000000001,0.259057,235.886,3.38979,3.17366,31.792556762695305,22.0009689331055,35.0,22.0,-1085990.0,1568.99,pp-riro,4,0,-1,-1
1570534734.1,2019-10-08,13:38:54.100,14.0,10.0,16.520000457763697,0.9,17.0,15.5,-9.1,-41.0,99.7,-0.5079859999999999,19.091,16.6748,23.1966,1.36342,0.0346289,-15.1687,-51.1736,111.097,-0.20819,-0.234873,-1.31604,262.0,4.6,52.1701,4.42712,0.9,0.935291,192.215,4.46795,157.632,-2.27756,175.575,0.839144,0.258875,235.965,3.25826,3.09182,33.121002197265604,22.0009689331055,23.0044822692871,22.0,-1085820.0,1753.58,pp-riro,4,0,-1,-1
1570534734.2,2019-10-08,13:38:54.200,14.0,10.0,16.5799999237061,3.0,16.9,15.3,-3.4,-41.9,89.9,0.576671,19.0253,16.6416,25.3559,3.38445,-0.0685228,-11.8347,-52.6982,105.483,-0.722154,-0.0409596,-1.25832,262.0,4.6,52.1701,4.42712,0.9,0.928088,194.153,4.46796,159.326,-2.2775,174.275,0.8301280000000001,0.2587239999999999,236.139,3.12965,3.00016,34.084991455078104,22.0009689331055,23.0044822692871,22.0,-1085650.0,1507.46,pp-ro,1,1,-1,-1
1570534734.3,2019-10-08,13:38:54.300,14.0,10.0,16.729999542236303,5.0,16.4,15.3,2.9,-41.7,79.1,1.80971,19.033,16.6519,19.1394,-8.819339999999999,1.64778,-7.77358,-53.0096,99.1684,-0.0972619,0.0823255,-1.4258,262.0,4.6,52.1701,4.42712,0.9,0.955792,207.399,4.467980000000001,160.96200000000002,-1.5174299999999998,172.975,0.8213360000000001,0.253835,236.286,2.99294,2.91536,34.6998291015625,22.0009689331055,23.0044822692871,22.0,-1085540.0,1015.23,pp-ro,1,1,-1,-1
1570534734.4,2019-10-08,13:38:54.400,14.0,11.0,16.9400005340576,7.0,15.7,15.2,9.3,-41.1,68.3,5.469869999999999,18.394,16.6575,19.7703,-4.29097,1.24337,4.60953,-54.5822,78.6844,-0.367544,-0.0340831,-1.37316,262.0,4.6,52.1701,4.42712,0.9,0.962441,210.443,4.468,162.51,-1.13737,171.575,0.8125140000000001,0.2514,236.323,2.85413,2.82654,34.960403442382805,22.0009689331055,23.0044822692871,22.0,-1085470.0,1322.87,pp-ro,1,1,-1,-1
1570534734.5,2019-10-08,13:38:54.500,14.0,11.0,17.25,8.9,14.9,14.5,15.7,-39.3,58.1,7.85916,17.6478,16.4608,22.3962,-1.65347,-3.47012,13.1597,-53.9644,65.168,-0.30787,-0.0889346,-1.31839,262.0,4.6,52.1701,4.42712,0.9,0.965766,213.002,4.468,164.05700000000002,-0.377299,170.275,0.803991,0.246696,236.45,2.71866,2.7354700000000003,34.9110107421875,22.0025119781494,23.0116176605225,22.0,-1085320.0,1415.17,pp-ro,1,1,-1,-1
1570534734.6,2019-10-08,13:38:54.600,14.0,12.0,17.6000003814697,10.7,13.8,13.8,21.1,-36.7,48.3,10.1096,16.6917,15.6181,13.6868,-12.566,-11.03,20.8043,-51.0566,52.4693,-0.474062,-0.142192,-1.4766,262.0,4.6,52.1701,4.42712,1.6,0.970198,213.949,4.468030000000001,165.518,0.38277,168.875,0.7954359999999999,0.242051,236.46400000000003,2.5806400000000003,2.6417,34.44775390625,22.0019989013672,23.0092449188232,22.0,-1085170.0,1661.28,pp-ro,1,1,-1,-1
1570534734.7,2019-10-08,13:38:54.700,14.0,12.0,17.8999996185303,12.2,12.7,13.1,25.6,-34.0,39.8,12.082,15.345999999999998,14.8363,23.1124,-17.8616,-10.0056,26.6078,-48.2155,41.3045,-0.231393,0.0333225,-1.30718,262.0,4.6,52.1701,4.42712,1.6,0.970198,214.071,4.46806,166.89,1.90286,167.675,0.7877109999999999,0.23293,236.582,2.4588400000000004,2.56014,33.6285400390625,22.0025119781494,22.6151542663574,22.0,-1084900.0,1568.99,pp-ro,1,1,-1,-1
1570534734.8,2019-10-08,13:38:54.800,14.0,11.0,18.090000152587898,13.1,11.4,12.0,29.4,-30.4,32.3,14.3268,13.3116,13.0456,9.74426,-10.0787,-12.9496,33.2075,-41.9922,27.5469,-0.408453,0.0562441,-1.29396,262.0,4.6,52.1701,4.42712,1.6,0.961887,204.238,4.46805,168.088,2.66291,166.475,0.780515,0.2284929999999999,236.58900000000003,2.33518,2.48301,32.45166015625,22.0019989013672,21.3267555236816,22.0,-1084710.0,2307.34,pp-ro,1,1,-1,-1
1570534734.9,2019-10-08,13:38:54.900,14.0,9.0,18.2800006866455,14.2,10.2,10.9,31.7,-26.5,25.5,14.3268,13.3116,13.0456,9.74426,-10.0787,-12.9496,33.2075,-41.9922,27.5469,-0.408453,0.0562441,-1.29396,262.0,4.6,52.1701,4.42712,1.6,0.950251,197.764,4.46807,169.25599999999997,3.80298,165.375,0.773674,0.221854,236.666,2.21578,2.39665,30.9137268066406,22.0025119781494,19.8224773406982,22.0,-1084560.0,2707.28,pp-ro,1,1,-1,-1
1570534735.0,2019-10-08,13:38:55.000,14.0,9.0,18.229999542236303,15.0,9.0,9.7,34.2,-22.5,19.6,14.9432,12.6363,12.4914,14.0141,-23.1327,-6.10126,34.1855,-39.1588,23.9653,-0.8280879999999999,0.239564,-1.13446,266.8,4.5,52.1701,4.42712,1.6,0.921993,191.469,4.4680800000000005,170.278,5.703069999999999,164.475,0.767784,0.210825,236.811,2.10692,2.31675,30.0161743164062,22.0025119781494,18.3752403259277,22.0,-1084260.0,1169.05,pp-ro,1,1,-1,-1
1570534735.1,2019-10-08,13:38:55.100,14.0,10.0,18.0799999237061,15.7,7.5,8.7,34.9,-18.8,14.4,16.5069,10.3588,10.2721,10.5041,-23.4944,-11.1179,37.2633,-31.9546,14.152,-0.1060319999999999,0.175921,-1.09383,266.8,4.5,52.1701,4.42712,1.6,0.929196,193.126,4.46811,171.18400000000003,6.84313,163.575,0.762275,0.204338,236.87,2.0053,2.22909,27.9792175292969,22.0019989013672,16.8024921417236,22.0,-1084240.0,338.409,pp-ro,1,1,-1,-1
1570534735.2,2019-10-08,13:38:55.200,14.0,10.0,17.7900009155273,16.2,6.2,7.3,35.9,-15.2,10.3,17.1969,8.60805,8.99158,10.7379,-14.8833,-17.0993,38.2717,-28.1925,9.17202,-0.255432,0.117195,-0.7657970000000001,266.8,4.5,52.1701,4.42712,1.6,0.929196,182.479,4.46813,172.00099999999998,8.36319,162.775,0.757256,0.19567,236.96,1.91844,2.13726,25.877540588378896,22.0019989013672,15.1131353378296,22.0,-1084070.0,2553.45,pp-ro,1,1,-1,-1
1570534735.3,2019-10-08,13:38:55.300,14.0,11.0,17.5400009155273,16.4,5.3,6.2,35.8,-12.1,7.5,17.1969,8.60805,8.99158,10.7379,-14.8833,-17.0993,38.2717,-28.1925,9.17202,-0.255432,0.117195,-0.7657970000000001,266.8,4.5,52.1701,4.42712,1.6,0.89041,164.706,4.46816,172.702,10.2633,162.075,0.752785,0.184872,237.065,1.85397,2.07248,23.2478942871094,22.0009689331055,13.9313507080078,22.0,-1083760.0,2799.57,pp-ro,1,1,-1,-1
1570534735.4,2019-10-08,13:38:55.400,14.0,11.0,17.1800003051758,16.9,4.6,5.4,36.8,-9.7,4.5,17.382,7.7774,8.170819999999999,2.91397,-17.2233,-14.0918,38.2318,-26.0334,7.433269999999999,-0.304576,0.196417,-0.895117,266.8,4.5,52.1701,4.42712,1.6,0.8782209999999999,166.075,4.46818,173.28599999999997,11.7833,161.575,0.7492880000000001,0.176322,237.22,1.79398,2.01424,21.1462173461914,22.0009689331055,12.860221862793,22.0,-1083610.0,184.587,pp-ro,1,1,-1,-1
1570534735.5,2019-10-08,13:38:55.500,14.0,10.0,16.3999996185303,17.2,4.1,4.8,37.3,-7.0,1.6,17.6199,6.36228,6.720460000000001,-3.1287,-12.3042,-10.1541,38.5918,-21.6028,4.23462,0.333389,0.299103,-0.715824,266.8,4.5,52.1701,4.42712,1.6,0.889302,168.263,4.46821,173.87,13.6834,160.975,0.745367,0.165642,237.342,1.73259,1.97588,19.0564575195312,22.0009689331055,12.196904182434098,22.0,-1083600.0,153.822,pp-ro,1,1,-1,-1
1570534735.6,2019-10-08,13:38:55.600,14.0,10.0,16.3999996185303,17.3,3.6,4.1,38.1,-4.9,-1.7,18.4291,3.96716,4.27715,-2.54415,-10.425,-1.3066799999999998,38.8917,-10.7431,-4.65771,-0.176885,0.146879,-0.595758,266.8,4.5,52.1701,4.42712,2.1,0.888194,164.752,4.46824,174.338,15.2034,160.475,0.7421300000000001,0.157167,237.438,1.67251,1.93555,17.5832366943359,22.0009689331055,11.483708381652802,22.0,-1083450.0,1876.63,pp-ro,1,1,-1,-1
1570534735.7,2019-10-08,13:38:55.700,14.0,9.0,16.020000457763697,17.1,3.1,3.4,38.8,-2.7,-4.7,18.4291,3.96716,4.27715,-2.54415,-10.425,-1.3066799999999998,38.8917,-10.7431,-4.65771,-0.176885,0.146879,-0.595758,266.8,4.5,52.1701,4.42712,2.1,0.859936,146.861,4.46826,174.74599999999998,17.1035,159.975,0.738923,0.146576,237.531,1.61609,1.90011,15.8170852661133,22.0009689331055,10.8591527938843,22.0,-1083210.0,1692.05,pp-ro,1,1,-1,-1
1570534735.8,2019-10-08,13:38:55.800,14.0,9.0,15.6800003051758,17.1,2.7,2.8,39.8,-1.1,-7.3,18.2738,3.3868400000000003,3.4067800000000004,-4.47767,-12.3819,-9.45139,39.4755,-7.965310000000001,-7.66189,0.259984,0.0087287,-0.594735,266.8,4.5,52.1701,4.42712,2.1,0.8471920000000001,141.143,4.4682900000000005,175.097,18.6235,159.575,0.7362529999999999,0.13814,237.634,1.57062,1.86645,14.6299896240234,22.0009689331055,10.2635831832886,22.0,-1083120.0,1661.28,pp-ro,1,1,-1,-1
1570534735.9,2019-10-08,13:38:55.900,14.0,9.0,15.3400001525879,17.2,2.4,2.3,40.8,0.5,-9.8,18.0173,2.65415,2.48124,3.96483,-0.0295777,-7.8051,41.2597,-4.1173,-11.7578,-0.0763236,0.100101,-0.6087,266.8,4.5,52.1701,4.42712,2.1,0.834448,134.92600000000002,4.46831,175.447,20.5236,159.175,0.733427,0.127629,237.781,1.52775,1.84032,12.909820556640598,22.0009689331055,9.81953716278076,22.0,-1082980.0,1384.4,pp-ro,1,1,-1,-1
1570534736.0,2019-10-08,13:38:56.000,14.0,8.0,15.0,17.1,1.9,1.9,41.9,2.3,-11.8,18.0173,2.65415,2.48124,3.96483,-0.0295777,-7.8051,41.2597,-4.1173,-11.7578,-0.0763236,0.100101,-0.6087,267.8,4.5,52.1701,4.42712,2.1,0.831678,139.275,4.46833,175.71,22.4237,158.875,0.731108,0.117128,237.946,1.48812,1.81227,11.768707275390598,22.0009689331055,9.31882572174072,22.0,-1082920.0,215.351,pp-ro,1,1,-1,-1
1570534736.1,2019-10-08,13:38:56.100,14.0,8.0,14.6999998092651,17.0,1.4,1.7,43.0,4.0,-13.7,17.9226,1.59861,1.64995,-4.922619999999999,-4.23648,0.4656869999999999,43.1182,1.10136,-15.5731,0.354106,0.138393,-0.490385,267.8,4.5,52.1701,4.42712,2.1,0.8494079999999999,140.009,4.46835,175.885,24.3237,158.575,0.7289800000000001,0.106619,238.062,1.45098,1.79195,10.603759765625,22.0009689331055,8.96893310546875,22.0,-1082850.0,1138.29,pp-ro,1,1,-1,-1
1570534736.2,2019-10-08,13:38:56.200,14.0,8.0,14.460000038147,16.9,1.1,1.3,44.1,5.1,-15.7,17.7836,1.34741,1.51201,-3.5119800000000003,-4.05492,-4.45329,43.5792,1.97981,-16.6233,0.346083,-0.0142314,-0.4492319999999999,267.8,4.5,52.1701,4.42712,2.1,0.830015,134.803,4.468369999999999,176.06,25.8438,158.375,0.72727,0.0982831,238.218,1.41901,1.76902,9.77774047851562,22.0009689331055,8.56044578552246,22.0,-1082690.0,1292.11,pp-ro,1,1,-1,-1
1570534736.3,2019-10-08,13:38:56.300,14.0,8.0,14.3999996185303,16.7,0.8,1.1,45.3,6.0,-16.8,17.5044,0.743192,1.10797,-4.32627,-4.57245,-4.5107,45.1039,4.1535400000000005,-19.0699,0.1050079999999999,0.0623525,-0.353986,267.8,4.5,52.1701,4.42712,2.1,0.830015,136.115,4.46839,176.17700000000002,27.7438,158.075,0.72521,0.0878093,238.319,1.40157,1.75619,9.44903564453125,22.0009689331055,8.36761569976807,22.0,-1082660.0,584.525,pp-ro,1,1,-1,-1
1570534736.4,2019-10-08,13:38:56.400,14.0,8.0,14.3999996185303,16.8,0.2,0.8,46.4,6.6,-18.3,17.3789,0.576699,1.01457,-1.40104,-4.5961300000000005,-4.78204,45.6903,4.871,-19.802,0.104126,-0.00326011,-0.341727,267.8,4.5,52.1701,4.42712,2.1,0.8433129999999999,143.887,4.4684,176.265,29.2638,157.875,0.7236670000000001,0.0794378999999999,238.433,1.38194,1.72388,8.88700103759766,22.0009689331055,7.77152061462402,22.0,-1082650.0,30.7645,pp-ro,1,1,-1,-1
1570534736.5,2019-10-08,13:38:56.500,14.0,9.0,14.3400001525879,16.8,-0.3,0.6,47.7,7.1,-19.4,17.303,-0.289732,0.630208,-0.187804,-5.71813,-2.10235,47.3205,6.36535,-21.7155,0.257378,-0.0398190999999999,-0.19004,267.8,4.5,52.1701,4.42712,2.1,0.856611,149.22299999999998,4.46842,176.265,31.1639,157.675,0.7221479999999999,0.0689723,238.541,1.36971,1.7019,8.38967895507812,22.0009689331055,7.37778377532959,22.0,-1082590.0,799.877,pp-ro,1,1,-1,-1
1570534736.6,2019-10-08,13:38:56.600,14.0,10.0,14.2700004577637,16.6,-0.7,0.5,48.5,7.3,-20.4,17.2209,-0.5998359999999999,0.569691,-2.24981,-3.58956,-1.30343,47.8062,6.53982,-22.2037,0.206116,-0.1461869999999999,-0.220478,267.8,4.5,52.1701,4.42711,2.4,0.85772,150.236,4.46844,176.206,32.6839,157.475,0.7209270000000001,0.0605540999999999,238.569,1.36114,1.68697,7.88555145263672,22.0009689331055,7.120089530944821,22.0,-1082500.0,984.464,pp-ro,1,1,-1,-1
1570534736.7,2019-10-08,13:38:56.700,14.0,9.0,14.1499996185303,16.3,-1.0,0.4,49.2,7.1,-21.5,17.0392,-1.06129,0.463949,-6.39044,-6.33408,-0.110793,48.7771,6.817410000000001,-23.0171,0.1221859999999999,-0.1381599999999999,-0.147832,267.8,4.5,52.1701,4.42711,2.4,0.85772,149.468,4.468459999999999,176.118,34.584,157.275,0.71955,0.0500279999999999,238.64,1.35798,1.67691,7.44954681396484,22.0009689331055,6.9668493270874,22.0,-1082410.0,892.17,pp-ro,1,1,-1,-1
1570534736.8,2019-10-08,13:38:56.800,14.0,10.0,14.0299997329712,16.2,-1.3,0.3,49.9,7.1,-22.3,16.7938,-1.34276,0.298638,-2.8026,-2.00519,1.43582,49.6466,6.96553,-24.1109,0.238536,-0.139756,-0.0512841,267.8,4.5,52.1701,4.42711,2.4,0.8521790000000001,145.52700000000002,4.4684800000000005,176.002,36.104,157.175,0.718726,0.0415821999999999,238.713,1.35433,1.6654099999999998,7.19066619873047,22.0009689331055,6.76356935501099,22.0,-1082240.0,1230.58,pp-ro,1,1,-1,-1
1570534736.9,2019-10-08,13:38:56.900,14.0,10.0,13.8999996185303,16.2,-1.6,0.1,50.1,7.4,-23.0,16.7938,-1.34276,0.298638,-2.8026,-2.00519,1.43582,49.6466,6.96553,-24.1109,0.238536,-0.139756,-0.0512841,267.8,4.5,52.1701,4.42711,2.4,0.8483,144.722,4.4685,175.855,37.624,157.075,0.7179449999999999,0.0331203,238.775,1.34797,1.64949,6.85684967041016,22.0009689331055,6.47274351119995,22.0,-1082180.0,1169.05,pp-ro,1,1,-1,-1
1570534737.0,2019-10-08,13:38:57.000,14.0,9.0,13.960000038147,16.1,-1.9,0.2,50.2,7.3,-24.3,16.6683,-1.75062,0.2477099999999999,-0.665975,-3.2877300000000003,-3.30036,50.2532,7.13018,-24.9171,-0.0634148,-0.0731442,-0.1415,267.2,5.6,52.1701,4.42711,2.4,0.8505159999999999,146.571,4.46852,175.622,39.5241,156.975,0.717137,0.0225085,238.844,1.34124,1.64852,6.59456634521484,22.0009689331055,6.48236846923828,22.0,-1082070.0,738.3480000000001,pp-ro,1,1,-1,-1
1570534737.1,2019-10-08,13:38:57.100,14.0,9.0,13.960000038147,16.1,-2.5,0.0,50.5,7.0,-25.6,16.6683,-1.75062,0.2477099999999999,-0.665975,-3.2877300000000003,-3.30036,50.2532,7.13018,-24.9171,-0.0634148,-0.0731442,-0.1415,267.2,5.6,52.1701,4.42711,2.4,0.858828,153.148,4.46859,175.388,41.0441,156.875,0.716513,0.013913,238.863,1.33567,1.62065,6.43788146972656,22.0009689331055,5.9507884979248,22.0,-1082010.0,492.232,pp-ro,1,1,-1,-1
1570534737.2,2019-10-08,13:38:57.200,14.0,9.0,14.0900001525879,16.0,-2.7,0.1,50.4,6.9,-26.9,16.6683,-1.75062,0.2477099999999999,-0.665975,-3.2877300000000003,-3.30036,50.2532,7.13018,-24.9171,-0.0634148,-0.0731442,-0.1415,267.2,5.6,52.1701,4.42711,2.4,0.865477,155.931,4.46868,175.09599999999998,42.9441,156.675,0.715445,0.00319741,238.851,1.32895,1.6236,6.414031982421879,22.0009689331055,6.06543731689453,22.0,-1081990.0,399.9380000000001,pp-ro,1,1,-1,-1
1570534737.3,2019-10-08,13:38:57.300,14.0,7.0,14.210000038147,15.9,-2.9,0.1,50.3,7.0,-28.3,16.6678,-3.03553,0.0288921,1.58215,-2.91174,-2.40519,50.9341,6.754510000000001,-28.6136,-0.114413,-0.213621,-0.14787,267.2,5.6,52.1701,4.42711,2.4,0.8704629999999999,154.836,4.46875,174.833,44.4642,156.575,0.7148180000000001,-0.00540431,238.871,1.31701,1.6205,6.28800201416016,22.0009689331055,6.03824234008789,22.0,-1081900.0,1107.52,pp-ro,1,1,-1,-1
1570534737.4,2019-10-08,13:38:57.400,14.0,8.0,14.5200004577637,15.8,-3.0,0.1,50.2,7.1,-28.9,16.6725,-3.2608,0.0679249,-0.78127,-0.931548,3.23022,51.0112,6.910010000000001,-29.6679,0.0408657,-0.0675909,-0.259718,267.2,5.6,52.1701,4.42711,2.4,0.8532870000000001,145.41899999999998,4.4688300000000005,174.687,45.6042,156.575,0.714426,-0.0118012,238.979,1.31295,1.6199,6.00186920166016,22.0009689331055,6.0501213073730495,22.0,-1081690.0,1322.87,pp-ro,1,1,-1,-1
1570534737.5,2019-10-08,13:38:57.500,14.0,8.0,14.8199996948242,15.6,-3.3,0.0,49.7,7.4,-29.9,16.413,-3.65474,0.0251586,-5.2407900000000005,-2.461,-2.72427,50.5341,7.42783,-31.5746,-0.0494493,-0.0607399,-0.155478,267.2,5.6,52.1701,4.42711,2.4,0.841651,138.414,4.46891,174.366,46.7442,156.475,0.714162,-0.0184393,238.899,1.30174,1.60583,6.01720428466797,22.0009689331055,5.78611612319946,22.0,-1081560.0,1292.11,pp-ro,1,1,-1,-1
1570534737.6,2019-10-08,13:38:57.600,14.0,7.0,14.9899997711182,15.3,-3.5,0.0,48.9,7.5,-31.0,16.116,-3.95467,-0.0141407999999999,-5.13408,-2.05691,-1.01304,50.1712,7.7205,-32.6774,-0.00861236,-0.160644,-0.130424,267.2,5.6,52.1701,4.42711,2.6,0.83334,134.64700000000002,4.46898,173.84,49.4042,156.275,0.712978,-0.0334883,238.921,1.29771,1.60483,6.024017333984379,22.0009689331055,5.855418205261231,22.0,-1081500.0,1199.82,pp-ro,1,1,-1,-1
1570534737.7,2019-10-08,13:38:57.700,14.0,7.0,14.9899997711182,15.0,-3.6,-0.1,48.9,7.5,-31.4,16.116,-3.95467,-0.0141407999999999,-5.13408,-2.05691,-1.01304,50.1712,7.7205,-32.6774,-0.00861236,-0.160644,-0.130424,267.2,5.6,52.1701,4.42711,2.6,0.8250290000000001,129.181,4.46906,173.635,50.1642,156.275,0.712943,-0.0379202,238.93,1.29594,1.5958,5.85540771484375,22.0009689331055,5.68184089660645,22.0,-1081400.0,1045.99,pp-ro,1,1,-1,-1
1570534737.8,2019-10-08,13:38:57.800,14.0,8.0,15.0500001907349,14.7,-3.7,-0.1,48.3,7.3,-31.9,16.116,-3.95467,-0.0141407999999999,-5.13408,-2.05691,-1.01304,50.1712,7.7205,-32.6774,-0.00861236,-0.160644,-0.130424,267.2,5.6,52.1701,4.42711,2.6,0.815609,124.495,4.46914,173.285,51.3043,156.175,0.712671,-0.0445966999999999,238.852,1.29711,1.5928,5.76002502441406,22.0009689331055,5.65015649795532,22.0,-1081290.0,1045.99,pp-ro,1,1,-1,-1
1570534737.9,2019-10-08,13:38:57.900,14.0,8.0,14.9899997711182,14.5,-3.7,-0.1,47.6,7.2,-32.2,15.7101,-4.03724,-0.0982666,-2.30926,0.566318,-2.77692,49.5537,7.83018,-33.6986,-0.1572069999999999,-0.133715,-0.0656252,267.2,5.6,52.1701,4.42711,2.6,0.8067439999999999,119.622,4.46922,172.87599999999998,53.2043,156.175,0.71224,-0.0553888,238.972,1.30216,1.59759,5.809417724609379,22.0009689331055,5.79733037948608,22.0,-1081200.0,799.877,pp-ro,1,1,-1,-1
1570534738.0,2019-10-08,13:38:58.000,14.0,8.0,14.9899997711182,14.3,-3.7,0.0,47.2,7.5,-32.5,14.938,-4.28305,-0.105164,-1.60618,-1.27441,-0.19919,48.1443,8.24591,-35.0622,-0.146464,-0.0293579,-0.118445,262.9,5.5,52.1701,4.42711,2.6,0.802311,117.086,4.46929,172.49599999999998,54.3443,156.175,0.712305,-0.0621088,238.954,1.29923,1.60481,5.67827606201172,22.0009689331055,5.95229721069336,22.0,-1081120.0,430.703,pp-ro,1,1,-1,-1
1570534738.1,2019-10-08,13:38:58.100,14.0,9.0,14.9399995803833,14.2,-3.7,0.0,46.7,8.0,-32.9,14.938,-4.28305,-0.105164,-1.60618,-1.27441,-0.19919,48.1443,8.24591,-35.0622,-0.146464,-0.0293579,-0.118445,262.9,5.5,52.1701,4.42711,2.6,0.797325,113.65,4.46939,172.116,55.8643,156.075,0.711711,-0.0708438,238.965,1.29395,1.60932,5.77876281738281,22.0009689331055,6.11275243759155,22.0,-1081030.0,984.464,pp-ro,1,1,-1,-1
1570534738.2,2019-10-08,13:38:58.200,14.0,9.0,14.8199996948242,14.1,-3.5,0.0,46.5,8.5,-33.7,14.8064,-4.26385,-0.0189494,-1.18542,-0.5440550000000001,-1.67636,47.5881,8.73498,-35.809,0.0326873,-0.0438278,-0.122405,262.9,5.5,52.1701,4.42711,2.6,0.792338,114.042,4.4694400000000005,171.737,57.3844,156.075,0.7113970000000001,-0.0795289,239.052,1.28394,1.62255,5.94737243652344,22.0009689331055,6.431762218475339,22.0,-1080990.0,830.6410000000001,pp-ro,1,1,-1,-1
1570534738.3,2019-10-08,13:38:58.300,14.0,9.0,14.8199996948242,14.1,-3.7,0.0,46.2,9.3,-34.4,14.8064,-4.26385,-0.0189494,-1.18542,-0.5440550000000001,-1.67636,47.5881,8.73498,-35.809,0.0326873,-0.0438278,-0.122405,262.9,5.5,52.1701,4.42711,2.6,0.8017569999999999,122.612,4.46951,171.357,58.9044,156.075,0.711047,-0.0881856999999999,239.149,1.27125,1.61945,6.21646881103516,22.0009689331055,6.43356990814209,22.0,-1080990.0,-246.116,pp-ro,1,1,-1,-1
1570534738.4,2019-10-08,13:38:58.400,14.0,9.0,14.8199996948242,14.0,-4.0,0.0,45.8,9.9,-35.4,14.7789,-4.3254,0.0194693,0.6672640000000001,-1.15054,1.05915,47.0011,9.66445,-37.2625,0.0278338999999999,-0.0300408,-0.178034,262.9,5.5,52.1701,4.42711,2.6,0.8233659999999999,128.467,4.46959,170.977,60.4244,156.076,0.710661,-0.0969027,239.257,1.2576200000000002,1.61088,6.42084503173828,22.0009689331055,6.33625268936157,22.0,-1081000.0,153.822,pp-ro,1,1,-1,-1
1570534738.5,2019-10-08,13:38:58.500,14.0,10.0,14.7600002288818,13.8,-4.1,-0.1,45.4,10.3,-36.3,14.7466,-4.51212,0.0531391999999999,0.831289,-3.85227,2.16682,46.9292,9.94576,-37.6813,0.0860638999999999,-0.0908229,-0.169846,262.9,5.5,52.1701,4.42711,2.6,0.814501,120.305,4.46966,170.53900000000002,61.5644,155.976,0.7104229999999999,-0.103709,239.17,1.24646,1.60315,6.38337707519531,22.0009689331055,6.239120960235599,22.0,-1080880.0,1384.4,pp-ro,1,1,-1,-1
1570534738.6,2019-10-08,13:38:58.600,14.0,10.0,14.5200004577637,13.7,-4.1,-0.3,45.5,10.2,-37.1,14.7466,-4.51212,0.0531391999999999,0.831289,-3.85227,2.16682,46.9292,9.94576,-37.6813,0.0860638999999999,-0.0908229,-0.169846,262.9,5.5,52.1701,4.42711,2.7,0.795108,120.75,4.46973,170.13,62.7044,155.976,0.7104060000000001,-0.1104609999999999,239.175,1.24282,1.59556,6.33058166503906,22.0009689331055,6.1300358772277805,22.0,-1080750.0,0.0,pp-ro,1,1,-1,-1
1570534738.7,2019-10-08,13:38:58.700,14.0,10.0,14.3400001525879,13.7,-4.3,-0.4,45.3,10.2,-38.1,14.7466,-4.51212,0.0531391999999999,0.831289,-3.85227,2.16682,46.9292,9.94576,-37.6813,0.0860638999999999,-0.0908229,-0.169846,262.9,5.5,52.1701,4.42711,2.7,0.8250290000000001,133.923,4.4698,169.66299999999998,64.6045,155.976,0.709782,-0.121245,239.348,1.23831,1.58858,6.201141357421879,22.0009689331055,6.121954441070559,22.0,-1080810.0,-492.232,pp-ro,1,1,-1,-1
1570534738.8,2019-10-08,13:38:58.800,14.0,9.0,14.2700004577637,13.7,-4.6,-0.5,45.1,10.9,-39.0,14.7466,-4.51212,0.0531391999999999,0.831289,-3.85227,2.16682,46.9292,9.94576,-37.6813,0.0860638999999999,-0.0908229,-0.169846,262.9,5.5,52.1701,4.42711,2.7,0.839989,138.54,4.46988,169.195,65.7445,155.976,0.709855,-0.128103,239.328,1.22331,1.57497,6.15345001220703,22.0009689331055,5.89753198623657,22.0,-1080770.0,861.4060000000001,pp-ro,1,1,-1,-1
1570534738.9,2019-10-08,13:38:58.900,14.0,9.0,14.5200004577637,13.5,-4.7,-0.5,45.3,11.2,-40.0,14.273,-5.404319999999999,-0.424941,-1.90078,-1.91753,-0.955183,46.1463,11.2517,-41.8895,-0.0488643,0.00094134,-0.164371,262.9,5.5,52.1701,4.42711,2.7,0.837218,136.56799999999998,4.46995,168.699,67.2645,156.076,0.709914,-0.136967,239.465,1.2136,1.57319,6.0853271484375,22.0009689331055,5.9342327117919895,22.0,-1080710.0,1076.76,pp-ro,1,1,-1,-1
1570534739.0,2019-10-08,13:38:59.000,14.0,8.0,14.5799999237061,13.1,-4.8,-0.7,45.0,11.2,-41.2,14.273,-5.404319999999999,-0.424941,-1.90078,-1.91753,-0.955183,46.1463,11.2517,-41.8895,-0.0488643,0.00094134,-0.164371,261.2,5.9,52.1701,4.42711,2.7,0.826691,131.113,4.47002,168.231,68.4045,156.076,0.709935,-0.143825,239.459,1.20394,1.55553,5.87924957275391,22.0009689331055,5.64550924301147,22.0,-1080610.0,1015.23,pp-ro,1,1,-1,-1
1570534739.1,2019-10-08,13:38:59.100,14.0,6.0,14.640000343322802,12.9,-4.9,-1.0,45.1,11.5,-41.8,14.273,-5.404319999999999,-0.424941,-1.90078,-1.91753,-0.955183,46.1463,11.2517,-41.8895,-0.0488643,0.00094134,-0.164371,261.2,5.9,52.1701,4.42711,2.7,0.822258,128.536,4.4701,167.735,69.9245,156.17600000000002,0.7099270000000001,-0.1526809999999999,239.615,1.19898,1.53666,5.86732482910156,22.0009689331055,5.36410665512085,22.0,-1080510.0,1015.23,pp-ro,1,1,-1,-1
1570534739.2,2019-10-08,13:38:59.200,14.0,7.0,14.5200004577637,12.5,-4.9,-0.8,45.3,11.8,-42.3,14.273,-5.404319999999999,-0.424941,-1.90078,-1.91753,-0.955183,46.1463,11.2517,-41.8895,-0.0488643,0.00094134,-0.164371,261.2,5.9,52.1701,4.42711,2.7,0.81838,127.588,4.47018,167.209,71.0645,156.276,0.710358,-0.159626,239.648,1.1939,1.54406,5.83837127685547,22.0009689331055,5.548773288726809,22.0,-1080430.0,707.5830000000001,pp-ro,1,1,-1,-1
1570534739.3,2019-10-08,13:38:59.300,14.0,7.0,14.3400001525879,12.3,-4.8,-0.8,45.3,11.7,-42.9,14.273,-5.404319999999999,-0.424941,-1.90078,-1.91753,-0.955183,46.1463,11.2517,-41.8895,-0.0488643,0.00094134,-0.164371,261.2,5.9,52.1701,4.42711,2.7,0.811177,117.327,4.47026,166.683,72.5846,156.376,0.710354,-0.168571,239.802,1.19404,1.55003,5.46367645263672,22.0009689331055,5.78423404693604,22.0,-1080340.0,1107.52,pp-ro,1,1,-1,-1
1570534739.4,2019-10-08,13:38:59.400,14.0,8.0,14.210000038147,12.1,-4.6,-0.8,45.5,11.9,-43.4,12.9457,-5.67734,-0.875223,-5.11437,-2.07674,0.506414,46.2076,12.7078,-45.3128,0.0208995999999999,0.0145165,-0.0727531,261.2,5.9,52.1701,4.42711,2.7,0.774053,103.251,4.47034,166.187,73.3446,156.476,0.7110770000000001,-0.173578,239.754,1.1888299999999998,1.5581,5.37682342529297,22.0009689331055,5.93479204177856,22.0,-1080140.0,769.112,pp-ro,1,1,-1,-1
1570534739.5,2019-10-08,13:38:59.500,14.0,9.0,13.8999996185303,12.0,-4.6,-0.9,45.6,12.5,-43.9,12.9457,-5.67734,-0.875223,-5.11437,-2.07674,0.506414,46.2076,12.7078,-45.3128,0.0208995999999999,0.0145165,-0.0727531,261.2,5.9,52.1701,4.42711,2.7,0.7607550000000001,108.699,4.47042,165.74900000000002,74.8646,156.576,0.710796,-0.182275,239.986,1.1812200000000002,1.55564,5.58971405029297,22.0009689331055,6.049200057983401,22.0,-1080030.0,953.699,pp-ro,1,1,-1,-1
1570534739.6,2019-10-08,13:38:59.600,14.0,9.0,13.7700004577637,12.0,-4.8,-0.8,45.6,12.8,-44.7,12.9457,-5.67734,-0.875223,-5.11437,-2.07674,0.506414,46.2076,12.7078,-45.3128,0.0208995999999999,0.0145165,-0.0727531,261.2,5.9,52.1701,4.42712,2.9,0.761309,114.683,4.4705,165.22299999999998,76.0046,156.67600000000002,0.7111270000000001,-0.189218,240.047,1.17258,1.55692,5.95588684082031,22.0009689331055,-35.0,22.0,-1080020.0,276.88,pp-ro,1,1,-1,-1
1570534739.7,2019-10-08,13:38:59.700,14.0,9.0,13.8400001525879,11.8,-5.0,-1.0,45.9,12.8,-45.2,12.9457,-5.67734,-0.875223,-5.11437,-2.07674,0.506414,46.2076,12.7078,-45.3128,0.0208995999999999,0.0145165,-0.0727531,261.2,5.9,52.1701,4.42712,2.9,0.8006489999999999,128.389,4.47058,164.697,77.1446,156.876,0.711749,-0.19624,240.18,1.17127,1.53603,6.06318664550781,22.0009689331055,-35.0,22.0,-1080160.0,-2215.04,pp-ro,1,1,-1,-1
1570534739.8,2019-10-08,13:38:59.800,14.0,10.0,13.960000038147,11.8,-5.1,-1.1,45.9,12.9,-45.6,12.1751,-5.79081,-0.968208,-2.14787,-4.116140000000001,-2.73726,46.7267,13.3695,-48.4705,0.0625278,0.00933651,-0.0247135,261.2,5.9,52.1701,4.42712,2.9,0.8444219999999999,136.19899999999998,4.47066,164.171,78.6646,156.976,0.711587,-0.205105,240.378,1.17127,1.53137,5.83496856689453,22.0009689331055,-35.0,22.0,-1080190.0,1045.99,pp-ro,1,1,-1,-1
1570534739.9,2019-10-08,13:38:59.900,14.0,13.0,14.0299997329712,11.7,-5.4,-1.2,46.2,12.7,-46.0,12.1654,-5.8272,-1.0035,1.1610200000000002,-0.0447963,0.943646,46.8342,13.6055,-48.6257,-0.1194119999999999,-0.0439745,-0.2379389999999999,261.2,5.9,52.1701,4.42712,2.9,0.826691,135.251,4.4707300000000005,163.616,79.4246,157.076,0.712363,-0.210232,240.315,1.1724,1.51313,5.221832275390621,22.0009689331055,-35.0,22.0,-1080040.0,830.6410000000001,pp-ro,1,1,-1,-1
1570534740.0,2019-10-08,13:39:00.000,14.0,12.0,13.9700002670288,11.7,-5.5,-1.2,46.0,12.5,-46.6,12.0657,-6.01663,-1.1463,1.5166,-0.226883,1.13893,47.0078,13.9442,-48.8363,0.0698343,-0.0251887,-0.0856572,260.2,5.1,52.1701,4.42712,2.9,0.833894,135.871,4.47081,163.061,80.5646,157.276,0.7129850000000001,-0.217282,240.448,1.17244,1.51337,4.530357360839839,22.0009689331055,-35.0,22.0,-1079950.0,1169.05,pp-ro,1,1,-1,-1
1570534740.1,2019-10-08,13:39:00.100,14.0,13.0,13.8400001525879,11.7,-5.6,-1.3,46.2,12.4,-47.3,12.0109,-6.23597,-1.18093,-3.97144,-2.88661,-0.795687,46.9175,14.0595,-49.2495,0.0901039,-0.0544783999999999,0.0536933,260.2,5.1,52.1701,4.42712,2.9,0.83334,137.06799999999998,4.4709,162.477,82.0847,157.376,0.712873,-0.226319,240.632,1.17143,1.50904,3.29727935791016,22.0009689331055,-35.0,22.0,-1079910.0,830.6410000000001,pp-ro,1,1,-1,-1
1570534740.2,2019-10-08,13:39:00.200,14.0,10.0,13.7799997329712,11.7,-5.7,-1.2,46.2,12.1,-47.8,12.0109,-6.23597,-1.18093,-3.97144,-2.88661,-0.795687,46.9175,14.0595,-49.2495,0.0901039,-0.0544783999999999,0.0536933,260.2,5.1,52.1701,4.42712,2.9,0.841651,140.41,4.4709900000000005,161.893,83.2247,157.576,0.7135090000000001,-0.2334449999999999,240.761,1.17395,1.5152,1.70484924316406,22.0009689331055,-35.0,22.0,-1079830.0,522.996,pp-ro,1,1,-1,-1
1570534740.3,2019-10-08,13:39:00.300,14.0,9.0,13.710000038147,11.7,-5.8,-0.9,46.2,11.4,-48.7,11.9516,-6.39731,-1.16638,-1.7934599999999998,-2.8216900000000003,2.18338,47.1882,14.0974,-49.9527,0.103814,-0.0141757999999999,-0.0592639,260.2,5.1,52.1701,4.42712,2.9,0.836664,133.635,4.471080000000001,161.28,83.9847,157.67600000000002,0.7143550000000001,-0.2387929999999999,240.679,1.17539,1.53176,-0.228706359863281,22.0009689331055,-35.0,22.0,-1079720.0,1292.11,pp-ro,1,1,-1,-1
