time,date,time_of_day,airspeed_temperature,airspeed_angle_of_attack,airspeed_apparent_windspeed,kite_0_vx,kite_0_vy,kite_0_vz,kite_0_roll,kite_0_pitch,kite_0_yaw,kite_1_vx,kite_1_vy,kite_1_vz,kite_1_ax,kite_1_ay,kite_1_az,kite_1_roll,kite_1_pitch,kite_1_yaw,kite_1_roll_rate,kite_1_pitch_rate,kite_1_yaw_rate,ground_upwind_direction,ground_wind_velocity,ground_pos_latitude,ground_pos_longitude,ground_pos_altitude,ground_tether_reelout_speed,ground_tether_force,est_upwind_direction,kite_pos_east,kite_pos_north,kite_height,kite_elevation,kite_azimuth,kite_distance,kite_heading,kite_course,kite_actual_steering,kite_actual_depower,kite_set_steering,kite_set_depower,ground_mech_energy,ground_mech_power,flight_phase,flight_phase_index,phase,pattern,pattern_section
1570541452.7,2019-10-08,15:30:52.700,14.0,8.0,15.6499996185303,8.5,-4.6,1.9,17.6,0.6,-80.7,7.54327,-3.66555,2.34297,12.2877,7.305339999999999,4.47984,18.2717,13.8878,-83.0282,0.123125,0.2235619999999999,0.820609,246.9,8.7,52.1701,4.427230000000001,-4.8,-2.2324,108.637,4.24325,66.1258,20.1412,239.777,1.2901200000000002,0.173473,249.542,0.4726359999999999,1.4321,-33.966552734375,22.0576114654541,-35.0,22.0,1570530.0,1476.7,pp-riro,4,0,-1,-1
1570541452.8,2019-10-08,15:30:52.800,14.0,8.0,15.4200000762939,9.8,-4.0,2.3,19.5,-1.0,-75.8,8.627360000000001,-3.05849,2.59583,12.3197,6.30722,3.4350400000000003,20.4308,13.2187,-77.3233,0.138865,0.217528,0.868917,246.9,8.7,52.1701,4.427230000000001,-4.8,-2.1914,105.516,4.24328,65.6584,21.2812,239.577,1.2903,0.155671,249.321,0.582122,1.55979,-34.6304779052734,22.0267143249512,-35.0,22.0,1570220.0,-2184.28,pp-riro,4,0,-1,-1
1570541452.9,2019-10-08,15:30:52.900,14.0,8.0,15.1899995803833,10.9,-3.4,2.6,21.3,-2.4,-71.0,9.19096,-2.80087,2.79331,11.5009,4.8579300000000005,1.45896,21.5209,12.7552,-74.5897,-0.0223407,0.2057449999999999,0.8777219999999999,246.9,8.7,52.1701,4.427230000000001,-4.8,-2.17533,105.509,4.24331,65.2787,22.0412,239.477,1.29065,0.14345,249.192,0.684072,1.65593,-34.9445190429688,22.007661819458,-35.0,22.0,1570140.0,-1445.93,pp-riro,4,0,-1,-1
1570541453.0,2019-10-08,15:30:53.000,14.0,8.0,14.8299999237061,12.0,-2.6,3.0,23.1,-3.7,-65.9,10.2366,-2.0788,3.09423,10.0538,7.681780000000001,2.72408,23.4072,11.5483,-68.90899999999999,0.255338,0.184723,0.990701,246.9,8.7,52.1701,4.427230000000001,-4.8,-2.16037,105.293,4.24334,64.9574,22.8013,239.277,1.29065,0.131468,248.984,0.7910550000000001,1.75669,-34.968414306640604,22.0009689331055,-35.0,22.0,1569960.0,-2307.34,pp-riro,4,0,-1,-1
1570541453.1,2019-10-08,15:30:53.100,14.0,9.0,14.6499996185303,13.0,-1.8,3.3,24.9,-5.7,-60.5,10.2366,-2.0788,3.09423,10.0538,7.681780000000001,2.72408,23.4072,11.5483,-68.90899999999999,0.255338,0.184723,0.990701,246.9,8.7,52.1701,4.427230000000001,-4.8,-2.1443,101.786,4.24337,64.7238,24.3213,239.077,1.28927,0.1095759999999999,248.875,0.916369,1.85149,-34.971832275390604,22.0009689331055,-35.0,22.0,1569790.0,-1907.4,pp-riro,4,0,-1,-1
1570541453.2,2019-10-08,15:30:53.200,14.0,9.0,14.4099998474121,14.0,-0.9,3.7,26.3,-7.5,-55.2,12.1175,-0.483701,3.95221,9.07267,8.54711,3.69096,27.1632,8.44921,-57.3782,0.071423,0.142125,0.986212,246.9,8.7,52.1701,4.427230000000001,-4.8,-2.14153,97.6246,4.24339,64.5485,25.4614,238.777,1.28799,0.0932786,248.655,1.0336,1.9396400000000005,-34.971832275390604,22.0009689331055,-35.0,22.0,1569310.0,-5968.31,pp-riro,4,0,-1,-1
1570541453.3,2019-10-08,15:30:53.300,14.0,9.0,14.2200002670288,14.9,0.0,4.1,27.5,-9.2,-50.3,13.4633,0.765908,4.48095,9.63412,10.1766,5.07723,29.6687,5.508030000000001,-48.8458,0.19419,0.2480239999999999,0.976269,246.9,8.7,52.1701,4.427230000000001,-4.8,-2.172,98.5313,4.24342,64.4609,27.3614,238.577,1.28529,0.0675479,248.642,1.15301,2.0276,-34.9923248291016,22.0009689331055,-35.0,22.0,1568400.0,-7075.83,pp-riro,4,0,-1,-1
1570541453.4,2019-10-08,15:30:53.400,14.0,9.0,14.1599998474121,15.6,0.9,4.6,29.0,-11.2,-44.7,14.2524,1.66195,4.93648,6.16682,11.4274,5.09178,30.9013,3.56755,-43.2996,0.195081,0.231156,1.02988,246.9,8.7,52.1701,4.427230000000001,-4.8,-2.18198,97.7326,4.24345,64.49,28.5015,238.177,1.28299,0.0528115,248.394,1.27459,2.10051,-34.9974365234375,22.0009689331055,-35.0,22.0,1567760.0,-6275.96,pp-riro,4,0,-1,-1
1570541453.5,2019-10-08,15:30:53.500,14.0,9.0,13.9700002670288,16.3,2.0,5.1,29.6,-13.4,-39.6,14.8539,2.61645,5.46989,6.79375,8.02091,5.3785,31.8491,1.24747,-37.6729,0.16041,0.1037059999999999,0.962588,246.6,8.0,52.1701,4.427230000000001,-4.8,-2.19638,95.8359,4.24348,64.6068,30.0215,237.877,1.27981,0.0339164,248.316,1.39247,2.18265,-34.9991455078125,22.0009689331055,-35.0,22.0,1567420.0,-6706.66,pp-riro,4,0,-1,-1
1570541453.6,2019-10-08,15:30:53.600,14.0,10.0,13.9700002670288,16.9,3.1,5.5,30.4,-15.5,-34.5,15.2171,3.13416,5.64388,5.94381,11.0507,3.50021,32.2277,0.0795847,-34.8499,0.1042329999999999,0.167177,0.974659,246.6,8.0,52.1701,4.427230000000001,-4.8,-2.2240900000000003,91.8508,4.2435,64.8113,31.9216,237.477,1.27547,0.0112304,248.224,1.51323,2.26179,-34.9974365234375,22.0009689331055,-35.0,22.0,1566560.0,-9167.82,pp-riro,4,0,-1,-1
1570541453.7,2019-10-08,15:30:53.700,14.0,9.0,13.8999996185303,17.4,4.3,5.9,30.8,-17.7,-29.1,15.703,4.24723,6.040369999999999,5.744669999999999,11.3828,5.90197,32.7334,-2.2572400000000004,-29.4068,0.178732,0.1681089999999999,0.990981,246.6,8.0,52.1701,4.427230000000001,-4.8,-2.29279,93.3215,4.243530000000001,65.1617,33.4417,236.977,1.27104,-0.00530051,248.038,1.63277,2.33622,-35.0008544921875,22.0009689331055,-35.0,22.0,1565160.0,-9260.11,pp-riro,4,0,-1,-1
1570541453.8,2019-10-08,15:30:53.800,14.0,9.0,13.9700002670288,17.8,5.5,6.4,30.9,-19.8,-23.7,16.1689,5.30451,6.50798,3.52891,8.630939999999999,5.11338,33.12,-4.59644,-23.8132,0.136826,0.231821,0.987864,246.6,8.0,52.1701,4.427230000000001,-4.8,-2.30775,94.7967,4.24356,65.62899999999999,35.3417,236.478,1.26544,-0.0251436,247.947,1.75408,2.41136,-34.9991455078125,22.0009689331055,-35.0,22.0,1564680.0,-9506.23,pp-riro,4,0,-1,-1
1570541453.9,2019-10-08,15:30:53.900,14.0,9.0,13.9700002670288,18.1,6.7,6.9,31.0,-21.9,-18.3,16.1689,5.30451,6.50798,3.52891,8.630939999999999,5.11338,33.12,-4.59644,-23.8132,0.136826,0.231821,0.987864,246.6,8.0,52.1701,4.427230000000001,-4.8,-2.35319,99.8079,4.243580000000001,66.1839,36.8618,235.878,1.26003,-0.039366,247.74400000000003,1.86871,2.47841,-34.9991455078125,22.0009689331055,-35.0,22.0,1563630.0,-6798.95,pp-riro,4,0,-1,-1
1570541454.0,2019-10-08,15:30:54.000,14.0,10.0,14.0900001525879,18.3,7.9,7.4,31.0,-23.9,-12.7,16.7847,7.54628,7.43032,3.12745,13.1006,5.47175,32.9412,-9.04769,-12.526,0.065422,0.219638,0.977937,246.6,8.0,52.1701,4.427230000000001,-4.7,-2.35485,103.7,4.243609999999999,66.8849,38.7619,235.278,1.25334,-0.0564508,247.652,1.98745,2.54606,-34.9991455078125,22.0009689331055,-35.0,22.0,1563130.0,-3722.5,pp-riro,4,0,-1,-1
1570541454.1,2019-10-08,15:30:54.100,14.0,10.0,14.2799997329712,18.4,9.3,8.0,30.6,-25.6,-7.0,17.0223,8.68714,7.91817,1.12276,11.7876,4.80539,32.4463,-11.1514,-6.6776800000000005,0.04378,0.262409,1.04446,246.6,8.0,52.1701,4.427230000000001,-4.7,-2.35263,106.069,4.2436300000000005,67.7027,40.6619,234.578,1.24605,-0.0721014,247.515,2.10313,2.61935,-34.9974365234375,22.0009689331055,-35.0,22.0,1563010.0,-2307.34,pp-riro,4,0,-1,-1
1570541454.2,2019-10-08,15:30:54.200,14.0,10.0,14.6499996185303,18.5,10.6,8.4,29.9,-27.3,-1.2,17.1475,10.485,8.65318,-1.20059,12.2113,4.9701,31.3154,-13.8839,2.18797,0.151945,0.303816,0.990694,246.6,8.0,52.1701,4.427230000000001,-4.7,-2.33047,111.686,4.24366,68.6373,42.562,233.878,1.2383,-0.0863381,247.429,2.2173700000000003,2.68186,-34.9974365234375,22.0009689331055,-35.0,22.0,1562890.0,-769.112,pp-riro,4,0,-1,-1
1570541454.3,2019-10-08,15:30:54.300,14.0,9.0,14.880000114440902,18.4,12.0,9.0,29.0,-28.9,4.8,17.0848,11.7459,9.16619,-1.18243,11.3754,4.42103,30.1798,-15.4589,8.26844,-0.0198439,0.310921,1.08915,246.6,8.0,52.1701,4.427230000000001,-4.7,-2.27562,116.626,4.24368,69.7179,44.0821,233.078,1.23065,-0.0951212,247.243,2.3274,2.74519,-34.9974365234375,22.0009689331055,-35.0,22.0,1563080.0,1630.52,pp-riro,4,0,-1,-1
1570541454.4,2019-10-08,15:30:54.400,14.0,9.0,15.3000001907349,18.0,13.4,9.5,28.0,-30.3,11.1,17.0848,11.7459,9.16619,-1.18243,11.3754,4.42103,30.1798,-15.4589,8.26844,-0.0198439,0.310921,1.08915,246.6,8.0,52.1701,4.427230000000001,-4.7,-2.19694,122.49,4.24371,70.8862,45.9822,232.178,1.22178,-0.106765,247.074,2.44184,2.81453,-34.9991455078125,22.0009689331055,-23.0044822692871,22.0,1563470.0,3722.5,pp-riro,4,0,-1,-1
1570541454.5,2019-10-08,15:30:54.500,14.0,9.0,15.5299997329712,17.7,14.9,10.2,26.7,-31.5,17.6,16.845,13.0316,9.65886,-2.87073,12.5709,5.23071,28.7878,-16.9995,14.7158,-0.00711563,0.2943679999999999,1.06186,247.1,6.8,52.1701,4.427230000000001,-4.7,-2.08557,132.46,4.24373,72.2589,47.8822,231.278,1.2122,-0.116557,246.989,2.55496,2.87997,-34.9974365234375,22.0009689331055,-23.0044822692871,22.0,1564200.0,7937.24,pp-riro,4,0,-1,-1
1570541454.6,2019-10-08,15:30:54.600,14.0,10.0,15.859999656677198,17.2,16.4,10.8,25.5,-33.1,24.2,16.494,14.393,10.165,-4.2816,14.8292,6.094469999999999,27.2577,-18.435,21.2086,0.162867,0.3065739999999999,1.04435,247.1,6.8,52.1701,4.427230000000001,-4.7,-1.9404,144.523,4.24374,73.8068,49.7823,230.278,1.20189,-0.124758,246.888,2.66782,2.94497,-34.7584838867188,22.0009689331055,-23.0044822692871,22.0,1565270.0,12182.7,pp-riro,4,0,-1,-1
1570541454.7,2019-10-08,15:30:54.700,14.0,10.0,16.0799999237061,16.5,17.8,11.3,23.7,-34.2,31.0,16.0723,15.757,10.7826,-4.42815,11.7517,3.31369,25.4867,-19.775,27.9628,0.0921351,0.338388,1.05817,247.1,6.8,52.1701,4.427230000000001,-4.7,-1.59409,161.042,4.24376,75.4132,51.3024,229.178,1.19203,-0.12874,246.661,2.77609,3.00532,-34.1372222900391,22.0009689331055,-23.0044822692871,22.0,1567610.0,16705.1,pp-riro,4,0,-1,-1
1570541454.8,2019-10-08,15:30:54.800,14.0,11.0,16.3600006103516,15.7,19.2,11.7,22.1,-35.0,38.2,15.0385,17.7409,11.448,-7.6654,14.8401,3.35807,22.6684,-21.7249,38.0065,0.0240938,0.195659,1.13281,247.1,6.8,52.1701,4.427230000000001,-4.7,-1.45779,164.797,4.24377,77.22399999999999,53.2025,228.078,1.18071,-0.134641,246.604,2.88934,3.06718,-33.1541137695312,22.0009689331055,-23.0044822692871,22.0,1568510.0,16797.4,pp-riro,4,0,-1,-1
1570541454.9,2019-10-08,15:30:54.900,14.0,10.0,16.6800003051758,15.2,19.9,12.0,21.0,-35.3,41.8,14.6937,18.3887,11.6784,-7.85469,12.2247,5.06487,21.6315,-22.2565,41.6106,0.114454,0.29695,1.04982,247.1,6.8,52.1701,4.427230000000001,-4.7,-0.982388,174.86,4.24379,78.1878,53.9625,227.478,1.17518,-0.135492,246.519,2.94339,3.09808,-31.822830200195305,22.0009689331055,-23.0044822692871,22.0,1570700.0,13721.0,pp-riro,4,0,-1,-1
1570541455.0,2019-10-08,15:30:55.000,14.0,10.0,17.0400009155273,14.1,21.2,12.3,18.9,-35.9,49.1,13.3176,20.2407,12.2322,-11.5427,9.36505,3.65539,18.4617,-23.8239,51.5921,0.214753,0.218219,0.917374,247.1,6.8,52.1701,4.427230000000001,-4.9,-0.640519,179.554,4.2438,80.2907,55.1026,226.178,1.16424,-0.132875,246.25,3.04833,3.15471,-30.129714965820305,22.0009689331055,-22.5634365081787,22.0,1571770.0,9536.99,pp-riro,4,0,-1,-1
1570541455.1,2019-10-08,15:30:55.100,14.0,10.0,17.25,12.8,22.3,12.7,16.6,-36.6,55.9,13.3176,20.2407,12.2322,-11.5427,9.36505,3.65539,18.4617,-23.8239,51.5921,0.214753,0.218219,0.917374,247.1,6.8,52.1701,4.427230000000001,-4.9,-0.430522,180.223,4.24381,82.3936,56.6227,224.978,1.1526299999999998,-0.133523,246.191,3.1473,3.21429,-28.1430358886719,22.0009689331055,-22.031888961792003,22.0,1572120.0,6675.89,pp-riro,4,0,-1,-1
1570541455.2,2019-10-08,15:30:55.200,14.0,9.0,17.4500007629395,11.7,23.2,12.7,14.4,-36.7,62.7,12.7132,20.7713,12.313,-12.2322,13.3749,1.77325,17.2067,-24.3142,55.0343,0.258423,-0.0223599,0.923274,247.1,6.8,52.1701,4.427230000000001,-4.9,-0.0698143999999999,177.645,4.24383,84.6133,57.7627,223.678,1.14129,-0.130438,246.024,3.24203,3.26008,-26.327018737793,22.0009689331055,-21.6765441894531,22.0,1572350.0,892.17,pp-riro,4,0,-1,-1
1570541455.3,2019-10-08,15:30:55.300,14.0,8.0,17.6000003814697,10.3,24.0,12.6,12.1,-35.9,69.1,10.3358,22.6275,12.3722,-12.892,7.771789999999999,-3.61248,12.8871,-25.7385,67.7277,0.281491,0.285361,0.8922889999999999,247.1,6.8,52.1701,4.427230000000001,-4.9,0.292556,169.674,4.2438400000000005,86.9498,58.9028,222.478,1.12975,-0.126873,246.021,3.3314800000000004,3.31257,-24.767028808593803,22.0009689331055,-21.2066898345947,22.0,1572020.0,-4491.62,pp-riro,4,0,-1,-1
1570541455.4,2019-10-08,15:30:55.400,14.0,8.0,17.75,8.9,24.6,12.5,9.9,-35.6,75.0,9.03021,23.2777,12.2788,-11.6783,3.52611,0.772962,10.8734,-25.9477,73.6068,0.130772,0.187478,0.88508,247.1,6.8,52.1701,4.427230000000001,-4.9,0.305299,164.46200000000002,4.24386,89.3448,60.4229,221.278,1.11725,-0.126102,246.165,3.41541,3.3644800000000004,-23.471580505371104,22.0009689331055,-20.9020500183105,22.0,1572210.0,3168.74,pp-riro,4,0,-1,-1
1570541455.5,2019-10-08,15:30:55.500,14.0,8.0,17.8999996185303,7.6,24.9,12.7,8.1,-35.3,80.4,7.72595,23.7585,12.2614,-12.0898,-0.6811,5.56679,8.68695,-25.7133,79.3467,0.0738716,0.248612,0.815749,248.3,6.5,52.1701,4.427230000000001,-4.9,0.2670679999999999,181.58900000000003,4.243869999999999,91.7689,61.1829,220.078,1.10622,-0.119504,246.169,3.48729,3.40311,-22.3843688964844,22.0009689331055,-20.6414108276367,22.0,1572190.0,-1476.7,pp-riro,4,0,-1,-1
1570541455.6,2019-10-08,15:30:55.600,14.0,9.0,17.9500007629395,6.2,25.2,12.9,5.7,-34.7,85.8,6.41711,23.9318,12.5055,-9.07047,1.56544,1.24528,6.51085,-25.5032,84.6478,-0.0596567,0.0405591,0.749066,248.3,6.5,52.1701,4.427230000000001,-4.9,0.356829,205.523,4.24389,94.3099,61.563,218.878,1.0955700000000002,-0.10982,246.154,3.55765,3.44228,-21.5036697387695,22.0009689331055,-20.2896938323975,22.0,1572180.0,1169.05,pp-riro,4,0,-1,-1
1570541455.7,2019-10-08,15:30:55.700,14.0,10.0,17.9899997711182,4.9,25.4,12.7,3.2,-33.9,91.0,5.81324,24.1478,12.5626,-7.02348,1.43804,-1.26041,5.39834,-25.3781,87.3793,0.202262,0.118467,0.608819,248.3,6.5,52.1701,4.427230000000001,-4.9,0.35018,200.055,4.2439,96.8801,62.323,217.678,1.08406,-0.103165,246.279,3.62861,3.48199,-20.8687438964844,22.0009689331055,-20.085985183715803,22.0,1572240.0,461.467,pp-riro,4,0,-1,-1
1570541455.8,2019-10-08,15:30:55.800,14.0,10.0,18.1900005340576,3.7,25.7,12.6,1.2,-32.6,96.0,4.5212900000000005,24.4139,12.3115,-9.89059,1.74177,-3.5506900000000003,3.15325,-24.695,92.133,-0.121608,0.162004,0.611996,248.3,6.5,52.1701,4.427230000000001,-4.9,0.349072,201.74400000000003,4.24392,99.4503,62.7031,216.478,1.0732700000000002,-0.0940716,246.343,3.69777,3.51683,-20.377197265625,22.0009689331055,-19.897388458252,22.0,1572280.0,830.6410000000001,pp-riro,4,0,-1,-1
1570541455.9,2019-10-08,15:30:55.900,14.0,10.0,18.3799991607666,2.3,26.1,12.7,-1.0,-31.4,100.6,3.34942,24.6642,12.2024,-14.7706,3.96495,-0.129606,0.795999,-23.7511,96.559,-0.183644,0.155673,0.74006,248.3,6.5,52.1701,4.427230000000001,-4.9,0.359045,215.057,4.243930000000001,102.021,63.0832,215.278,1.06246,-0.0853398,246.439,3.76177,3.55777,-20.0529098510742,22.0009689331055,-19.6255378723145,22.0,1572310.0,30.7645,pp-riro,4,0,-1,-1
1570541456.0,2019-10-08,15:30:56.000,14.0,12.0,18.659999847412102,0.9,26.4,12.8,-3.3,-29.8,104.7,3.34942,24.6642,12.2024,-14.7706,3.96495,-0.129606,0.795999,-23.7511,96.559,-0.183644,0.155673,0.74006,248.3,6.5,52.1701,4.42724,-5.1,0.407805,238.179,4.24395,104.766,63.0832,213.978,1.05158,-0.0735488,246.459,3.81932,3.59464,-19.8429718017578,22.0009689331055,-19.3985748291016,22.0,1572360.0,522.996,pp-riro,4,0,-1,-1
1570541456.1,2019-10-08,15:30:56.100,14.0,12.0,18.8500003814697,-0.3,26.4,12.7,-5.8,-28.7,109.2,0.742448,25.3208,12.2972,-15.4362,-0.457747,-0.876602,-4.21202,-21.6856,105.137,-0.2258869999999999,0.186578,0.71818,248.3,6.5,52.1701,4.42724,-5.1,0.417224,242.786,4.24397,107.365,63.0832,212.678,1.04109,-0.0627886999999999,246.452,3.88098,3.62565,-19.564773559570305,22.0009689331055,-19.3181533813477,22.0,1572390.0,584.525,pp-riro,4,0,-1,-1
1570541456.2,2019-10-08,15:30:56.200,14.0,12.0,19.1299991607666,-1.6,26.6,12.7,-8.2,-27.3,113.4,-0.4334699999999999,25.3341,12.2436,-9.92877,-0.973999,-0.7465930000000001,-6.69262,-20.7682,109.382,-0.198395,0.126803,0.774455,248.3,6.5,52.1701,4.42724,-5.1,0.432184,253.947,4.2439800000000005,110.052,63.0833,211.378,1.03029,-0.0520818,246.519,3.94091,3.6597,-19.346305847168,22.0009689331055,-19.2368412017822,22.0,1572460.0,676.819,pp-riro,4,0,-1,-1
1570541456.3,2019-10-08,15:30:56.300,14.0,12.0,19.4500007629395,-3.1,26.8,12.6,-10.4,-25.3,117.5,-1.7568400000000002,25.5139,12.1705,-11.859000000000002,0.973467,-4.1470400000000005,-9.58505,-19.8514,113.311,-0.3184889999999999,-0.0457858,0.655941,248.3,6.5,52.1701,4.42724,-5.1,0.462659,272.337,4.244,112.769,63.0833,209.978,1.01915,-0.0416437,246.55,4.00484,3.70071,-19.2609710693359,22.0009689331055,-19.0867805480957,22.0,1572510.0,430.703,pp-riro,4,0,-1,-1
1570541456.4,2019-10-08,15:30:56.400,14.0,12.0,19.7600002288818,-4.7,26.6,12.7,-12.6,-24.2,121.6,-3.90771,25.5865,12.099,-16.0295,-1.84466,-1.1072799999999998,-13.4625,-17.3389,119.338,-0.0281449,0.0595233,0.426901,248.3,6.5,52.1701,4.42724,-5.1,0.497012,293.98400000000004,4.24401,115.456,62.7034,208.578,1.00868,-0.0291504,246.509,4.0608,3.74053,-19.1926956176758,22.0009689331055,-18.9083461761475,22.0,1572570.0,553.761,pp-riro,4,0,-1,-1
1570541456.5,2019-10-08,15:30:56.500,14.0,12.0,20.2000007629395,-6.3,26.3,12.5,-14.8,-22.8,125.7,-5.49202,25.2027,11.9968,-12.8509,-5.74441,-1.95041,-15.9311,-16.1698,123.309,-0.124763,0.159109,0.588719,254.2,6.3,52.1701,4.42724,-5.1,0.560177,328.534,4.24407,118.201,62.3234,207.178,0.997959,-0.0168995999999999,246.533,4.11963,3.78367,-18.9912948608398,22.0009689331055,-18.7340850830078,22.0,1572670.0,984.464,pp-riro,4,0,-1,-1
1570541456.6,2019-10-08,15:30:56.600,14.0,12.0,20.6299991607666,-8.0,26.1,12.2,-16.4,-21.0,129.0,-5.49202,25.2027,11.9968,-12.8509,-5.74441,-1.95041,-15.9311,-16.1698,123.309,-0.124763,0.159109,0.588719,254.2,6.3,52.1701,4.42724,-5.1,0.5939760000000001,347.292,4.24416,120.859,61.5634,205.778,0.988026,-0.00289501,246.458,4.1696800000000005,3.82926,-18.864990234375,22.0009689331055,-18.4643898010254,22.0,1572770.0,984.464,pp-riro,4,0,-1,-1
1570541456.7,2019-10-08,15:30:56.700,14.0,12.0,21.0599994659424,-9.7,25.4,11.9,-17.8,-19.3,132.5,-7.23256,24.9346,11.7718,-19.446,-3.05892,0.107923,-18.1754,-14.793,126.851,-0.199939,0.133838,0.632367,254.2,6.3,52.1701,4.42724,-5.1,0.6133689999999999,356.094,4.24425,123.458,60.8035,204.478,0.978403,0.0105083,246.476,4.22273,3.87768,-18.742111206054695,22.0009689331055,35.0,22.0,1572830.0,1292.11,pp-riro,4,0,-1,-1
1570541456.8,2019-10-08,15:30:56.800,14.0,11.0,21.4300003051758,-11.2,24.7,11.5,-19.1,-18.0,136.1,-9.60532,23.9895,11.3564,-12.3053,-8.395439999999999,1.22806,-20.9471,-12.532,132.16899999999998,-0.0478639,0.0507348,0.7279329999999999,254.2,6.3,52.1701,4.42724,-5.1,0.637749,372.779,4.24434,125.97,60.0435,203.078,0.968736,0.0233010999999999,246.403,4.274369999999999,3.92268,-18.5270538330078,22.0009689331055,35.0,22.0,1572990.0,1568.99,pp-riro,4,0,-1,-1
1570541456.9,2019-10-08,15:30:56.900,14.0,11.0,21.75,-12.6,24.0,10.9,-20.3,-16.3,139.1,-11.0916,23.1567,10.8869,-17.2909,-4.877269999999999,-6.4118900000000005,-22.3604,-11.3823,135.632,-0.0428886999999999,-0.0359781999999999,0.6806800000000001,254.2,6.3,52.1701,4.42724,-5.1,1.10041,381.194,4.24443,128.365,58.5235,201.878,0.960862,0.0401946,246.287,4.31842,3.9648,-18.1430282592773,22.0009689331055,35.0,22.0,1570630.0,-25842.2,pp-riro,4,0,-1,-1
1570541457.0,2019-10-08,15:30:57.000,14.0,10.0,21.9500007629395,-13.4,23.1,9.9,-21.0,-14.6,142.4,-12.2806,22.3126,10.117,-11.5412,-2.70185,-1.94673,-23.3713,-10.0414,139.017,-0.29319,-0.0147317999999999,0.612768,254.2,6.3,52.1701,4.42724,-5.2,1.35584,359.668,4.24452,130.731,57.3835,200.678,0.952433,0.0542428,246.283,4.36929,4.00082,-17.4057006835938,22.0009689331055,35.0,22.0,1570530.0,20396.9,pp-riro,4,0,-1,-1
1570541457.1,2019-10-08,15:30:57.100,14.0,8.0,22.0699996948242,-14.2,22.1,9.2,-21.6,-13.0,145.2,-12.2806,22.3126,10.117,-11.5412,-2.70185,-1.94673,-23.3713,-10.0414,139.017,-0.29319,-0.0147317999999999,0.612768,254.2,6.3,52.1701,4.42724,-5.2,1.09764,335.496,4.24463,132.951,55.8635,199.578,0.945079,0.069976,246.228,4.41119,4.03421,-15.9873657226562,22.0009689331055,35.0,22.0,1572030.0,5445.31,pp-riro,4,0,-1,-1
1570541457.2,2019-10-08,15:30:57.200,14.0,8.0,22.030000686645497,-15.1,21.0,9.1,-22.0,-11.4,147.8,-12.6165,21.7849,9.57125,-5.69709,-13.7246,-8.93811,-23.6998,-9.47827,140.691,0.0078606,-0.0603695,0.472066,254.2,6.3,52.1701,4.42724,-5.2,1.23782,353.747,4.24471,135.171,54.3435,198.478,0.937605,0.08542,246.207,4.4507900000000005,4.063969999999999,-14.4529800415039,22.0009689331055,35.0,22.0,1571460.0,-922.935,pp-riro,4,0,-1,-1
1570541457.3,2019-10-08,15:30:57.300,14.0,9.0,22.0699996948242,-15.5,20.1,8.5,-22.1,-10.2,150.6,-14.1723,19.7144,8.81697,-7.29564,-14.2176,-0.785981,-24.5522,-6.713589999999999,146.545,0.00486729,-0.0555633,0.568379,254.2,6.3,52.1701,4.42724,-5.2,1.21566,352.196,4.2448,137.186,53.2035,197.578,0.93068,0.0976261,246.349,4.49184,4.08915,-12.553337097168,22.0009689331055,35.0,22.0,1572260.0,2061.22,pp-riro,4,0,-1,-1
1570541457.4,2019-10-08,15:30:57.400,14.0,9.0,22.030000686645497,-15.9,19.5,8.1,-22.3,-9.0,152.5,-14.1723,19.7144,8.81697,-7.29564,-14.2176,-0.785981,-24.5522,-6.713589999999999,146.545,0.00486729,-0.0555633,0.568379,254.2,6.3,52.1701,4.42724,-5.2,1.20402,346.754,4.24489,139.143,51.3035,196.678,0.924726,0.114298,246.323,4.51706,4.10389,-10.4608306884766,22.0009689331055,35.0,22.0,1572800.0,6152.9,pp-riro,4,0,-1,-1
1570541457.5,2019-10-08,15:30:57.500,14.0,10.0,22.030000686645497,-16.2,18.9,8.0,-22.7,-7.8,153.9,-15.05,18.3498,7.90447,-7.331989999999999,-4.42908,1.61451,-24.9773,-6.05184,152.114,0.0774429,-0.2362739999999999,0.305533,253.3,6.1,52.1701,4.42724,-5.2,1.19682,348.228,4.24498,141.041,49.7835,195.778,0.918411,0.128089,246.374,4.5377,4.11304,-8.34101104736328,22.0009689331055,35.0,22.0,1573030.0,4245.5,pp-riro,4,0,-1,-1
1570541457.6,2019-10-08,15:30:57.600,14.0,10.0,21.899999618530305,-16.4,18.3,8.0,-23.6,-7.3,155.8,-15.05,18.3498,7.90447,-7.331989999999999,-4.42908,1.61451,-24.9773,-6.05184,152.114,0.0774429,-0.2362739999999999,0.305533,253.3,6.1,52.1701,4.42724,-5.2,1.21289,353.301,4.24507,142.881,47.8835,194.878,0.912575,0.143956,246.344,4.5563400000000005,4.1161900000000005,-6.23485565185547,22.0009689331055,35.0,22.0,1573300.0,3014.92,pp-riro,4,0,-1,-1
1570541457.7,2019-10-08,15:30:57.700,14.0,10.0,21.8199996948242,-16.3,17.9,7.9,-24.2,-6.7,157.0,-15.6663,17.1826,7.59362,-3.0194,-3.66033,-3.71031,-26.4868,-6.35608,157.409,-0.106869,-0.0361779,0.0503063,253.3,6.1,52.1701,4.42724,-5.2,1.21178,349.597,4.24516,144.692,46.3635,193.878,0.906085,0.157142,246.321,4.5685400000000005,4.11178,-4.121864318847661,22.0009689331055,35.0,22.0,1573740.0,4399.32,pp-riro,4,0,-1,-1
1570541457.8,2019-10-08,15:30:57.800,14.0,11.0,21.6200008392334,-16.3,17.6,8.0,-25.4,-6.4,157.6,-15.6663,17.1826,7.59362,-3.0194,-3.66033,-3.71031,-26.4868,-6.35608,157.409,-0.106869,-0.0361779,0.0503063,253.3,6.1,52.1701,4.42724,-5.2,1.19626,339.557,4.24524,146.415,44.4635,192.978,0.900382,0.172316,246.283,4.56784,4.10305,-2.00887298583984,22.0009689331055,35.0,22.0,1574220.0,5414.55,pp-riro,4,0,-1,-1
1570541457.9,2019-10-08,15:30:57.900,14.0,10.0,21.4599990844727,-16.2,17.6,8.3,-26.3,-6.8,157.9,-15.839,16.9756,7.54287,-6.19624,-4.01871,-5.17189,-27.2883,-6.70679,158.812,-0.371203,-0.158884,-0.09132,253.3,6.1,52.1701,4.42724,-5.2,1.17909,337.57,4.24536,148.109,43.3235,192.078,0.893985,0.18253,246.389,4.55941,4.08615,0.083450317382813,22.0009689331055,35.0,22.0,1574660.0,3630.21,pp-riro,4,0,-1,-1
1570541458.0,2019-10-08,15:30:58.000,14.0,11.0,21.3299999237061,-15.7,17.6,8.9,-27.7,-7.6,157.7,-15.6461,17.067999999999998,8.4755,5.80462,3.39677,4.65322,-29.549,-8.37543,159.91,0.0269129,-0.369626,-0.132707,253.3,6.1,52.1701,4.427230000000001,-5.3,1.19737,343.606,4.245419999999999,149.862,41.8035,191.078,0.8874340000000001,0.194939,246.408,4.53806,4.04964,1.6656723022460902,22.0009689331055,35.0,22.0,1575130.0,3753.27,pp-riro,4,0,-1,-1
1570541458.1,2019-10-08,15:30:58.100,14.0,11.0,21.1200008392334,-15.2,17.6,9.4,-29.1,-8.8,156.6,-15.6461,17.067999999999998,8.4755,5.80462,3.39677,4.65322,-29.549,-8.37543,159.91,0.0269129,-0.369626,-0.132707,253.3,6.1,52.1701,4.427230000000001,-5.3,1.1946,343.159,4.24551,151.52700000000002,39.9035,189.978,0.8811190000000001,0.209386,246.261,4.49875,4.01334,4.29191589355469,22.0009689331055,35.0,22.0,1575340.0,3968.62,pp-riro,4,0,-1,-1
1570541458.2,2019-10-08,15:30:58.200,14.0,11.0,20.9599990844727,-14.8,17.7,10.2,-30.6,-10.2,155.4,-15.4708,17.1881,8.702169999999999,3.58965,-3.0738,3.6338,-30.2913,-9.23279,159.714,-0.0253779,-0.1429119999999999,-0.158161,253.3,6.1,52.1701,4.427230000000001,-5.3,1.18851,337.422,4.24559,153.25,38.7635,188.878,0.873944,0.219048,246.299,4.4596800000000005,3.97655,6.40721893310547,22.0009689331055,35.0,22.0,1575940.0,4553.14,pp-riro,4,0,-1,-1
1570541458.3,2019-10-08,15:30:58.300,14.0,12.0,20.7000007629395,-14.0,18.1,11.2,-31.4,-12.0,153.3,-15.4708,17.1881,8.702169999999999,3.58965,-3.0738,3.6338,-30.2913,-9.23279,159.714,-0.0253779,-0.1429119999999999,-0.158161,253.3,6.1,52.1701,4.427230000000001,-5.3,1.17853,337.25,4.24568,155.002,36.8635,187.678,0.866924,0.2332199999999999,246.187,4.400980000000001,3.91602,8.51230621337891,22.0009689331055,35.0,22.0,1576150.0,4183.97,pp-riro,4,0,-1,-1
1570541458.4,2019-10-08,15:30:58.400,14.0,13.0,20.4400005340576,-13.0,18.5,12.2,-32.6,-15.5,150.9,-14.063,18.332,11.3652,8.07715,1.7477599999999998,13.7898,-34.3011,-15.7559,155.737,-0.18452,-0.2631179999999999,-0.618269,253.3,6.1,52.1701,4.427230000000001,-5.3,1.18629,331.805,4.245769999999999,156.726,35.7235,186.478,0.8593729999999999,0.2425119999999999,246.198,4.3237,3.85388,10.622497558593802,22.0009689331055,35.0,22.0,1576450.0,3414.86,pp-riro,4,0,-1,-1
1570541458.5,2019-10-08,15:30:58.500,14.0,13.0,20.2199993133545,-12.2,18.9,13.3,-33.0,-18.1,147.8,-14.063,18.332,11.3652,8.07715,1.7477599999999998,13.7898,-34.3011,-15.7559,155.737,-0.18452,-0.2631179999999999,-0.618269,248.1,6.6,52.1701,4.427230000000001,-5.3,1.16634,335.983,4.24584,158.47799999999998,34.5835,185.078,0.851159,0.251693,246.1,4.2478,3.79815,12.730987548828098,22.0009689331055,35.0,22.0,1577080.0,1968.93,pp-riro,4,0,-1,-1
1570541458.6,2019-10-08,15:30:58.600,14.0,13.0,20.0,-10.9,19.3,14.5,-33.0,-21.4,143.5,-12.9313,19.3329,13.1994,12.2678,3.02537,9.59658,-35.3942,-21.868,152.233,-0.0616763,-0.0409531999999999,-0.7496430000000001,248.1,6.6,52.1701,4.427230000000001,-5.3,1.1846299999999998,341.348,4.2459,160.347,33.0635,183.678,0.842784,0.263139,246.053,4.14801,3.72424,14.3012847900391,22.0009689331055,35.0,22.0,1577140.0,1015.23,pp-riro,4,0,-1,-1
1570541458.7,2019-10-08,15:30:58.700,14.0,13.0,19.8299999237061,-9.3,19.9,15.7,-32.2,-25.8,139.4,-12.9313,19.3329,13.1994,12.2678,3.02537,9.59658,-35.3942,-21.868,152.233,-0.0616763,-0.0409531999999999,-0.7496430000000001,248.1,6.6,52.1701,4.427230000000001,-5.3,1.1990299999999998,335.831,4.24596,162.187,32.3036,182.178,0.833714,0.269829,246.043,4.0445,3.64431,16.4234008789062,22.0009689331055,35.0,22.0,1577540.0,5906.78,pp-riro,4,0,-1,-1
1570541458.8,2019-10-08,15:30:58.800,14.0,13.0,19.7399997711182,-8.5,20.1,16.3,-31.1,-27.8,137.2,-12.9313,19.3329,13.1994,12.2678,3.02537,9.59658,-35.3942,-21.868,152.233,-0.0616763,-0.0409531999999999,-0.7496430000000001,248.1,6.6,52.1701,4.427230000000001,-5.3,1.17853,339.331,4.24603,164.203,31.1636,180.578,0.824045,0.278815,246.053,3.98955,3.60189,19.053054809570305,22.0009689331055,35.0,22.0,1578110.0,1353.64,pp-riro,4,0,-1,-1
1570541458.9,2019-10-08,15:30:58.900,14.0,13.0,19.729999542236303,-5.4,20.5,17.9,-28.2,-34.0,128.0,-10.2027,20.6265,16.0353,15.8249,4.52723,9.64444,-36.2723,-31.3455,145.128,-0.180188,-0.273221,-0.952493,248.1,6.6,52.1701,4.427230000000001,-5.3,1.20236,344.843,4.24608,166.101,30.4036,178.878,0.814198,0.2852739999999999,245.991,3.81026,3.47206,21.1649475097656,22.0009689331055,35.0,22.0,1578440.0,4614.67,pp-riro,4,0,-1,-1
1570541459.0,2019-10-08,15:30:59.000,14.0,12.0,19.7800006866455,-3.2,20.6,18.9,-25.2,-38.3,120.8,-6.05626,21.7109,18.8308,24.8763,2.8396,15.2074,-33.3254,-39.9267,133.704,-0.424725,-0.347431,-1.42174,248.1,6.6,52.1701,4.427230000000001,-5.3,1.19349,346.468,4.24613,168.08700000000002,30.0237,177.178,0.803879,0.2894989999999999,246.063,3.68192,3.38465,23.2836608886719,22.0009689331055,35.0,22.0,1578840.0,3230.27,pp-riro,4,0,-1,-1
1570541459.1,2019-10-08,15:30:59.100,14.0,13.0,19.909999847412102,-0.7,20.5,19.8,-20.5,-41.6,112.8,-6.05626,21.7109,18.8308,24.8763,2.8396,15.2074,-33.3254,-39.9267,133.704,-0.424725,-0.347431,-1.42174,248.1,6.6,52.1701,4.427230000000001,-5.3,1.20624,349.646,4.24619,170.015,29.6437,175.378,0.793441,0.293572,246.052,3.55758,3.2898400000000003,24.8675842285156,22.0009689331055,35.0,22.0,1578980.0,2738.04,pp-riro,4,0,-1,-1
1570541459.2,2019-10-08,15:30:59.200,14.0,13.0,20.0,1.9,20.4,20.6,-14.4,-44.4,102.5,-6.05626,21.7109,18.8308,24.8763,2.8396,15.2074,-33.3254,-39.9267,133.704,-0.424725,-0.347431,-1.42174,248.1,6.6,52.1701,4.427230000000001,-5.3,1.21178,355.542,4.24625,172.05900000000003,29.6438,173.378,0.781904,0.2955239999999999,246.055,3.4159300000000004,3.19639,27.4938278198242,22.0009689331055,35.0,22.0,1579390.0,4091.68,pp-riro,4,0,-1,-1
1570541459.3,2019-10-08,15:30:59.300,14.0,13.0,20.0799999237061,4.7,19.8,21.4,-7.2,-46.5,91.1,-3.59775,21.991,19.9902,23.1575,0.682316,15.555,-30.59,-45.178,127.483,-0.12492,-0.244488,-1.07073,248.1,6.6,52.1701,4.427230000000001,-5.3,1.22785,365.085,4.24631,174.016,30.0238,171.378,0.7704300000000001,0.295226,246.076,3.27203,3.0987400000000003,29.5767669677734,22.0009689331055,23.0044822692871,22.0,1579670.0,2430.39,pp-riro,4,0,-1,-1
1570541459.4,2019-10-08,15:30:59.400,14.0,13.0,20.2099990844727,7.7,19.0,21.7,0.9,-47.6,78.9,3.76515,21.9239,22.4348,32.8966,-3.79992,9.8986,-15.277,-54.6292,100.54,-0.306701,-0.0899097,-1.37892,248.1,6.6,52.1701,4.427230000000001,-5.3,1.25389,381.241,4.24637,175.91400000000002,30.4039,169.378,0.75912,0.294877,246.088,3.12636,2.99529,30.9375915527344,22.0009689331055,23.0044822692871,22.0,1580190.0,3599.45,pp-ro,1,1,-1,-1
1570541459.5,2019-10-08,15:30:59.500,14.0,13.0,20.3799991607666,10.5,17.7,21.5,10.5,-47.6,65.1,7.0611,21.2974,23.1575,32.3336,-6.717560000000001,10.1307,-5.671130000000001,-57.0072,86.0155,-0.8472770000000001,-0.174439,-1.48294,248.6,6.5,52.1701,4.427230000000001,-5.3,1.26552,384.548,4.24643,177.725,31.544,167.178,0.747093,0.290304,246.028,2.96802,2.89565,32.449981689453104,22.0009689331055,23.0044822692871,22.0,1580360.0,3107.21,pp-ro,1,1,-1,-1
1570541459.6,2019-10-08,15:30:59.600,14.0,13.0,20.590000152587898,13.3,16.1,21.1,19.4,-45.9,52.2,10.6401,20.1128,23.1596,35.2255,-15.9766,1.89269,6.08495,-58.2641,69.3829,-0.909679,-0.261232,-1.76124,248.6,6.5,52.1701,4.427230000000001,-5.3,1.28325,397.75,4.24648,179.419,32.6841,165.078,0.735667,0.2857139999999999,245.989,2.81463,2.7908,33.8482513427734,22.0009689331055,23.0044822692871,22.0,1580970.0,3660.97,pp-ro,1,1,-1,-1
1570541459.7,2019-10-08,15:30:59.700,14.0,14.0,20.7600002288818,15.9,14.3,20.1,27.9,-43.1,39.3,12.3942,19.3989,23.0236,38.6175,-11.8819,-5.83746,12.1497,-57.9929,60.6179,-0.306446,-0.107121,-1.45174,248.6,6.5,52.1701,4.427230000000001,-5.3,1.29101,399.555,4.24654,180.996,33.8242,162.97799999999998,0.724538,0.281099,245.898,2.65146,2.68249,34.4187927246094,22.0009689331055,23.0044822692871,22.0,1581160.0,3568.68,pp-ro,1,1,-1,-1
1570541459.8,2019-10-08,15:30:59.800,14.0,14.0,20.9699993133545,17.1,13.4,19.5,30.8,-40.9,34.1,17.1367,16.7581,21.9034,19.537,-7.18142,-2.21301,28.8933,-54.4125,36.8033,-0.1158589999999999,-0.192419,-1.8599,248.6,6.5,52.1701,4.427230000000001,-5.3,1.29323,403.509,4.2466,181.697,34.9642,162.078,0.71937,0.275681,245.979,2.57735,2.63117,34.865020751953104,22.0009689331055,23.0044822692871,22.0,1581900.0,5260.73,pp-ro,1,1,-1,-1
1570541459.9,2019-10-08,15:30:59.900,14.0,14.0,21.1299991607666,19.2,11.2,18.1,37.2,-36.2,23.8,20.0889,14.5355,20.455,33.0881,-27.4061,-18.8747,36.0537,-49.5792,24.0199,-0.5249590000000001,-0.148966,-1.53952,248.6,6.5,52.1701,4.427230000000001,-5.3,1.29711,406.722,4.246659999999999,182.982,36.4843,160.078,0.709088,0.268924,245.843,2.41976,2.52213,34.9620971679688,22.0019989013672,23.0092449188232,22.0,1582090.0,3660.97,pp-ro,1,1,-1,-1
1570541460.0,2019-10-08,15:31:00.000,14.0,14.0,21.2600002288818,20.6,9.2,16.3,41.7,-30.7,15.2,23.1933,11.0451,17.6362,9.95341,-23.5927,-18.943,44.5763,-40.6455,8.67487,-0.363614,0.205052,-1.87905,248.6,6.5,52.1701,4.427230000000001,-5.3,1.32481,419.071,4.24672,184.063,38.3843,158.378,0.700029,0.260079,245.838,2.26802,2.4246,34.745803833007805,22.003026962280305,23.0139999389648,22.0,1582750.0,5506.84,pp-ro,1,1,-1,-1
1570541460.1,2019-10-08,15:31:00.100,14.0,14.0,21.2900009155273,21.7,7.2,14.7,44.9,-25.2,8.1,24.764,8.662189999999999,15.6921,12.664,-25.5083,-23.265,46.971,-34.389,1.36637,-0.0669,0.125533,-1.34738,248.6,6.5,52.1701,4.427230000000001,-5.3,1.3237,419.655,4.24677,184.968,40.2844,156.778,0.691692,0.251172,245.796,2.1284400000000003,2.3323400000000003,34.086700439453104,22.0035419464111,21.9041690826416,22.0,1583000.0,4768.5,pp-ro,1,1,-1,-1
1570541460.2,2019-10-08,15:31:00.200,14.0,14.0,21.3299999237061,22.6,5.4,12.6,47.5,-19.0,1.5,25.8114,6.72605,13.3173,8.8087,-8.00411,-23.8812,49.1483,-27.7893,-5.137490000000001,0.138407,0.1487079999999999,-1.43547,248.6,6.5,52.1701,4.427230000000001,-5.3,1.32814,413.478,4.24683,185.727,42.5645,155.47899999999998,0.684409,0.2402699999999999,245.927,1.98351,2.23442,33.0750122070312,22.0035419464111,20.1783695220947,22.0,1583540.0,6214.43,pp-ro,1,1,-1,-1
1570541460.3,2019-10-08,15:31:00.300,14.0,14.0,21.3299999237061,23.2,3.5,10.6,48.9,-13.1,-3.8,25.8114,6.72605,13.3173,8.8087,-8.00411,-23.8812,49.1483,-27.7893,-5.137490000000001,0.138407,0.1487079999999999,-1.43547,248.6,6.5,52.1701,4.427230000000001,-5.3,1.30653,414.854,4.2469,186.282,44.4646,154.279,0.678127,0.231175,245.927,1.85323,2.13511,31.7005920410156,22.003026962280305,18.4010601043701,22.0,1584170.0,5106.9,pp-ro,1,1,-1,-1
1570541460.4,2019-10-08,15:31:00.400,14.0,14.0,21.2399997711182,23.4,1.8,8.6,50.7,-7.5,-9.1,26.5895,4.4802,11.2524,6.900010000000001,-20.4703,-7.02153,49.4918,-21.4115,-10.3227,-0.2305559999999999,0.259833,-1.34085,248.6,6.5,52.1701,4.427230000000001,-5.3,1.33035,413.163,4.24695,186.574,47.1246,153.279,0.67262,0.218036,246.018,1.7282,2.04379,29.488204956054695,22.0025119781494,16.755975723266598,22.0,1584850.0,6983.54,pp-ro,1,1,-1,-1
1570541460.5,2019-10-08,15:31:00.500,14.0,14.0,21.2000007629395,23.5,0.5,6.7,51.7,-2.1,-13.9,26.9574,1.50265,7.801089999999999,7.16741,-18.5123,-27.3658,50.7111,-12.0889,-18.1349,-0.123071,0.468001,-1.40728,246.7,6.2,52.1701,4.427230000000001,-5.3,1.30874,411.89,4.24699,186.837,49.4047,152.47899999999998,0.66799,0.206892,246.168,1.60942,1.96058,27.4103698730469,22.003026962280305,15.2529754638672,22.0,1585220.0,7414.24,pp-ro,1,1,-1,-1
1570541460.6,2019-10-08,15:31:00.600,14.0,14.0,21.1100006103516,23.5,-0.9,4.9,52.7,3.0,-18.4,26.9574,1.50265,7.801089999999999,7.16741,-18.5123,-27.3658,50.7111,-12.0889,-18.1349,-0.123071,0.468001,-1.40728,246.7,6.2,52.1701,4.427230000000001,-5.3,1.32703,425.885,4.24701,186.924,51.6847,151.879,0.664369,0.195622,246.331,1.4979,1.87492,26.3612365722656,22.003026962280305,13.6708993911743,22.0,1585560.0,2645.75,pp-ro,1,1,-1,-1
1570541460.7,2019-10-08,15:31:00.700,14.0,14.0,21.0699996948242,23.1,-2.3,3.1,53.8,7.6,-22.4,26.4586,-1.86804,3.7173,-12.9886,-12.6541,-26.812,50.7878,-0.158176,-27.1725,0.0356285,-0.145647,-0.994681,246.7,6.2,52.1701,4.427230000000001,-5.3,1.38798,457.48800000000006,4.24702,186.924,54.3448,151.379,0.660958,0.1824329999999999,246.596,1.39996,1.78856,23.738395690918,22.003026962280305,12.0745162963867,22.0,1586040.0,3414.86,pp-ro,1,1,-1,-1
1570541460.8,2019-10-08,15:31:00.800,14.0,13.0,21.1100006103516,22.7,-3.7,1.5,54.1,11.5,-26.0,26.2661,-2.69139,2.7888,-8.43375,-25.7912,-11.5994,50.9873,2.54078,-29.0715,0.161987,0.1837,-0.924286,246.7,6.2,52.1701,4.427230000000001,-5.3,1.40238,460.517,4.24704,186.778,56.6248,151.079,0.658733,0.170987,246.814,1.31514,1.7038,21.6196899414062,22.003026962280305,10.4719123840332,22.0,1586310.0,5014.61,pp-ro,1,1,-1,-1
1570541460.9,2019-10-08,15:31:00.900,14.0,13.0,21.2399997711182,22.3,-4.8,0.0,54.5,15.0,-29.0,25.5575,-4.25412,0.997606,-7.3786,-12.0944,-13.8823,50.6785,7.13472,-32.5853,-0.00709747,0.13246,-0.974214,246.7,6.2,52.1701,4.427230000000001,-5.3,1.39352,455.61300000000006,4.24706,186.515,58.9049,150.779,0.656724,0.159431,246.965,1.24265,1.6282299999999998,19.5043869018555,22.0035419464111,9.05128479003906,22.0,1587040.0,7629.59,pp-ro,1,1,-1,-1
1570541461.0,2019-10-08,15:31:01.000,14.0,13.0,21.3600006103516,21.5,-6.0,-1.4,54.4,17.9,-32.8,24.116,-6.22869,-1.58566,-13.1775,-13.6701,-13.0709,50.6301,13.5158,-37.2687,0.0233102,0.015864,-0.8239299999999999,246.7,6.2,52.17,4.427230000000001,-5.2,1.38576,452.059,4.24708,186.106,61.5649,150.679,0.655345,0.145835,247.24400000000003,1.17142,1.54988,17.387374877929698,22.003026962280305,7.55954217910767,22.0,1587640.0,6183.66,pp-ro,1,1,-1,-1
1570541461.1,2019-10-08,15:31:01.100,14.0,13.0,21.4400005340576,20.7,-6.7,-2.7,54.5,20.6,-36.0,23.6268,-6.772139999999999,-2.3048,-8.155669999999999,-7.393860000000001,-9.2625,50.4889,15.1502,-38.8648,0.247046,-0.149214,-0.7967920000000001,246.7,6.2,52.17,4.427230000000001,-5.2,1.3913,464.339,4.2471,185.668,63.845,150.579,0.6542520000000001,0.134089,247.432,1.10854,1.48359,15.2805938720703,22.0035419464111,6.30114650726318,22.0,1588180.0,4491.62,pp-ro,1,1,-1,-1
1570541461.2,2019-10-08,15:31:01.200,14.0,12.0,21.4899997711182,20.1,-7.9,-3.8,54.1,23.0,-39.0,23.6268,-6.772139999999999,-2.3048,-8.155669999999999,-7.393860000000001,-9.2625,50.4889,15.1502,-38.8648,0.247046,-0.149214,-0.7967920000000001,246.7,6.2,52.17,4.427230000000001,-5.2,1.44228,486.218,4.24712,185.084,65.745,150.679,0.6543869999999999,0.123956,247.553,1.0512,1.41226,13.1789169311523,22.003026962280305,4.89145612716675,22.0,1588850.0,6245.19,pp-ro,1,1,-1,-1
1570541461.3,2019-10-08,15:31:01.300,14.0,13.0,21.649999618530305,19.3,-8.5,-4.9,53.4,24.9,-42.7,21.3148,-9.17395,-5.77446,-6.2528,-6.16804,-6.15801,49.2492,22.5359,-46.8111,0.3438969999999999,-0.0861193,-0.7862819999999999,246.7,6.2,52.17,4.427230000000001,-5.2,1.44394,490.254,4.24714,184.383,68.025,150.97899999999998,0.6550600000000001,0.1118099999999999,247.829,0.994424,1.35228,11.111297607421902,22.003026962280305,3.6938283443450897,22.0,1589160.0,6214.43,pp-ro,1,1,-1,-1
1570541461.4,2019-10-08,15:31:01.400,14.0,12.0,21.850000381469695,18.5,-9.2,-5.7,52.7,26.6,-45.3,20.6918,-9.51576,-6.17398,-18.2568,-3.91551,-14.9106,48.5733,23.4571,-48.2972,-0.0749714,-0.103419,-0.38574,246.7,6.2,52.17,4.427230000000001,-5.2,1.46943,504.094,4.24716,183.594,69.925,151.279,0.656196,0.101328,247.955,0.951236,1.29839,9.14247131347656,22.003026962280305,2.59573197364807,22.0,1590040.0,6460.54,pp-ro,1,1,-1,-1
1570541461.5,2019-10-08,15:31:01.500,14.0,12.0,22.1700000762939,17.6,-9.6,-6.5,52.1,27.6,-47.9,20.22,-9.8018,-6.59558,-11.2837,-4.33823,-3.93923,48.2408,24.939,-49.5985,-0.0124141,-0.0563406999999999,-0.621002,245.5,7.1,52.17,4.427230000000001,-5.2,1.47497,507.028,4.24718,182.805,72.2051,151.779,0.657572,0.0890319,248.331,0.918122,1.24823,7.29285430908203,22.003026962280305,1.56892275810242,22.0,1590370.0,6368.25,pp-ro,1,1,-1,-1
1570541461.6,2019-10-08,15:31:01.600,14.0,12.0,22.4899997711182,17.0,-10.1,-7.0,51.2,29.1,-50.1,18.879,-10.67,-7.780689999999999,-0.1522339999999999,-1.81319,-1.54935,46.9389,27.8316,-53.1517,-0.0261040999999999,-0.0778881,-0.572291,245.5,7.1,52.17,4.427230000000001,-5.2,1.49048,509.858,4.24722,181.871,73.7251,152.279,0.6599109999999999,0.0800429999999999,248.397,0.8812270000000001,1.21102,5.60334014892578,22.003026962280305,0.745683670043945,22.0,1591010.0,7291.18,pp-ro,1,1,-1,-1
1570541461.7,2019-10-08,15:31:01.700,14.0,11.0,22.7999992370605,16.3,-10.3,-7.6,50.5,30.0,-52.2,18.0587,-11.0553,-8.27997,-7.1675,0.5667989999999999,-1.63477,45.9133,29.1778,-55.3541,-0.0511305,-0.0754678,-0.5167689999999999,245.5,7.1,52.17,4.427230000000001,-5.2,1.4816200000000002,504.4380000000001,4.24725,180.936,75.6251,152.879,0.662165,0.0692373999999999,248.654,0.8540459999999999,1.17374,4.8028564453125,22.003026962280305,-0.069641605019569,22.0,1592140.0,6922.01,pp-ro,1,1,-1,-1
1570541461.8,2019-10-08,15:31:01.800,14.0,11.0,23.100000381469695,15.9,-10.6,-7.8,49.7,30.6,-54.0,17.6528,-11.1219,-8.4794,-9.90028,-4.17486,-8.687669999999999,45.5388,29.7216,-56.2501,-0.00512205,0.0552296,-0.3134639999999999,245.5,7.1,52.17,4.427230000000001,-5.2,1.47774,502.703,4.2472900000000005,179.94299999999998,77.5251,153.579,0.6648069999999999,0.0582991999999999,248.95,0.833881,1.15661,3.01456451416016,22.0035419464111,-0.5015962123870851,22.0,1592560.0,8121.83,pp-ro,1,1,-1,-1
1570541461.9,2019-10-08,15:31:01.900,14.0,11.0,23.2900009155273,15.4,-10.6,-8.0,49.4,31.2,-55.2,17.1529,-11.311,-8.681610000000001,-1.85608,3.88897,2.56901,45.1391,31.03,-57.4531,0.104973,0.0236293,-0.2154,245.5,7.1,52.17,4.427230000000001,-5.2,1.46444,497.896,4.247330000000001,178.95,79.0451,154.279,0.667768,0.049119,249.145,0.8192709999999999,1.14044,1.77467346191406,22.0035419464111,-0.939701855182648,22.0,1593300.0,6675.89,pp-ro,1,1,-1,-1
1570541462.0,2019-10-08,15:31:02.000,14.0,11.0,23.440000534057603,15.1,-10.7,-8.3,49.6,31.2,-56.6,16.9047,-11.4269,-8.721689999999999,0.8773299999999999,-9.56382,-3.95858,44.9669,31.4811,-58.1471,0.0351796,-0.042756,-0.365552,245.5,7.1,52.17,4.427230000000001,-5.1,1.45336,495.176,4.24736,177.928,80.5651,155.079,0.671063,0.0398501,249.396,0.809499,1.12475,0.7085113525390621,22.0035419464111,-1.3891913890838603,22.0,1594410.0,7045.07,pp-ro,1,1,-1,-1
1570541462.1,2019-10-08,15:31:02.100,14.0,11.0,23.5200004577637,15.0,-10.9,-8.2,49.6,31.6,-57.1,16.3032,-11.4347,-8.666780000000001,-5.65546,0.197347,-5.42226,44.8352,32.2598,-59.775,-0.121367,0.0442356999999999,-0.122465,245.5,7.1,52.17,4.427230000000001,-5.1,1.45945,498.1,4.2474,176.847,82.4651,155.779,0.673728,0.0286593999999999,249.685,0.806365,1.12865,-0.146781921386719,22.0035419464111,-1.4088529348373402,22.0,1594690.0,5537.61,pp-ro,1,1,-1,-1
1570541462.2,2019-10-08,15:31:02.200,14.0,11.0,23.5599994659424,14.6,-11.1,-8.1,50.1,31.6,-57.3,16.0403,-11.7023,-8.3677,-4.60836,2.68543,4.92795,45.1085,32.2841,-60.1434,-0.0328944,-0.219415,-0.0590366,245.5,7.1,52.17,4.427230000000001,-5.1,1.47275,503.736,4.2474300000000005,175.766,83.9851,156.579,0.67705,0.0192071,249.929,0.8100890000000001,1.12219,-0.8465576171875,22.0035419464111,-1.6828361749649,22.0,1595310.0,6645.13,pp-ro,1,1,-1,-1
1570541462.3,2019-10-08,15:31:02.300,14.0,11.0,23.5599994659424,14.6,-11.0,-7.8,50.5,31.2,-57.5,15.8244,-11.8314,-8.09395,-6.2392,3.41094,-3.4166,45.3411,31.8164,-60.2496,0.131797,-0.0529409999999999,0.280062,245.5,7.1,52.17,4.427230000000001,-5.1,1.47275,495.797,4.24747,174.627,85.5051,157.28,0.680142,0.00959182,250.085,0.818563,1.14045,-1.33470153808594,22.0035419464111,-1.45349562168121,22.0,1596030.0,7198.89,pp-ro,1,1,-1,-1
1570541462.4,2019-10-08,15:31:02.400,14.0,11.0,23.4099998474121,14.5,-10.8,-7.5,50.9,30.9,-58.0,15.8963,-11.8369,-7.9771,0.144176,-0.0474284,0.277719,45.5773,31.6104,-60.5969,0.167716,-0.0830518,-0.0542485,245.5,7.1,52.17,4.427230000000001,-5.1,1.41956,473.231,4.2475,173.517,87.0252,157.98,0.68312,8.98273e-06,250.278,0.822515,1.1575,-1.6299743652343797,22.003026962280305,-1.24652516841888,22.0,1597320.0,7568.06,pp-ro,1,1,-1,-1
1570541462.5,2019-10-08,15:31:02.500,14.0,11.0,23.260000228881804,14.3,-10.9,-7.2,51.1,30.3,-58.0,15.767,-11.6641,-7.62732,-3.05913,1.13182,2.11888,45.7692,30.7606,-61.044,0.354357,0.00401224,0.24966,246.6,6.8,52.17,4.427230000000001,-5.1,1.42122,473.983,4.24754,172.407,88.1652,158.58,0.686178,-0.00786163,250.29,0.834457,1.1654,-1.61802673339844,22.003026962280305,-1.2401727437973,22.0,1597960.0,6583.6,pp-ro,1,1,-1,-1
1570541462.6,2019-10-08,15:31:02.600,14.0,12.0,23.0400009155273,14.1,-10.8,-6.9,51.1,29.6,-58.6,15.767,-11.6641,-7.62732,-3.05913,1.13182,2.11888,45.7692,30.7606,-61.044,0.354357,0.00401224,0.24966,246.6,6.8,52.17,4.427230000000001,-5.1,1.41901,475.878,4.24758,171.268,89.6852,159.18,0.688824,-0.017586,250.428,0.841996,1.17803,-1.37054443359375,22.003026962280305,-1.10993325710297,22.0,1598290.0,6091.37,pp-ro,1,1,-1,-1
1570541462.7,2019-10-08,15:31:02.700,14.0,13.0,22.8099994659424,14.0,-10.9,-6.5,50.9,28.7,-58.8,15.4971,-11.6769,-6.661110000000001,-3.95268,0.5265880000000001,1.50793,46.3753,28.8911,-61.8489,-0.428814,-0.0420524,0.0303522,246.6,6.8,52.17,4.427230000000001,-5.1,1.4217799999999998,467.892,4.24763,170.158,91.2052,159.78,0.691355,-0.0272697999999999,250.603,0.856374,1.19422,-1.21351623535156,22.003026962280305,-0.9053921699523928,22.0,1599250.0,8552.53,pp-ro,1,1,-1,-1
1570541462.8,2019-10-08,15:31:02.800,14.0,13.0,22.6200008392334,14.0,-10.9,-6.2,50.9,27.7,-59.1,15.4971,-11.6769,-6.661110000000001,-3.95268,0.5265880000000001,1.50793,46.3753,28.8911,-61.8489,-0.428814,-0.0420524,0.0303522,246.6,6.8,52.17,4.427230000000001,-5.1,1.39518,457.31,4.247669999999999,168.96099999999998,92.7252,160.28,0.6937260000000001,-0.0371978,250.67,0.8709629999999999,1.21197,-1.08039093017578,22.003026962280305,-0.661598443984985,22.0,1599980.0,6368.25,pp-ro,1,1,-1,-1
1570541462.9,2019-10-08,15:31:02.900,14.0,13.0,22.3899993896484,13.8,-10.8,-5.7,50.5,26.7,-59.6,15.2867,-11.7612,-6.24545,-3.70207,4.86498,0.363534,47.1005,27.7345,-61.6139,0.0137986999999999,-0.3417949999999999,0.1393309999999999,246.6,6.8,52.17,4.427230000000001,-5.1,1.39352,454.6,4.24771,167.851,93.8652,160.78,0.696327,-0.0452126,250.669,0.8819540000000001,1.23215,-0.8482666015625,22.0035419464111,-0.398154884576797,22.0,1600300.0,6183.66,pp-ro,1,1,-1,-1
1570541463.0,2019-10-08,15:31:03.000,14.0,13.0,22.0699996948242,13.5,-10.6,-5.2,50.1,25.7,-60.5,15.1712,-11.7187,-5.69678,6.23916,-4.67319,8.52346,47.3708,26.077,-62.9133,0.320322,-0.0415191999999999,0.0249935,246.6,6.8,52.17,4.427230000000001,-5.1,1.37634,442.695,4.24775,166.683,95.3852,161.28,0.698543,-0.0551316,250.784,0.8894799999999999,1.25298,-0.7646331787109379,22.0035419464111,-0.0898953452706339,22.0,1601280.0,5999.08,pp-ro,1,1,-1,-1
1570541463.1,2019-10-08,15:31:03.100,14.0,13.0,21.8700008392334,13.3,-10.1,-4.9,50.1,25.5,-60.0,14.7172,-11.3992,-5.01449,-8.03036,5.03998,3.10021,47.5875,25.0198,-63.1663,-0.0281382,0.185174,0.0920225,246.6,6.8,52.17,4.427230000000001,-5.1,1.35085,426.698,4.24779,165.602,96.9052,161.68,0.70021,-0.0648469,250.908,0.904162,1.2759200000000002,-0.435226440429688,22.0035419464111,0.2973448932170869,22.0,1602020.0,7752.65,pp-ro,1,1,-1,-1
1570541463.2,2019-10-08,15:31:03.200,14.0,14.0,21.6299991607666,13.2,-10.3,-4.9,50.5,25.4,-60.1,14.5425,-11.0653,-4.83682,1.86873,5.49205,0.478687,47.7206,24.8553,-63.0588,0.212215,0.0877279,0.0855118999999999,246.6,6.8,52.17,4.427230000000001,-5.1,1.3137299999999998,403.001,4.24783,164.521,98.0452,162.18,0.702635,-0.0728757,250.963,0.909419,1.27346,-0.076805114746094,22.003026962280305,0.107574164867401,22.0,1602770.0,7660.36,pp-ro,1,1,-1,-1
1570541463.3,2019-10-08,15:31:03.300,14.0,13.0,21.340000152587898,12.9,-10.3,-4.7,50.1,25.9,-59.8,14.5174,-11.1283,-4.788819999999999,-4.74321,-0.4672989999999999,8.452810000000001,47.7849,24.9641,-62.6465,-0.000218292,-0.216966,-0.2499849999999999,246.6,6.8,52.17,4.427230000000001,-5.1,1.2921200000000002,397.916,4.24788,163.382,99.1852,162.68,0.705156,-0.0810919,250.991,0.912483,1.27736,0.233329772949219,22.0025119781494,0.033248011022806,22.0,1603170.0,7506.54,pp-ro,1,1,-1,-1
1570541463.4,2019-10-08,15:31:03.400,14.0,14.0,21.1399993896484,12.8,-10.2,-4.5,49.9,25.5,-60.8,14.1986,-11.3161,-4.516830000000001,-2.5627,-4.59175,4.07265,47.4619,25.2114,-62.9659,0.2822659999999999,0.108792,0.0748183,246.6,6.8,52.17,4.427230000000001,-5.1,1.2827,394.172,4.24792,162.33100000000002,100.705,163.08,0.706629,-0.0907915,251.173,0.911861,1.29108,0.282722473144531,22.0025119781494,0.242761537432671,22.0,1603590.0,3660.97,pp-ro,1,1,-1,-1
1570541463.5,2019-10-08,15:31:03.500,14.0,14.0,20.9300003051758,12.7,-10.0,-4.4,49.3,25.3,-61.4,14.0059,-11.189,-4.20685,-3.20936,2.09256,7.64116,46.7657,24.7054,-64.2709,0.0258957999999999,-0.0236014,-0.0100615,252.8,7.1,52.17,4.427230000000001,-5.1,1.2827,389.326,4.24798,161.25,101.845,163.48,0.708645,-0.0989243,251.197,0.912475,1.30196,0.183937072753906,22.0025119781494,0.339796602725983,22.0,1604130.0,6183.66,pp-ro,1,1,-1,-1
1570541463.6,2019-10-08,15:31:03.600,14.0,14.0,20.7600002288818,12.5,-10.2,-4.0,48.7,24.2,-62.4,13.7029,-11.1614,-3.82698,-1.36951,0.715727,0.55993,46.1329,23.8085,-65.3026,-0.108121,-0.134327,0.187398,252.8,7.1,52.17,4.427230000000001,-5.1,1.26719,390.81,4.248069999999999,160.695,102.605,163.68,0.709408,-0.103939,251.281,0.916631,1.31137,0.144767761230469,22.0025119781494,0.492843270301819,22.0,1604610.0,3537.92,pp-ro,1,1,-1,-1
1570541463.7,2019-10-08,15:31:03.700,14.0,14.0,20.6299991607666,12.1,-9.9,-3.9,48.0,23.4,-62.8,13.4842,-11.2072,-3.74124,-13.6158,1.21766,1.00394,46.1299,23.4345,-65.4266,-0.153743,-0.0773344,0.0533496,252.8,7.1,52.17,4.427230000000001,-5.1,1.2888,391.333,4.24816,159.14700000000002,104.505,164.38,0.71221,-0.116817,251.535,0.929706,1.31781,0.345733642578125,22.0025119781494,0.453831434249878,22.0,1604980.0,4737.73,pp-ro,1,1,-1,-1
1570541463.8,2019-10-08,15:31:03.800,14.0,13.0,20.5499992370605,12.1,-9.8,-3.7,48.2,23.9,-62.8,13.0789,-10.9256,-3.59933,-3.97836,-1.39116,-1.95968,46.1206,23.3082,-65.3742,0.00946916,-0.234986,0.179062,252.8,7.1,52.17,4.427230000000001,-5.1,1.26552,381.501,4.24825,158.125,105.645,164.78,0.713992,-0.124869,251.629,0.92929,1.33468,0.553520202636719,22.0025119781494,0.6787559390068051,22.0,1605630.0,5937.55,pp-ro,1,1,-1,-1
1570541463.9,2019-10-08,15:31:03.900,14.0,14.0,20.3799991607666,12.1,-9.8,-3.7,48.1,23.4,-63.8,12.9486,-10.7489,-3.34661,3.14909,-9.0469,3.85591,46.003,23.013,-66.5385,0.0861618999999999,-0.090185,-0.233783,252.8,7.1,52.17,4.427230000000001,-5.1,1.24613,365.904,4.24835,157.10299999999998,107.165,164.98,0.714584,-0.134592,251.762,0.929647,1.3409,0.4734725952148439,22.0019989013672,0.8138915896415709,22.0,1606130.0,5322.26,pp-ro,1,1,-1,-1
1570541464.0,2019-10-08,15:31:04.000,14.0,13.0,20.25,12.0,-9.9,-3.4,47.7,23.5,-64.3,12.9486,-10.7489,-3.34661,3.14909,-9.0469,3.85591,46.003,23.013,-66.5385,0.0861618999999999,-0.090185,-0.233783,252.8,7.1,52.17,4.42724,-5.0,1.21676,357.73,4.24844,156.11,108.305,165.581,0.716829,-0.142584,252.026,0.927778,1.35408,0.543304443359375,22.0025119781494,0.913178324699402,22.0,1606730.0,5599.14,pp-ro,1,1,-1,-1
1570541464.1,2019-10-08,15:31:04.100,14.0,14.0,20.159999847412102,11.5,-9.5,-3.2,48.0,23.1,-64.7,12.7347,-10.7987,-3.1885,-11.509,2.3111900000000003,1.55576,45.8035,23.175,-66.6506,-0.246533,-0.039297,-0.0502711,252.8,7.1,52.17,4.42724,-5.0,1.22231,358.2,4.248530000000001,155.08700000000002,109.065,165.981,0.7190770000000001,-0.149042,251.986,0.931808,1.36086,0.7136154174804691,22.0019989013672,0.8644437789916991,22.0,1607010.0,2091.99,pp-ro,1,1,-1,-1
1570541464.2,2019-10-08,15:31:04.200,14.0,14.0,20.0300006866455,11.4,-9.5,-3.2,47.6,23.2,-65.1,12.1077,-10.4898,-2.83231,2.0662700000000003,1.92845,-0.0910431,45.9698,23.2024,-67.9319,0.0198199,-0.133575,-0.0734875,252.8,7.1,52.17,4.42724,-5.0,1.21344,347.103,4.24862,154.591,109.825,166.18099999999998,0.719587,-0.153917,252.143,0.929095,1.36041,0.6965866088867191,22.0025119781494,0.83743017911911,22.0,1607540.0,6245.19,pp-ro,1,1,-1,-1
1570541464.3,2019-10-08,15:31:04.300,14.0,14.0,19.9400005340576,11.2,-9.4,-3.2,47.6,23.2,-65.3,11.9721,-10.3736,-2.96775,-5.16953,1.70828,-6.07707,45.6092,23.4268,-68.4092,-0.135746,0.136325,-0.100938,252.8,7.1,52.17,4.42724,-5.0,1.17299,327.383,4.24871,153.627,110.965,166.581,0.721092,-0.161857,252.317,0.932032,1.36103,0.8379440307617191,22.0025119781494,0.7469322085380551,22.0,1608210.0,3691.74,pp-ro,1,1,-1,-1
1570541464.4,2019-10-08,15:31:04.400,14.0,14.0,19.7600002288818,10.9,-9.4,-3.3,47.5,23.3,-65.9,11.6129,-10.3747,-2.93417,-0.868613,-0.442607,-1.32493,45.818000000000005,23.5005,-68.4536,-0.108911,-0.0551915999999999,0.0837415,252.8,7.1,52.17,4.42724,-5.0,1.16801,323.591,4.2488,152.605,112.105,166.981,0.722688,-0.169989,252.465,0.929091,1.35022,0.8294296264648441,22.0025119781494,0.414810389280319,22.0,1608440.0,4368.56,pp-ro,1,1,-1,-1
1570541464.5,2019-10-08,15:31:04.500,14.0,14.0,19.6299991607666,10.8,-9.3,-3.3,47.2,23.5,-66.9,11.3528,-10.2737,-2.99356,-0.741899,-0.723105,1.26201,45.6648,23.3633,-69.3743,0.0832503,-0.0594418,-0.0869191,251.3,7.3,52.17,4.42724,-5.0,1.14695,318.434,4.248880000000001,151.67,112.865,167.38099999999997,0.724661,-0.176238,252.505,0.9188,1.35324,0.7544937133789059,22.0009689331055,0.293741941452026,22.0,1608850.0,3784.03,pp-ro,1,1,-1,-1
1570541464.6,2019-10-08,15:31:04.600,14.0,13.0,19.3999996185303,10.6,-9.2,-3.2,46.6,23.6,-67.5,11.0397,-10.0601,-2.82713,-0.681897,0.715723,-0.252501,45.1668,23.3851,-70.3355,0.259148,-0.184674,0.0386259,251.3,7.3,52.17,4.42724,-5.0,1.16468,327.751,4.24896,150.765,114.385,167.78099999999998,0.725349,-0.185613,252.912,0.916799,1.35935,0.48028564453125,22.0009689331055,-35.0,22.0,1609260.0,2953.39,pp-ro,1,1,-1,-1
1570541464.7,2019-10-08,15:31:04.700,14.0,14.0,19.270000457763697,10.2,-9.2,-3.1,46.2,23.2,-68.4,11.0397,-10.0601,-2.82713,-0.681897,0.715723,-0.252501,45.1668,23.3851,-70.3355,0.259148,-0.184674,0.0386259,251.3,7.3,52.17,4.42724,-5.0,1.16856,325.644,4.24903,149.304,115.905,168.481,0.728029,-0.196765,253.203,0.917897,1.35605,0.313377380371094,22.0009689331055,-35.0,22.0,1609570.0,3107.21,pp-ro,1,1,-1,-1
1570541464.8,2019-10-08,15:31:04.800,14.0,14.0,19.1299991607666,10.2,-9.1,-3.1,46.1,23.1,-68.8,11.0397,-10.0601,-2.82713,-0.681897,0.715723,-0.252501,45.1668,23.3851,-70.3355,0.259148,-0.184674,0.0386259,251.3,7.3,52.17,4.42724,-5.0,1.16579,321.874,4.2491,148.83700000000002,116.285,168.68099999999998,0.728974,-0.199946,253.235,0.916223,1.36091,0.027252197265625,22.0009689331055,-35.0,22.0,1609790.0,4060.91,pp-ro,1,1,-1,-1
1570541464.9,2019-10-08,15:31:04.900,14.0,14.0,19.1299991607666,10.1,-9.2,-3.0,46.8,22.9,-68.5,10.4159,-9.80338,-2.63753,-0.826031,2.91395,-5.39346,45.032,23.8417,-70.9476,-0.0318622,-0.0342195,-0.0505154,251.3,7.3,52.17,4.42724,-5.0,1.14917,317.914,4.24918,147.90200000000002,117.045,169.081,0.7308479999999999,-0.2062469999999999,253.304,0.926447,1.36355,-0.61102294921875,22.0009689331055,-35.0,22.0,1610350.0,2491.92,pp-ro,1,1,-1,-1
1570541465.0,2019-10-08,15:31:05.000,14.0,14.0,19.1800003051758,10.3,-9.2,-3.0,46.6,23.2,-69.1,10.4501,-9.91322,-2.65512,-5.44632,-4.19603,1.50469,45.3268,24.2028,-70.8166,-0.106892,0.139314,0.0477811999999999,251.3,7.3,52.17,4.42724,-4.8,1.1475,308.668,4.24925,146.968,118.185,169.481,0.732075,-0.214137,253.557,0.921101,1.37684,-1.59413146972656,22.0009689331055,-35.0,22.0,1610720.0,4522.38,pp-ro,1,1,-1,-1
1570541465.1,2019-10-08,15:31:05.100,14.0,13.0,19.2199993133545,10.5,-9.4,-3.0,46.9,22.9,-69.8,10.5529,-9.95313,-2.58832,4.4522900000000005,-1.90493,1.54861,44.8697,23.774,-71.6386,-0.00601076,0.0338593,-0.103029,251.3,7.3,52.17,4.42724,-4.8,1.13144,308.822,4.2493300000000005,146.033,119.325,169.88099999999997,0.733269,-0.222029,253.818,0.92129,1.38446,-2.93565368652344,22.0009689331055,-35.0,22.0,1611000.0,5260.73,pp-ro,1,1,-1,-1
1570541465.2,2019-10-08,15:31:05.200,14.0,13.0,19.270000457763697,10.5,-9.5,-2.7,46.6,21.1,-70.3,10.5832,-9.99782,-2.14093,2.15594,0.5812430000000001,5.54076,45.4256,22.4808,-71.7577,-0.1214349999999999,-0.0999546,0.191011,251.3,7.3,52.17,4.42724,-4.8,1.14252,324.98900000000003,4.2494,145.04,120.085,170.28099999999998,0.735189,-0.228566,253.875,0.939792,1.40141,-4.649261474609379,22.0009689331055,-35.0,22.0,1611160.0,553.761,pp-ro,1,1,-1,-1
1570541465.3,2019-10-08,15:31:05.300,14.0,14.0,19.3199996948242,10.7,-9.3,-2.3,47.4,20.3,-70.0,10.5832,-9.99782,-2.14093,2.15594,0.5812430000000001,5.54076,45.4256,22.4808,-71.7577,-0.1214349999999999,-0.0999546,0.191011,251.3,7.3,52.17,4.42724,-4.8,1.1846299999999998,327.16,4.24948,144.076,121.605,170.581,0.7354430000000001,-0.238111,254.251,0.959411,1.44148,-6.6973876953125,22.0009689331055,-35.0,22.0,1611570.0,6029.84,pp-ro,1,1,-1,-1
1570541465.4,2019-10-08,15:31:05.400,14.0,13.0,19.4500007629395,11.2,-9.3,-2.0,48.4,19.5,-69.0,10.5697,-9.99246,-1.92148,2.79983,3.07736,7.95458,45.9957,22.4289,-71.6492,0.0846556,-0.103638,-0.0485915,251.3,7.3,52.17,4.42724,-4.8,1.15969,318.568,4.24958,143.141,122.365,170.88099999999997,0.736899,-0.244434,254.29,0.98547,1.47893,-8.80014038085938,22.0009689331055,-35.0,22.0,1611900.0,6337.48,pp-ro,1,1,-1,-1
1570541465.5,2019-10-08,15:31:05.500,14.0,12.0,19.5,11.5,-9.3,-1.5,49.1,16.9,-67.9,11.0799,-9.56209,-1.24473,2.98173,1.07886,6.27034,47.0956,21.3982,-70.6115,-0.0584145,-0.0836457,0.293606,251.5,8.4,52.17,4.42724,-4.8,1.13642,308.507,4.24965,142.207,123.505,171.081,0.737386,-0.252396,254.451,1.035,1.51934,-10.9267807006836,22.0009689331055,-35.0,22.0,1612410.0,2922.63,pp-ro,1,1,-1,-1
1570541465.6,2019-10-08,15:31:05.600,14.0,13.0,19.590000152587898,12.1,-9.0,-0.7,50.8,14.5,-65.8,11.1716,-9.49846,-1.01563,1.20915,3.07592,-1.1036700000000002,47.833,20.3018,-69.5197,0.1148579999999999,-0.00029558,0.360423,251.5,8.4,52.17,4.42724,-4.8,1.12645,298.986,4.24978,141.214,124.645,171.18099999999998,0.737667,-0.2604849999999999,254.521,1.09545,1.5927,-13.0261154174805,22.0009689331055,-35.0,22.0,1612770.0,3907.09,pp-ro,1,1,-1,-1
1570541465.7,2019-10-08,15:31:05.700,14.0,13.0,19.590000152587898,13.2,-8.6,0.0,52.8,12.4,-63.6,12.2104,-8.73577,0.602649,9.36578,4.103190000000001,7.225039999999999,51.9259,17.1707,-64.1423,0.290774,-0.0743748,0.574412,251.5,8.4,52.17,4.42724,-4.8,1.10096,286.556,4.2499,140.279,126.165,171.28099999999998,0.7371310000000001,-0.269928,254.82,1.15488,1.67547,-15.1288604736328,22.0009689331055,-35.0,22.0,1613200.0,4245.5,pp-ro,1,1,-1,-1
1570541465.8,2019-10-08,15:31:05.800,14.0,12.0,19.6399993896484,14.2,-8.6,1.1,54.7,9.2,-61.7,12.2104,-8.73577,0.602649,9.36578,4.103190000000001,7.225039999999999,51.9259,17.1707,-64.1423,0.290774,-0.0743748,0.574412,251.5,8.4,52.17,4.42724,-4.8,1.09431,289.013,4.250030000000001,139.403,127.305,171.282,0.7368239999999999,-0.277707,254.906,1.22315,1.7518900000000002,-17.228195190429698,22.0009689331055,-35.0,22.0,1613380.0,3568.68,pp-ro,1,1,-1,-1
1570541465.9,2019-10-08,15:31:05.900,14.0,12.0,19.6800003051758,15.1,-8.5,2.6,56.0,5.6,-59.0,14.035,-8.32103,2.86794,6.08711,3.51925,18.8685,55.4312,11.3034,-58.3474,0.339552,0.16644,0.758759,251.5,8.4,52.17,4.42724,-4.8,1.12146,312.433,4.25015,138.52700000000002,128.825,171.082,0.7352270000000001,-0.286888,255.058,1.30801,1.84016,-19.344596862793,22.0009689331055,-35.0,22.0,1613490.0,123.058,pp-ro,1,1,-1,-1
1570541466.0,2019-10-08,15:31:06.000,14.0,13.0,19.8099994659424,15.9,-7.7,4.3,58.2,0.0,-56.4,14.035,-8.32103,2.86794,6.08711,3.51925,18.8685,55.4312,11.3034,-58.3474,0.339552,0.16644,0.758759,251.5,8.4,52.17,4.42724,-4.6,1.17022,324.48400000000004,4.25027,137.65,130.345,170.782,0.733301,-0.296032,255.155,1.41795,1.95305,-21.4712371826172,22.0009689331055,-35.0,22.0,1613590.0,2122.75,pp-ro,1,1,-1,-1
1570541466.1,2019-10-08,15:31:06.100,14.0,13.0,19.9500007629395,17.0,-6.9,5.9,60.7,-4.6,-53.4,14.7521,-7.452789999999999,4.40301,12.627,8.32263,15.0986,57.9143,7.02958,-54.6575,0.2446199999999999,0.176448,0.962082,251.5,8.4,52.17,4.42724,-4.6,1.15249,317.202,4.2504,136.891,131.865,170.282,0.730532,-0.304709,255.193,1.52028,2.05458,-23.584228515625,22.0009689331055,-35.0,22.0,1614110.0,5999.08,pp-ro,1,1,-1,-1
