time,date,time_of_day,airspeed_temperature,airspeed_angle_of_attack,airspeed_apparent_windspeed,kite_0_vx,kite_0_vy,kite_0_vz,kite_0_roll,kite_0_pitch,kite_0_yaw,kite_1_vx,kite_1_vy,kite_1_vz,kite_1_ax,kite_1_ay,kite_1_az,kite_1_roll,kite_1_pitch,kite_1_yaw,kite_1_roll_rate,kite_1_pitch_rate,kite_1_yaw_rate,ground_upwind_direction,ground_wind_velocity,ground_pos_latitude,ground_pos_longitude,ground_pos_altitude,ground_tether_reelout_speed,ground_tether_force,est_upwind_direction,kite_pos_east,kite_pos_north,kite_height,kite_elevation,kite_azimuth,kite_distance,kite_heading,kite_course,kite_actual_steering,kite_actual_depower,kite_set_steering,kite_set_depower,ground_mech_energy,ground_mech_power,flight_phase,flight_phase_index,phase,pattern,pattern_section
1570536304.1,2019-10-08,14:05:04.100,14.0,9.0,15.4099998474121,12.7,-2.0,1.9,19.7,-0.9,-55.4,11.2761,-1.618,2.33882,10.3014,11.5176,4.08331,21.6798,13.4764,-57.7065,0.2355989999999999,0.244957,0.962725,247.7,5.1,52.1701,4.42719,14.8,-2.35153,110.314,4.52807,63.7602,-4.55976,233.524,1.30361,0.255711,242.115,0.550658,1.3894799999999998,-34.691925048828104,22.0256862640381,-35.0,22.0,-893267.0,1199.82,pp-riro,4,0,-1,-1
1570536304.2,2019-10-08,14:05:04.200,14.0,9.0,15.119999885559098,13.6,-0.9,2.2,21.6,-2.3,-50.2,11.2761,-1.618,2.33882,10.3014,11.5176,4.08331,21.6798,13.4764,-57.7065,0.2355989999999999,0.244957,0.962725,247.7,5.1,52.1701,4.42719,14.8,-2.32438,107.433,4.52802,63.5558,-3.41972,233.424,1.3046,0.2381199999999999,241.946,0.664824,1.49753,-34.9581909179688,22.007146835327102,-35.0,22.0,-893301.0,-676.819,pp-riro,4,0,-1,-1
1570536304.3,2019-10-08,14:05:04.300,14.0,8.0,14.9499998092651,14.4,0.0,2.6,23.4,-4.2,-45.1,12.5247,-0.0933988,2.87292,6.518269999999999,7.118930000000001,3.72287,25.1994,11.7182,-48.6554,0.200486,0.241785,0.982152,247.7,5.1,52.1701,4.42719,14.8,-2.29667,102.358,4.52798,63.4681,-2.27968,233.224,1.30493,0.2203159999999999,241.717,0.779423,1.58361,-34.970123291015604,22.0009689331055,-35.0,22.0,-893460.0,-1907.4,pp-riro,4,0,-1,-1
1570536304.4,2019-10-08,14:05:04.400,14.0,8.0,14.7700004577637,15.1,1.3,3.0,25.3,-6.5,-39.8,13.2494,1.01181,3.23723,8.28369,10.0662,3.40061,27.4228,9.91967,-42.6216,0.249771,0.2114739999999999,1.02401,247.7,5.1,52.1701,4.42719,14.8,-2.29168,100.886,4.5279300000000005,63.4973,-0.759621,233.024,1.30474,0.196423,241.522,0.905752,1.6938099999999998,-34.970123291015604,22.0009689331055,-35.0,22.0,-893819.0,-3353.33,pp-riro,4,0,-1,-1
1570536304.5,2019-10-08,14:05:04.500,14.0,8.0,14.5799999237061,15.6,2.5,3.4,26.8,-8.2,-34.7,13.9103,2.1291900000000004,3.70417,6.27497,11.7677,4.5122,29.3454,7.82867,-36.7279,0.0878892,0.162633,0.982729,247.7,5.1,52.1701,4.42719,14.8,-2.29612,95.5872,4.527880000000001,63.6141,0.7604350000000001,232.824,1.30406,0.1725539999999999,241.359,1.02656,1.79116,-34.975250244140604,22.0009689331055,-35.0,22.0,-894704.0,-7168.13,pp-riro,4,0,-1,-1
1570536304.6,2019-10-08,14:05:04.600,14.0,9.0,14.460000038147,16.1,3.7,3.8,28.1,-10.3,-29.5,13.9103,2.1291900000000004,3.70417,6.27497,11.7677,4.5122,29.3454,7.82867,-36.7279,0.0878892,0.162633,0.982729,247.7,5.1,52.1701,4.42719,14.8,-2.3072,93.3474,4.527830000000001,63.877,2.2804900000000004,232.624,1.30265,0.148869,241.246,1.15065,1.88162,-34.9923248291016,22.0009689331055,-35.0,22.0,-895069.0,-6952.77,pp-riro,4,0,-1,-1
1570536304.7,2019-10-08,14:05:04.700,14.0,9.0,14.2799997329712,16.4,5.0,4.2,29.0,-12.2,-24.3,14.7851,4.50779,4.50413,3.33801,11.3982,5.97801,32.1981,3.47987,-25.2477,0.0362088,0.240671,1.02676,247.7,5.1,52.1701,4.4272,15.1,-2.37036,91.6656,4.52779,64.2566,3.80055,232.424,1.30062,0.125525,241.173,1.27336,1.97435,-34.9923248291016,22.0009689331055,-35.0,22.0,-896494.0,-10244.6,pp-riro,4,0,-1,-1
1570536304.8,2019-10-08,14:05:04.800,14.0,8.0,14.210000038147,16.7,6.2,4.7,30.2,-14.4,-18.9,15.0833,5.65231,4.86175,0.569782,10.004,4.11767,33.2358,1.2795,-19.5728,0.254311,0.278454,1.0426799999999998,247.7,5.1,52.1701,4.4272,15.1,-2.38699,92.5107,4.5277400000000005,64.7824,5.70063,232.124,1.29764,0.0968798999999999,241.062,1.4058700000000002,2.06279,-34.9923248291016,22.0009689331055,-35.0,22.0,-897092.0,-11044.5,pp-riro,4,0,-1,-1
1570536304.9,2019-10-08,14:05:04.900,14.0,8.0,14.1499996185303,16.7,7.5,5.3,30.7,-16.8,-13.3,15.1547,6.27376,5.09066,1.33978,12.3754,3.67454,33.6563,0.111614,-16.6899,0.0257608,0.225655,1.13259,247.7,5.1,52.1701,4.4272,15.1,-2.4291,94.0247,4.52769,65.3957,7.220689999999999,231.724,1.29415,0.0747277,240.883,1.53579,2.15283,-34.9991455078125,22.0009689331055,-35.0,22.0,-897997.0,-8706.35,pp-riro,4,0,-1,-1
1570536305.0,2019-10-08,14:05:05.000,14.0,8.0,14.1499996185303,16.7,8.8,5.7,31.0,-18.9,-7.9,15.2636,7.40075,5.58673,-0.202617,10.2898,7.353,34.224000000000004,-2.28382,-10.9262,0.0197828,0.204096,1.09416,247.7,5.1,52.1701,4.4272,15.1,-2.48451,91.6945,4.52764,66.1259,9.12077,231.324,1.28986,0.0476797,240.762,1.6646599999999998,2.24058,-35.0059814453125,22.0009689331055,-35.0,22.0,-899417.0,-9444.7,pp-riro,4,0,-1,-1
1570536305.1,2019-10-08,14:05:05.100,14.0,9.0,14.1499996185303,16.7,10.2,6.0,31.1,-20.7,-2.2,15.2767,8.58123,5.99861,-1.89246,12.5392,5.70712,34.3053,-4.61734,-5.17359,0.0436769,0.219277,1.01845,255.3,6.1,52.1701,4.4272,15.1,-2.50722,91.9304,4.5276,67.0021,10.6408,230.824,1.28493,0.0272942999999999,240.587,1.78937,2.32062,-35.0059814453125,22.0009689331055,-35.0,22.0,-900016.0,-11352.1,pp-riro,4,0,-1,-1
1570536305.2,2019-10-08,14:05:05.200,14.0,8.0,14.2799997329712,16.5,11.5,6.6,31.0,-22.7,3.6,15.1584,9.80065,6.35201,-1.73436,12.9502,5.13897,34.3335,-6.779389999999999,0.625768,0.146241,0.152772,1.00826,255.3,6.1,52.1701,4.4272,15.1,-2.55543,100.865,4.52763,68.0535,12.1609,230.224,1.27908,0.00793365,240.379,1.91447,2.3999,-35.0059814453125,22.0009689331055,-35.0,22.0,-901454.0,-8398.71,pp-riro,4,0,-1,-1
1570536305.3,2019-10-08,14:05:05.300,14.0,8.0,14.3400001525879,16.3,12.8,7.2,30.7,-24.8,9.2,15.0198,11.5917,6.970460000000001,-2.21171,8.55435,6.36379,33.7425,-9.82164,9.55068,0.022855,0.298656,1.0803200000000002,255.3,6.1,52.1701,4.4272,15.1,-2.56485,105.12,4.52766,69.1633,14.061,229.623,1.2726,-0.0158338,240.225,2.03935,2.47917,-35.0059814453125,22.0009689331055,-35.0,22.0,-901702.0,-4676.2,pp-riro,4,0,-1,-1
1570536305.4,2019-10-08,14:05:05.400,14.0,9.0,14.460000038147,15.9,14.1,7.7,30.3,-26.4,15.3,14.779000000000002,12.7215,7.57633,-3.93419,13.2932,5.38346,33.0372,-11.6876,15.7846,0.00179796,0.3173809999999999,1.0341200000000002,255.3,6.1,52.1701,4.4272,15.1,-2.54379,111.092,4.52768,70.4777,15.5811,229.023,1.26549,-0.0328739,240.128,2.16163,2.55351,-35.0042724609375,22.0009689331055,-35.0,22.0,-901844.0,-30.7645,pp-riro,4,0,-1,-1
1570536305.5,2019-10-08,14:05:05.500,14.0,10.0,14.5799999237061,15.4,15.5,8.2,29.3,-28.0,21.5,14.5788,13.2999,7.75558,-4.800330000000001,13.318,5.4073400000000005,32.5521,-12.6396,18.8442,0.162963,0.316894,1.06872,255.3,6.1,52.1701,4.4272,15.1,-2.49337,113.635,4.52771,71.8504,17.4811,228.223,1.25746,-0.0539727,239.904,2.28732,2.63407,-35.0042724609375,22.0009689331055,-35.0,22.0,-901780.0,215.351,pp-riro,4,0,-1,-1
1570536305.6,2019-10-08,14:05:05.600,14.0,10.0,14.880000114440902,14.8,16.8,8.8,28.6,-29.6,27.9,14.126,14.5634,8.2154,-6.0656,14.0263,5.42594,31.5579,-14.2463,25.1448,-0.0110298999999999,0.3165489999999999,1.04694,255.3,6.1,52.1701,4.4272,15.1,-2.3803400000000003,127.113,4.5277400000000005,73.4276,18.6212,227.423,1.24927,-0.063718,239.707,2.40389,2.70128,-35.0059814453125,22.0009689331055,-23.0044822692871,22.0,-901250.0,5445.31,pp-riro,4,0,-1,-1
1570536305.7,2019-10-08,14:05:05.700,14.0,10.0,15.2399997711182,14.1,18.1,9.4,27.3,-31.0,34.6,13.0015,16.9714,9.2954,-6.26972,12.3994,4.652019999999999,28.6814,-17.1372,38.2114,0.0590405999999999,0.376282,1.0321,255.3,6.1,52.1701,4.4272,15.1,-2.25678,141.082,4.527769999999999,75.1215,20.5213,226.623,1.23981,-0.0820521999999999,239.63,2.52978,2.7761400000000003,-35.0059814453125,22.0009689331055,-23.0044822692871,22.0,-900192.0,13228.7,pp-riro,4,0,-1,-1
1570536305.8,2019-10-08,14:05:05.800,14.0,10.0,15.5799999237061,13.2,19.4,10.0,25.8,-32.4,41.4,12.5926,17.5568,9.54945,-8.27358,12.9616,7.1484,27.8439,-17.8022,41.5245,-0.0237766,0.253089,1.06029,255.3,6.1,52.1701,4.4272,15.1,-2.1648,146.43,4.5278,76.9032,21.6614,225.623,1.23046,-0.0899701,239.351,2.64585,2.84442,-34.966720581054695,22.0009689331055,-23.0044822692871,22.0,-899424.0,15013.1,pp-riro,4,0,-1,-1
1570536305.9,2019-10-08,14:05:05.900,14.0,11.0,15.9700002670288,12.1,20.7,10.5,24.2,-33.5,48.9,12.1937,18.1061,9.84866,-10.0901,9.11657,5.59236,26.9714,-18.4159,45.0311,-0.00723386,0.309709,1.1136,255.3,6.1,52.1701,4.4272,15.1,-1.93818,153.639,4.527830000000001,78.9184,22.8014,224.623,1.2202,-0.096707,239.172,2.76835,2.91447,-34.584396362304695,22.0009689331055,-23.0044822692871,22.0,-897711.0,17689.6,pp-riro,4,0,-1,-1
1570536306.0,2019-10-08,14:05:06.000,14.0,10.0,16.3500003814697,10.9,21.8,10.9,22.3,-34.6,56.1,11.2496,19.2288,10.2739,-7.61158,9.7511,4.57461,24.9939,-19.7713,52.0734,0.0191836,0.298942,1.1833,255.3,6.1,52.1701,4.4272,15.1,-1.69605,159.713,4.52786,81.0213,24.3215,223.523,1.209,-0.1071,238.99400000000003,2.88742,2.98437,-33.843658447265604,22.0009689331055,-22.9193820953369,22.0,-895935.0,17812.6,pp-riro,4,0,-1,-1
1570536306.1,2019-10-08,14:05:06.100,14.0,11.0,16.7800006866455,9.6,22.7,11.3,19.9,-35.3,63.5,10.1412,20.2274,10.6794,-10.895,7.2285,3.57807,22.8515,-20.8221,59.0103,0.0170156,0.212823,1.1338,240.5,6.4,52.1701,4.4272,15.1,-1.3974,165.93200000000002,4.52789,83.1242,25.4616,222.523,1.19835,-0.11272,238.902,3.00264,3.04795,-32.7444915771484,22.0009689331055,-22.3349170684814,22.0,-894185.0,16797.4,pp-riro,4,0,-1,-1
1570536306.2,2019-10-08,14:05:06.200,14.0,10.0,17.0900001525879,8.1,23.5,11.6,19.0,-35.4,67.1,8.93707,21.1127,10.998,-10.3708,7.417210000000001,0.899235,20.622,-22.0399,66.189,0.186129,0.189101,1.11575,240.5,6.4,52.1701,4.4272,15.1,-1.09819,172.19400000000002,4.52781,84.2049,25.8416,221.922,1.19297,-0.113191,238.763,3.05608,3.11058,-31.2971496582031,22.0009689331055,-21.365608215332,22.0,-892698.0,14397.8,pp-riro,4,0,-1,-1
1570536306.3,2019-10-08,14:05:06.300,14.0,10.0,17.5499992370605,6.5,24.1,11.7,14.9,-35.8,78.4,8.26486,21.5175,11.1803,-13.6019,11.2937,3.61394,19.3468,-22.4948,69.535,0.0492122,0.204926,1.05605,240.5,6.4,52.1701,4.4272,15.1,-0.743579,173.956,4.5277400000000005,87.7682,27.3617,220.222,1.17533,-0.117551,238.642,3.22465,3.17672,-28.9895935058594,22.0009689331055,-21.085641860961896,22.0,-891514.0,10706.0,pp-riro,4,0,-1,-1
1570536306.4,2019-10-08,14:05:06.400,14.0,10.0,17.5499992370605,4.9,24.6,11.6,12.6,-35.5,85.1,5.47519,22.7448,11.4281,-14.3408,6.53171,2.47918,14.6877,-24.0464,83.2166,0.134485,0.224328,1.00861,240.5,6.4,52.1701,4.4272,15.1,-0.219971,169.481,4.52766,90.1339,27.7418,219.122,1.16437,-0.113857,238.555,3.31894,3.23415,-26.8970794677734,22.0009689331055,-20.4220962524414,22.0,-890673.0,2922.63,pp-riro,4,0,-1,-1
1570536306.5,2019-10-08,14:05:06.500,14.0,9.0,17.6499996185303,4.2,24.6,11.5,11.4,-35.2,88.6,4.756959999999999,22.9422,11.3945,-15.4945,1.85364,-3.6901,13.6135,-24.2148,86.4454,0.326607,0.250473,1.08417,240.5,6.4,52.1701,4.4272,15.1,0.0864369,163.649,4.52759,91.3898,28.1218,218.522,1.15833,-0.113754,238.526,3.36993,3.2591,-25.0674209594727,22.0009689331055,-20.2556858062744,22.0,-890693.0,-1230.58,pp-riro,4,0,-1,-1
1570536306.6,2019-10-08,14:05:06.600,14.0,9.0,17.7999992370605,2.6,24.8,11.4,9.2,-34.5,94.5,3.30997,23.1566,11.2372,-15.0719,-1.06531,-1.378,11.6715,-24.2659,92.184,0.17429,0.0957655,0.823808,240.5,6.4,52.1701,4.4272,15.1,0.3451929999999999,156.72799999999998,4.52751,93.814,28.5018,217.422,1.14715,-0.110075,238.507,3.45358,3.31467,-23.4254989624023,22.0009689331055,-19.6744651794434,22.0,-890953.0,-1938.16,pp-riro,4,0,-1,-1
1570536306.7,2019-10-08,14:05:06.700,14.0,8.0,17.75,1.2,24.6,11.2,7.2,-34.0,100.4,3.30997,23.1566,11.2372,-15.0719,-1.06531,-1.378,11.6715,-24.2659,92.184,0.17429,0.0957655,0.823808,240.5,6.4,52.1701,4.42721,15.1,0.329125,155.43,4.52745,96.3842,28.8819,216.322,1.13543,-0.106205,238.577,3.53665,3.36187,-22.07373046875,22.0009689331055,-19.3090686798096,22.0,-890764.0,3753.27,pp-riro,4,0,-1,-1
1570536306.8,2019-10-08,14:05:06.800,14.0,8.0,17.7900009155273,0.0,24.4,11.1,5.6,-33.1,105.8,1.26045,23.2745,10.9168,-7.554139999999999,0.838779,-6.34247,8.7698,-24.0593,100.539,0.095859,0.235643,0.896967,240.5,6.4,52.1701,4.42721,15.1,0.222741,163.748,4.52736,98.8084,28.8819,215.222,1.12465,-0.0993524,238.574,3.61175,3.39983,-20.9301910400391,22.0019989013672,-19.0113544464111,22.0,-890685.0,-799.877,pp-riro,4,0,-1,-1
1570536306.9,2019-10-08,14:05:06.900,14.0,8.0,17.7900009155273,-1.3,24.3,11.2,3.7,-31.5,110.7,-0.493515,23.0043,10.8012,-12.7207,1.15765,0.290952,6.1397,-23.1628,108.053,0.0904541,0.297411,0.653306,240.5,6.4,52.1701,4.42721,15.1,0.343531,184.496,4.5273,101.349,28.882,214.122,1.11343,-0.0925502,238.65,3.68335,3.4413400000000003,-20.4454650878906,22.0009689331055,-18.6957168579102,22.0,-890771.0,461.467,pp-riro,4,0,-1,-1
1570536307.0,2019-10-08,14:05:07.000,14.0,9.0,17.840000152587898,-2.4,24.1,11.2,1.2,-30.5,115.6,-0.493515,23.0043,10.8012,-12.7207,1.15765,0.290952,6.1397,-23.1628,108.053,0.0904541,0.297411,0.653306,240.5,6.4,52.1701,4.42721,15.1,0.303083,185.925,4.52721,103.744,28.502,213.021,1.10311,-0.0829391999999999,238.649,3.75077,3.47367,-19.4862594604492,22.0009689331055,-18.4536533355713,22.0,-890654.0,646.054,pp-riro,4,0,-1,-1
1570536307.1,2019-10-08,14:05:07.100,14.0,10.0,17.9400005340576,-3.5,23.8,10.9,-0.7,-29.7,120.4,-2.75888,22.5243,10.6698,-15.6101,-4.65627,-1.82984,1.7571599999999998,-21.4551,117.815,-0.115941,-0.0262039,0.7618090000000001,250.0,5.2,52.1701,4.42721,15.1,0.331341,190.396,4.5271300000000005,106.139,28.5021,211.921,1.09239,-0.0770911,238.723,3.81905,3.51175,-18.9469146728516,22.0019989013672,-18.251760482788104,22.0,-890617.0,892.17,pp-riro,4,0,-1,-1
1570536307.2,2019-10-08,14:05:07.200,14.0,10.0,18.0799999237061,-4.8,23.6,10.8,-2.5,-27.9,124.5,-3.90994,22.4303,10.3478,-10.7517,-5.18927,-1.53469,-0.363535,-20.8361,122.056,-0.153452,0.306876,0.568919,250.0,5.2,52.1701,4.42721,15.1,0.324692,195.282,4.52707,108.622,28.1221,210.821,1.08171,-0.0680154,238.82,3.881,3.55341,-18.5885009765625,22.0025119781494,-17.9159374237061,22.0,-890583.0,646.054,pp-riro,4,0,-1,-1
1570536307.3,2019-10-08,14:05:07.300,14.0,10.0,18.1299991607666,-6.0,23.3,10.8,-4.7,-26.5,128.5,-5.09483,22.2101,10.3093,-12.2227,-4.13325,-2.18865,-2.46865,-19.2209,126.087,0.0609813,0.203613,0.72551,250.0,5.2,52.1701,4.42721,15.1,0.355167,207.602,4.527,110.959,27.7421,209.621,1.07132,-0.0596122,238.794,3.9404,3.5917800000000004,-18.1993560791016,22.0025119781494,-17.6719036102295,22.0,-890584.0,0.0,pp-riro,4,0,-1,-1
1570536307.4,2019-10-08,14:05:07.400,14.0,11.0,18.2800006866455,-7.1,22.8,10.7,-7.0,-25.4,132.3,-5.09483,22.2101,10.3093,-12.2227,-4.13325,-2.18865,-2.46865,-19.2209,126.087,0.0609813,0.203613,0.72551,250.0,5.2,52.1701,4.42721,15.1,0.37456,218.846,4.52694,113.295,26.6022,208.521,1.06175,-0.0451721999999999,238.798,3.99041,3.6235,-17.8289794921875,22.0025119781494,-17.3750534057617,22.0,-890527.0,738.3480000000001,pp-riro,4,0,-1,-1
1570536307.5,2019-10-08,14:05:07.500,14.0,11.0,18.3700008392334,-8.3,22.5,10.6,-9.0,-23.9,135.7,-6.80045,21.6859,10.2323,-9.63665,-0.6825899999999999,-0.211589,-6.03343,-17.9406,131.67700000000002,-0.0957154,0.060146,0.641142,250.0,5.2,52.1701,4.42721,15.1,0.40171,234.815,4.52687,115.573,25.8422,207.421,1.05201,-0.0344606,238.848,4.04101,3.66103,-17.673660278320302,22.003026962280305,-17.104040145874,22.0,-890463.0,430.703,pp-riro,4,0,-1,-1
1570536307.6,2019-10-08,14:05:07.600,14.0,12.0,18.659999847412102,-9.5,22.1,10.5,-10.8,-22.4,139.3,-8.01334,21.3526,9.99686,-9.55294,-3.76981,-4.08367,-8.41461,-16.6208,134.92700000000002,-0.168094,0.282012,0.406544,250.0,5.2,52.1701,4.42721,15.1,0.4238729999999999,249.422,4.5268,117.91,25.0822,206.221,1.04181,-0.0240117,238.87,4.09525,3.69959,-17.397171020507802,22.003026962280305,-16.890558242797898,22.0,-890415.0,399.9380000000001,pp-riro,4,0,-1,-1
1570536307.7,2019-10-08,14:05:07.700,14.0,12.0,18.840000152587898,-10.6,21.6,10.5,-12.6,-21.0,142.4,-9.18738,20.9022,10.0278,-11.0082,-4.58319,0.197375,-10.7985,-15.2234,138.221,-0.311396,0.0480299,0.408771,250.0,5.2,52.1701,4.427219999999999,15.0,0.4504689999999999,263.62,4.52674,120.13,24.3222,205.021,1.03197,-0.0141123,238.864,4.14242,3.73509,-17.0523986816406,22.0035419464111,-16.759132385253903,22.0,-890363.0,553.761,pp-riro,4,0,-1,-1
1570536307.8,2019-10-08,14:05:07.800,14.0,12.0,19.0300006866455,-11.8,21.0,10.4,-14.3,-19.6,145.1,-10.3372,20.3518,9.93745,-11.1163,-5.96795,-0.38347,-13.1085,-14.2275,141.313,-0.281047,0.0407688,0.512601,250.0,5.2,52.1701,4.427219999999999,15.0,0.463213,270.483,4.526669999999999,122.291,22.8022,203.821,1.02281,0.00137866,238.784,4.17959,3.7715,-16.8339309692383,22.0035419464111,35.0,22.0,-890324.0,738.3480000000001,pp-riro,4,0,-1,-1
1570536307.9,2019-10-08,14:05:07.900,14.0,12.0,19.1200008392334,-13.1,20.4,10.2,-16.0,-18.5,148.0,-12.1148,19.512,9.73336,-12.8314,-1.7462,-4.74619,-16.3838,-12.7859,145.533,-0.264482,0.0215037,0.564704,250.0,5.2,52.1701,4.427219999999999,15.0,0.496458,290.969,4.5266,124.452,21.6622,202.62,1.01331,0.0134528,238.773,4.220269999999999,3.81539,-16.7656555175781,22.0035419464111,35.0,22.0,-890197.0,799.877,pp-riro,4,0,-1,-1
1570536308.0,2019-10-08,14:05:08.000,14.0,11.0,19.3899993896484,-14.1,19.6,10.1,-17.3,-17.4,150.8,-13.1368,18.6817,9.59081,-13.1291,-12.5748,0.632744,-18.1579,-11.7058,148.327,-0.139567,-0.00836246,0.337479,250.0,5.2,52.1701,4.427219999999999,15.0,0.636641,298.033,4.52653,126.468,20.5223,201.42,1.00426,0.0249888,238.716,4.26017,3.85173,-16.4976959228516,22.0035419464111,35.0,22.0,-891053.0,-16089.8,pp-riro,4,0,-1,-1
1570536308.1,2019-10-08,14:05:08.100,14.0,12.0,19.659999847412102,-14.9,18.9,9.5,-18.7,-16.2,153.6,-13.1368,18.6817,9.59081,-13.1291,-12.5748,0.632744,-18.1579,-11.7058,148.327,-0.139567,-0.00836246,0.337479,266.0,5.9,52.1701,4.427219999999999,15.0,1.17964,300.405,4.52647,128.425,18.6222,200.22,0.99574,0.0419192,238.595,4.29674,3.88293,-15.8815460205078,22.003026962280305,35.0,22.0,-893494.0,-27688.0,pp-riro,4,0,-1,-1
1570536308.2,2019-10-08,14:05:08.200,14.0,11.0,19.8899993896484,-15.4,18.2,8.8,-19.7,-14.6,156.0,-13.1368,18.6817,9.59081,-13.1291,-12.5748,0.632744,-18.1579,-11.7058,148.327,-0.139567,-0.00836246,0.337479,266.0,5.9,52.1701,4.427219999999999,15.0,1.11703,271.723,4.52647,130.352,17.4823,199.12,0.987073,0.052598,238.634,4.33656,3.91275,-14.9121017456055,22.003026962280305,35.0,22.0,-891606.0,24396.2,pp-riro,4,0,-1,-1
1570536308.3,2019-10-08,14:05:08.300,14.0,9.0,20.020000457763697,-16.0,17.2,8.7,-20.6,-13.7,158.3,-14.8223,16.7961,8.38653,-13.1099,-18.2291,-2.61007,-21.3799,-9.82962,154.96,0.0361349,9.48045e-05,0.2631699999999999,266.0,5.9,52.1701,4.427219999999999,15.0,1.00898,274.347,4.52647,132.105,15.5822,198.12,0.979514,0.0685058,238.634,4.36445,3.939130000000001,-13.5774002075195,22.003026962280305,35.0,22.0,-891603.0,-10213.8,pp-riro,4,0,-1,-1
1570536308.4,2019-10-08,14:05:08.400,14.0,9.0,20.0599994659424,-16.5,16.5,8.6,-20.8,-12.4,160.1,-15.1788,16.2894,8.46866,-12.9417,-8.73277,5.27398,-21.9629,-9.60215,156.286,-0.139914,0.138156,0.595301,266.0,5.9,52.1701,4.427219999999999,15.0,1.1569200000000002,301.856,4.52648,133.77,14.0622,197.12,0.972007,0.081175,238.638,4.391780000000001,3.95995,-12.351936340332,22.003026962280305,35.0,22.0,-891743.0,5322.26,pp-riro,4,0,-1,-1
1570536308.5,2019-10-08,14:05:08.500,14.0,10.0,20.1000003814697,-16.8,15.7,8.3,-21.3,-11.3,162.1,-15.7571,15.1427,8.21354,-1.0479,-10.4715,-0.633217,-22.9322,-8.086789999999999,159.43200000000002,-0.155437,-0.141616,0.1399119999999999,266.0,5.9,52.1701,4.427219999999999,15.0,1.11315,291.177,4.52648,135.405,12.1622,196.12,0.964648,0.0963307,238.632,4.41823,3.97893,-9.87711334228516,22.003026962280305,35.0,22.0,-891218.0,399.9380000000001,pp-riro,4,0,-1,-1
1570536308.6,2019-10-08,14:05:08.600,14.0,10.0,20.1900005340576,-17.1,15.3,8.2,-21.6,-10.1,163.2,-15.7571,15.1427,8.21354,-1.0479,-10.4715,-0.633217,-22.9322,-8.086789999999999,159.43200000000002,-0.155437,-0.141616,0.1399119999999999,266.0,5.9,52.1701,4.427219999999999,15.0,1.1026200000000002,293.532,4.52648,136.924,10.6422,195.22,0.957725,0.108341,238.688,4.4356,3.98875,-7.76753997802734,22.003026962280305,35.0,22.0,-890740.0,5353.02,pp-riro,4,0,-1,-1
1570536308.7,2019-10-08,14:05:08.700,14.0,10.0,20.229999542236303,-17.3,14.9,8.4,-21.8,-9.6,164.4,-16.1996,14.6874,7.998369999999999,-2.9028400000000003,-5.59473,1.05098,-23.3909,-8.12815,161.64600000000002,-0.0706685,-0.0563134,0.331995,266.0,5.9,52.1701,4.427219999999999,15.0,1.10983,296.17,4.52648,138.414,9.1222,194.319,0.950839,0.120096,238.75,4.44787,3.99067,-5.657958984375,22.003026962280305,35.0,22.0,-890611.0,522.996,pp-riro,4,0,-1,-1
1570536308.8,2019-10-08,14:05:08.800,14.0,9.0,20.3199996948242,-17.5,14.6,8.5,-22.0,-9.3,165.4,-16.9024,14.0485,8.19793,-2.02628,1.22597,-0.346461,-24.536,-7.432869999999999,164.19099999999997,-0.162688,-0.146708,0.103324,266.0,5.9,52.1701,4.427219999999999,15.0,1.12202,295.014,4.52648,139.845,7.222189999999999,193.319,0.943913,0.1343059999999999,238.707,4.45338,3.99007,-3.5654525756835898,22.003026962280305,35.0,22.0,-890470.0,2645.75,pp-riro,4,0,-1,-1
1570536308.9,2019-10-08,14:05:08.900,14.0,9.0,20.3600006103516,-17.3,14.6,8.7,-22.8,-9.3,165.8,-16.9024,14.0485,8.19793,-2.02628,1.22597,-0.346461,-24.536,-7.432869999999999,164.19099999999997,-0.162688,-0.146708,0.103324,266.0,5.9,52.1701,4.427219999999999,15.0,1.1026200000000002,288.725,4.52649,141.218,5.70218,192.419,0.937287,0.145545,238.747,4.44987,3.97167,-1.4456405639648402,22.0035419464111,35.0,22.0,-889984.0,5076.14,pp-riro,4,0,-1,-1
1570536309.0,2019-10-08,14:05:09.000,14.0,10.0,20.3600006103516,-17.3,14.6,9.1,-23.5,-9.8,165.8,-16.9971,14.0397,8.4268,2.09864,-1.16323,5.1703,-25.1617,-8.23482,165.625,-0.0529984,-0.172641,0.0259294,266.0,5.9,52.1701,4.427219999999999,15.0,1.09099,287.458,4.52649,142.678,3.80216,191.319,0.929845,0.1592569999999999,238.693,4.433730000000001,3.95347,0.657417297363281,22.0035419464111,35.0,22.0,-889730.0,1815.1,pp-riro,4,0,-1,-1
1570536309.1,2019-10-08,14:05:09.100,14.0,9.0,20.3600006103516,-17.1,14.7,9.3,-24.3,-10.2,165.2,-17.0416,14.1372,8.839310000000001,3.07436,3.33556,2.2048,-26.0341,-9.12344,165.717,-0.249427,-0.227476,-0.0723111999999999,268.3,6.1,52.1701,4.427219999999999,15.0,1.10373,285.666,4.52649,144.08,2.28216,190.319,0.922742,0.17006,238.717,4.41263,3.93322,2.75738525390625,22.0035419464111,35.0,22.0,-889462.0,3476.39,pp-riro,4,0,-1,-1
1570536309.2,2019-10-08,14:05:09.200,14.0,10.0,20.3600006103516,-16.7,15.2,10.1,-25.0,-11.3,164.2,-16.9942,14.5043,9.29478,6.014390000000001,3.20867,4.63669,-26.7673,-10.0147,165.30200000000002,-0.0850602,-0.149411,-0.231679,268.3,6.1,52.1701,4.427219999999999,15.0,1.08434,282.27,4.52653,145.511,0.382144,189.319,0.915493,0.1832329999999999,238.779,4.37699,3.886,4.864173889160161,22.0035419464111,35.0,22.0,-889101.0,3322.56,pp-riro,4,0,-1,-1
1570536309.3,2019-10-08,14:05:09.300,14.0,10.0,20.3199996948242,-16.2,15.6,10.9,-25.9,-12.6,162.7,-16.9942,14.5043,9.29478,6.014390000000001,3.20867,4.63669,-26.7673,-10.0147,165.30200000000002,-0.0850602,-0.149411,-0.231679,268.3,6.1,52.1701,4.427219999999999,15.0,1.09043,284.106,4.52657,146.972,-1.13786,188.11900000000003,0.907566,0.193563,238.727,4.33478,3.84126,6.97437286376953,22.003026962280305,35.0,22.0,-888890.0,2307.34,pp-riro,4,0,-1,-1
1570536309.4,2019-10-08,14:05:09.400,14.0,10.0,20.229999542236303,-15.7,16.0,11.7,-26.9,-14.4,160.8,-16.7733,15.0257,9.89846,4.67257,8.16186,3.51976,-27.8259,-11.7528,164.63099999999997,-0.13745,-0.195946,-0.399125,268.3,6.1,52.1701,4.427219999999999,15.0,1.1065,296.85900000000004,4.52661,148.461,-3.0378700000000003,186.919,0.899466,0.2062429999999999,238.723,4.28032,3.7955,9.08455657958984,22.0025119781494,35.0,22.0,-888534.0,1938.16,pp-riro,4,0,-1,-1
1570536309.5,2019-10-08,14:05:09.500,14.0,10.0,20.2199993133545,-15.0,16.7,12.6,-27.5,-16.8,158.0,-16.4189,15.8671,11.1429,3.3897699999999995,6.43136,7.48638,-29.4037,-14.9162,162.386,-0.1348099999999999,-0.19633,-0.402942,268.3,6.1,52.1701,4.427219999999999,15.0,1.12479,304.271,4.52664,150.03799999999998,-4.55786,185.61900000000003,0.8907799999999999,0.216114,238.719,4.210030000000001,3.73979,11.1913528442383,22.003026962280305,35.0,22.0,-888344.0,2184.28,pp-riro,4,0,-1,-1
1570536309.6,2019-10-08,14:05:09.600,14.0,11.0,20.2199993133545,-14.0,17.3,13.7,-27.5,-19.4,154.9,-16.2641,16.2325,11.6623,2.59712,10.9449,13.2253,-29.9212,-16.2765,161.453,-0.274979,-0.3421619999999999,-0.470993,268.3,6.1,52.1701,4.427219999999999,15.0,1.13642,310.976,4.526680000000001,151.645,-6.07786,185.018,0.883812,0.225767,239.301,4.134440000000001,3.67557,13.2930297851562,22.0035419464111,35.0,22.0,-888068.0,2922.63,pp-riro,4,0,-1,-1
1570536309.7,2019-10-08,14:05:09.700,14.0,10.0,20.2199993133545,-12.9,18.0,14.7,-28.2,-22.5,151.3,-16.2641,16.2325,11.6623,2.59712,10.9449,13.2253,-29.9212,-16.2765,161.453,-0.274979,-0.3421619999999999,-0.470993,268.3,6.1,52.1701,4.427230000000001,15.0,1.13809,313.316,4.52672,153.31,-7.21784,182.918,0.8726879999999999,0.2327159999999999,238.778,4.05032,3.61182,15.406623840332,22.0035419464111,35.0,22.0,-887920.0,2891.86,pp-riro,4,0,-1,-1
1570536309.8,2019-10-08,14:05:09.800,14.0,11.0,20.1800003051758,-12.3,18.4,15.3,-27.7,-24.3,148.9,-13.6578,18.7533,15.2615,12.8257,8.91197,10.4589,-31.4188,-26.7572,152.781,-0.0838613999999999,-0.326951,-0.8063140000000001,268.3,6.1,52.1701,4.427230000000001,15.0,1.14917,317.818,4.52676,154.186,-7.97783,182.118,0.867605,0.2373289999999999,238.755,3.99745,3.57648,17.510009765625,22.0035419464111,35.0,22.0,-887660.0,2522.69,pp-riro,4,0,-1,-1
1570536309.9,2019-10-08,14:05:09.900,14.0,11.0,20.1299991607666,-10.7,19.1,16.3,-26.6,-27.9,144.1,-12.9678,19.1911,15.8989,14.7874,4.8926,8.30007,-31.1506,-28.7801,150.756,-0.3099989999999999,-0.34429,-0.922978,268.3,6.1,52.1701,4.427230000000001,15.0,1.1574799999999998,323.938,4.52679,155.968,-9.49782,180.618,0.8575889999999999,0.246416,238.828,3.89362,3.49792,19.6355285644531,22.0035419464111,35.0,22.0,-887345.0,3414.86,pp-riro,4,0,-1,-1
1570536310.0,2019-10-08,14:05:10.000,14.0,10.0,20.1299991607666,-7.8,19.9,17.8,-23.4,-33.9,135.2,-10.3872,20.4468,17.7863,22.3015,12.775,12.959,-29.7385,-35.7138,143.649,-0.163043,-0.406679,-0.936021,268.3,6.1,52.1701,4.427230000000001,15.0,1.17299,328.285,4.52683,158.80100000000002,-10.6378,178.118,0.8415590000000001,0.252446,238.866,3.72222,3.37572,21.7440185546875,22.0035419464111,35.0,22.0,-886929.0,3045.68,pp-riro,4,0,-1,-1
1570536310.1,2019-10-08,14:05:10.100,14.0,11.0,20.1700000762939,-6.7,20.2,18.1,-21.6,-35.9,131.4,-8.23623,21.2457,18.8129,15.5526,0.918853,10.9674,-27.303,-40.2034,137.761,-0.62357,-0.1706099999999999,-1.22673,257.3,4.8,52.1701,4.427230000000001,15.0,1.1669,327.737,4.52687,159.764,-11.0177,177.218,0.835965,0.254373,238.856,3.65669,3.33227,23.8525085449219,22.003026962280305,35.0,22.0,-886511.0,4245.5,pp-riro,4,0,-1,-1
1570536310.2,2019-10-08,14:05:10.200,14.0,11.0,20.2099990844727,-4.3,20.6,18.8,-17.7,-39.0,123.2,-5.708469999999999,22.1051,19.7292,32.4124,8.484810000000001,7.86595,-23.5626,-43.9841,129.423,-0.136219,-0.174069,-1.0479,257.3,4.8,52.1701,4.427230000000001,15.0,1.16357,328.462,4.52687,161.721,-11.3977,175.618,0.825334,0.255879,239.009,3.53006,3.24245,25.9592971801758,22.003026962280305,35.0,22.0,-886338.0,3261.04,pp-riro,4,0,-1,-1
1570536310.3,2019-10-08,14:05:10.300,14.0,11.0,20.2600002288818,-1.7,20.9,19.4,-12.3,-41.6,114.0,-4.28222,22.2912,20.1475,20.6593,3.6048,11.2647,-20.9968,-46.2311,124.73,-0.312455,-0.277497,-1.41033,257.3,4.8,52.1701,4.427230000000001,15.0,1.17853,335.556,4.52687,163.678,-11.7776,173.81799999999998,0.8141430000000001,0.257349,239.044,3.39876,3.1484400000000003,28.0677795410156,22.003026962280305,35.0,22.0,-886081.0,2645.75,pp-riro,4,0,-1,-1
1570536310.4,2019-10-08,14:05:10.400,14.0,11.0,20.25,0.9,20.8,19.8,-5.9,-43.3,103.0,-2.82932,22.5207,20.465,22.4209,1.59028,7.235180000000001,-18.3846,-48.24100000000001,119.946,-0.242108,-0.454755,-1.3727,257.3,4.8,52.1701,4.427230000000001,15.0,1.19128,344.809,4.52687,165.66400000000002,-11.7775,172.11700000000002,0.803241,0.2564889999999999,239.182,3.25485,3.05891,30.0962219238281,22.0035419464111,23.0163822174072,22.0,-885779.0,3199.51,pp-riro,4,0,-1,-1
1570536310.5,2019-10-08,14:05:10.500,14.0,12.0,20.3799991607666,3.9,20.6,19.8,1.9,-44.4,91.0,0.192631,22.6687,20.9978,29.7419,4.2554,1.69675,-11.3932,-51.7793,108.084,-0.451462,-0.4392979999999999,-1.08991,257.3,4.8,52.1701,4.427230000000001,15.0,1.20624,348.352,4.52688,167.738,-11.7775,170.217,0.791505,0.255612,239.267,3.10399,2.95558,31.7721252441406,22.0035419464111,23.0163822174072,22.0,-885500.0,3076.45,pp-ro,1,1,-1,-1
1570536310.6,2019-10-08,14:05:10.600,14.0,12.0,20.4200000762939,6.7,20.1,19.6,10.0,-44.0,78.2,3.46553,22.7551,21.299,39.3977,3.4207400000000003,7.34393,-2.76039,-54.1161,94.7749,-0.160186,-0.0232028,-0.999696,257.3,4.8,52.1701,4.427230000000001,15.0,1.20624,351.853,4.52688,169.72400000000002,-11.3974,168.517,0.780705,0.252563,239.446,2.9464,2.8596,33.109085083007805,22.003026962280305,23.0139999389648,22.0,-885064.0,4337.79,pp-ro,1,1,-1,-1
1570536310.7,2019-10-08,14:05:10.700,14.0,12.0,20.5499992370605,9.6,19.0,19.1,17.8,-42.5,66.0,3.46553,22.7551,21.299,39.3977,3.4207400000000003,7.34393,-2.76039,-54.1161,94.7749,-0.160186,-0.0232028,-0.999696,257.3,4.8,52.1701,4.427230000000001,15.0,1.2284,362.86300000000006,4.52689,171.622,-10.6373,166.717,0.769943,0.2474039999999999,239.504,2.7936400000000003,2.75599,34.0747680664062,22.004056930542003,23.018762588501,22.0,-884655.0,2830.33,pp-ro,1,1,-1,-1
1570536310.8,2019-10-08,14:05:10.800,14.0,13.0,20.5499992370605,12.5,17.8,18.1,25.2,-39.5,54.1,6.905189999999999,22.3611,21.1739,37.1436,-7.98042,-2.31682,8.03377,-54.7396,79.0447,-0.230798,-0.438379,-1.48497,257.3,4.8,52.1701,4.427230000000001,15.0,1.2345,364.291,4.52688,173.521,-9.87722,164.817,0.758871,0.242363,239.524,2.63265,2.6446,34.687896728515604,22.0035419464111,23.0163822174072,22.0,-884442.0,3999.38,pp-ro,1,1,-1,-1
1570536310.9,2019-10-08,14:05:10.900,14.0,13.0,20.590000152587898,15.1,16.5,17.0,31.2,-35.8,43.8,10.2381,21.3568,20.7548,31.3102,-13.3819,-8.71942,18.2416,-53.9851,63.4659,-0.961945,-0.219636,-1.3878700000000002,257.3,4.8,52.1701,4.427230000000001,15.0,1.22563,360.675,4.52688,175.215,-8.35712,163.11700000000002,0.749089,0.233167,239.535,2.4836400000000003,2.54133,34.865020751953104,22.004056930542003,23.018762588501,22.0,-883983.0,4860.79,pp-ro,1,1,-1,-1
1570536311.0,2019-10-08,14:05:11.000,14.0,13.0,20.7199993133545,17.5,15.0,15.5,35.9,-31.3,34.7,10.2381,21.3568,20.7548,31.3102,-13.3819,-8.71942,18.2416,-53.9851,63.4659,-0.961945,-0.219636,-1.3878700000000002,257.3,4.8,52.1701,4.427230000000001,15.0,1.2322799999999998,371.086,4.52689,176.792,-6.83702,161.61700000000002,0.740213,0.224157,239.629,2.33662,2.43342,34.9638061523438,22.004056930542003,21.9480495452881,22.0,-883581.0,3230.27,pp-ro,1,1,-1,-1
1570536311.1,2019-10-08,14:05:11.100,14.0,13.0,20.9200000762939,19.3,13.1,14.0,40.0,-26.0,25.8,10.2381,21.3568,20.7548,31.3102,-13.3819,-8.71942,18.2416,-53.9851,63.4659,-0.961945,-0.219636,-1.3878700000000002,268.9,4.5,52.1701,4.427230000000001,15.0,1.27938,389.913,4.52689,178.252,-4.93692,160.11700000000002,0.731662,0.213192,239.657,2.18042,2.33419,34.725372314453104,22.004571914672898,20.2437133789062,22.0,-883237.0,2768.8,pp-ro,1,1,-1,-1
1570536311.2,2019-10-08,14:05:11.200,14.0,13.0,21.090000152587898,20.7,11.3,12.0,43.3,-20.3,18.0,10.2381,21.3568,20.7548,31.3102,-13.3819,-8.71942,18.2416,-53.9851,63.4659,-0.961945,-0.219636,-1.3878700000000002,268.9,4.5,52.1701,4.427230000000001,15.0,1.27273,386.642,4.52696,179.56599999999997,-3.41684,158.816,0.724064,0.204457,239.747,2.02723,2.2303,34.086700439453104,22.004571914672898,18.4300270080566,22.0,-882655.0,6522.07,pp-ro,1,1,-1,-1
1570536311.3,2019-10-08,14:05:11.300,14.0,13.0,21.2900009155273,21.7,9.6,10.0,45.4,-14.5,11.7,24.129,11.9312,11.1975,20.2084,-27.4125,-28.1836,45.0551,-25.0124,7.14796,-0.0454859,0.2711699999999999,-1.09398,268.9,4.5,52.1701,4.427230000000001,15.0,1.26442,384.124,4.52703,180.705,-1.13674,157.816,0.7178770000000001,0.191651,239.92,1.89007,2.13456,33.083541870117195,22.004571914672898,16.7113666534424,22.0,-882398.0,5076.14,pp-ro,1,1,-1,-1
1570536311.4,2019-10-08,14:05:11.400,14.0,13.0,21.3299999237061,22.4,7.7,8.0,46.5,-8.9,5.8,24.129,11.9312,11.1975,20.2084,-27.4125,-28.1836,45.0551,-25.0124,7.14796,-0.0454859,0.2711699999999999,-1.09398,268.9,4.5,52.1701,4.427230000000001,15.0,1.26497,382.071,4.5271,181.669,0.763343,156.916,0.712417,0.181088,240.056,1.75696,2.0332,31.3276062011719,22.004571914672898,14.8703346252441,22.0,-881982.0,4214.73,pp-ro,1,1,-1,-1
1570536311.5,2019-10-08,14:05:11.500,14.0,13.0,21.409999847412102,22.6,5.9,6.0,47.3,-3.7,0.7,25.2496,8.5969,7.56993,2.45033,-25.0965,-21.4866,46.2135,-15.7698,-1.48469,-0.348642,0.289549,-1.4579,268.9,4.5,52.1701,4.427230000000001,15.0,1.25998,381.337,4.52718,182.487,3.04343,156.116,0.7076060000000001,0.168571,240.173,1.63864,1.93742,29.5307922363281,22.004571914672898,13.116077423095698,22.0,-881478.0,4830.02,pp-ro,1,1,-1,-1
1570536311.6,2019-10-08,14:05:11.600,14.0,12.0,21.4500007629395,22.6,4.5,4.0,47.9,1.2,-3.3,25.2496,8.5969,7.56993,2.45033,-25.0965,-21.4866,46.2135,-15.7698,-1.48469,-0.348642,0.289549,-1.4579,268.9,4.5,52.1701,4.427230000000001,15.0,1.26054,378.236,4.52724,183.129,5.70352,155.616,0.704116,0.154014,240.385,1.5377,1.84917,26.9300842285156,22.004571914672898,11.4600133895874,22.0,-880822.0,5168.43,pp-ro,1,1,-1,-1
1570536311.7,2019-10-08,14:05:11.700,14.0,13.0,21.3299999237061,22.8,3.2,2.5,48.2,5.6,-7.2,25.5256,6.582319999999999,5.28655,0.464426,-25.1546,-22.9937,46.4041,-10.0294,-6.297219999999999,-0.388757,0.0681687,-1.32671,268.9,4.5,52.1701,4.427230000000001,15.0,1.24946,376.509,4.52731,183.655,7.60358,155.216,0.70125,0.1437,240.58,1.44183,1.77039,24.838623046875,22.004056930542003,9.98618793487549,22.0,-880361.0,4183.97,pp-ro,1,1,-1,-1
1570536311.8,2019-10-08,14:05:11.800,14.0,13.0,21.159999847412102,22.6,2.2,1.1,48.7,9.8,-11.7,25.2779,4.74298,3.1040400000000004,-3.45991,-17.1883,-18.5111,45.9253,-4.18564,-10.3137,-0.314556,0.128324,-1.24214,268.9,4.5,52.1701,4.427230000000001,15.0,1.25223,376.043,4.52738,184.122,9.88365,154.916,0.698757,0.131379,240.827,1.34344,1.7051599999999998,22.7301330566406,22.004571914672898,8.769455909729,22.0,-880139.0,4091.68,pp-ro,1,1,-1,-1
1570536311.9,2019-10-08,14:05:11.900,14.0,13.0,20.9500007629395,22.4,1.4,0.0,49.0,13.9,-16.0,25.035,2.13617,-0.132823,8.78774,-12.7726,-13.2255,45.9989,6.06356,-18.4107,0.0935568,0.259398,-1.46405,268.9,4.5,52.1701,4.427230000000001,15.0,1.25832,387.839,4.52745,184.443,12.1637,154.716,0.6969029999999999,0.119084,241.048,1.24911,1.65339,21.6758880615234,22.0050868988037,7.80055046081543,22.0,-879508.0,3599.45,pp-ro,1,1,-1,-1
1570536312.0,2019-10-08,14:05:12.000,14.0,12.0,20.7399997711182,22.1,0.1,-1.2,49.3,18.3,-20.1,24.7931,1.58341,-0.8095399999999999,-3.17252,-10.0215,-5.14634,46.0997,8.522210000000001,-20.4905,0.200005,-0.0116093999999999,-1.24344,268.9,4.5,52.1701,4.427230000000001,15.0,1.29434,396.986,4.52752,184.677,14.4438,154.616,0.695529,0.106813,241.288,1.1538700000000002,1.582,19.5537719726562,22.004571914672898,6.423554420471191,22.0,-879277.0,2645.75,pp-ro,1,1,-1,-1
1570536312.1,2019-10-08,14:05:12.100,14.0,12.0,20.5300006866455,21.6,-1.3,-2.5,48.9,21.3,-24.4,24.7931,1.58341,-0.8095399999999999,-3.17252,-10.0215,-5.14634,46.0997,8.522210000000001,-20.4905,0.200005,-0.0116093999999999,-1.24344,262.9,5.5,52.1701,4.427230000000001,15.0,1.2865799999999998,396.655,4.52759,184.706,16.7238,154.616,0.694943,0.0944985,241.458,1.07529,1.50146,16.9139099121094,22.004571914672898,4.8315110206604,22.0,-878653.0,6552.84,pp-ro,1,1,-1,-1
1570536312.2,2019-10-08,14:05:12.200,14.0,12.0,20.4899997711182,20.7,-2.1,-3.7,48.9,23.9,-27.7,22.8816,-1.7443,-4.4781,-23.3256,-9.62433,-14.9763,45.0605,19.2822,-30.4395,0.224598,-0.10647,-0.622388,262.9,5.5,52.1701,4.427230000000001,15.0,1.2888,398.474,4.52762,184.618,19.0039,154.815,0.695228,0.082199,241.688,1.01359,1.436,14.8071136474609,22.004571914672898,3.50227952003479,22.0,-878272.0,3261.04,pp-ro,1,1,-1,-1
1570536312.3,2019-10-08,14:05:12.300,14.0,12.0,20.4400005340576,20.0,-3.4,-4.7,48.8,25.8,-30.9,21.9594,-2.76121,-5.61601,-8.04237,-11.5512,-18.6959,44.6055,22.4774,-33.5437,0.0474145999999999,0.1491829999999999,-0.528667,262.9,5.5,52.1701,4.427230000000001,15.0,1.2982200000000002,404.212,4.52764,184.472,21.2839,155.015,0.695592,0.0698828,241.894,0.962193,1.3614700000000002,12.696929931640598,22.0050868988037,1.99075627326965,22.0,-878059.0,4307.03,pp-ro,1,1,-1,-1
1570536312.4,2019-10-08,14:05:12.400,14.0,12.0,20.5300006866455,19.5,-4.4,-5.6,48.1,27.5,-34.1,21.2339,-3.90933,-6.573589999999999,-1.91768,-12.1463,-6.2303,44.2527,24.8194,-36.4254,0.142758,0.222011,-0.6438119999999999,262.9,5.5,52.1701,4.427230000000001,15.0,1.33589,425.463,4.52766,184.18,23.184,155.415,0.697025,0.0595133,242.103,0.912292,1.29957,10.5935440063477,22.004571914672898,0.677361965179443,22.0,-877566.0,2184.28,pp-ro,1,1,-1,-1
1570536312.5,2019-10-08,14:05:12.500,14.0,12.0,20.659999847412102,18.8,-5.1,-6.4,47.2,28.6,-37.1,20.8056,-4.41934,-7.00974,-11.4468,-7.02053,-11.3368,43.8474,25.8941,-37.8037,0.134243,-0.0187459,-0.6258100000000001,262.9,5.5,52.1701,4.427230000000001,15.0,1.3442,427.097,4.52769,183.771,25.084,155.815,0.698711,0.0490414,242.238,0.872022,1.2455,8.48165130615234,22.004571914672898,-0.49393755197525,22.0,-876994.0,6306.72,pp-ro,1,1,-1,-1
1570536312.6,2019-10-08,14:05:12.600,14.0,12.0,20.8700008392334,18.1,-5.8,-7.0,46.7,29.4,-39.9,20.0067,-5.13454,-7.73327,-10.4071,-4.62354,-4.41744,43.4252,27.6139,-40.3873,-0.116279,0.00616414,-0.460754,262.9,5.5,52.1701,4.427230000000001,15.0,1.33534,427.717,4.5277,183.274,27.364,156.415,0.701054,0.0364769999999999,242.495,0.8388909999999999,1.1985,6.3697509765625,22.0056018829346,-1.56206142902374,22.0,-876681.0,6029.84,pp-ro,1,1,-1,-1
1570536312.7,2019-10-08,14:05:12.700,14.0,12.0,21.1200008392334,17.6,-6.5,-7.5,46.0,30.2,-42.4,19.2786,-5.85846,-8.35492,-1.9406,-7.40675,-9.92412,42.3912,29.232,-43.1192,0.0569234,-0.133258,-0.375128,262.9,5.5,52.1701,4.427230000000001,14.8,1.36249,438.973,4.52772,182.661,29.2641,157.015,0.703782,0.0258074,242.642,0.80793,1.15763,4.30043029785156,22.0050868988037,-2.53444218635559,22.0,-876052.0,4953.08,pp-ro,1,1,-1,-1
1570536312.8,2019-10-08,14:05:12.800,14.0,13.0,21.2900009155273,17.3,-6.9,-7.9,45.3,30.6,-44.6,18.6502,-6.5335,-8.78177,-9.39887,-0.958409,-0.906106,41.911,30.4905,-45.1294,0.107692,-0.0845438999999999,-0.394461,262.9,5.5,52.1701,4.427230000000001,14.8,1.36249,439.402,4.5277400000000005,182.018,31.1641,157.715,0.7068409999999999,0.0150763,242.85,0.784894,1.13295,2.43209075927734,22.0056018829346,-3.20860195159912,22.0,-875751.0,5691.43,pp-ro,1,1,-1,-1
1570536312.9,2019-10-08,14:05:12.900,14.0,14.0,21.5799999237061,16.9,-7.4,-8.7,45.0,31.1,-46.0,18.2571,-6.93359,-9.1609,-2.02985,-0.584128,-10.2665,41.3607,31.3391,-47.0639,0.0588376999999999,-0.173165,-0.240179,262.9,5.5,52.1701,4.427230000000001,14.8,1.36415,439.559,4.527769999999999,181.317,32.6841,158.415,0.710174,0.00629128,242.981,0.7688189999999999,1.0887,0.684661865234375,22.0056018829346,-4.29861068725586,22.0,-875180.0,5629.9,pp-ro,1,1,-1,-1
1570536313.0,2019-10-08,14:05:13.000,14.0,13.0,21.9799995422363,16.7,-8.0,-8.7,44.8,31.0,-47.6,17.797,-7.436910000000001,-9.54868,2.53586,-7.55047,-2.09296,40.7759,31.8428,-48.5445,-0.0402666999999999,-0.229314,-0.100465,262.9,5.5,52.1701,4.427230000000001,14.8,1.36914,454.411,4.52779,180.529,34.5841,159.215,0.713816,-0.00467486,243.179,0.758233,1.07595,-0.8516845703125,22.0056018829346,-4.787357807159419,22.0,-874702.0,3999.38,pp-ro,1,1,-1,-1
1570536313.1,2019-10-08,14:05:13.100,14.0,13.0,22.4599990844727,16.7,-8.1,-8.8,44.8,30.6,-48.4,17.8099,-7.78114,-9.66865,4.5521,-1.09372,1.45562,40.5115,31.8237,-49.2118,-0.0650773,-0.0725125,-0.35805,267.1,6.4,52.1701,4.427230000000001,14.8,1.4179,470.059,4.52781,179.68200000000002,36.1041,160.015,0.71775,-0.0137110999999999,243.298,0.7589229999999999,1.0763,-2.25977325439453,22.0056018829346,-5.04390335083008,22.0,-874405.0,3968.62,pp-ro,1,1,-1,-1
1570536313.2,2019-10-08,14:05:13.200,14.0,13.0,22.7700004577637,16.9,-8.3,-8.8,45.3,30.7,-48.7,17.6186,-8.035,-9.58088,-9.33882,-5.97496,-9.99852,40.616,31.5878,-49.8636,0.0742632,0.0293644999999999,-0.119235,267.1,6.4,52.1701,4.427230000000001,14.8,1.41679,472.723,4.527819999999999,178.864,37.6242,160.815,0.721562,-0.0227592,243.453,0.760346,1.08329,-3.4340362548828103,22.0050868988037,-5.1714129447937,22.0,-873447.0,5353.02,pp-ro,1,1,-1,-1
1570536313.3,2019-10-08,14:05:13.300,14.0,12.0,22.9599990844727,17.2,-8.7,-8.9,46.2,30.2,-48.5,17.67,-7.96691,-9.41382,1.4279700000000002,1.2116,2.5384,40.8625,31.5827,-50.0793,0.0264161,0.0202364,-0.158832,267.1,6.4,52.1701,4.427230000000001,14.8,1.42344,471.8,4.527830000000001,177.929,39.5242,161.715,0.725723,-0.0340291,243.665,0.775629,1.0868,-3.91875457763672,22.0050868988037,-5.40962553024292,22.0,-873143.0,5476.08,pp-ro,1,1,-1,-1
1570536313.4,2019-10-08,14:05:13.400,14.0,12.0,23.190000534057603,17.4,-8.8,-9.0,47.4,29.0,-47.9,18.1966,-8.46647,-9.27442,4.20107,-3.39367,-8.27111,41.8769,31.7367,-49.8138,-0.0287278,-0.0289935999999999,0.198514,267.1,6.4,52.1701,4.427230000000001,14.8,1.41457,473.696,4.52785,176.995,41.8042,162.515,0.72927,-0.0473955,243.897,0.8047340000000001,1.09565,-4.65608215332031,22.0056018829346,-5.517443656921389,22.0,-872456.0,6614.37,pp-ro,1,1,-1,-1
1570536313.5,2019-10-08,14:05:13.500,14.0,12.0,23.530000686645497,17.9,-9.1,-8.4,48.5,27.6,-47.0,18.1966,-8.46647,-9.27442,4.20107,-3.39367,-8.27111,41.8769,31.7367,-49.8138,-0.0287278,-0.0289935999999999,0.198514,267.1,6.4,52.1701,4.427230000000001,14.8,1.44172,495.698,4.52786,176.08900000000003,43.3242,163.215,0.7328399999999999,-0.0567139,243.974,0.837065,1.12714,-5.09984588623047,22.0061168670654,-5.18190145492554,22.0,-872024.0,3722.5,pp-ro,1,1,-1,-1
1570536313.6,2019-10-08,14:05:13.600,14.0,10.0,23.9099998474121,18.3,-9.0,-7.8,49.8,25.8,-45.6,18.7849,-8.842880000000001,-8.57489,10.8402,-3.22843,4.9743900000000005,43.9041,28.5039,-48.3693,-0.00159731,-0.0845123,0.280604,267.1,6.4,52.1701,4.427230000000001,14.8,1.52594,525.7959999999999,4.52787,175.09599999999998,44.8442,163.91400000000002,0.736598,-0.0662061,244.003,0.880285,1.1646299999999998,-5.46168518066406,22.0066318511963,-4.75717830657959,22.0,-871564.0,4214.73,pp-ro,1,1,-1,-1
1570536313.7,2019-10-08,14:05:13.700,14.0,10.0,24.2299995422363,19.1,-8.8,-6.8,51.2,24.6,-44.4,19.1978,-9.01267,-7.74988,11.857,2.90561,6.45892,45.0298,26.1572,-47.3435,0.0286817999999999,-0.178321,0.318089,267.1,6.4,52.1701,4.427230000000001,14.6,1.49491,511.241,4.527880000000001,174.16099999999997,46.7442,164.514,0.73958,-0.0777118999999999,244.095,0.91617,1.22726,-5.46338653564453,22.0061168670654,-3.79065442085266,22.0,-870508.0,10521.5,pp-ro,1,1,-1,-1
1570536313.8,2019-10-08,14:05:13.800,14.0,10.0,24.3799991607666,19.4,-8.5,-6.1,51.9,23.5,-43.6,20.3413,-8.87473,-6.31751,5.25969,-1.6638,3.61295,47.3276,23.9002,-45.3948,0.236237,-0.105932,0.454312,267.1,6.4,52.1701,4.427230000000001,14.6,1.4760799999999998,497.976,4.5279,173.25599999999997,49.0243,165.014,0.741829,-0.0912525,244.235,0.947683,1.27236,-4.96159362792969,22.0056018829346,-3.13691282272339,22.0,-870033.0,9106.29,pp-ro,1,1,-1,-1
1570536313.9,2019-10-08,14:05:13.900,14.0,11.0,24.350000381469695,19.5,-8.3,-5.8,52.3,22.9,-43.1,20.3413,-8.87473,-6.31751,5.25969,-1.6638,3.61295,47.3276,23.9002,-45.3948,0.236237,-0.105932,0.454312,267.1,6.4,52.1701,4.427230000000001,14.6,1.43674,476.436,4.527909999999999,172.321,50.5443,165.31400000000002,0.744056,-0.100834,244.086,0.967182,1.29555,-4.214027404785161,22.0061168670654,-2.9161782264709504,22.0,-869053.0,10644.5,pp-ro,1,1,-1,-1
1570536314.0,2019-10-08,14:05:14.000,14.0,11.0,24.1700000762939,19.8,-8.5,-4.9,53.0,20.6,-41.9,20.3023,-8.65869,-5.9354,-1.83357,2.43762,11.0643,47.9944,23.1894,-45.0364,0.327601,0.0651962,0.371568,267.1,6.4,52.1701,4.427230000000001,14.6,1.44061,485.273,4.52792,171.387,52.8243,165.91400000000002,0.746524,-0.114513,244.318,1.01781,1.33479,-3.4801177978515603,22.0061168670654,-2.43286943435669,22.0,-868256.0,2830.33,pp-ro,1,1,-1,-1
1570536314.1,2019-10-08,14:05:14.100,14.0,10.0,23.8400001525879,19.9,-8.2,-4.3,53.5,19.4,-41.1,20.8285,-8.5462,-4.68204,-2.30017,5.6567300000000005,6.41448,49.8115,19.1986,-43.5848,0.076135,0.0413364,0.434222,259.1,6.0,52.1701,4.427230000000001,14.6,1.44782,489.218,4.52794,170.452,54.7243,166.21400000000003,0.748318,-0.1262069999999999,244.286,1.04969,1.37189,-2.99539184570312,22.0066318511963,-1.93459522724152,22.0,-867612.0,6491.31,pp-ro,1,1,-1,-1
1570536314.2,2019-10-08,14:05:14.200,14.0,12.0,23.5799999237061,20.0,-8.2,-4.0,53.5,18.9,-40.9,20.8285,-8.5462,-4.68204,-2.30017,5.6567300000000005,6.41448,49.8115,19.1986,-43.5848,0.076135,0.0413364,0.434222,259.1,6.0,52.1701,4.427230000000001,14.6,1.45003,485.34,4.52789,170.014,55.4843,166.41400000000002,0.7494270000000001,-0.130958,244.288,1.06133,1.3868,-2.47994232177734,22.0066318511963,-1.77894747257233,22.0,-867278.0,6491.31,pp-ro,1,1,-1,-1
1570536314.3,2019-10-08,14:05:14.300,14.0,10.0,23.2399997711182,19.9,-8.4,-3.3,52.9,16.8,-40.4,21.057,-8.51717,-3.86409,9.87792,-2.08755,2.96515,50.0528,17.2969,-43.4256,0.214074,-0.5431630000000001,0.149812,259.1,6.0,52.1701,4.427230000000001,14.6,1.4251,479.625,4.52785,168.67,58.5244,166.81400000000002,0.751472,-0.149438,244.33900000000003,1.10522,1.41544,-2.21710205078125,22.0066318511963,-1.5514733791351298,22.0,-866145.0,6060.6,pp-ro,1,1,-1,-1
1570536314.4,2019-10-08,14:05:14.400,14.0,12.0,23.0900001525879,19.7,-8.2,-3.0,52.7,15.8,-40.0,21.057,-8.51717,-3.86409,9.87792,-2.08755,2.96515,50.0528,17.2969,-43.4256,0.214074,-0.5431630000000001,0.149812,259.1,6.0,52.1701,4.427230000000001,14.6,1.42898,462.269,4.52778,168.232,59.2844,166.91400000000002,0.752225,-0.154225,244.289,1.12542,1.43086,-1.8108901977539096,22.0061168670654,-1.36378061771393,22.0,-865469.0,8583.29,pp-ro,1,1,-1,-1
1570536314.5,2019-10-08,14:05:14.500,14.0,12.0,22.899999618530305,19.8,-8.1,-2.5,52.5,15.1,-39.6,20.8893,-8.5522,-3.09809,-6.622380000000001,-6.05935,7.62931,50.3736,15.1741,-41.7744,0.134711,0.342615,0.343181,259.1,6.0,52.1701,4.427230000000001,14.6,1.39795,450.936,4.52776,167.326,61.5644,167.114,0.753045,-0.16793,244.367,1.14833,1.46145,-1.5753555297851598,22.0066318511963,-0.9570751786231992,22.0,-864891.0,11136.7,pp-ro,1,1,-1,-1
1570536314.6,2019-10-08,14:05:14.600,14.0,12.0,22.7399997711182,19.8,-7.9,-1.7,52.1,13.8,-39.7,20.8893,-8.5522,-3.09809,-6.622380000000001,-6.05935,7.62931,50.3736,15.1741,-41.7744,0.134711,0.342615,0.343181,259.1,6.0,52.1701,4.427230000000001,14.6,1.35085,428.459,4.52772,166.45,63.8444,167.31400000000002,0.7536930000000001,-0.181587,244.491,1.17238,1.50359,-1.47636413574219,22.0056018829346,-0.311576366424561,22.0,-863908.0,5599.14,pp-ro,1,1,-1,-1
1570536314.7,2019-10-08,14:05:14.700,14.0,13.0,22.510000228881804,19.7,-7.6,-1.2,51.9,13.2,-39.1,20.8893,-8.5522,-3.09809,-6.622380000000001,-6.05935,7.62931,50.3736,15.1741,-41.7744,0.134711,0.342615,0.343181,259.1,6.0,52.1701,4.427230000000001,14.5,1.32592,411.57,4.52767,165.632,65.3645,167.41400000000002,0.754582,-0.191159,244.405,1.1937,1.53467,-0.9404296875,22.0056018829346,-35.0,22.0,-863232.0,6922.01,pp-ro,1,1,-1,-1
1570536314.8,2019-10-08,14:05:14.800,14.0,13.0,22.1599998474121,19.5,-7.3,-0.8,51.9,12.4,-39.2,20.4627,-7.664219999999999,-0.772767,-0.471862,-1.064,7.860130000000001,50.1645,11.5538,-41.3574,0.179222,-0.0348529,-0.00188861,259.1,6.0,52.1701,4.427230000000001,14.5,1.30985,399.383,4.52763,164.873,67.6445,167.41400000000002,0.75417,-0.2045809999999999,244.512,1.21168,1.5641,-0.650283813476562,22.0050868988037,-35.0,22.0,-862841.0,7168.13,pp-ro,1,1,-1,-1
1570536314.9,2019-10-08,14:05:14.900,14.0,12.0,21.7999992370605,19.3,-7.4,-0.6,52.2,11.7,-38.7,20.4627,-7.664219999999999,-0.772767,-0.471862,-1.064,7.860130000000001,50.1645,11.5538,-41.3574,0.179222,-0.0348529,-0.00188861,259.1,6.0,52.1701,4.427230000000001,14.5,1.26275,382.607,4.52759,164.055,69.1645,167.41400000000002,0.75465,-0.214179,244.387,1.23307,1.57215,-0.348182678222656,22.0050868988037,-35.0,22.0,-862144.0,6399.01,pp-ro,1,1,-1,-1
1570536315.0,2019-10-08,14:05:15.000,14.0,12.0,21.510000228881804,18.9,-7.1,-0.3,51.5,10.7,-38.8,20.2229,-7.796460000000001,-0.311621,-1.66839,2.4595700000000003,4.7144,49.7626,10.6029,-41.1922,-0.239936,-0.0133768,-0.0216532,259.1,6.0,52.1701,4.427230000000001,14.5,1.25001,369.086,4.52752,163.296,71.4445,167.513,0.754382,-0.2275579999999999,244.603,1.25355,1.59633,-0.372077941894531,22.0050868988037,-35.0,22.0,-861434.0,5722.19,pp-ro,1,1,-1,-1
1570536315.1,2019-10-08,14:05:15.100,14.0,11.0,21.2199993133545,18.6,-6.8,0.0,51.7,8.9,-38.7,20.2229,-7.796460000000001,-0.311621,-1.66839,2.4595700000000003,4.7144,49.7626,10.6029,-41.1922,-0.239936,-0.0133768,-0.0216532,263.1,5.4,52.1701,4.427230000000001,14.5,1.22563,363.389,4.5275,162.536,72.9646,167.513,0.7546010000000001,-0.23706,244.546,1.28364,1.61979,-0.7817001342773441,22.0050868988037,-35.0,22.0,-860912.0,4368.56,pp-ro,1,1,-1,-1
1570536315.2,2019-10-08,14:05:15.200,14.0,15.0,20.979999542236303,18.6,-6.6,0.2,52.4,8.5,-37.7,19.9597,-7.5844,-0.147586,-8.82124,3.76777,4.41729,50.1515,9.82769,-40.9657,0.0871221,0.145906,0.30206,263.1,5.4,52.1701,4.427230000000001,14.5,1.22729,361.02,4.5275,161.806,75.2446,167.513,0.753808,-0.250392,244.752,1.31015,1.64283,-1.54292297363281,22.0056018829346,-35.0,22.0,-860727.0,3445.62,pp-ro,1,1,-1,-1
1570536315.3,2019-10-08,14:05:15.300,14.0,15.0,20.8500003814697,19.1,-6.7,0.7,53.1,8.1,-37.2,19.9597,-7.5844,-0.147586,-8.82124,3.76777,4.41729,50.1515,9.82769,-40.9657,0.0871221,0.145906,0.30206,263.1,5.4,52.1701,4.427230000000001,14.5,1.22175,354.98900000000003,4.5275,161.076,76.7646,167.513,0.753845,-0.259839,244.742,1.32775,1.6696,-2.6574478149414102,22.0050868988037,-35.0,22.0,-860212.0,5906.78,pp-ro,1,1,-1,-1
1570536315.4,2019-10-08,14:05:15.400,14.0,13.0,20.7199993133545,19.4,-6.6,1.0,53.8,6.4,-37.3,19.5624,-7.28966,0.174707,-4.57875,2.20397,1.79895,50.6895,8.710469999999999,-39.9862,-0.0563717,0.126422,0.239294,263.1,5.4,52.1701,4.427230000000001,14.5,1.22895,367.094,4.52749,160.345,79.0446,167.41299999999998,0.752604,-0.273107,244.92,1.3571,1.6954900000000002,-4.15087890625,22.004571914672898,-35.0,22.0,-859751.0,1630.52,pp-ro,1,1,-1,-1
1570536315.5,2019-10-08,14:05:15.500,14.0,12.0,20.5499992370605,19.8,-6.2,1.8,54.0,4.1,-37.8,20.1603,-6.61983,2.10852,7.83922,7.37678,7.401489999999999,52.3653,5.038,-37.9212,0.129131,-0.0880929999999999,0.181366,263.1,5.4,52.1701,4.427230000000001,14.5,1.25223,380.511,4.52749,159.644,80.9447,167.313,0.751684,-0.28436,245.014,1.3878700000000002,1.7474599999999998,-5.99078369140625,22.0056018829346,-35.0,22.0,-859393.0,4153.21,pp-ro,1,1,-1,-1
1570536315.6,2019-10-08,14:05:15.600,14.0,12.0,20.4200000762939,20.0,-5.7,3.0,54.7,1.7,-37.5,20.1603,-6.61983,2.10852,7.83922,7.37678,7.401489999999999,52.3653,5.038,-37.9212,0.129131,-0.0880929999999999,0.181366,263.1,5.4,52.1701,4.427230000000001,14.5,1.25888,387.01,4.52749,159.002,82.8447,167.113,0.75026,-0.295431,245.095,1.42973,1.81375,-8.08840942382812,22.0056018829346,-35.0,22.0,-859236.0,3137.98,pp-ro,1,1,-1,-1
1570536315.7,2019-10-08,14:05:15.700,14.0,13.0,20.3799991607666,20.4,-5.2,4.2,55.8,-1.0,-36.1,20.1696,-6.01962,3.44022,-4.67967,10.3576,14.139,53.7673,3.11055,-36.9247,-0.0151131,-0.181658,0.541341,263.1,5.4,52.1701,4.427230000000001,14.3,1.28547,388.846,4.52749,158.388,84.7447,166.813,0.748406,-0.306388,245.143,1.48885,1.87897,-10.1996917724609,22.0056018829346,-35.0,22.0,-858883.0,4522.38,pp-ro,1,1,-1,-1
1570536315.8,2019-10-08,14:05:15.800,14.0,13.0,20.5499992370605,20.8,-4.4,5.4,57.5,-3.8,-33.8,20.4,-4.86136,5.11696,0.149813,5.769819999999999,10.8155,55.3096,0.191093,-33.5738,0.278321,0.191342,0.561317,263.1,5.4,52.1701,4.427230000000001,14.3,1.25056,365.527,4.52749,157.833,87.0247,166.313,0.7452449999999999,-0.3189929999999999,245.24400000000003,1.56131,1.9526,-12.3160934448242,22.0050868988037,-35.0,22.0,-858177.0,7260.42,pp-ro,1,1,-1,-1
1570536315.9,2019-10-08,14:05:15.900,14.0,12.0,20.8099994659424,21.2,-3.4,6.5,58.5,-7.6,-31.7,20.543000000000003,-4.44936,5.73546,0.896381,13.155,13.4737,56.0953,-1.13862,-32.5693,0.225514,-0.108088,0.8424799999999999,263.1,5.4,52.1701,4.427230000000001,14.3,1.2007,342.101,4.52749,157.424,89.3048,165.813,0.7416590000000001,-0.331115,245.462,1.6439400000000002,2.02657,-14.4154281616211,22.0050868988037,-35.0,22.0,-857574.0,5353.02,pp-ro,1,1,-1,-1
1570536316.0,2019-10-08,14:05:16.000,14.0,11.0,20.9300003051758,21.4,-2.4,8.1,59.5,-12.1,-29.0,20.7784,-2.76337,7.53114,-3.10701,10.5808,11.6192,57.7162,-7.564389999999999,-28.3008,0.0946992,0.154848,0.890832,263.1,5.4,52.1701,4.427230000000001,14.3,1.18297,345.71,4.527480000000001,157.10299999999998,91.2048,165.113,0.737721,-0.3410829999999999,245.483,1.74115,2.11111,-16.528419494628903,22.0050868988037,-35.0,22.0,-857145.0,3784.03,pp-ro,1,1,-1,-1
1570536316.1,2019-10-08,14:05:16.100,14.0,12.0,20.9699993133545,21.2,-1.1,9.7,59.9,-16.8,-25.0,20.6714,-2.18987,8.26267,0.8838020000000001,8.03918,12.3524,58.2559,-9.36071,-26.3747,0.1906119999999999,0.191191,0.923744,262.7,5.5,52.1701,4.427230000000001,14.3,1.23893,357.00199999999995,4.527480000000001,156.869,93.4849,164.312,0.732697,-0.352523,245.654,1.85623,2.20596,-18.6345825195312,22.0050868988037,-35.0,22.0,-856858.0,3907.09,pp-ro,1,1,-1,-1
1570536316.2,2019-10-08,14:05:16.200,14.0,12.0,21.1800003051758,20.6,0.5,11.4,61.0,-23.3,-22.6,20.4416,-1.7186400000000002,9.08903,-4.33849,9.58771,17.7178,58.5243,-11.3814,-24.0207,0.5720970000000001,0.274578,1.0480200000000002,262.7,5.5,52.1701,4.427230000000001,14.3,1.22397,351.168,4.52752,156.811,95.3849,163.412,0.7274430000000001,-0.361596,245.747,1.97461,2.31344,-20.7612228393555,22.0050868988037,-35.0,22.0,-856469.0,7321.95,pp-ro,1,1,-1,-1
1570536316.3,2019-10-08,14:05:16.300,14.0,12.0,21.3500003814697,20.1,2.3,13.2,61.6,-29.2,-18.6,19.5986,0.835884,11.4397,-1.09204,14.698,17.2828,58.9485,-19.9626,-17.482,0.414352,0.124344,1.10424,262.7,5.5,52.1701,4.427230000000001,14.3,1.1874,344.946,4.52755,156.928,97.6649,162.312,0.720604,-0.371843,245.988,2.1019400000000004,2.42551,-22.8810348510742,22.0050868988037,-35.0,22.0,-856052.0,2061.22,pp-ro,1,1,-1,-1
1570536316.4,2019-10-08,14:05:16.400,14.0,12.0,21.4699993133545,19.2,4.2,14.8,60.6,-33.5,-13.2,18.8886,2.3883400000000004,13.1348,-2.63504,14.0688,14.6056,58.9313,-24.8871,-12.4098,0.244121,0.50594,1.19068,262.7,5.5,52.1701,4.427230000000001,14.3,1.18352,329.44199999999995,4.52759,157.22,99.185,161.012,0.713802,-0.378008,245.928,2.21769,2.53607,-24.9974365234375,22.004571914672898,-35.0,22.0,-855413.0,6122.13,pp-ro,1,1,-1,-1
1570536316.5,2019-10-08,14:05:16.500,14.0,13.0,21.4300003051758,18.2,6.0,16.4,60.0,-39.3,-8.0,18.8886,2.3883400000000004,13.1348,-2.63504,14.0688,14.6056,58.9313,-24.8871,-12.4098,0.244121,0.50594,1.19068,262.7,5.5,52.1701,4.427230000000001,14.3,1.14307,308.211,4.52762,157.687,101.085,159.71200000000002,0.7060489999999999,-0.385292,246.153,2.34774,2.64178,-27.113845825195305,22.004571914672898,-35.0,22.0,-854874.0,5291.49,pp-ro,1,1,-1,-1
1570536316.6,2019-10-08,14:05:16.600,14.0,14.0,21.3899993896484,17.0,7.9,17.8,58.4,-45.2,-2.3,16.239,6.90002,16.5992,-18.0993,15.6194,14.4278,53.242,-37.3536,4.8066,0.0700055,0.526683,1.33805,262.7,5.5,52.1701,4.427230000000001,14.3,1.12922,307.336,4.52766,158.329,102.985,158.21200000000002,0.697281,-0.391961,246.384,2.4784200000000003,2.7466,-28.6943206787109,22.004571914672898,-35.0,22.0,-854636.0,4491.62,pp-ro,1,1,-1,-1
1570536316.7,2019-10-08,14:05:16.700,14.0,14.0,21.340000152587898,15.3,9.5,19.0,54.8,-51.3,5.6,16.239,6.90002,16.5992,-18.0993,15.6194,14.4278,53.242,-37.3536,4.8066,0.0700055,0.526683,1.33805,262.7,5.5,52.1701,4.427230000000001,14.1,1.16468,328.414,4.52769,159.118,104.505,156.612,0.688419,-0.396431,246.51,2.62271,2.84804,-31.0496673583984,22.004571914672898,-35.0,22.0,-854473.0,276.88,pp-ro,1,1,-1,-1
1570536316.8,2019-10-08,14:05:16.800,14.0,14.0,21.4599990844727,13.1,11.2,19.8,47.1,-56.8,17.6,14.3797,8.31666,17.6673,-23.7962,14.8271,11.3333,48.4773,-42.6372,13.3614,5.19108e-05,0.306484,1.3034,262.7,5.5,52.1701,4.427230000000001,14.1,1.18075,328.32300000000004,4.52773,160.16899999999998,106.025,154.912,0.6786840000000001,-0.400076,246.765,2.78353,2.95995,-32.5379791259766,22.004571914672898,-35.0,22.0,-854330.0,2830.33,pp-ro,1,1,-1,-1
1570536316.9,2019-10-08,14:05:16.900,14.0,14.0,21.5400009155273,10.7,13.0,20.3,37.7,-62.1,31.0,14.3797,8.31666,17.6673,-23.7962,14.8271,11.3333,48.4773,-42.6372,13.3614,5.19108e-05,0.306484,1.3034,262.7,5.5,52.1701,4.427230000000001,14.1,1.14806,308.504,4.527769999999999,161.279,107.545,153.312,0.6691600000000001,-0.403491,247.146,2.93528,3.07746,-33.6849365234375,22.004571914672898,-35.0,22.0,-853770.0,5660.67,pp-ro,1,1,-1,-1
1570536317.0,2019-10-08,14:05:17.000,14.0,12.0,21.5799999237061,8.2,14.6,20.4,25.2,-64.0,47.6,14.3797,8.31666,17.6673,-23.7962,14.8271,11.3333,48.4773,-42.6372,13.3614,5.19108e-05,0.306484,1.3034,262.7,5.5,52.1701,4.427230000000001,14.1,1.10706,291.844,4.5278,162.593,108.305,151.511,0.659647,-0.403031,247.229,3.0735,3.18972,-34.4598083496094,22.004571914672898,-23.0211448669434,22.0,-853297.0,4337.79,pp-ro,1,1,-1,-1
1570536317.1,2019-10-08,14:05:17.100,14.0,12.0,21.5400009155273,5.6,16.1,20.3,9.8,-63.8,67.1,9.12304,12.1962,19.0572,-27.3926,16.8609,3.67199,27.5326,-51.9492,44.3951,0.220979,0.235665,1.27557,262.5,6.8,52.1701,4.427230000000001,14.1,1.09875,287.585,4.52784,164.141,109.065,149.811,0.649987,-0.401922,247.55,3.22533,3.30255,-34.886505126953104,22.004571914672898,-23.0211448669434,22.0,-852853.0,3014.92,pp-ro,1,1,-1,-1
1570536317.2,2019-10-08,14:05:17.200,14.0,14.0,21.6100006103516,3.1,17.0,20.0,-3.6,-63.0,85.0,9.12304,12.1962,19.0572,-27.3926,16.8609,3.67199,27.5326,-51.9492,44.3951,0.220979,0.235665,1.27557,262.5,6.8,52.1701,4.427230000000001,14.1,1.09653,288.654,4.52787,165.747,109.445,148.111,0.640741,-0.399072,247.765,3.36469,3.4011400000000003,-34.973541259765604,22.004571914672898,-23.0211448669434,22.0,-852700.0,2953.39,pp-ro,1,1,-1,-1
1570536317.3,2019-10-08,14:05:17.300,14.0,13.0,21.649999618530305,0.5,17.9,19.2,-14.7,-59.8,99.6,4.25943,14.6984,18.903,-25.4776,11.4183,-4.33629,6.33384,-52.0371,73.0749,-0.0298826999999999,0.157176,1.40465,262.5,6.8,52.1701,4.427230000000001,14.1,1.10927,298.206,4.5279,167.44099999999997,109.825,146.511,0.631659,-0.396027,248.12,3.49936,3.5079800000000003,-34.700469970703104,22.004571914672898,-23.0211448669434,22.0,-852495.0,1815.1,pp-ro,1,1,-1,-1
1570536317.4,2019-10-08,14:05:17.400,14.0,14.0,21.9300003051758,-1.8,18.6,18.4,-24.6,-55.8,114.1,4.25943,14.6984,18.903,-25.4776,11.4183,-4.33629,6.33384,-52.0371,73.0749,-0.0298826999999999,0.157176,1.40465,262.5,6.8,52.1701,4.427230000000001,14.1,1.1331,314.085,4.5279300000000005,169.252,109.825,144.911,0.622855,-0.3911219999999999,248.409,3.64835,3.60172,-34.2379150390625,22.0050868988037,-23.0235271453857,22.0,-852313.0,1845.87,pp-ro,1,1,-1,-1
1570536317.5,2019-10-08,14:05:17.500,14.0,13.0,21.850000381469695,-4.4,18.8,17.1,-28.9,-49.5,122.3,1.9255400000000005,15.6177,18.5913,-30.8626,5.68387,-11.6151,-3.61893,-50.5397,86.2049,0.2194449999999999,0.287815,1.38607,262.5,6.8,52.1701,4.427230000000001,14.1,1.17964,336.93,4.52797,171.063,109.445,143.311,0.614536,-0.384747,248.553,3.78765,3.70855,-33.2940826416016,22.0056018829346,-23.0259094238281,22.0,-852034.0,2153.51,pp-ro,1,1,-1,-1
