time,date,time_of_day,airspeed_temperature,airspeed_angle_of_attack,airspeed_apparent_windspeed,kite_0_vx,kite_0_vy,kite_0_vz,kite_0_roll,kite_0_pitch,kite_0_yaw,kite_1_vx,kite_1_vy,kite_1_vz,kite_1_ax,kite_1_ay,kite_1_az,kite_1_roll,kite_1_pitch,kite_1_yaw,kite_1_roll_rate,kite_1_pitch_rate,kite_1_yaw_rate,ground_upwind_direction,ground_wind_velocity,ground_pos_latitude,ground_pos_longitude,ground_pos_altitude,ground_tether_reelout_speed,ground_tether_force,est_upwind_direction,kite_pos_east,kite_pos_north,kite_height,kite_elevation,kite_azimuth,kite_distance,kite_heading,kite_course,kite_actual_steering,kite_actual_depower,kite_set_steering,kite_set_depower,ground_mech_energy,ground_mech_power,flight_phase,flight_phase_index,phase,pattern,pattern_section
1570532711.5,2019-10-08,13:05:11.500,14.0,8.0,14.880000114440902,11.8,-1.0,2.5,22.8,-3.6,-49.9,10.1507,-0.89499,2.74651,10.2931,9.56066,5.4762,25.8795,11.3913,-52.5716,0.0763289,0.2106179999999999,0.913534,271.8,7.3,52.1701,4.427219999999999,1.9,-2.00356,100.711,4.59658,60.9854,5.70058,232.198,1.3128799999999998,0.0226275999999999,240.141,0.821835,1.63294,-34.968414306640604,21.9983940124512,-35.0,22.0,-733440.0,-4122.44,pp-riro,4,0,-1,-1
1570532711.6,2019-10-08,13:05:11.600,14.0,9.0,14.640000343322802,12.6,0.0,2.9,24.7,-5.4,-44.8,10.9338,0.0595763,3.12197,6.03138,8.404639999999999,5.21536,27.7149,9.82945,-46.8079,0.160431,0.190766,1.00087,271.8,7.3,52.1701,4.427219999999999,1.9,-1.99913,99.3626,4.59662,60.8977,6.84062,232.098,1.31266,0.00392821,240.052,0.936776,1.73698,-34.970123291015604,21.9983940124512,-35.0,22.0,-733606.0,-3199.51,pp-riro,4,0,-1,-1
1570532711.7,2019-10-08,13:05:11.700,14.0,9.0,14.460000038147,13.2,1.0,3.3,26.0,-7.2,-39.7,11.642,1.0662200000000002,3.51165,5.63991,10.075,2.83862,29.4292,7.905060000000001,-40.9216,0.0462777,0.20142,0.973215,271.8,7.3,52.1701,4.427219999999999,1.9,-2.0091,97.3093,4.59666,60.8977,7.98066,231.898,1.31189,-0.0145583,239.893,1.05174,1.83182,-34.971832275390604,21.997879028320305,-35.0,22.0,-734090.0,-5937.55,pp-riro,4,0,-1,-1
1570532711.8,2019-10-08,13:05:11.800,14.0,9.0,14.3999996185303,13.8,2.1,3.8,27.5,-9.4,-34.3,12.3948,2.67356,4.16073,4.97271,10.4729,4.55315,31.3948,4.67099,-32.1448,0.194485,0.128565,1.0334,271.8,7.3,52.1701,4.427219999999999,1.9,-2.02794,97.111,4.59671,61.0145,9.50072,231.598,1.31023,-0.0387688,239.689,1.17948,1.93241,-34.9923248291016,21.9983940124512,-35.0,22.0,-734677.0,-6368.25,pp-riro,4,0,-1,-1
1570532711.9,2019-10-08,13:05:11.900,14.0,8.0,14.3400001525879,14.2,3.3,4.3,28.6,-11.8,-29.2,12.8245,3.79725,4.60847,1.93166,9.28814,4.3317,32.6769,2.19951,-26.4162,0.23997,0.2135659999999999,1.00452,272.3,7.0,52.1701,4.427219999999999,1.9,-2.06673,89.0366,4.5967400000000005,61.2482,10.6408,231.298,1.30823,-0.0563548,239.506,1.29634,2.0279,-34.9923248291016,21.9983940124512,-35.0,22.0,-735800.0,-8737.11,pp-riro,4,0,-1,-1
1570532712.0,2019-10-08,13:05:12.000,14.0,8.0,14.1499996185303,14.5,4.6,4.6,29.4,-14.1,-24.0,13.1003,4.95636,5.017580000000001,1.91265,12.15,4.60648,33.4332,-0.12605,-20.7377,0.155951,0.200423,1.0590700000000002,272.3,7.0,52.1701,4.427219999999999,1.9,-2.08778,84.9951,4.59676,61.5694,11.7808,230.998,1.30581,-0.0734198,239.353,1.4138700000000002,2.1204400000000003,-34.9923248291016,21.997879028320305,-35.0,22.0,-736273.0,-9167.82,pp-riro,4,0,-1,-1
1570532712.1,2019-10-08,13:05:12.100,14.0,10.0,14.0200004577637,14.7,5.9,5.0,29.9,-16.2,-18.7,13.2453,6.17145,5.34459,0.3895679999999999,11.6109,6.4006,34.1039,-2.55465,-14.9977,0.157979,0.244755,0.987888,272.3,7.0,52.1701,4.427219999999999,1.9,-2.16757,81.3995,4.59679,62.0659,13.6809,230.598,1.30186,-0.101342,239.196,1.54255,2.22012,-34.9957275390625,21.9983940124512,-35.0,22.0,-737541.0,-13444.1,pp-riro,4,0,-1,-1
1570532712.2,2019-10-08,13:05:12.200,14.0,9.0,13.960000038147,14.9,7.1,5.4,30.7,-18.3,-13.2,13.2764,6.76513,5.53403,2.38374,11.1223,4.49382,34.376,-3.78883,-12.1767,0.105526,0.203612,1.03074,272.3,7.0,52.1701,4.427219999999999,1.9,-2.25622,85.4653,4.59681,62.6793,14.8209,230.298,1.29809,-0.116602,239.135,1.66136,2.2963,-34.9974365234375,21.9983940124512,-35.0,22.0,-739014.0,-14336.3,pp-riro,4,0,-1,-1
1570532712.3,2019-10-08,13:05:12.300,14.0,9.0,13.960000038147,14.8,8.4,5.9,30.8,-20.3,-7.9,13.2764,6.76513,5.53403,2.38374,11.1223,4.49382,34.376,-3.78883,-12.1767,0.105526,0.203612,1.03074,272.3,7.0,52.1701,4.427219999999999,1.9,-2.32825,90.5631,4.596830000000001,63.4094,16.721,229.798,1.29282,-0.142263,238.972,1.78558,2.39144,-34.9974365234375,21.997879028320305,-35.0,22.0,-740255.0,-12305.8,pp-riro,4,0,-1,-1
1570532712.4,2019-10-08,13:05:12.400,14.0,10.0,14.0200004577637,14.8,9.7,6.4,30.8,-22.3,-2.5,13.3416,9.0927,6.47243,-0.699125,11.8656,5.8496,34.4575,-8.00358,-0.656163,0.0276565,0.252617,0.988045,272.3,7.0,52.1701,4.427219999999999,1.9,-2.39087,93.0669,4.59686,64.2564,17.8611,229.398,1.28787,-0.155577,238.896,1.89837,2.46651,-35.0025634765625,21.9983940124512,-35.0,22.0,-741834.0,-9998.46,pp-riro,4,0,-1,-1
1570532712.5,2019-10-08,13:05:12.500,14.0,10.0,14.1499996185303,14.6,10.9,6.8,30.6,-24.3,3.3,13.3416,9.0927,6.47243,-0.699125,11.8656,5.8496,34.4575,-8.00358,-0.656163,0.0276565,0.252617,0.988045,272.3,7.0,52.1701,4.42721,2.0,-2.42633,95.9651,4.5968800000000005,65.2203,19.3811,228.798,1.28175,-0.173333,238.7,2.02064,2.54222,-35.0059814453125,21.997879028320305,-35.0,22.0,-742832.0,-9629.29,pp-riro,4,0,-1,-1
1570532712.6,2019-10-08,13:05:12.600,14.0,9.0,14.3999996185303,14.3,12.2,7.3,30.0,-26.0,9.2,12.9652,11.417,7.2363,-5.25673,10.5938,4.38522,33.4864,-11.9257,11.1622,0.155475,0.318614,0.987149,272.3,7.0,52.1701,4.42721,2.0,-2.43187,98.1189,4.5969,66.3301,20.9012,228.298,1.2751,-0.189763,238.656,2.1401,2.62041,-35.0059814453125,21.9983940124512,-35.0,22.0,-743225.0,-7814.18,pp-riro,4,0,-1,-1
1570532712.7,2019-10-08,13:05:12.700,14.0,9.0,14.640000343322802,13.9,13.4,7.8,29.3,-27.7,15.1,12.6252,12.5997,7.6381,-6.66642,13.936,5.99262,32.7036,-13.7026,17.3011,0.0165587,0.280507,0.934103,272.3,7.0,52.1701,4.42721,2.0,-2.43575,107.445,4.59693,67.586,22.0412,227.598,1.26805,-0.199772,238.442,2.25203,2.6882900000000003,-35.0059814453125,21.9983940124512,-35.0,22.0,-743880.0,-2338.1,pp-riro,4,0,-1,-1
1570532712.8,2019-10-08,13:05:12.800,14.0,9.0,14.880000114440902,13.4,14.8,8.2,28.4,-29.5,21.6,11.932,14.2893,8.32001,-6.7351,12.9193,5.31762,31.0105,-16.0225,26.6851,0.0865133999999999,0.301937,1.0574,272.3,7.0,52.1701,4.42721,2.0,-2.4180200000000003,110.403,4.59695,69.0172,23.9413,226.898,1.25932,-0.218477,238.368,2.37985,2.76938,-35.0059814453125,21.9983940124512,-23.0,22.0,-743886.0,-123.058,pp-riro,4,0,-1,-1
1570532712.9,2019-10-08,13:05:12.900,14.0,10.0,15.109999656677198,12.8,16.0,8.7,27.4,-31.0,27.8,11.3999,15.4523,8.69319,-7.90407,8.826830000000001,3.3442,29.35,-17.3614,33.2847,0.0905343999999999,0.3870409999999999,1.03975,273.4,6.1,52.1701,4.42721,2.0,-2.36649,117.169,4.59701,70.4775,25.0814,226.098,1.25127,-0.226476,238.152,2.48991,2.8346,-35.0059814453125,21.9983940124512,-23.0,22.0,-743697.0,2830.33,pp-riro,4,0,-1,-1
1570532713.0,2019-10-08,13:05:13.000,14.0,10.0,15.3999996185303,12.1,17.3,9.2,26.1,-32.1,34.5,10.9733,15.9797,8.88659,-6.96069,11.7512,3.33281,28.6804,-17.9831,36.4694,-0.0286549,0.294528,0.990167,273.4,6.1,52.1701,4.42721,2.0,-2.28559,127.385,4.59701,72.1131,26.2214,225.198,1.2424,-0.2333599999999999,237.912,2.60321,2.90118,-34.942825317382805,21.9983940124512,-23.0,22.0,-743206.0,5445.31,pp-riro,4,0,-1,-1
1570532713.1,2019-10-08,13:05:13.100,14.0,11.0,15.75,11.3,18.6,9.8,24.7,-33.2,41.6,10.6557,16.5865,9.10254,-5.954,12.3898,5.1423,27.8775,-18.5217,39.6741,0.17281,0.362603,0.98591,273.4,6.1,52.1701,4.42721,2.0,-2.05952,142.35,4.59704,73.9823,27.7415,224.298,1.2321,-0.243388,237.808,2.72353,2.97039,-34.509307861328104,21.9994239807129,-23.0,22.0,-741612.0,13782.5,pp-riro,4,0,-1,-1
1570532713.2,2019-10-08,13:05:13.200,14.0,11.0,16.020000457763697,10.3,19.8,10.3,22.9,-34.4,48.3,9.95242,17.7319,9.57271,-7.56827,12.5807,6.60843,26.2667,-19.6577,46.3334,0.0564775999999999,0.344468,0.935657,273.4,6.1,52.1701,4.42721,2.0,-1.86726,151.321,4.59708,75.8516,28.8816,223.298,1.22216,-0.2484869999999999,237.591,2.8318,3.0360400000000003,-33.710525512695305,21.9994239807129,-23.0,22.0,-740135.0,15597.6,pp-riro,4,0,-1,-1
1570532713.3,2019-10-08,13:05:13.300,14.0,11.0,16.3500003814697,9.2,21.0,10.6,21.0,-35.1,55.3,9.06068,18.7981,10.047,-10.7486,9.29096,2.99612,24.3328,-20.7062,53.007,0.0968948,0.2338199999999999,1.13415,273.4,6.1,52.1701,4.42721,2.0,-1.6085,157.504,4.59711,77.8961,29.6416,222.198,1.21194,-0.248313,237.315,2.9371400000000003,3.09672,-32.5618743896484,21.9994239807129,-23.0,22.0,-738456.0,16366.7,pp-riro,4,0,-1,-1
1570532713.4,2019-10-08,13:05:13.400,14.0,10.0,16.7800006866455,7.9,22.1,10.9,18.8,-35.3,62.9,7.99607,19.7878,10.2513,-14.1176,12.9763,0.3350349999999999,22.2402,-21.6827,59.5734,0.160188,0.149913,0.930637,273.4,6.1,52.1701,4.42721,2.0,-1.4816200000000002,160.181,4.59714,80.1158,30.4017,221.098,1.20105,-0.247423,237.123,3.04878,3.1592,-31.0616149902344,21.9994239807129,-23.0,22.0,-737649.0,15997.5,pp-riro,4,0,-1,-1
1570532713.5,2019-10-08,13:05:13.500,14.0,10.0,17.0900001525879,6.6,22.8,11.2,16.6,-35.7,70.2,6.36118,21.1762,10.6565,-12.0236,10.2945,2.22425,18.921,-22.9668,69.7957,0.0615894,0.253359,1.13299,273.4,6.1,52.1701,4.42721,2.1,-1.17798,166.511,4.597180000000001,82.3355,31.5418,219.998,1.18962,-0.250613,237.009,3.15855,3.21775,-29.2012329101562,21.9994239807129,-23.0,22.0,-736152.0,14520.8,pp-riro,4,0,-1,-1
1570532713.6,2019-10-08,13:05:13.600,14.0,10.0,17.2900009155273,5.1,23.5,11.4,14.1,-35.8,77.1,5.03372,21.8121,10.8191,-14.0124,10.0546,-2.67004,16.2792,-23.6829,76.6733,-0.0986488,0.1673349999999999,1.17229,273.4,6.1,52.1701,4.42721,2.1,-0.7236319999999999,167.137,4.59721,84.6429,32.3018,218.898,1.17838,-0.249369,236.906,3.25776,3.27802,-27.279396057128896,21.9994239807129,-22.4257011413574,22.0,-734456.0,9198.58,pp-riro,4,0,-1,-1
1570532713.7,2019-10-08,13:05:13.700,14.0,10.0,17.3899993896484,3.5,24.0,11.2,11.6,-35.2,84.0,3.66591,22.2216,10.7866,-14.3377,4.19112,2.24951,14.1717,-24.0456,82.8592,0.105596,0.2277199999999999,1.01092,273.4,6.1,52.1701,4.42721,2.1,-0.398939,161.06,4.597230000000001,87.0671,32.6819,217.798,1.16724,-0.243913,236.822,3.35395,3.3360000000000003,-25.6784439086914,21.9994239807129,-21.6866626739502,22.0,-733852.0,4830.02,pp-riro,4,0,-1,-1
1570532713.8,2019-10-08,13:05:13.800,14.0,8.0,17.5,2.0,24.2,11.0,9.5,-34.5,90.1,3.66591,22.2216,10.7866,-14.3377,4.19112,2.24951,14.1717,-24.0456,82.8592,0.105596,0.2277199999999999,1.01092,273.4,6.1,52.1701,4.42721,2.1,-0.124669,156.39600000000002,4.59727,89.4328,33.0619,216.698,1.15628,-0.23897,236.748,3.43947,3.38858,-24.2686462402344,21.9994239807129,-21.0720252990723,22.0,-733658.0,1015.23,pp-riro,4,0,-1,-1
1570532713.9,2019-10-08,13:05:13.900,14.0,8.0,17.6399993896484,0.5,24.3,10.9,7.6,-33.7,95.6,1.5642,22.7441,10.5186,-15.7502,3.04717,-3.20969,11.252,-23.9246,91.5473,0.237715,0.3391099999999999,0.694653,276.1,6.5,52.1701,4.42721,2.1,0.0221632999999999,155.31,4.59733,91.857,33.062,215.698,1.14578,-0.230394,236.763,3.51396,3.4372,-23.0295257568359,21.9994239807129,-20.4399948120117,22.0,-733674.0,-307.645,pp-riro,4,0,-1,-1
1570532714.0,2019-10-08,13:05:14.000,14.0,8.0,17.7399997711182,-0.7,24.2,10.6,5.3,-33.0,100.8,0.853585,22.771,10.4676,-12.0648,0.13853,1.89931,10.3696,-23.7125,94.1109,0.1280079999999999,0.2461489999999999,0.640163,276.1,6.5,52.1701,4.42721,2.1,0.252662,153.05,4.59741,94.2812,33.062,214.598,1.13507,-0.222254,236.716,3.58445,3.4757800000000003,-21.9713287353516,21.9994239807129,-20.0446643829346,22.0,-733877.0,-2645.75,pp-riro,4,0,-1,-1
1570532714.1,2019-10-08,13:05:14.100,14.0,8.0,17.6900005340576,-2.0,23.9,10.4,3.8,-32.0,105.4,-1.03078,22.6129,10.1119,-11.2461,-5.92026,-2.69188,7.95366,-22.8915,101.495,0.163041,0.222493,0.635152,276.1,6.5,52.1701,4.42721,2.1,0.233823,150.47799999999998,4.59748,96.6762,33.062,213.598,1.1246200000000002,-0.214573,236.778,3.64818,3.5187,-21.073562622070305,21.9994239807129,-19.5745067596436,22.0,-733734.0,892.17,pp-riro,4,0,-1,-1
1570532714.2,2019-10-08,13:05:14.200,14.0,8.0,17.6399993896484,-3.0,23.8,10.3,2.2,-31.0,109.8,-2.18097,22.4437,9.87284,-12.9972,-7.1607,1.82398,6.600960000000001,-22.1898,106.04,0.0229609,0.199942,0.7651939999999999,276.1,6.5,52.1701,4.42721,2.1,0.282028,164.574,4.59756,99.0712,33.0621,212.598,1.11416,-0.20723,236.868,3.70983,3.55052,-20.3498840332031,21.9994239807129,-19.3502407073975,22.0,-733789.0,-522.996,pp-riro,4,0,-1,-1
1570532714.3,2019-10-08,13:05:14.300,14.0,8.0,17.6399993896484,-4.0,23.6,10.4,0.4,-29.6,114.4,-3.7053,22.2334,9.81491,-9.52552,-3.44372,0.299718,3.85232,-20.8087,112.646,-0.0808648999999999,0.22288,0.625184,276.1,6.5,52.1701,4.42721,2.1,0.301975,171.61900000000003,4.5976300000000005,101.437,32.6821,211.598,1.1042299999999998,-0.196898,236.921,3.77458,3.57858,-20.0324249267578,21.9994239807129,-19.118610382080103,22.0,-733774.0,276.88,pp-riro,4,0,-1,-1
1570532714.4,2019-10-08,13:05:14.400,14.0,9.0,17.5400009155273,-5.0,23.4,10.3,-1.4,-28.8,118.9,-4.16306,22.1004,9.82572,-9.16671,-2.00916,-3.41511,2.91505,-20.3722,114.897,-0.2388219999999999,0.0280837,0.553512,276.1,6.5,52.1701,4.42721,2.1,0.298096,175.362,4.59771,103.832,32.3021,210.598,1.09416,-0.186894,237.015,3.83542,3.608530000000001,-19.5033264160156,21.9994239807129,-18.8818664550781,22.0,-733730.0,276.88,pp-riro,4,0,-1,-1
1570532714.5,2019-10-08,13:05:14.500,14.0,10.0,17.4899997711182,-6.1,23.1,10.1,-3.3,-27.6,123.2,-4.16306,22.1004,9.82572,-9.16671,-2.00916,-3.41511,2.91505,-20.3722,114.897,-0.2388219999999999,0.0280837,0.553512,276.1,6.5,52.1701,4.42721,2.4,0.304745,178.40900000000002,4.59779,106.256,31.9222,209.598,1.08396,-0.177209,237.152,3.89632,3.64405,-19.1688003540039,21.9994239807129,-18.5666618347168,22.0,-733674.0,522.996,pp-riro,4,0,-1,-1
1570532714.6,2019-10-08,13:05:14.600,14.0,11.0,17.4300003051758,-7.0,22.8,10.1,-5.4,-26.0,127.2,-5.59284,21.7707,9.5344,-6.119759999999999,-2.04469,-5.43438,-0.2249409999999999,-19.2114,121.123,-0.264755,0.234629,0.732071,276.1,6.5,52.1701,4.42721,2.4,0.306962,181.044,4.59787,108.593,31.1622,208.498,1.07423,-0.164892,237.139,3.95388,3.66836,-18.8496322631836,21.9994239807129,-18.4096183776855,22.0,-733659.0,276.88,pp-riro,4,0,-1,-1
1570532714.7,2019-10-08,13:05:14.700,14.0,9.0,17.4300003051758,-8.1,22.3,10.1,-7.2,-24.8,130.8,-6.56129,21.499,9.448,-17.6458,-4.84189,0.678459,-2.15403,-17.9367,124.941,-0.1287319999999999,0.1655299999999999,0.636107,276.1,6.5,52.1701,4.42721,2.4,0.321922,186.497,4.59794,110.871,30.0222,207.498,1.06522,-0.1499599999999999,237.169,4.00138,3.69945,-18.5065689086914,21.9994239807129,-18.0377979278564,22.0,-733638.0,215.351,pp-riro,4,0,-1,-1
1570532714.8,2019-10-08,13:05:14.800,14.0,10.0,17.4300003051758,-9.0,21.9,9.9,-9.5,-23.7,134.5,-7.53705,21.1257,9.48293,-11.1236,-4.37967,0.537387,-4.496580000000001,-17.0522,128.863,-0.155525,0.0887131,0.578171,276.1,6.5,52.1701,4.42721,2.4,0.327463,191.47,4.59802,113.12,29.2622,206.398,1.05567,-0.138725,237.176,4.05302,3.72809,-18.4263534545898,21.9994239807129,-17.8484382629395,22.0,-733595.0,461.467,pp-riro,4,0,-1,-1
1570532714.9,2019-10-08,13:05:14.900,14.0,10.0,17.479999542236303,-9.9,21.4,9.7,-11.3,-22.3,137.6,-8.91671,20.3865,9.19252,-7.68792,3.43699,-3.17627,-7.96968,-15.5784,134.079,-0.386356,-0.0459564,0.602097,276.2,7.1,52.1701,4.42721,2.4,0.3451929999999999,201.275,4.59807,115.252,28.5022,205.398,1.0467,-0.128107,237.242,4.0991,3.75876,-18.1549758911133,21.9994239807129,-17.6143951416016,22.0,-733539.0,430.703,pp-riro,4,0,-1,-1
1570532715.0,2019-10-08,13:05:15.000,14.0,10.0,17.5799999237061,-10.9,20.8,9.7,-13.0,-21.2,141.2,-9.85254,19.8975,9.13803,-5.8373,-7.74246,0.709547,-9.90462,-14.2227,137.165,-0.445507,0.1065849999999999,0.564129,276.2,7.1,52.1701,4.42721,2.4,0.356275,208.949,4.59813,117.501,27.7423,204.298,1.03705,-0.1176,237.306,4.1505,3.79243,-17.8853073120117,21.9994239807129,-17.3889675140381,22.0,-733500.0,369.174,pp-riro,4,0,-1,-1
1570532715.1,2019-10-08,13:05:15.100,14.0,10.0,17.5799999237061,-11.8,20.2,9.6,-14.9,-20.2,144.3,-10.7518,19.3747,9.15124,-5.83309,-4.16188,0.353077,-11.8421,-13.532,140.56,-0.0483252,-0.0455869,0.429659,276.2,7.1,52.1701,4.42721,2.4,0.372897,218.882,4.59818,119.546,26.2223,203.198,1.0286799999999998,-0.101698,237.209,4.189690000000001,3.8195,-17.6190490722656,21.9994239807129,-17.1313152313232,22.0,-733458.0,461.467,pp-riro,4,0,-1,-1
1570532715.2,2019-10-08,13:05:15.200,14.0,10.0,17.479999542236303,-12.8,19.5,9.4,-16.1,-19.1,147.3,-11.2563,19.0346,9.01497,-10.836,-7.107060000000001,-2.64434,-12.9279,-13.3192,141.912,-0.41501,0.0914659999999999,0.366037,276.2,7.1,52.1701,4.42721,2.4,0.381763,223.551,4.59823,121.648,25.0823,202.098,1.0197200000000002,-0.0891551,237.215,4.23117,3.85615,-17.4005813598633,21.9994239807129,-16.8133583068848,22.0,-733438.0,369.174,pp-riro,4,0,-1,-1
1570532715.3,2019-10-08,13:05:15.300,14.0,11.0,17.479999542236303,-13.8,18.9,9.2,-17.6,-17.6,149.9,-11.674,18.6875,8.98858,-11.9177,-5.80101,-4.61677,-13.7961,-12.8725,143.254,-0.3123,0.0483911999999999,0.509895,276.2,7.1,52.1701,4.42721,2.4,0.397831,229.792,4.59828,123.605,23.9423,200.998,1.0112,-0.0771982,237.175,4.27112,3.89204,-17.1155471801758,21.9994239807129,-16.5156421661377,22.0,-733388.0,584.525,pp-riro,4,0,-1,-1
1570532715.4,2019-10-08,13:05:15.400,14.0,10.0,17.370000839233402,-14.5,18.1,9.1,-18.4,-16.8,152.7,-11.674,18.6875,8.98858,-11.9177,-5.80101,-4.61677,-13.7961,-12.8725,143.254,-0.3123,0.0483911999999999,0.509895,276.2,7.1,52.1701,4.42721,2.4,0.407805,237.327,4.598330000000001,125.475,22.4223,199.998,1.00339,-0.0627514,237.162,4.30598,3.91826,-16.8578262329102,21.9994239807129,-16.3448905944824,22.0,-733283.0,615.29,pp-riro,4,0,-1,-1
1570532715.5,2019-10-08,13:05:15.500,14.0,11.0,17.520000457763697,-15.4,17.2,8.7,-19.4,-16.0,155.4,-13.8899,16.8023,8.62774,-4.95995,-3.3238800000000004,4.20653,-17.3444,-10.5508,150.205,0.207419,-0.0585401,1.05996,276.2,7.1,52.1701,4.4272,2.7,0.414454,240.108,4.598380000000001,127.315,20.9023,198.898,0.995357,-0.0486951,237.079,4.33975,3.9586,-16.663253784179698,21.9994239807129,-15.946328163147,22.0,-733247.0,676.819,pp-riro,4,0,-1,-1
1570532715.6,2019-10-08,13:05:15.600,14.0,11.0,17.6700000762939,-16.2,16.5,8.3,-19.8,-14.9,157.5,-13.8899,16.8023,8.62774,-4.95995,-3.3238800000000004,4.20653,-17.3444,-10.5508,150.205,0.207419,-0.0585401,1.05996,276.2,7.1,52.1701,4.4272,2.7,0.4216569999999999,245.854,4.5984300000000005,129.009,19.0023,197.898,0.988171,-0.0322616,236.998,4.36592,3.99053,-16.3696899414062,21.9994239807129,-15.6480388641357,22.0,-733172.0,769.112,pp-riro,4,0,-1,-1
1570532715.7,2019-10-08,13:05:15.700,14.0,10.0,17.9699993133545,-16.9,15.6,8.2,-20.3,-14.0,159.9,-14.7629,15.9692,8.223339999999999,-8.75047,-13.6499,-0.193848,-18.2952,-10.0682,152.718,-0.147198,0.109239,0.384192,276.2,7.1,52.1701,4.4272,2.7,0.433846,251.192,4.59848,130.644,17.4823,196.998,0.98112,-0.0190942,237.027,4.39732,4.02191,-16.0146789550781,21.9994239807129,-15.429387092590302,22.0,-733102.0,799.877,pp-riro,4,0,-1,-1
1570532715.8,2019-10-08,13:05:15.800,14.0,10.0,18.2099990844727,-17.3,14.7,8.0,-20.8,-13.5,162.5,-15.5967,15.1999,7.96628,-5.04482,-9.31766,-3.2400900000000004,-19.1509,-9.20635,154.977,-0.0710301,0.0949126,0.38192,276.2,7.1,52.1701,4.4272,2.7,0.4404949999999999,256.276,4.59853,132.192,15.5822,195.998,0.974217,-0.00345289,236.924,4.42574,4.04496,-15.7194061279297,21.9994239807129,-15.3688497543335,22.0,-733019.0,830.6410000000001,pp-riro,4,0,-1,-1
1570532715.9,2019-10-08,13:05:15.900,14.0,9.0,18.5,-17.5,13.9,7.7,-21.1,-12.4,165.1,-15.8974,14.7358,7.850110000000001,-6.414630000000001,-5.6721900000000005,-4.61865,-19.4757,-8.89879,156.19799999999998,-0.00959464,-0.115388,0.6198859999999999,282.1,5.6,52.1701,4.4272,2.7,0.4482529999999999,257.11400000000003,4.5986,133.594,14.0622,195.098,0.967805,0.00895662,236.872,4.46266,4.065519999999999,-15.4377899169922,21.9994239807129,35.0,22.0,-732927.0,1015.23,pp-riro,4,0,-1,-1
1570532716.0,2019-10-08,13:05:16.000,14.0,10.0,18.6000003814697,-17.9,13.2,7.2,-21.6,-11.0,167.2,-16.6326,12.6483,7.23619,-3.63298,-5.2452,-3.38752,-21.0133,-7.041460000000001,162.62,-0.165114,0.0670721,0.395865,282.1,5.6,52.1701,4.4272,2.7,0.595639,244.879,4.59868,134.938,12.1622,194.298,0.961882,0.0238615,236.871,4.4936,4.09202,-15.372932434082,21.9994239807129,35.0,22.0,-733623.0,-14643.9,pp-riro,4,0,-1,-1
1570532716.1,2019-10-08,13:05:16.100,14.0,10.0,18.590000152587898,-18.0,12.4,6.6,-21.7,-10.2,169.9,-16.7781,12.3195,6.9408,-3.69543,-9.8417,-5.79615,-21.1154,-6.2977300000000005,163.795,0.00324062,0.185614,0.424408,282.1,5.6,52.1701,4.4272,2.7,1.10484,217.274,4.59876,136.22299999999998,10.6422,193.498,0.955957,0.0357045,236.879,4.52959,4.11881,-15.116912841796902,21.9994239807129,35.0,22.0,-735761.0,-24334.7,pp-riro,4,0,-1,-1
1570532716.2,2019-10-08,13:05:16.200,14.0,9.0,18.5,-17.6,11.6,5.8,-21.9,-9.7,172.2,-16.8582,11.5594,6.3809,5.35225,-7.096369999999999,-10.9671,-21.0505,-5.502000000000001,166.31900000000002,0.241325,-0.156974,0.4333619999999999,282.1,5.6,52.1701,4.4272,2.7,0.903708,183.372,4.59884,137.421,8.36215,192.698,0.950433,0.0528134,236.827,4.5526800000000005,4.13424,-14.5110092163086,21.9994239807129,35.0,22.0,-733727.0,18920.2,pp-riro,4,0,-1,-1
1570532716.3,2019-10-08,13:05:16.300,14.0,7.0,18.3999996185303,-17.5,10.8,5.6,-21.6,-8.1,173.7,-16.6816,10.8166,5.57477,-1.64118,-6.99823,-5.0259,-21.1872,-4.86031,168.84400000000002,-0.0789633999999999,0.0297184,0.454418,282.1,5.6,52.1701,4.4272,2.7,0.908695,192.301,4.59892,138.501,6.84214,192.098,0.945542,0.0641471,236.92,4.580509999999999,4.15114,-13.5398559570312,21.9994239807129,35.0,22.0,-734117.0,-8552.53,pp-riro,4,0,-1,-1
1570532716.4,2019-10-08,13:05:16.400,14.0,8.0,18.2600002288818,-17.4,10.2,5.5,-21.7,-6.3,175.0,-16.4957,10.3859,5.50349,-0.745621,-4.18017,-2.45234,-21.2964,-4.60649,169.7,-0.0975456,-0.0127966,0.168498,282.1,5.6,52.1701,4.4272,2.7,0.946373,201.693,4.599,139.524,4.94211,191.498,0.940841,0.0780211,236.987,4.60573,4.158440000000001,-12.2205123901367,21.9994239807129,35.0,22.0,-733829.0,3199.51,pp-riro,4,0,-1,-1
1570532716.5,2019-10-08,13:05:16.500,14.0,8.0,18.159999847412102,-17.2,9.7,5.4,-21.8,-5.7,177.1,-16.2921,9.22639,5.27025,0.602436,-3.45603,-0.6726489999999999,-21.1801,-2.0922,173.34900000000002,0.102684,-0.058181,0.471231,282.1,5.6,52.1701,4.42721,3.0,0.93917,192.424,4.599080000000001,140.429,3.4220900000000003,190.998,0.936669,0.0889826,237.092,4.63225,4.16295,-10.5495834350586,21.9994239807129,35.0,22.0,-733759.0,1322.87,pp-riro,4,0,-1,-1
1570532716.6,2019-10-08,13:05:16.600,14.0,8.0,18.0100002288818,-17.1,9.4,5.1,-21.7,-4.8,178.2,-16.2921,9.22639,5.27025,0.602436,-3.45603,-0.6726489999999999,-21.1801,-2.0922,173.34900000000002,0.102684,-0.058181,0.471231,282.1,5.6,52.1701,4.42721,3.0,0.919223,183.545,4.59916,141.335,1.90207,190.398,0.932192,0.0998093999999999,237.13,4.64799,4.16911,-8.52022552490234,21.9994239807129,35.0,22.0,-733501.0,2953.39,pp-riro,4,0,-1,-1
1570532716.7,2019-10-08,13:05:16.700,14.0,8.0,17.8199996948242,-17.0,9.0,5.0,-22.2,-3.7,178.9,-16.2487,9.01137,5.22014,-0.4442779999999999,-4.83947,-3.82945,-21.0824,-2.18218,174.391,0.0754919999999999,-0.191236,0.321944,282.1,5.6,52.1701,4.42721,3.0,0.923655,187.877,4.59924,142.18200000000002,0.00203653,189.898,0.928112,0.113171,237.228,4.65832,4.171930000000001,-6.40894317626953,21.9994239807129,35.0,22.0,-733346.0,769.112,pp-riro,4,0,-1,-1
1570532716.8,2019-10-08,13:05:16.800,14.0,8.0,17.6200008392334,-17.1,8.9,5.1,-22.2,-3.1,179.4,-16.2955,8.57795,4.9265300000000005,3.20479,-0.0515179,0.620743,-21.3694,-1.93653,176.52,-0.135773,0.00475796,0.187795,282.1,5.6,52.1701,4.42721,3.0,0.925872,188.755,4.59931,143.029,-1.51798,189.598,0.924473,0.123731,237.502,4.66297,4.16688,-4.30278015136719,21.9994239807129,35.0,22.0,-733218.0,1353.64,pp-riro,4,0,-1,-1
1570532716.9,2019-10-08,13:05:16.900,14.0,8.0,17.3600006103516,-17.0,8.6,5.3,-22.9,-3.3,179.9,-16.3955,8.29445,5.00441,-3.34496,-2.95353,2.93502,-21.7588,-1.6895099999999998,177.356,0.0593091,-0.053749,0.213966,280.8,6.6,52.1701,4.42721,3.0,0.924209,186.725,4.5994,143.817,-3.41802,188.698,0.919426,0.136786,237.281,4.65719,4.15906,-2.19661712646484,21.9994239807129,35.0,22.0,-733145.0,1384.4,pp-riro,4,0,-1,-1
1570532717.0,2019-10-08,13:05:17.000,14.0,8.0,17.1599998474121,-16.9,8.8,5.4,-23.4,-3.6,179.7,-16.4963,8.20773,5.10731,-0.8987379999999999,-2.76522,0.0692599,-21.9062,-1.8121,177.75599999999997,0.0380625999999999,-0.0892504,0.059039,280.8,6.6,52.1701,4.42721,3.0,0.91756,182.039,4.59946,144.635,-4.93804,188.098,0.915006,0.147078,237.328,4.64289,4.13869,-0.0921630859375,21.9994239807129,35.0,22.0,-732971.0,1938.16,pp-riro,4,0,-1,-1
1570532717.1,2019-10-08,13:05:17.100,14.0,7.0,17.0499992370605,-17.0,8.8,5.6,-24.4,-4.0,179.0,-16.6075,8.35403,5.24262,-0.0476342,2.47205,2.92006,-23.4684,-3.71958,178.40200000000002,-0.0551825,-0.182064,-0.16302,280.8,6.6,52.1701,4.42721,3.0,0.915898,186.602,4.59955,145.424,-6.83807,187.498,0.910577,0.159876,237.383,4.61872,4.12594,2.0148162841796897,21.9994239807129,35.0,22.0,-732800.0,522.996,pp-riro,4,0,-1,-1
1570532717.2,2019-10-08,13:05:17.200,14.0,8.0,17.1000003814697,-17.0,8.7,5.9,-24.9,-4.6,178.4,-16.7366,8.37547,5.40763,-2.51633,-4.179880000000001,3.66808,-23.8883,-4.36291,178.21900000000002,-0.177011,-0.146166,-0.132436,280.8,6.6,52.1701,4.42721,3.0,0.929196,188.33,4.59962,145.862,-7.59808,187.098,0.907962,0.164846,237.359,4.60002,4.117719999999999,4.118194580078121,21.9994239807129,35.0,22.0,-732718.0,1045.99,pp-riro,4,0,-1,-1
1570532717.3,2019-10-08,13:05:17.300,14.0,8.0,17.1599998474121,-16.8,8.8,6.5,-26.0,-6.3,177.4,-17.0136,8.32151,5.86146,-0.145617,0.976982,7.463539999999999,-24.7539,-5.67942,177.484,-0.261504,-0.20885,-0.308463,280.8,6.6,52.1701,4.42721,3.0,0.91756,180.517,4.5997,147.059,-10.2581,186.498,0.901909,0.18237,237.725,4.55417,4.07989,6.22498321533203,21.9994239807129,35.0,22.0,-732502.0,2491.92,pp-riro,4,0,-1,-1
1570532717.4,2019-10-08,13:05:17.400,14.0,10.0,17.4099998474121,-16.0,9.6,7.2,-27.9,-9.9,174.5,-16.7998,8.62783,6.486759999999999,1.38915,7.48026,6.526730000000001,-25.6303,-8.261989999999999,176.545,-0.0835707,-0.387328,-0.281594,280.8,6.6,52.1701,4.42721,3.0,0.905925,178.172,4.59977,147.936,-11.7781,185.298,0.8955120000000001,0.192103,237.401,4.4682,4.00591,8.33347320556641,21.9994239807129,35.0,22.0,-732393.0,2030.46,pp-riro,4,0,-1,-1
1570532717.5,2019-10-08,13:05:17.500,14.0,10.0,17.3099994659424,-15.8,9.8,7.6,-28.3,-10.9,173.1,-16.743,8.9489,6.683039999999999,-0.516546,8.19691,4.45655,-26.148000000000003,-9.76229,175.86700000000002,-0.414271,-0.347255,-0.490534,280.8,6.6,52.1701,4.42721,3.3,0.907033,180.575,4.59985,148.345,-12.5381,184.898,0.892915,0.1969,237.383,4.43467,3.98023,10.4385604858398,21.9994239807129,35.0,22.0,-732324.0,307.645,pp-riro,4,0,-1,-1
1570532717.6,2019-10-08,13:05:17.600,14.0,10.0,17.3600006103516,-15.2,10.4,8.6,-29.3,-13.3,170.2,-16.0943,9.8647,7.9042,1.60506,6.737610000000001,10.7999,-27.8781,-14.6253,172.493,-0.393683,-0.211218,-0.592503,280.8,6.6,52.1701,4.42721,3.3,0.8976129999999999,164.422,4.59992,149.309,-14.0582,184.098,0.887209,0.206384,237.451,4.36238,3.91286,12.5436401367188,21.9994239807129,35.0,22.0,-732028.0,3137.98,pp-riro,4,0,-1,-1
1570532717.7,2019-10-08,13:05:17.700,14.0,11.0,17.1499996185303,-14.2,11.3,9.4,-30.7,-15.6,166.9,-15.909,10.2419,8.43858,0.890401,7.61902,8.109060000000001,-28.3013,-16.0085,171.09599999999998,-0.5142439999999999,-0.159661,-0.702434,280.8,6.6,52.1701,4.42721,3.3,0.862706,155.29,4.59999,150.30200000000002,-15.5782,183.098,0.880832,0.2157099999999999,237.399,4.28637,3.82912,14.653839111328098,21.9994239807129,35.0,22.0,-731849.0,738.3480000000001,pp-riro,4,0,-1,-1
1570532717.8,2019-10-08,13:05:17.800,14.0,10.0,17.1499996185303,-13.1,12.1,10.2,-31.5,-18.2,163.7,-14.3336,11.6304,9.80404,9.82636,10.2465,6.1132800000000005,-30.1279,-20.7849,167.055,-0.552186,-0.280776,-0.534976,280.8,6.6,52.1701,4.42721,3.3,0.866585,154.984,4.60007,151.382,-17.0982,182.198,0.8743989999999999,0.224828,237.498,4.2093300000000005,3.74565,16.7606201171875,21.9994239807129,35.0,22.0,-731828.0,369.174,pp-riro,4,0,-1,-1
1570532717.9,2019-10-08,13:05:17.900,14.0,10.0,17.0,-12.2,12.9,11.0,-31.9,-21.1,159.9,-14.3336,11.6304,9.80404,9.82636,10.2465,6.1132800000000005,-30.1279,-20.7849,167.055,-0.552186,-0.280776,-0.534976,278.4,5.9,52.1701,4.42721,3.3,0.8715719999999999,160.049,4.60013,152.52100000000002,-18.2382,181.198,0.8676200000000001,0.2312969999999999,237.546,4.12406,3.67334,18.8793334960938,21.9994239807129,35.0,22.0,-731725.0,1199.82,pp-riro,4,0,-1,-1
1570532718.0,2019-10-08,13:05:18.000,14.0,8.0,16.8899993896484,-10.8,13.6,11.9,-31.6,-24.6,155.0,-13.413,12.7612,10.7217,7.63391,7.61016,9.53568,-30.9261,-23.9969,163.938,-0.195243,-0.284727,-0.595825,278.4,5.9,52.1701,4.42721,3.3,0.91479,191.397,4.600169999999999,153.80700000000002,-19.3782,180.09799999999998,0.860086,0.2375699999999999,237.629,4.01973,3.58436,20.9912261962891,21.9994239807129,35.0,22.0,-731794.0,-1292.11,pp-riro,4,0,-1,-1
1570532718.1,2019-10-08,13:05:18.100,14.0,9.0,16.8899993896484,-9.4,14.1,12.8,-30.6,-28.2,149.8,-10.2574,14.7183,13.3763,15.1653,13.7109,10.3182,-31.7922,-34.8888,154.525,-0.277442,-0.36611,-0.910525,278.4,5.9,52.1701,4.42721,3.3,0.941386,197.808,4.60019,155.121,-20.5181,178.998,0.8524459999999999,0.243705,237.748,3.91277,3.5010800000000004,23.109939575195305,21.9994239807129,35.0,22.0,-731820.0,-522.996,pp-riro,4,0,-1,-1
1570532718.2,2019-10-08,13:05:18.200,14.0,11.0,16.8400001525879,-7.9,14.6,13.2,-28.2,-32.1,143.2,-10.2574,14.7183,13.3763,15.1653,13.7109,10.3182,-31.7922,-34.8888,154.525,-0.277442,-0.36611,-0.910525,278.4,5.9,52.1701,4.42721,3.3,0.942494,189.599,4.60026,156.435,-21.2781,177.798,0.8446799999999999,0.247363,237.775,3.78977,3.42161,25.215026855468803,21.9994239807129,35.0,22.0,-731604.0,2738.04,pp-riro,4,0,-1,-1
1570532718.3,2019-10-08,13:05:18.300,14.0,11.0,16.8400001525879,-6.1,15.2,13.5,-25.6,-35.4,135.7,-10.2574,14.7183,13.3763,15.1653,13.7109,10.3182,-31.7922,-34.8888,154.525,-0.277442,-0.36611,-0.910525,278.4,5.9,52.1701,4.42721,3.3,0.902046,184.678,4.6003,157.89600000000002,-22.0381,176.498,0.836176,0.250786,237.841,3.66414,3.3284,27.3132934570312,21.9994239807129,35.0,22.0,-731296.0,430.703,pp-riro,4,0,-1,-1
1570532718.4,2019-10-08,13:05:18.400,14.0,7.0,16.8899993896484,-4.1,15.4,14.1,-21.4,-38.1,127.6,-5.71079,16.4767,14.9153,18.2785,-6.136340000000001,7.66821,-26.0692,-45.5599,137.004,-0.356463,0.0510523,-1.28446,278.4,5.9,52.1701,4.42721,3.3,0.920331,193.399,4.60035,159.356,-22.4181,175.298,0.8281209999999999,0.251826,237.963,3.5407300000000004,3.23171,29.4081573486328,21.9994239807129,35.0,22.0,-731330.0,-646.054,pp-riro,4,0,-1,-1
1570532718.5,2019-10-08,13:05:18.500,14.0,9.0,16.8899993896484,-2.3,15.3,14.2,-16.3,-40.3,117.8,-4.60191,16.4574,15.2218,15.047,1.27502,8.487639999999999,-23.938,-47.756,132.63299999999998,-0.465265,-0.168977,-1.26355,278.4,5.9,52.1701,4.42721,3.5,0.952468,197.165,4.60039,160.787,-22.798,173.998,0.8198770000000001,0.252871,238.008,3.4020300000000003,3.14775,31.2168884277344,21.9994239807129,35.0,22.0,-731273.0,1322.87,pp-riro,4,0,-1,-1
1570532718.6,2019-10-08,13:05:18.600,14.0,10.0,16.9400005340576,-0.2,15.5,14.1,-9.8,-41.2,106.5,-1.34897,17.0482,15.4608,29.1845,8.075239999999999,2.13019,-14.5396,-52.2502,115.417,-0.218448,0.0286187,-1.21328,278.4,5.9,52.1701,4.42721,3.5,0.918669,178.748,4.60043,162.27700000000002,-23.178,172.59799999999998,0.81117,0.253847,238.036,3.25142,3.04629,32.678192138671896,21.9994239807129,23.0,22.0,-730967.0,3199.51,pp-riro,4,0,-1,-1
1570532718.7,2019-10-08,13:05:18.700,14.0,11.0,16.8400001525879,1.8,15.3,14.1,-3.2,-42.1,96.0,-1.34897,17.0482,15.4608,29.1845,8.075239999999999,2.13019,-14.5396,-52.2502,115.417,-0.218448,0.0286187,-1.21328,278.4,5.9,52.1701,4.42721,3.5,0.889302,172.282,4.60048,163.795,-23.1779,171.398,0.803124,0.252504,238.209,3.11498,2.95247,33.7733154296875,21.9994239807129,23.0,22.0,-730725.0,553.761,pp-ro,1,1,-1,-1
1570532718.8,2019-10-08,13:05:18.800,14.0,11.0,16.8400001525879,3.8,14.9,13.9,2.9,-41.5,85.4,-0.139988,16.881,15.4263,19.608,4.100140000000001,0.7940560000000001,-10.4032,-53.5244,109.111,-0.473825,-0.224671,-1.41479,278.4,5.9,52.1701,4.42721,3.5,0.8987219999999999,177.22099999999998,4.60052,165.25599999999997,-22.7978,170.19799999999998,0.795419,0.248978,238.32,2.97923,2.85796,34.517578125,21.9994239807129,23.0,22.0,-730717.0,153.822,pp-ro,1,1,-1,-1
1570532718.9,2019-10-08,13:05:18.900,14.0,12.0,16.6800003051758,5.8,14.3,13.6,8.6,-39.9,75.4,-0.139988,16.881,15.4263,19.608,4.100140000000001,0.7940560000000001,-10.4032,-53.5244,109.111,-0.473825,-0.224671,-1.41479,272.2,5.5,52.1701,4.42721,3.5,0.916452,183.83900000000003,4.60055,166.687,-22.4178,168.898,0.787507,0.245532,238.356,2.8464,2.76028,34.9093017578125,21.9994239807129,23.0,22.0,-730665.0,738.3480000000001,pp-ro,1,1,-1,-1
1570532719.0,2019-10-08,13:05:19.000,14.0,14.0,16.6700000762939,7.8,13.8,13.3,13.7,-38.1,65.8,-0.139988,16.881,15.4263,19.608,4.100140000000001,0.7940560000000001,-10.4032,-53.5244,109.111,-0.473825,-0.224671,-1.41479,272.2,5.5,52.1701,4.42721,3.5,0.914236,180.254,4.60055,168.118,-22.0377,167.69799999999998,0.779889,0.2421849999999999,238.479,2.71529,2.66303,34.970626831054695,21.9994239807129,23.0,22.0,-730531.0,1538.22,pp-ro,1,1,-1,-1
1570532719.1,2019-10-08,13:05:19.100,14.0,18.0,16.620000839233402,9.5,13.3,12.9,18.1,-36.0,57.1,8.14718,15.699000000000002,14.6628,27.833,-9.89748,-8.1549,15.8033,-52.0464,65.3414,-0.520546,-0.00638958,-1.36417,272.2,5.5,52.1701,4.42721,3.5,0.8965049999999999,173.407,4.60055,169.46099999999998,-21.2777,166.398,0.772368,0.236748,238.45,2.59365,2.58019,34.6657562255859,21.9994239807129,23.0,22.0,-730274.0,1538.22,pp-ro,1,1,-1,-1
1570532719.2,2019-10-08,13:05:19.200,14.0,16.0,16.4599990844727,11.0,12.7,12.2,22.3,-33.8,49.3,10.0988,15.0912,14.1666,23.1595,-6.851039999999999,-7.65642,22.1813,-50.3845,54.3875,-0.5809979999999999,-0.0719493,-0.957558,272.2,5.5,52.1701,4.42721,3.5,0.8981680000000001,173.979,4.60055,170.74599999999998,-20.5176,165.19799999999998,0.765303,0.231431,238.465,2.48138,2.49931,33.975982666015604,21.9994239807129,22.303390502929695,22.0,-730199.0,553.761,pp-ro,1,1,-1,-1
1570532719.3,2019-10-08,13:05:19.300,14.0,14.0,16.3500003814697,12.5,12.1,11.5,25.8,-31.3,41.8,12.8999,14.1236,13.0008,11.3197,-6.54336,-7.00175,29.1831,-45.6337,40.8067,-0.412626,-0.0524298,-1.08286,272.2,5.5,52.1701,4.42721,3.5,0.901492,175.454,4.60055,172.002,-18.9975,164.09799999999998,0.758858,0.2218429999999999,238.483,2.37226,2.42145,33.4974060058594,21.9994239807129,20.9327030181885,22.0,-730082.0,1415.17,pp-ro,1,1,-1,-1
1570532719.4,2019-10-08,13:05:19.400,14.0,13.0,16.129999160766598,13.5,11.4,10.7,29.1,-28.2,35.0,14.4683,13.2487,12.1657,16.8171,-13.0675,-4.06642,33.0357,-42.0715,32.2328,-0.197094,0.0205297,-1.46076,272.2,5.5,52.1701,4.42721,3.5,0.9026,177.09099999999998,4.60055,173.171,-17.8574,162.998,0.752509,0.214596,238.486,2.26275,2.35676,32.271148681640604,21.9994239807129,19.8466243743896,22.0,-730022.0,1076.76,pp-ro,1,1,-1,-1
1570532719.5,2019-10-08,13:05:19.500,14.0,11.0,16.129999160766598,14.4,10.6,9.7,32.2,-25.2,28.4,15.695,12.425999999999998,11.2043,11.9136,-3.76446,-7.0271,36.4252,-38.2248,24.8343,-0.528183,-0.1135299999999999,-1.24367,272.2,5.5,52.1701,4.42721,3.5,0.900384,171.956,4.60055,174.33900000000003,-16.7174,161.998,0.746442,0.2074349999999999,238.573,2.15571,2.28684,30.6889343261719,21.9994239807129,18.6503772735596,22.0,-729847.0,1507.46,pp-ro,1,1,-1,-1
1570532719.6,2019-10-08,13:05:19.600,14.0,10.0,16.1800003051758,15.0,9.8,8.7,34.5,-21.7,22.8,16.1626,11.9254,10.6043,3.41652,-9.4903,-13.4825,37.7316,-36.0144,21.7688,-0.3472929999999999,0.0800355,-1.08965,272.2,5.5,52.1701,4.42721,3.5,0.888194,166.16,4.60055,175.39,-15.1973,161.09799999999998,0.7410869999999999,0.198269,238.632,2.05486,2.22606,28.2312927246094,21.9994239807129,17.599967956543,22.0,-729690.0,1538.22,pp-ro,1,1,-1,-1
1570532719.7,2019-10-08,13:05:19.700,14.0,11.0,16.1800003051758,15.8,9.0,7.7,36.4,-18.2,17.9,17.0348,10.9193,9.35338,6.0386,-10.5791,-12.711,39.3468,-31.2768,16.0538,-0.56057,0.178835,-1.15033,272.2,5.5,52.1701,4.42721,3.5,0.879883,161.934,4.60055,176.412,-13.6772,160.298,0.736086,0.189209,238.755,1.96103,2.1565,26.1193923950195,21.9994239807129,16.3663730621338,22.0,-729549.0,1507.46,pp-ro,1,1,-1,-1
1570532719.8,2019-10-08,13:05:19.800,14.0,11.0,16.2399997711182,16.3,8.2,6.6,38.0,-14.6,14.0,17.4567,10.3744,8.77743,11.9158,-8.187380000000001,-16.024,40.1223,-29.0846,13.6298,-0.0829543,0.113271,-0.965129,272.2,5.5,52.1701,4.42721,3.5,0.8760040000000001,163.322,4.60056,177.347,-12.1571,159.59799999999998,0.7316060000000001,0.180276,238.896,1.87651,2.09078,24.0211181640625,21.9994239807129,15.194806098938,22.0,-729481.0,1292.11,pp-ro,1,1,-1,-1
1570532719.9,2019-10-08,13:05:19.900,14.0,9.0,16.2900009155273,16.7,7.5,5.7,38.9,-11.2,10.7,18.2891,8.93213,6.91638,8.90713,-3.81597,-11.4793,41.4601,-21.8499,7.38991,-0.13036,0.13984,-0.999178,275.6,5.9,52.1701,4.42721,3.5,0.888194,169.44,4.60059,178.28099999999998,-10.6371,158.998,0.727405,0.171426,239.11900000000003,1.80076,2.03517,21.9126281738281,21.9994239807129,14.2199802398682,22.0,-729459.0,61.529,pp-ro,1,1,-1,-1
1570532720.0,2019-10-08,13:05:20.000,14.0,10.0,16.3899993896484,17.1,6.8,4.9,40.0,-8.3,7.5,18.2891,8.93213,6.91638,8.90713,-3.81597,-11.4793,41.4601,-21.8499,7.38991,-0.13036,0.13984,-0.999178,275.6,5.9,52.1701,4.42721,3.5,0.900938,175.503,4.60065,179.041,-8.736989999999999,158.498,0.724023,0.160531,239.277,1.73353,1.98322,20.3866119384766,21.9994239807129,13.2786350250244,22.0,-729320.0,1076.76,pp-ro,1,1,-1,-1
1570532720.1,2019-10-08,13:05:20.100,14.0,10.0,16.3899993896484,17.4,6.2,4.0,40.7,-5.1,4.5,19.0211,7.05535,4.98591,4.5811,-24.6136,-10.8309,42.5123,-13.6984,1.77063,0.0426971,0.0686799999999999,-0.256654,275.6,5.9,52.1701,4.42721,3.5,0.904817,180.258,4.600709999999999,179.8,-7.21692,157.998,0.720547,0.151827,239.465,1.66301,1.93055,18.5131530761719,21.9994239807129,12.3435306549072,22.0,-729222.0,922.935,pp-ro,1,1,-1,-1
1570532720.2,2019-10-08,13:05:20.200,14.0,13.0,16.4500007629395,17.6,5.7,3.3,42.1,-2.2,2.0,19.4356,6.16027,3.60726,2.2656,-6.2598,-10.4324,43.3591,-8.253210000000001,-2.27385,0.164289,0.188563,-0.6005010000000001,275.6,5.9,52.1701,4.42721,3.5,0.911466,184.664,4.60077,180.501,-5.31685,157.59799999999998,0.717547,0.141096,239.679,1.60332,1.89112,16.4319152832031,21.9994239807129,11.6494617462158,22.0,-729194.0,522.996,pp-ro,1,1,-1,-1
1570532720.3,2019-10-08,13:05:20.300,14.0,11.0,16.5,18.2,5.1,2.6,42.7,0.0,-0.4,19.4356,6.16027,3.60726,2.2656,-6.2598,-10.4324,43.3591,-8.253210000000001,-2.27385,0.164289,0.188563,-0.6005010000000001,275.6,5.9,52.1701,4.42721,3.5,0.933075,195.159,4.60083,181.114,-3.41678,157.19799999999998,0.714735,0.13045,239.844,1.55386,1.84171,14.8684310913086,21.9994239807129,10.754376411438,22.0,-729135.0,769.112,pp-ro,1,1,-1,-1
1570532720.4,2019-10-08,13:05:20.400,14.0,11.0,16.7099990844727,18.6,4.4,2.2,43.9,2.0,-2.7,19.4356,6.16027,3.60726,2.2656,-6.2598,-10.4324,43.3591,-8.253210000000001,-2.27385,0.164289,0.188563,-0.6005010000000001,275.6,5.9,52.1701,4.42721,3.5,0.946927,205.877,4.60089,181.669,-1.51671,156.898,0.7123470000000001,0.119874,240.048,1.50811,1.80465,13.485481262207,21.9994239807129,10.0931873321533,22.0,-729034.0,922.935,pp-ro,1,1,-1,-1
1570532720.5,2019-10-08,13:05:20.500,14.0,10.0,16.7600002288818,18.6,3.9,1.7,45.0,3.3,-4.7,20.2206,4.61528,2.42445,2.08363,-6.14703,-0.386788,44.7925,-2.5983400000000003,-6.2689,0.127693,0.0376450999999999,-0.421226,275.6,5.9,52.1701,4.427219999999999,3.7,0.966874,211.62,4.60096,182.166,0.3833519999999999,156.59799999999998,0.710067,0.1093599999999999,240.224,1.47501,1.77535,12.5453491210938,21.9994239807129,9.58873653411865,22.0,-728963.0,922.935,pp-ro,1,1,-1,-1
1570532720.6,2019-10-08,13:05:20.600,14.0,10.0,16.7600002288818,19.0,3.7,1.3,46.5,5.2,-7.0,20.3275,3.96985,1.89349,5.70333,-4.099819999999999,-3.50537,45.7729,-0.175254,-8.16714,0.392671,0.0617487,-0.6528079999999999,275.6,5.9,52.1701,4.427219999999999,3.7,0.965211,211.292,4.60102,182.574,2.28341,156.298,0.707974,0.0988964,240.349,1.43057,1.7558599999999998,11.4280853271484,21.9994239807129,9.27789688110352,22.0,-728751.0,2215.04,pp-ro,1,1,-1,-1
1570532720.7,2019-10-08,13:05:20.700,14.0,8.0,16.7099990844727,19.2,3.1,1.2,48.0,7.0,-9.2,20.3275,3.96985,1.89349,5.70333,-4.099819999999999,-3.50537,45.7729,-0.175254,-8.16714,0.392671,0.0617487,-0.6528079999999999,275.6,5.9,52.1701,4.427219999999999,3.7,0.964103,214.739,4.6010800000000005,182.983,4.18347,156.09799999999998,0.7061470000000001,0.0884823999999999,240.556,1.38859,1.73704,10.4913558959961,21.9994239807129,8.9736328125,22.0,-728617.0,1045.99,pp-ro,1,1,-1,-1
1570532720.8,2019-10-08,13:05:20.800,14.0,9.0,16.7600002288818,19.0,2.4,1.1,49.5,8.1,-11.9,20.9038,2.48168,1.42339,-0.4322029999999999,-4.42321,-0.510042,48.794,5.56235,-13.8015,0.276643,-0.134797,-0.6179439999999999,275.6,5.9,52.1701,4.427219999999999,3.7,0.979064,220.483,4.60114,183.304,6.0835300000000005,155.798,0.7041890000000001,0.0781034999999999,240.646,1.35016,1.71776,9.76922607421875,21.9994239807129,8.67349338531494,22.0,-728520.0,1169.05,pp-ro,1,1,-1,-1
1570532720.9,2019-10-08,13:05:20.900,14.0,10.0,16.7099990844727,18.9,2.0,0.7,50.8,9.5,-13.8,20.7927,2.17322,0.894401,-1.11808,-0.562267,-3.89533,50.0579,7.51205,-15.7408,0.396846,0.0621541,-0.461899,277.5,6.3,52.1701,4.427219999999999,3.7,0.985713,225.829,4.60121,183.596,7.983589999999999,155.59799999999998,0.702576,0.0677609,240.795,1.31691,1.6954900000000002,9.21059417724609,21.9994239807129,8.302294731140138,22.0,-728263.0,1722.81,pp-ro,1,1,-1,-1
1570532721.0,2019-10-08,13:05:21.000,14.0,6.0,16.6599998474121,19.1,1.2,0.5,51.7,10.8,-15.1,20.7927,2.17322,0.894401,-1.11808,-0.562267,-3.89533,50.0579,7.51205,-15.7408,0.396846,0.0621541,-0.461899,277.5,6.3,52.1701,4.427219999999999,3.7,0.992362,227.154,4.6012900000000005,183.772,10.2636,155.398,0.70117,0.0553453,240.886,1.29321,1.66743,8.78821563720703,21.9994239807129,7.80993747711182,22.0,-728149.0,1199.82,pp-ro,1,1,-1,-1
1570532721.1,2019-10-08,13:05:21.100,14.0,8.0,16.5499992370605,18.7,0.6,0.3,52.6,11.8,-16.5,20.56,1.79194,0.844096,-2.93731,-11.9087,-2.30213,50.6398,8.52865,-16.52,0.232496,-0.0181186,-0.497752,277.5,6.3,52.1701,4.427219999999999,3.7,0.992362,226.305,4.601369999999999,183.888,11.7837,155.19799999999998,0.69998,0.0470236,240.916,1.26961,1.6450599999999995,8.20914459228516,21.9994239807129,7.42735815048218,22.0,-727947.0,2153.51,pp-ro,1,1,-1,-1
1570532721.2,2019-10-08,13:05:21.200,14.0,10.0,16.5,18.4,0.1,0.0,52.9,12.0,-17.9,19.8365,0.158754,0.141643,-7.43353,-5.85947,-5.490419999999999,52.1099,11.5758,-20.3683,0.210078,-0.153222,-0.187462,277.5,6.3,52.1701,4.427219999999999,3.7,0.988483,225.365,4.60145,183.947,14.0637,154.998,0.698762,0.0346690999999999,240.954,1.25914,1.62345,7.766326904296879,21.9994239807129,7.06864356994629,22.0,-727842.0,1938.16,pp-ro,1,1,-1,-1
1570532721.3,2019-10-08,13:05:21.300,14.0,11.0,16.5499992370605,18.6,-0.4,-0.8,52.8,12.5,-18.8,19.8365,0.158754,0.141643,-7.43353,-5.85947,-5.490419999999999,52.1099,11.5758,-20.3683,0.210078,-0.153222,-0.187462,277.5,6.3,52.1701,4.427219999999999,3.7,0.985158,222.913,4.60153,183.976,15.9638,154.898,0.697954,0.0243413,241.03,1.2491,1.57965,7.39163970947266,21.9994239807129,6.248858451843259,22.0,-727677.0,1692.05,pp-ro,1,1,-1,-1
1570532721.4,2019-10-08,13:05:21.400,14.0,13.0,16.6000003814697,18.7,-1.2,-1.4,53.0,12.7,-19.5,19.8682,-0.734789,-1.02113,-3.785,-7.849639999999999,-2.33661,52.1319,12.3779,-21.7758,0.180283,0.074049,-0.214885,277.5,6.3,52.1701,4.427219999999999,3.7,0.994024,240.364,4.60161,183.917,17.8638,154.998,0.697964,0.0139886,241.183,1.2452299999999998,1.53459,7.197479248046879,21.9994239807129,5.36139059066772,22.0,-727529.0,953.699,pp-ro,1,1,-1,-1
1570532721.5,2019-10-08,13:05:21.500,14.0,12.0,16.870000839233402,18.6,-1.9,-1.2,52.5,12.3,-20.9,19.8682,-0.734789,-1.02113,-3.785,-7.849639999999999,-2.33661,52.1319,12.3779,-21.7758,0.180283,0.074049,-0.214885,277.5,6.3,52.1701,4.427219999999999,4.0,1.05996,275.068,4.6017,183.771,20.1439,154.998,0.6977260000000001,0.00155638,241.251,1.24254,1.5263799999999998,6.55028533935547,21.9994239807129,5.234686374664309,22.0,-727671.0,-1907.4,pp-ro,1,1,-1,-1
1570532721.6,2019-10-08,13:05:21.600,14.0,10.0,17.129999160766598,18.4,-2.0,-1.1,52.2,12.8,-22.1,19.8855,-2.19362,-1.29426,-1.48169,-4.64198,-2.3417,51.1662,12.3658,-23.6054,0.145417,0.0252053,-0.138011,277.5,6.3,52.1701,4.427219999999999,4.0,1.10152,290.678,4.601780000000001,183.625,21.6639,154.998,0.697655,-0.00678233,241.272,1.22774,1.53116,5.86222076416016,21.9994239807129,5.35400247573853,22.0,-727579.0,1753.58,pp-ro,1,1,-1,-1
1570532721.7,2019-10-08,13:05:21.700,14.0,12.0,17.6299991607666,18.4,-2.1,-1.4,51.6,13.4,-23.0,19.7784,-2.39757,-1.50755,-0.223054,-2.11158,-2.16563,50.4835,13.7863,-24.8119,0.000630055,0.0657071,-0.25344,277.5,6.3,52.1701,4.427219999999999,4.0,1.09265,272.639,4.60186,183.421,23.944000000000003,154.998,0.697447,-0.0192345,241.332,1.2178,1.52327,5.38533020019531,21.9994239807129,5.24490547180176,22.0,-727198.0,4737.73,pp-ro,1,1,-1,-1
1570532721.8,2019-10-08,13:05:21.800,14.0,12.0,18.020000457763697,18.3,-2.6,-1.6,51.1,14.5,-24.1,19.7575,-2.58334,-1.59261,1.21196,-4.79169,-3.49711,50.1633,14.3047,-25.2908,0.0290185,-0.0510445,-0.307778,277.5,6.3,52.1701,4.427219999999999,4.0,1.04112,257.682,4.60194,183.216,25.464,155.09799999999998,0.697764,-0.0276065,241.396,1.19645,1.50262,5.24397277832031,21.9994239807129,4.8392128944397,22.0,-726736.0,3814.8,pp-ro,1,1,-1,-1
1570532721.9,2019-10-08,13:05:21.900,14.0,10.0,18.3600006103516,18.0,-2.9,-1.9,50.6,14.6,-25.7,19.7376,-2.89201,-1.67818,-3.5408699999999995,-6.17496,0.0751105,49.633,14.6477,-25.991,-0.0535294,-0.181025,-0.266633,282.2,7.1,52.1701,4.427219999999999,4.0,1.06162,268.285,4.60203,182.924,27.744,155.19799999999998,0.697978,-0.0401644,241.49,1.18497,1.48524,5.20820617675781,21.9994239807129,4.52579689025879,22.0,-726548.0,1599.75,pp-ro,1,1,-1,-1
1570532722.0,2019-10-08,13:05:22.000,14.0,10.0,18.6499996185303,18.0,-3.0,-2.1,50.4,14.8,-26.1,19.3786,-3.30724,-1.89499,-5.47293,-1.89572,-0.214044,49.0571,14.7036,-27.6431,0.152493,-0.238637,-0.114301,282.2,7.1,52.1701,4.427219999999999,4.0,1.06605,273.384,4.602119999999999,182.603,29.2641,155.19799999999998,0.6982,-0.0485929,241.426,1.18332,1.47889,4.976585388183589,21.9994239807129,4.42102003097534,22.0,-726418.0,2430.39,pp-ro,1,1,-1,-1
1570532722.1,2019-10-08,13:05:22.100,14.0,11.0,18.8299999237061,18.0,-3.4,-2.3,50.7,15.9,-27.2,19.1363,-3.54915,-2.26833,-2.86343,-1.9486900000000005,-6.214090000000001,48.4065,15.3794,-28.538,0.148838,0.00552936,-0.139185,282.2,7.1,52.1701,4.427219999999999,4.0,1.08157,280.015,4.60221,182.281,31.5441,155.498,0.698997,-0.0611329,241.663,1.16477,1.4652,4.637657165527339,21.9994239807129,4.15277433395386,22.0,-726282.0,1292.11,pp-ro,1,1,-1,-1
1570532722.2,2019-10-08,13:05:22.200,14.0,8.0,19.1100006103516,17.7,-3.7,-2.1,50.4,16.4,-28.7,19.1363,-3.54915,-2.26833,-2.86343,-1.9486900000000005,-6.214090000000001,48.4065,15.3794,-28.538,0.148838,0.00552936,-0.139185,282.2,7.1,52.1701,4.427219999999999,4.0,1.08822,283.428,4.60231,182.077,32.3041,155.59799999999998,0.699501,-0.0654661999999999,241.674,1.14393,1.46269,4.41114044189453,21.9994239807129,4.088951110839839,22.0,-725904.0,2553.45,pp-ro,1,1,-1,-1
1570532722.3,2019-10-08,13:05:22.300,14.0,9.0,19.25,17.4,-3.6,-2.2,50.2,16.8,-29.5,19.1363,-3.54915,-2.26833,-2.86343,-1.9486900000000005,-6.214090000000001,48.4065,15.3794,-28.538,0.148838,0.00552936,-0.139185,282.2,7.1,52.1701,4.427219999999999,4.0,1.08711,281.321,4.6024,181.726,33.8241,155.69799999999998,0.700012,-0.0739828999999999,241.683,1.13518,1.46361,4.155662536621089,21.9994239807129,4.11840724945068,22.0,-725785.0,2245.81,pp-ro,1,1,-1,-1
1570532722.4,2019-10-08,13:05:22.400,14.0,11.0,19.1100006103516,17.2,-3.9,-2.6,50.3,18.7,-30.9,19.1363,-3.54915,-2.26833,-2.86343,-1.9486900000000005,-6.214090000000001,48.4065,15.3794,-28.538,0.148838,0.00552936,-0.139185,282.2,7.1,52.1701,4.427219999999999,4.0,1.08046,274.562,4.6025,181.376,35.7242,155.898,0.7006100000000001,-0.0845354,241.822,1.10196,1.44042,4.09605407714844,21.9994239807129,3.67607831954956,22.0,-725481.0,3353.33,pp-ro,1,1,-1,-1
1570532722.5,2019-10-08,13:05:22.500,14.0,10.0,19.1100006103516,17.0,-4.4,-2.7,50.2,19.2,-32.1,18.5115,-4.28565,-2.46822,-2.4224900000000003,-2.3258,-0.793196,47.7656,18.6093,-32.3842,0.016509,0.0725391,-0.283508,282.2,7.1,52.1701,4.427219999999999,4.2,1.06661,271.771,4.60259,180.704,38.7642,156.19899999999998,0.7016789999999999,-0.101473,241.98,1.09295,1.42716,4.101165771484379,21.9994239807129,3.44925594329834,22.0,-725163.0,2953.39,pp-ro,1,1,-1,-1
1570532722.6,2019-10-08,13:05:22.600,14.0,9.0,18.979999542236303,16.8,-4.5,-2.8,49.8,19.3,-32.9,18.3522,-4.75021,-2.6045,-6.68552,-7.5196,0.0153127999999999,47.9312,19.7215,-33.2036,0.1003759999999999,-0.158092,-0.0938165,282.2,7.1,52.1701,4.427219999999999,4.2,1.07381,278.185,4.60269,180.499,39.5242,156.299,0.702098,-0.105822,242.015,1.08529,1.4191,3.92063140869141,21.9994239807129,3.28832244873047,22.0,-725008.0,1292.11,pp-ro,1,1,-1,-1
1570532722.7,2019-10-08,13:05:22.700,14.0,10.0,18.840000152587898,16.5,-4.6,-3.1,50.0,19.8,-33.5,18.1908,-5.00745,-2.61171,0.3306429999999999,-2.20081,-1.17281,47.6795,19.7617,-34.2099,-0.1108099999999999,-0.2331949999999999,-0.2089739999999999,282.2,7.1,52.1701,4.427219999999999,4.2,1.0932,281.971,4.60278,180.003,41.0443,156.499,0.703137,-0.114589,242.028,1.07779,1.40331,3.62428283691406,21.9994239807129,2.95831966400146,22.0,-724821.0,2091.99,pp-ro,1,1,-1,-1
1570532722.8,2019-10-08,13:05:22.800,14.0,11.0,18.7000007629395,16.6,-5.1,-3.6,49.8,20.4,-34.1,17.6367,-5.35077,-3.3759900000000003,-3.98892,-7.852760000000001,-8.9799,47.5314,21.1781,-35.6401,0.141118,0.043146,-0.173171,282.2,7.1,52.1701,4.427219999999999,4.2,1.08101,280.97,4.60288,179.50599999999997,42.9443,156.799,0.7042189999999999,-0.125265,242.183,1.07039,1.37406,3.43694305419922,21.9994239807129,2.37659668922424,22.0,-724472.0,3507.15,pp-ro,1,1,-1,-1
1570532722.9,2019-10-08,13:05:22.900,14.0,11.0,18.840000152587898,16.6,-5.8,-3.6,49.7,20.4,-35.3,17.6367,-5.35077,-3.3759900000000003,-3.98892,-7.852760000000001,-8.9799,47.5314,21.1781,-35.6401,0.141118,0.043146,-0.173171,275.8,6.5,52.1701,4.427219999999999,4.2,1.10041,298.659,4.60295,178.922,44.4643,157.19899999999998,0.706032,-0.1341099999999999,242.284,1.06231,1.35741,3.15763092041016,21.9994239807129,1.96360993385315,22.0,-724369.0,153.822,pp-ro,1,1,-1,-1
1570532723.0,2019-10-08,13:05:23.000,14.0,13.0,19.020000457763697,16.4,-6.0,-3.6,49.5,20.2,-36.4,17.4899,-6.44866,-3.58311,-1.79537,-1.40754,0.728883,46.9589,20.9758,-37.969,0.0189687,-0.0990821,-0.199292,275.8,6.5,52.1701,4.427219999999999,4.2,1.14307,311.885,4.60302,178.30900000000003,46.3643,157.499,0.7073119999999999,-0.1449869999999999,242.383,1.05918,1.35404,2.67052459716797,21.9994239807129,1.88910353183746,22.0,-724270.0,1753.58,pp-ro,1,1,-1,-1
1570532723.1,2019-10-08,13:05:23.100,14.0,10.0,19.2099990844727,16.3,-6.1,-3.3,49.7,20.1,-37.0,17.1408,-6.561839999999999,-3.32446,-2.18658,-1.48337,6.99227,47.1384,21.2428,-38.4303,0.156088,-0.00941682,-0.125478,275.8,6.5,52.1701,4.427219999999999,4.2,1.12811,297.217,4.60308,177.695,47.8844,157.799,0.708799,-0.153915,242.423,1.0592700000000002,1.36712,2.16980743408203,21.9994239807129,2.1041052341461204,22.0,-723876.0,4491.62,pp-ro,1,1,-1,-1
1570532723.2,2019-10-08,13:05:23.200,14.0,8.0,19.2999992370605,16.0,-5.9,-3.2,49.9,20.3,-37.4,17.0045,-6.5096,-3.14726,-4.67231,2.25027,0.0285195,47.3712,21.6862,-38.6188,0.0437683,0.0714197,-0.0182646,275.8,6.5,52.1701,4.427219999999999,4.2,1.08323,267.666,4.60314,177.053,49.7844,158.099,0.710047,-0.164825,242.531,1.05936,1.37873,1.90921783447266,21.9994239807129,2.3413095474243195,22.0,-723354.0,5568.37,pp-ro,1,1,-1,-1
1570532723.3,2019-10-08,13:05:23.300,14.0,8.0,19.2999992370605,15.6,-5.8,-3.1,49.8,20.3,-37.7,16.7937,-6.358,-3.07125,-2.06713,3.13423,1.43279,47.5454,21.9979,-38.7541,-0.0515369,-0.0834577,-0.0335156,275.8,6.5,52.1701,4.427219999999999,4.2,1.01674,243.001,4.6032,176.468,51.3044,158.399,0.711371,-0.173708,242.618,1.06171,1.38378,1.9603195190429696,21.9994239807129,2.41716742515564,22.0,-722787.0,1507.46,pp-ro,1,1,-1,-1
1570532723.4,2019-10-08,13:05:23.400,14.0,8.0,19.2099990844727,15.2,-5.7,-2.9,50.2,20.2,-37.8,16.0437,-6.19154,-2.8429,-4.06846,3.2830699999999995,0.713176,47.5515,21.3128,-39.8742,0.0554368,-0.046722,-0.0590973,275.8,6.5,52.1701,4.427219999999999,4.2,1.02173,240.898,4.60326,175.884,52.8244,158.69899999999998,0.7126560000000001,-0.182604,242.716,1.06762,1.39334,2.29753875732422,21.9994239807129,2.5903172492981,22.0,-722588.0,2461.16,pp-ro,1,1,-1,-1
1570532723.5,2019-10-08,13:05:23.500,14.0,9.0,19.0300006866455,14.9,-5.6,-2.9,50.1,20.0,-37.8,15.8687,-6.10957,-2.82902,1.34599,0.969823,2.52186,47.7519,21.2196,-39.8825,0.0241880999999999,0.0404604,0.00542195,275.8,6.5,52.1701,4.427219999999999,4.3,1.01286,238.93,4.60332,175.3,54.3444,158.999,0.713901,-0.191512,242.825,1.07594,1.39605,2.3980255126953103,21.9994239807129,-35.0,22.0,-722438.0,2768.8,pp-ro,1,1,-1,-1
1570532723.6,2019-10-08,13:05:23.600,14.0,9.0,18.840000152587898,14.9,-5.6,-3.1,50.6,19.7,-37.6,15.8687,-6.10957,-2.82902,1.34599,0.969823,2.52186,47.7519,21.2196,-39.8825,0.0241880999999999,0.0404604,0.00542195,275.8,6.5,52.1701,4.427219999999999,4.3,1.01342,244.396,4.6033800000000005,174.71599999999998,55.4844,159.299,0.715417,-0.198456,242.858,1.0865,1.3914,2.56493377685547,21.9994239807129,-35.0,22.0,-722196.0,1322.87,pp-ro,1,1,-1,-1
1570532723.7,2019-10-08,13:05:23.700,14.0,8.0,18.659999847412102,14.8,-5.7,-2.7,51.0,19.5,-37.9,15.5409,-6.070790000000001,-2.80002,-3.56535,2.2633,-2.85218,48.0536,21.2166,-39.8236,0.0354538,-0.0205487,0.172369,275.8,6.5,52.1701,4.427219999999999,4.3,1.04001,259.461,4.60344,174.132,57.3845,159.599,0.71627,-0.209388,243.077,1.09269,1.41121,2.5138397216796897,21.9994239807129,-35.0,22.0,-722110.0,799.877,pp-ro,1,1,-1,-1
1570532723.8,2019-10-08,13:05:23.800,14.0,10.0,18.6100006103516,14.9,-5.8,-2.5,51.0,19.3,-38.7,15.5498,-6.30561,-2.56746,1.48726,-5.68861,1.5959,48.5747,20.7173,-39.9361,-0.1090619999999999,-0.0689888999999999,-0.00117813,275.8,6.5,52.1701,4.427219999999999,4.3,1.05109,264.54,4.6035,173.518,58.9045,159.899,0.7174689999999999,-0.2183449999999999,243.199,1.09179,1.425,2.0778350830078103,21.9994239807129,-35.0,22.0,-722052.0,1107.52,pp-ro,1,1,-1,-1
1570532723.9,2019-10-08,13:05:23.900,14.0,10.0,18.5100002288818,14.9,-5.8,-2.6,51.1,19.2,-39.2,15.5008,-6.3162400000000005,-2.44854,-1.7315,0.211052,0.576867,48.8791,21.0474,-40.4366,0.0205427,0.0554939,-0.0311778,275.0,5.8,52.1701,4.427219999999999,4.3,1.05941,263.413,4.60356,172.87599999999998,60.4245,160.19899999999998,0.7187020000000001,-0.227392,243.312,1.09317,1.42632,1.27735900878906,21.9994239807129,-35.0,22.0,-721719.0,3107.21,pp-ro,1,1,-1,-1
1570532724.0,2019-10-08,13:05:24.000,14.0,12.0,18.4699993133545,14.9,-5.9,-2.4,51.2,18.8,-39.5,15.4569,-6.38586,-2.36961,2.7545,-2.65451,-1.79057,48.8619,20.9978,-40.7814,0.0648993,-0.094763,-0.0208669,275.0,5.8,52.1701,4.427219999999999,4.3,1.05386,263.7,4.60361,172.292,61.9445,160.399,0.719436,-0.236337,243.412,1.10054,1.43786,0.12603759765625,21.9994239807129,-35.0,22.0,-721557.0,3076.45,pp-ro,1,1,-1,-1
1570532724.1,2019-10-08,13:05:24.100,14.0,12.0,18.3199996948242,15.0,-6.2,-2.4,51.4,18.2,-40.1,15.4569,-6.38586,-2.36961,2.7545,-2.65451,-1.79057,48.8619,20.9978,-40.7814,0.0648993,-0.094763,-0.0208669,275.0,5.8,52.1701,4.427219999999999,4.3,1.06882,272.805,4.60367,171.649,63.0845,160.69899999999998,0.7209439999999999,-0.2434469999999999,243.448,1.10562,1.43424,-1.3927307128906203,21.9994239807129,-35.0,22.0,-721335.0,1322.87,pp-ro,1,1,-1,-1
1570532724.2,2019-10-08,13:05:24.200,14.0,11.0,18.2800006866455,15.2,-6.3,-2.2,51.6,16.9,-40.3,15.5236,-6.53881,-2.21273,2.21605,-1.02152,6.50399,49.0559,20.8107,-40.8156,-0.120655,0.0101823,0.156193,275.0,5.8,52.1701,4.427219999999999,4.3,1.0760299999999998,275.505,4.60372,171.00599999999997,64.9846,160.899,0.7213890000000001,-0.2544619999999999,243.628,1.12671,1.45126,-3.25994110107422,21.9994239807129,-35.0,22.0,-721228.0,2122.75,pp-ro,1,1,-1,-1
1570532724.3,2019-10-08,13:05:24.300,14.0,13.0,18.4200000762939,15.5,-6.3,-1.7,51.9,15.5,-40.2,15.5236,-6.53881,-2.21273,2.21605,-1.02152,6.50399,49.0559,20.8107,-40.8156,-0.120655,0.0101823,0.156193,275.0,5.8,52.1701,4.427219999999999,4.3,1.07824,278.597,4.60377,170.305,66.1246,161.099,0.722672,-0.261712,243.576,1.15007,1.48441,-5.36268615722656,21.9994239807129,-35.0,22.0,-720980.0,2153.51,pp-ro,1,1,-1,-1
1570532724.4,2019-10-08,13:05:24.400,14.0,12.0,18.5599994659424,15.9,-6.1,-1.1,52.6,14.2,-40.0,15.5153,-6.54988,-2.13175,-0.647776,-0.222921,-4.689830000000001,49.1561,20.2995,-40.8269,-0.0799579,-0.120452,0.16555,275.0,5.8,52.1701,4.427219999999999,4.3,1.08046,276.565,4.60383,169.66299999999998,68.0246,161.299,0.723017,-0.272729,243.783,1.1760700000000002,1.53229,-7.473968505859379,21.9994239807129,-35.0,22.0,-720764.0,2461.16,pp-ro,1,1,-1,-1
1570532724.5,2019-10-08,13:05:24.500,14.0,9.0,18.840000152587898,16.5,-5.7,-0.5,53.0,12.0,-39.5,16.0536,-6.3537300000000005,-1.24538,5.07684,2.10035,8.9785,50.5471,18.6526,-39.4637,-0.0327299,0.0351000999999999,0.167108,275.0,5.8,52.1701,4.427219999999999,4.3,1.06162,265.89,4.60392,169.049,69.5446,161.399,0.723314,-0.281751,243.852,1.21567,1.5875,-9.57843017578125,21.9994239807129,-35.0,22.0,-720288.0,3322.56,pp-ro,1,1,-1,-1
1570532724.6,2019-10-08,13:05:24.600,14.0,9.0,19.0300006866455,16.9,-5.1,0.3,54.0,10.4,-38.6,16.5746,-5.78897,-0.139974,3.84746,7.75913,11.6343,51.7028,16.3589,-38.1042,-0.138155,-0.0133899,0.266257,275.0,5.8,52.1701,4.427219999999999,4.3,1.05442,264.157,4.603940000000001,168.49400000000003,71.4446,161.399,0.722717,-0.29256,244.017,1.25396,1.6551,-11.6897125244141,21.9994239807129,-35.0,22.0,-720071.0,1784.34,pp-ro,1,1,-1,-1
1570532724.7,2019-10-08,13:05:24.700,14.0,7.0,19.2600002288818,17.3,-4.6,1.4,55.0,8.1,-36.9,17.0355,-4.91605,1.38887,0.712503,5.4005,11.0437,53.2805,14.0033,-35.3524,-0.0178467,0.168066,0.4997729999999999,275.0,5.8,52.1701,4.427219999999999,4.3,1.05774,262.283,4.6039900000000005,167.93900000000002,72.9647,161.299,0.722167,-0.3014409999999999,244.018,1.30945,1.7287099999999995,-13.795867919921902,21.9994239807129,-35.0,22.0,-719964.0,2030.46,pp-ro,1,1,-1,-1
1570532724.8,2019-10-08,13:05:24.800,14.0,8.0,19.3999996185303,17.8,-4.0,2.2,56.1,5.6,-34.8,17.2115,-4.6016,1.86899,6.89538,8.324810000000001,6.29594,53.922,12.9881,-34.3156,0.0952273,0.0688286999999999,0.5461020000000001,275.0,5.8,52.1701,4.427219999999999,4.3,1.04334,252.879,4.60405,167.472,74.8647,161.19899999999998,0.720943,-0.312011,244.206,1.37354,1.7928400000000002,-15.9071502685547,21.9994239807129,-35.0,22.0,-719641.0,3507.15,pp-ro,1,1,-1,-1
1570532724.9,2019-10-08,13:05:24.900,14.0,9.0,19.4400005340576,18.4,-3.3,3.4,57.9,2.2,-32.6,17.4662,-3.86234,2.7238,-1.2597,7.774210000000001,11.4326,55.1983,10.583,-31.7693,0.185397,0.0577390999999999,0.495437,271.7,6.1,52.1701,4.427219999999999,4.3,1.03281,256.199,4.60411,167.092,76.3847,160.899,0.719263,-0.3204619999999999,244.219,1.44923,1.87178,-18.0167236328125,21.9994239807129,-35.0,22.0,-719322.0,1138.29,pp-ro,1,1,-1,-1
1570532725.0,2019-10-08,13:05:25.000,14.0,10.0,19.6200008392334,18.9,-2.6,5.0,59.4,-2.2,-31.4,17.9239,-3.04108,3.95784,3.82764,9.18477,15.384,56.8712,7.208369999999999,-28.904,0.313417,0.100066,0.74844,271.7,6.1,52.1701,4.427219999999999,4.3,1.06051,269.127,4.60417,166.71200000000002,78.6648,160.599,0.71668,-0.33263,244.486,1.5293,1.96273,-20.1399536132812,21.9994239807129,-35.0,22.0,-719223.0,1138.29,pp-ro,1,1,-1,-1
