time,date,time_of_day,airspeed_temperature,airspeed_angle_of_attack,airspeed_apparent_windspeed,kite_0_vx,kite_0_vy,kite_0_vz,kite_0_roll,kite_0_pitch,kite_0_yaw,kite_1_vx,kite_1_vy,kite_1_vz,kite_1_ax,kite_1_ay,kite_1_az,kite_1_roll,kite_1_pitch,kite_1_yaw,kite_1_roll_rate,kite_1_pitch_rate,kite_1_yaw_rate,ground_upwind_direction,ground_wind_velocity,ground_pos_latitude,ground_pos_longitude,ground_pos_altitude,ground_tether_reelout_speed,ground_tether_force,est_upwind_direction,kite_pos_east,kite_pos_north,kite_height,kite_elevation,kite_azimuth,kite_distance,kite_heading,kite_course,kite_actual_steering,kite_actual_depower,kite_set_steering,kite_set_depower,ground_mech_energy,ground_mech_power,flight_phase,flight_phase_index,phase,pattern,pattern_section
1570539181.4,2019-10-08,14:53:01.400,15.0,8.0,14.7299995422363,13.4,-2.9,3.8,19.8,-10.4,-50.4,12.4871,-2.06925,4.43558,5.35085,10.9226,6.33869,24.8883,3.19375,-47.926,0.169851,0.257481,1.0164799999999998,248.3,4.3,52.1701,4.42726,1.4,-3.33835,105.755,4.4170300000000005,37.6778,10.6405,241.879,1.41032,0.020105,245.027,0.997161,1.6761700000000002,-34.971832275390604,22.0009689331055,-35.0,22.0,53750.6,-3568.68,pp-riro,4,0,-1,-1
1570539181.5,2019-10-08,14:53:01.500,15.0,7.0,14.609999656677198,14.2,-1.9,4.2,20.9,-12.1,-45.1,13.3076,-1.01273,4.80076,6.834919999999999,10.1931,4.40864,26.043000000000003,1.4941799999999998,-42.0293,-0.0172132999999999,0.18935,1.04375,248.3,4.3,52.1701,4.42726,1.4,-3.31951,102.881,4.41699,37.4149,11.7806,241.579,1.40983,-0.009637,244.743,1.12511,1.78657,-34.975250244140604,22.0009689331055,-35.0,22.0,53559.3,-3691.74,pp-riro,4,0,-1,-1
1570539181.6,2019-10-08,14:53:01.600,15.0,7.0,14.4899997711182,14.8,-0.6,4.4,21.8,-13.7,-39.9,13.3076,-1.01273,4.80076,6.834919999999999,10.1931,4.40864,26.043000000000003,1.4941799999999998,-42.0293,-0.0172132999999999,0.18935,1.04375,248.3,4.3,52.1701,4.42726,1.4,-3.31785,92.2083,4.41695,37.2396,13.6807,241.279,1.40783,-0.0566314,244.519,1.26851,1.92377,-34.9940185546875,22.0009689331055,-35.0,22.0,52990.8,-8152.59,pp-riro,4,0,-1,-1
1570539181.7,2019-10-08,14:53:01.700,15.0,8.0,14.369999885559098,15.4,0.6,4.5,23.0,-14.8,-34.6,13.845,0.1054619999999999,5.15369,5.12858,14.7862,2.84594,27.1247,-0.2213659999999999,-36.3695,0.125242,0.20801,0.978754,248.3,4.3,52.1701,4.42726,1.4,-3.35885,86.1803,4.416919999999999,37.1812,14.8207,240.979,1.4062,-0.0838516,244.281,1.3918,2.02707,-34.9974365234375,22.0009689331055,-35.0,22.0,51494.6,-17720.3,pp-riro,4,0,-1,-1
1570539181.8,2019-10-08,14:53:01.800,15.0,6.0,14.369999885559098,16.1,1.6,4.8,23.7,-15.8,-29.4,14.3849,1.32271,5.30521,5.24865,11.5525,-0.3025739999999999,28.0096,-1.8462,-30.9654,0.181232,0.125891,0.901267,248.3,4.3,52.1701,4.42726,1.4,-3.4475,95.7758,4.41688,37.2688,16.7208,240.579,1.40261,-0.126244,244.022,1.52803,2.12779,-34.9974365234375,22.0009689331055,-35.0,22.0,48901.1,-13751.7,pp-riro,4,0,-1,-1
1570539181.9,2019-10-08,14:53:01.900,15.0,8.0,14.359999656677198,16.5,2.6,5.2,24.7,-16.8,-24.3,15.2202,2.8224,5.71788,4.88794,10.5859,2.95806,29.0711,-3.877380000000001,-22.9519,0.0953926,0.339373,0.950083,248.3,4.3,52.1701,4.42726,1.6,-3.4646800000000004,100.939,4.4168400000000005,37.4148,18.2408,240.279,1.39926,-0.158075,243.858,1.65126,2.21644,-34.9974365234375,22.0009689331055,-35.0,22.0,47804.1,-9413.93,pp-riro,4,0,-1,-1
1570539182.0,2019-10-08,14:53:02.000,15.0,7.0,14.1800003051758,16.8,3.8,5.7,24.8,-19.0,-18.8,15.4704,3.74166,6.184130000000001,1.17958,11.4117,4.17431,29.4943,-5.326169999999999,-17.0235,0.124843,0.238835,1.06777,248.3,4.3,52.1701,4.42726,1.6,-3.4713300000000005,98.7328,4.41681,37.6777,20.1409,239.779,1.39447,-0.195349,243.555,1.79011,2.31926,-35.0025634765625,22.0009689331055,-35.0,22.0,47499.2,-6029.84,pp-riro,4,0,-1,-1
1570539182.1,2019-10-08,14:53:02.100,15.0,8.0,13.9899997711182,16.7,5.0,5.9,24.8,-21.5,-13.0,15.4929,4.89962,6.4653,-0.851456,13.3138,4.42519,29.2955,-7.3675,-10.7444,0.141146,0.197526,1.03327,248.3,4.3,52.1701,4.42726,1.6,-3.50956,85.8297,4.41677,38.0866,21.6609,239.379,1.38976,-0.2214949999999999,243.356,1.92323,2.41158,-35.0076751708984,22.0009689331055,-35.0,22.0,45495.3,-17935.7,pp-riro,4,0,-1,-1
1570539182.2,2019-10-08,14:53:02.200,15.0,9.0,14.1800003051758,16.8,6.4,6.1,24.8,-23.0,-6.8,15.4677,5.51151,6.48451,0.38032,10.8155,0.0130602,29.0397,-8.42303,-7.72866,0.0357193,0.171018,1.07336,248.3,4.3,52.1701,4.42726,1.6,-3.5339400000000003,86.3278,4.41674,38.6415,23.181,238.779,1.38427,-0.2446949999999999,242.99400000000003,2.05586,2.50445,-35.0093841552734,22.0009689331055,-35.0,22.0,44439.4,-20058.4,pp-riro,4,0,-1,-1
1570539182.3,2019-10-08,14:53:02.300,15.0,11.0,14.4899997711182,16.9,7.7,6.2,24.6,-23.7,-0.5,15.5309,7.304139999999999,6.66935,0.576767,13.2631,3.62163,28.3912,-10.8971,1.3428,0.179873,0.357746,0.985593,251.1,4.6,52.1701,4.42726,1.6,-3.60818,102.9,4.41672,39.2548,24.7011,238.279,1.37856,-0.26598,242.751,2.1844200000000003,2.58551,-35.0093841552734,22.0009689331055,-35.0,22.0,42164.4,-9752.34,pp-riro,4,0,-1,-1
1570539182.4,2019-10-08,14:53:02.400,15.0,13.0,14.789999961853,16.9,9.0,6.8,24.0,-24.8,5.8,15.482,8.490260000000001,7.0307,0.900066,11.6784,4.59725,27.5847,-12.0711,7.80381,0.0732456,0.359919,1.0709,251.1,4.6,52.1701,4.42726,1.6,-3.61483,107.821,4.41673,40.0434,26.2211,237.679,1.37207,-0.284099,242.451,2.31007,2.66418,-35.0093841552734,22.0009689331055,-35.0,22.0,41738.5,-7968.0,pp-riro,4,0,-1,-1
1570539182.5,2019-10-08,14:53:02.500,15.0,12.0,14.8500003814697,16.6,10.5,7.3,23.2,-26.6,12.2,15.52,9.1316,7.25898,-1.32359,13.9588,5.1631800000000005,27.2385,-12.6843,11.2125,0.114892,0.308343,1.08059,251.1,4.6,52.1701,4.42726,1.6,-3.5694,112.794,4.41675,40.978,28.5012,237.079,1.36329,-0.312075,242.277,2.44743,2.76348,-35.0059814453125,22.0009689331055,-23.0044822692871,22.0,41766.6,1415.17,pp-riro,4,0,-1,-1
1570539182.6,2019-10-08,14:53:02.600,15.0,11.0,14.7299995422363,16.1,11.9,7.4,22.3,-27.7,18.2,15.3247,10.473,7.65665,-1.96605,16.0522,1.26932,25.7626,-14.0064,17.8221,-0.0337435,0.236404,1.02222,251.1,4.6,52.1701,4.42726,1.6,-3.5189800000000004,110.644,4.41676,42.0587,30.0213,236.379,1.35558,-0.324298,241.961,2.55979,2.84395,-34.975250244140604,22.0009689331055,-23.0044822692871,22.0,42003.8,2091.99,pp-riro,4,0,-1,-1
1570539182.7,2019-10-08,14:53:02.700,15.0,11.0,14.8500003814697,15.5,13.2,7.5,21.3,-28.3,24.4,14.7834,11.7369,7.766539999999999,-7.870489999999999,13.1355,2.48721,24.6135,-15.0897,24.1378,0.0365695,0.263792,0.902796,251.1,4.6,52.1701,4.42726,1.6,-3.4452800000000003,111.868,4.41678,43.227,31.5413,235.679,1.34753,-0.334748,241.678,2.6712700000000003,2.91925,-34.6100006103516,22.0009689331055,-23.0044822692871,22.0,41896.2,276.88,pp-riro,4,0,-1,-1
1570539182.8,2019-10-08,14:53:02.800,15.0,10.0,15.0299997329712,15.1,14.5,7.8,20.2,-28.6,30.7,14.052,13.537,8.04822,-3.38187,12.7408,1.86643,22.8787,-16.3047,33.4654,-0.0566165999999999,0.319507,0.923222,251.1,4.6,52.1701,4.42726,1.6,-3.42035,116.631,4.41679,44.5997,33.0614,234.979,1.33879,-0.342306,241.449,2.78012,2.98318,-33.8846130371094,22.0009689331055,-23.0044822692871,22.0,41964.6,1292.11,pp-riro,4,0,-1,-1
1570539182.9,2019-10-08,14:53:02.900,15.0,11.0,15.1999998092651,14.5,15.6,8.2,19.1,-29.0,36.8,13.8828,14.0836,8.21809,-5.36034,9.06652,4.14735,22.1366,-16.3732,36.6127,-0.041425,0.406597,0.994726,251.1,4.6,52.1701,4.42726,1.9,-3.33114,130.539,4.41682,46.0308,34.9615,234.279,1.3289,-0.353996,241.304,2.88885,3.04819,-32.802520751953104,22.0009689331055,-23.0044822692871,22.0,42604.1,9321.64,pp-riro,4,0,-1,-1
1570539183.0,2019-10-08,14:53:03.000,15.0,12.0,15.5500001907349,13.6,16.6,8.6,18.0,-29.2,43.2,13.1209,15.0498,8.547410000000001,-9.67403,10.5629,4.58744,20.6899,-16.6314,42.9292,-0.0256723,0.171057,0.968266,251.1,4.6,52.1701,4.42726,1.9,-3.09566,145.208,4.41682,47.608,36.1015,233.479,1.32027,-0.353226,241.003,2.98987,3.1064,-31.368835449218803,22.0009689331055,-22.423021316528303,22.0,45438.0,22765.7,pp-riro,4,0,-1,-1
1570539183.1,2019-10-08,14:53:03.100,15.0,11.0,15.7700004577637,12.6,17.5,8.8,16.6,-29.5,49.5,11.8353,16.3899,8.8782,-8.18689,11.6015,0.613618,18.4919,-17.5769,52.1433,-0.116314,0.225034,0.898335,251.1,4.6,52.1701,4.42726,1.9,-2.8779,138.338,4.41683,49.2436,37.2416,232.679,1.31143,-0.3519469999999999,240.731,3.0882,3.16351,-29.5767211914062,22.0009689331055,-21.5722808837891,22.0,47742.8,21842.8,pp-riro,4,0,-1,-1
1570539183.2,2019-10-08,14:53:03.200,15.0,11.0,15.9399995803833,11.4,18.3,8.9,14.9,-29.2,55.5,11.8353,16.3899,8.8782,-8.18689,11.6015,0.613618,18.4919,-17.5769,52.1433,-0.116314,0.225034,0.898335,251.1,4.6,52.1701,4.42726,1.9,-2.79313,132.832,4.41685,50.996,38.7617,231.779,1.30116,-0.354386,240.468,3.18454,3.22801,-27.5200500488281,22.0009689331055,-20.7227954864502,22.0,48620.3,17505.0,pp-riro,4,0,-1,-1
1570539183.3,2019-10-08,14:53:03.300,15.0,12.0,16.1100006103516,10.6,19.2,8.8,13.6,-28.3,61.3,10.8609,17.0925,8.95198,-8.26499,6.669910000000001,0.0520449,17.0962,-17.9489,57.7732,0.0879144999999999,0.094374,0.723646,250.9,3.6,52.1701,4.42726,1.9,-2.57094,125.074,4.41686,52.8945,39.9017,230.879,1.29133,-0.35076,240.198,3.27258,3.2739,-26.5420761108398,22.0009689331055,-20.090705871582,22.0,50384.4,7937.24,pp-riro,4,0,-1,-1
1570539183.4,2019-10-08,14:53:03.400,15.0,11.0,16.270000457763697,9.7,20.2,8.8,12.6,-27.1,66.7,10.0416,17.9409,9.06291,-5.28306,5.64579,-1.7109299999999998,16.1019,-18.3623,62.7302,-0.0170266,0.112797,0.790902,250.9,3.6,52.1701,4.42726,1.9,-2.45348,135.46200000000002,4.416869999999999,54.8514,41.0418,230.079,1.2814,-0.346851,240.061,3.35494,3.3234,-24.3369140625,22.0009689331055,-19.3907833099365,22.0,51390.0,11167.5,pp-riro,4,0,-1,-1
1570539183.5,2019-10-08,14:53:03.500,15.0,10.0,16.3199996948242,8.9,21.1,9.3,11.2,-27.0,71.7,8.93796,19.3658,9.14485,-6.24801,8.45721,1.67321,14.2635,-17.7641,70.7493,0.0581258,0.286101,0.804013,250.9,3.6,52.1701,4.42726,1.9,-2.27285,155.935,4.41688,56.8667,42.1818,229.179,1.27115,-0.342699,239.867,3.4296900000000003,3.36377,-22.7871704101562,22.0009689331055,-18.8879070281982,22.0,52987.2,18304.9,pp-riro,4,0,-1,-1
1570539183.6,2019-10-08,14:53:03.600,15.0,12.0,16.270000457763697,7.9,22.0,9.5,10.0,-27.2,76.9,8.529110000000001,19.8518,9.41516,-11.718,7.2047,4.3397,13.5823,-17.7878,73.3896,0.146507,0.0946412,1.04792,250.9,3.6,52.1701,4.42726,1.9,-2.14984,164.102,4.41689,59.0864,42.9419,228.179,1.26099,-0.33296,239.585,3.50165,3.40495,-21.4388122558594,22.0009689331055,-18.2385139465332,22.0,54181.3,22642.7,pp-riro,4,0,-1,-1
1570539183.7,2019-10-08,14:53:03.700,15.0,11.0,16.270000457763697,6.9,22.7,9.2,8.5,-26.2,81.7,7.09292,21.1582,9.41995,-9.60694,9.63395,-6.70843,10.7103,-18.1348,80.5366,-0.0937365,0.1487079999999999,0.785894,250.9,3.6,52.1701,4.42726,1.9,-1.83235,176.213,4.41689,61.2769,43.7019,227.279,1.25101,-0.324026,239.417,3.57064,3.44403,-20.2867431640625,22.0009689331055,-17.6513347625732,22.0,56700.3,25688.3,pp-riro,4,0,-1,-1
1570539183.8,2019-10-08,14:53:03.800,15.0,9.0,16.5400009155273,5.9,23.5,9.4,7.0,-25.8,86.0,6.64077,21.4939,9.26487,-5.85353,8.537980000000001,-0.912102,9.89321,-18.2447,82.6615,-0.0233252,0.0558458,0.7024279999999999,250.9,3.6,52.1701,4.42726,1.9,-1.48383,184.764,4.4169,63.5551,44.462,226.279,1.2405700000000002,-0.314958,239.204,3.63035,3.48098,-19.3002243041992,22.0009689331055,-17.1310214996338,22.0,59096.6,23965.5,pp-riro,4,0,-1,-1
1570539183.9,2019-10-08,14:53:03.900,15.0,8.0,16.7999992370605,4.7,23.6,9.4,4.8,-26.2,89.9,5.71563,22.4641,9.32704,-10.823,5.96439,2.71587,8.11248,-18.3747,87.0299,-0.0619029,0.142392,0.6089760000000001,250.9,3.6,52.1701,4.42726,2.0,-0.8732340000000001,178.0,4.41691,66.0085,44.842,225.279,1.23036,-0.301244,238.995,3.67696,3.5135400000000003,-18.3973388671875,22.0009689331055,-16.5844821929932,22.0,61826.0,14674.7,pp-riro,4,0,-1,-1
1570539184.0,2019-10-08,14:53:04.000,15.0,7.0,16.9599990844727,3.8,23.5,8.8,2.8,-26.1,94.3,4.7434400000000005,22.6726,9.24281,-4.57074,-5.56331,-3.1908,6.0188,-18.41,91.3543,-0.102014,0.0910981999999999,0.751499,250.9,3.6,52.1701,4.42726,2.0,-0.529149,157.813,4.416919999999999,68.3158,45.6021,224.279,1.21974,-0.293121,238.847,3.73758,3.5419400000000003,-17.417648315429698,22.0009689331055,-16.2858619689941,22.0,62724.0,6952.77,pp-riro,4,0,-1,-1
1570539184.1,2019-10-08,14:53:04.100,15.0,6.0,17.0599994659424,2.8,23.2,8.2,1.2,-25.2,97.7,3.74845,22.4685,8.625110000000001,-9.6533,0.129687,-7.14158,4.08561,-18.699,94.9769,-0.380983,0.00869976,0.420955,250.9,3.6,52.1701,4.42726,2.0,-0.367911,148.63,4.416930000000001,70.6524,45.9821,223.379,1.20994,-0.28149,238.756,3.78269,3.57092,-16.8168640136719,22.0009689331055,-15.8627147674561,22.0,62927.5,3907.09,pp-riro,4,0,-1,-1
1570539184.2,2019-10-08,14:53:04.200,15.0,8.0,17.270000457763697,1.9,23.3,8.0,-0.1,-23.8,100.6,3.32749,22.5053,8.32722,-5.65356,-1.12442,-6.9116,3.4601900000000003,-18.4963,96.7104,-0.0515650999999999,0.0217787999999999,0.378364,250.9,3.6,52.1701,4.42726,2.0,-0.0554082,144.562,4.416930000000001,73.0766,46.3621,222.479,1.19982,-0.269898,238.719,3.82256,3.5974699999999995,-16.3099517822266,22.0009689331055,-15.5144920349121,22.0,63104.1,338.409,pp-riro,4,0,-1,-1
1570539184.3,2019-10-08,14:53:04.300,15.0,7.0,17.4200000762939,1.4,23.3,8.0,-1.3,-22.6,103.0,2.38762,22.4706,7.859,-8.11539,4.13426,-4.21906,2.13671,-17.8457,99.31,-0.0890366,0.230907,0.454567,264.8,3.4,52.1701,4.42726,2.0,0.0531919,149.569,4.416930000000001,75.384,46.3622,221.579,1.1908,-0.255927,238.599,3.85224,3.60429,-16.072708129882802,22.0009689331055,-15.4594373703003,22.0,63079.6,-461.467,pp-riro,4,0,-1,-1
1570539184.4,2019-10-08,14:53:04.400,15.0,9.0,17.4699993133545,0.3,23.2,7.9,-2.6,-21.6,105.3,0.795091,22.3456,7.73043,-7.21811,0.2626949999999999,-4.66929,-0.388355,-15.8997,104.267,0.117743,0.068204,0.464787,264.8,3.4,52.1701,4.42726,2.0,0.259865,156.993,4.417,77.7497,46.7422,220.779,1.18093,-0.2458989999999999,238.691,3.88323,3.63912,-15.6050491333008,22.0009689331055,-14.9932069778442,22.0,62880.3,-2707.27,pp-riro,4,0,-1,-1
1570539184.5,2019-10-08,14:53:04.500,15.0,9.0,17.4200000762939,-0.3,23.2,7.8,-3.6,-20.8,107.8,0.795091,22.3456,7.73043,-7.21811,0.2626949999999999,-4.66929,-0.388355,-15.8997,104.267,0.117743,0.068204,0.464787,264.8,3.4,52.1701,4.42726,2.0,0.287015,158.85,4.41706,80.0571,46.7422,219.879,1.1718,-0.2331369999999999,238.623,3.9143,3.65206,-15.3012466430664,22.0009689331055,-14.8711719512939,22.0,62976.3,2030.46,pp-riro,4,0,-1,-1
1570539184.6,2019-10-08,14:53:04.600,15.0,10.0,17.6200008392334,-1.2,23.6,8.0,-4.2,-20.0,109.7,0.4107909999999999,22.3112,7.65274,-5.26159,2.60514,-2.16642,-1.08995,-15.4858,105.482,-0.0723708999999999,0.061898,0.497796,264.8,3.4,52.1701,4.42726,2.0,0.322476,196.211,4.41716,82.4229,46.3623,218.979,1.16313,-0.217153,238.526,3.9333,3.67193,-15.0366973876953,22.0009689331055,-14.516978263855,22.0,62928.6,-984.464,pp-riro,4,0,-1,-1
1570539184.7,2019-10-08,14:53:04.700,15.0,9.0,17.6700000762939,-2.5,23.9,8.5,-4.8,-20.1,111.5,-0.8410700000000001,22.6339,7.668360000000001,-9.08976,2.31117,3.3945800000000004,-3.06223,-14.5031,108.757,-0.0353485,0.138293,0.440583,264.8,3.4,52.1701,4.42726,2.0,0.378438,224.775,4.41719,84.8179,46.3623,218.079,1.1535799999999998,-0.205037,238.541,3.94955,3.70706,-14.8984451293945,22.0009689331055,-14.011315345764196,22.0,62942.0,492.232,pp-riro,4,0,-1,-1
1570539184.8,2019-10-08,14:53:04.800,15.0,9.0,17.6700000762939,-3.6,24.0,8.5,-5.3,-20.0,113.4,-1.40763,22.8411,7.8897,-12.365,1.53657,5.23709,-3.53706,-14.0683,109.92,-0.0945503999999999,0.152135,0.3537889999999999,264.8,3.4,52.1701,4.42726,2.0,0.410021,243.51,4.41725,87.2421,45.9823,217.079,1.14438,-0.18993,238.43,3.96571,3.73488,-14.7994537353516,22.0025119781494,-13.5708827972412,22.0,62949.8,30.7645,pp-riro,4,0,-1,-1
1570539184.9,2019-10-08,14:53:04.900,15.0,11.0,17.7199993133545,-4.6,24.0,8.9,-6.4,-19.8,115.0,-3.23294,23.048,8.221639999999999,-14.9026,-1.04346,-0.359228,-5.37784,-14.1828,112.974,-0.0980509,-0.110739,0.190993,264.8,3.4,52.1701,4.42726,1.9,0.43163,253.012,4.41732,89.7247,45.6023,215.979,1.13471,-0.175153,238.279,3.97804,3.75518,-14.3727569580078,22.0025119781494,-13.3286266326904,22.0,62959.7,184.587,pp-riro,4,0,-1,-1
1570539185.0,2019-10-08,14:53:05.000,15.0,12.0,17.8700008392334,-5.4,24.2,9.3,-7.4,-19.5,116.6,-4.25511,23.1665,8.36392,-9.63362,0.593579,3.77544,-7.01497,-14.3899,114.553,-0.158835,-0.156167,0.1852059999999999,264.8,3.4,52.1701,4.42726,1.9,0.454348,264.672,4.4173800000000005,92.1197,44.8424,214.879,1.12588,-0.158013,238.054,3.98894,3.76439,-13.799285888671902,22.0025119781494,-13.2151708602905,22.0,63016.5,584.525,pp-riro,4,0,-1,-1
1570539185.1,2019-10-08,14:53:05.100,15.0,12.0,18.1100006103516,-5.8,24.0,9.5,-7.8,-19.9,117.8,-5.51275,23.3098,8.84015,-8.625910000000001,-3.2111,2.31618,-9.27815,-15.0958,117.39,-0.116254,-0.0665028,0.230248,264.8,3.4,52.1701,4.42726,1.9,0.467646,270.224,4.41745,93.3171,44.8424,214.379,1.12089,-0.153015,238.07,4.00035,3.77334,-13.4033126831055,22.0025119781494,-13.201889991760302,22.0,63164.1,1138.29,pp-riro,4,0,-1,-1
1570539185.2,2019-10-08,14:53:05.200,15.0,14.0,18.409999847412102,-7.0,23.8,9.6,-9.7,-20.1,121.0,-6.2531300000000005,23.0002,8.994060000000001,-8.1723,-4.373819999999999,-0.5972029999999999,-10.5895,-15.5591,119.524,-0.223437,-0.180839,0.31978,264.8,3.4,52.1701,4.42726,1.9,0.4682,270.986,4.41751,96.968,43.7024,212.679,1.10707,-0.128549,237.792,4.025930000000001,3.79456,-13.2155685424805,22.0025119781494,-12.9920434951782,22.0,63220.8,1045.99,pp-riro,4,0,-1,-1
1570539185.3,2019-10-08,14:53:05.300,15.0,12.0,18.6900005340576,-7.4,23.8,9.6,-10.5,-20.2,122.0,-6.2531300000000005,23.0002,8.994060000000001,-8.1723,-4.373819999999999,-0.5972029999999999,-10.5895,-15.5591,119.524,-0.223437,-0.180839,0.31978,252.7,4.3,52.1701,4.42726,1.9,0.471524,270.23400000000004,4.41758,98.1655,43.3224,212.079,1.1024,-0.1208,237.678,4.03345,3.80177,-13.1472930908203,22.0019989013672,-12.9423866271973,22.0,63334.5,1169.05,pp-riro,4,0,-1,-1
1570539185.4,2019-10-08,14:53:05.400,15.0,12.0,19.020000457763697,-8.4,23.0,9.7,-12.7,-20.5,125.7,-6.2531300000000005,23.0002,8.994060000000001,-8.1723,-4.373819999999999,-0.5972029999999999,-10.5895,-15.5591,119.524,-0.223437,-0.180839,0.31978,252.7,4.3,52.1701,4.42726,1.9,0.464321,268.672,4.41751,101.67,42.5624,210.479,1.0884,-0.101617,237.592,4.06999,3.82503,-12.993682861328098,22.0025119781494,-12.8973217010498,22.0,63517.4,1045.99,pp-riro,4,0,-1,-1
1570539185.5,2019-10-08,14:53:05.500,15.0,10.0,19.25,-8.7,22.8,9.6,-13.4,-20.3,126.9,-8.01437,22.2185,9.19195,-7.216660000000001,-4.12429,-6.69879,-14.0867,-16.0723,125.128,-0.361243,0.0233973,0.477837,252.7,4.3,52.1701,4.42726,1.9,0.465983,266.915,4.41744,102.839,42.1824,209.979,1.08394,-0.0942985,237.584,4.08294,3.83207,-12.9390716552734,22.0025119781494,-12.8701581954956,22.0,63570.8,1015.23,pp-riro,4,0,-1,-1
1570539185.6,2019-10-08,14:53:05.600,15.0,10.0,19.340000152587898,-9.5,22.3,9.4,-13.9,-19.5,128.8,-8.28092,21.9836,9.05813,-9.70371,-4.64869,-6.41121,-14.9145,-15.8489,126.321,-0.0535418999999999,-0.116247,0.1670309999999999,252.7,4.3,52.1701,4.42726,1.9,0.454348,257.165,4.41737,105.058,41.0424,208.879,1.07568,-0.0774075,237.386,4.1022,3.85245,-12.8878631591797,22.0025119781494,-12.6039886474609,22.0,63721.5,1661.28,pp-riro,4,0,-1,-1
1570539185.7,2019-10-08,14:53:05.700,15.0,11.0,19.4300003051758,-10.2,21.7,9.3,-14.7,-19.1,131.0,-8.58843,21.7997,8.912930000000001,-6.50907,-8.5126,-0.853618,-15.478,-15.4967,127.287,0.150531,0.0284478,0.2792679999999999,252.7,4.3,52.1701,4.42726,1.9,0.433292,253.041,4.41729,107.161,39.9024,207.879,1.06789,-0.0613588,237.254,4.12395,3.87058,-12.809356689453098,22.0025119781494,-12.3908977508545,22.0,63856.0,1261.34,pp-riro,4,0,-1,-1
1570539185.8,2019-10-08,14:53:05.800,15.0,12.0,19.4300003051758,-11.0,21.2,9.1,-14.9,-18.5,132.8,-10.2452,20.7008,8.80965,1.05093,-3.66769,-0.120931,-16.6658,-14.4541,131.036,-0.21165,-0.0826005,0.2325179999999999,252.7,4.3,52.1701,4.42726,1.9,0.4504689999999999,258.86,4.41722,109.352,39.1425,206.979,1.05943,-0.0485745,237.34,4.14401,3.89584,-12.5465087890625,22.0025119781494,-12.1907682418823,22.0,63978.1,1015.23,pp-riro,4,0,-1,-1
1570539185.9,2019-10-08,14:53:05.900,15.0,11.0,19.520000457763697,-11.8,21.0,8.9,-15.0,-17.7,134.4,-11.0442,20.3147,8.58722,-9.06883,-2.63661,-3.74334,-16.6681,-14.0331,132.826,-0.0977591,-0.0470859,0.371487,252.7,4.3,52.1701,4.42726,1.8,0.4510229999999999,261.692,4.41715,111.426,37.6225,206.079,1.05221,-0.030392,237.275,4.1582,3.9128,-12.334869384765598,22.0025119781494,-11.9500274658203,22.0,64039.5,1169.05,pp-riro,4,0,-1,-1
1570539186.0,2019-10-08,14:53:06.000,15.0,11.0,19.8299999237061,-12.7,20.8,9.2,-14.9,-17.7,136.6,-11.5788,20.3262,8.54902,-10.7484,-3.16719,2.94623,-16.8215,-13.5153,133.661,-0.3756,0.0688597,0.378162,252.7,4.3,52.1701,4.42726,1.8,0.48593,289.141,4.41705,113.47,36.4825,205.179,1.04453,-0.0157373,237.286,4.17819,3.92902,-12.242706298828098,22.0025119781494,-11.8744497299194,22.0,64124.7,246.116,pp-riro,4,0,-1,-1
1570539186.1,2019-10-08,14:53:06.100,15.0,10.0,20.3999996185303,-13.5,20.5,9.4,-15.2,-17.6,139.1,-12.7094,19.8824,8.93854,-11.5392,-5.299119999999999,1.8708,-17.0721,-13.3926,137.365,0.0157214,-0.254875,0.360603,252.7,4.3,52.1701,4.42726,1.8,0.513634,298.476,4.417009999999999,115.485,35.3425,204.179,1.03665,-0.00160689,237.223,4.20362,3.9445,-12.0276489257812,22.003026962280305,-11.8731336593628,22.0,64138.6,276.88,pp-riro,4,0,-1,-1
1570539186.2,2019-10-08,14:53:06.200,15.0,12.0,20.9200000762939,-14.2,20.2,9.3,-15.4,-17.0,141.4,-12.7094,19.8824,8.93854,-11.5392,-5.299119999999999,1.8708,-17.0721,-13.3926,137.365,0.0157214,-0.254875,0.360603,252.7,4.3,52.1701,4.42726,1.8,0.536906,311.425,4.41694,117.472,33.8225,203.279,1.02938,0.0151089,237.204,4.2279800000000005,3.95845,-11.8825759887695,22.003026962280305,35.0,22.0,64333.5,1230.58,pp-riro,4,0,-1,-1
1570539186.3,2019-10-08,14:53:06.300,15.0,9.0,21.090000152587898,-15.1,19.5,9.4,-15.9,-16.6,144.7,-13.3822,19.5818,8.86009,-6.899939999999999,-5.18725,5.23474,-17.3916,-12.9469,139.809,0.127879,-0.131467,0.416717,257.3,4.3,52.1701,4.42726,1.8,0.700914,310.853,4.416869999999999,119.487,32.3025,202.279,1.02167,0.0314859,237.144,4.26558,3.98232,-11.9013519287109,22.0035419464111,35.0,22.0,63590.9,-16643.6,pp-riro,4,0,-1,-1
1570539186.4,2019-10-08,14:53:06.400,15.0,10.0,20.9599990844727,-15.7,18.8,9.2,-16.3,-15.8,147.1,-14.1617,19.0311,8.93527,-8.33649,-6.38857,1.32345,-17.7493,-12.6949,142.55,0.146344,-0.048842,0.394187,257.3,4.3,52.1701,4.42726,1.8,1.18851,287.949,4.41679,121.327,31.1625,201.279,1.01411,0.044148,237.075,4.2965,4.00487,-11.6555709838867,22.0035419464111,35.0,22.0,61176.5,-26672.8,pp-riro,4,0,-1,-1
1570539186.5,2019-10-08,14:53:06.500,15.0,8.0,20.7900009155273,-15.7,17.8,8.3,-16.7,-15.2,149.5,-15.1867,17.9979,8.56161,3.35885,-5.269,-8.6844,-18.1481,-11.9013,146.775,0.471071,-0.0646463,0.4830649999999999,257.3,4.3,52.1701,4.42726,1.8,1.01563,228.511,4.4167,123.109,29.2624,200.379,1.00754,0.0623233,236.989,4.32125,4.02238,-11.0377197265625,22.0025119781494,35.0,22.0,63179.9,22212.0,pp-riro,4,0,-1,-1
1570539186.6,2019-10-08,14:53:06.600,15.0,7.0,20.5699996948242,-15.4,16.9,7.6,-17.2,-14.1,150.7,-14.925999999999998,16.7015,7.45988,7.52721,-3.93647,-8.071,-18.6297,-11.1203,148.987,0.182884,-0.120012,0.330314,257.3,4.3,52.1701,4.42726,1.8,0.916452,208.181,4.41662,124.744,27.7424,199.579,1.00126,0.0769405,236.986,4.33611,4.03069,-10.0580291748047,22.0009689331055,35.0,22.0,63407.6,4337.79,pp-riro,4,0,-1,-1
1570539186.7,2019-10-08,14:53:06.700,15.0,11.0,20.1399993896484,-15.5,16.3,7.6,-17.1,-12.7,151.1,-15.095999999999998,16.1855,7.22434,-4.23549,-13.9576,1.40578,-18.8862,-10.2817,150.253,0.09632,0.0428109,0.0509106,257.3,4.3,52.1701,4.42726,1.8,0.983496,209.017,4.416530000000001,126.38,26.2224,198.879,0.995127,0.0912735,237.091,4.34251,4.034590000000001,-8.72674560546875,22.0009689331055,35.0,22.0,63144.3,-1138.29,pp-riro,4,0,-1,-1
1570539186.8,2019-10-08,14:53:06.800,15.0,7.0,19.4200000762939,-15.4,16.0,7.8,-17.7,-13.0,152.4,-15.1986,15.9021,7.38728,-3.1358200000000003,-4.4309400000000005,-0.0441978,-18.8537,-10.5577,150.785,0.00844047,-0.14473,0.201518,257.3,4.3,52.1701,4.42726,1.8,0.9569,209.063,4.416440000000001,127.957,24.7024,198.079,0.988874,0.105238,237.104,4.34691,4.02272,-7.050689697265621,22.0009689331055,35.0,22.0,63544.1,276.88,pp-riro,4,0,-1,-1
1570539186.9,2019-10-08,14:53:06.900,15.0,8.0,18.909999847412102,-15.3,16.1,7.4,-18.3,-12.8,153.4,-15.1986,15.9021,7.38728,-3.1358200000000003,-4.4309400000000005,-0.0441978,-18.8537,-10.5577,150.785,0.00844047,-0.14473,0.201518,257.3,4.3,52.1701,4.42725,1.8,0.969644,209.486,4.41636,129.564,22.8024,197.379,0.982903,0.121777,237.203,4.34937,4.0107800000000005,-5.01451110839844,22.0009689331055,35.0,22.0,63600.5,1076.76,pp-riro,4,0,-1,-1
1570539187.0,2019-10-08,14:53:07.000,15.0,14.0,18.6700000762939,-15.5,16.4,7.8,-19.0,-11.8,153.5,-15.0395,15.9493,7.06997,0.153018,8.89114,0.417251,-19.8606,-10.497,152.631,-0.191487,-0.0800536999999999,0.244916,257.3,4.3,52.1701,4.42725,1.8,0.969644,232.153,4.41627,131.141,21.6624,196.679,0.976489,0.132409,237.381,4.35133,3.99479,-2.91687774658203,22.0009689331055,35.0,22.0,63777.6,676.819,pp-riro,4,0,-1,-1
1570539187.1,2019-10-08,14:53:07.100,15.0,11.0,18.6700000762939,-15.7,16.0,8.8,-19.8,-11.9,154.1,-15.53,16.225,7.84006,-7.636889999999999,-2.54819,7.42219,-21.3467,-11.0985,153.662,-0.204377,-0.151894,0.120395,257.3,4.3,52.1701,4.42725,1.8,1.08212,275.841,4.41619,132.718,20.1424,195.879,0.969997,0.145582,237.462,4.34819,3.98114,-0.8124237060546879,22.0019989013672,35.0,22.0,63629.4,2061.22,pp-riro,4,0,-1,-1
1570539187.2,2019-10-08,14:53:07.200,15.0,12.0,18.6700000762939,-15.5,16.2,9.1,-21.2,-12.8,154.4,-15.5862,16.077,8.4843,2.6345,2.8077400000000003,5.78125,-22.3474,-11.4385,154.304,-0.256641,-0.240286,0.0167749,257.3,4.3,52.1701,4.42725,1.8,1.07658,275.015,4.41605,134.35399999999998,18.2424,194.879,0.96293,0.161387,237.406,4.33106,3.95261,1.29098510742188,22.0025119781494,35.0,22.0,63798.7,3291.8,pp-riro,4,0,-1,-1
1570539187.3,2019-10-08,14:53:07.300,15.0,12.0,18.7600002288818,-15.5,16.7,9.1,-22.3,-13.5,153.4,-15.8047,16.6571,8.56668,-3.22873,5.740480000000001,1.16616,-23.5107,-12.5802,153.95,-0.503848,-0.166817,-0.4753739999999999,254.8,4.4,52.1701,4.42725,1.8,1.03226,246.866,4.41602,135.96,17.1024,193.979,0.955771,0.171239,237.498,4.30208,3.93447,3.3875503540039102,22.0019989013672,35.0,22.0,64413.1,5691.43,pp-riro,4,0,-1,-1
1570539187.4,2019-10-08,14:53:07.400,15.0,10.0,18.6700000762939,-15.6,16.8,10.0,-23.0,-15.0,151.7,-15.8047,16.6571,8.56668,-3.22873,5.740480000000001,1.16616,-23.5107,-12.5802,153.95,-0.503848,-0.166817,-0.4753739999999999,254.8,4.4,52.1701,4.42725,1.8,1.01951,260.285,4.41596,137.566,15.2024,192.979,0.948621,0.186336,237.479,4.2514400000000006,3.9085,4.98509979248047,22.003026962280305,35.0,22.0,64570.3,2891.86,pp-riro,4,0,-1,-1
1570539187.5,2019-10-08,14:53:07.500,15.0,12.0,18.7099990844727,-15.4,16.7,11.0,-24.0,-17.7,149.8,-15.8047,16.6571,8.56668,-3.22873,5.740480000000001,1.16616,-23.5107,-12.5802,153.95,-0.503848,-0.166817,-0.4753739999999999,254.8,4.4,52.1701,4.42725,1.8,1.1065,302.85,4.41591,139.173,13.6824,191.879,0.940993,0.198481,237.432,4.18946,3.87844,7.61134338378906,22.003026962280305,35.0,22.0,64228.5,-5137.67,pp-riro,4,0,-1,-1
1570539187.6,2019-10-08,14:53:07.600,15.0,10.0,18.7099990844727,-14.2,16.8,11.3,-24.3,-20.0,147.3,-16.0905,17.3465,10.8073,5.36575,-0.535464,7.327719999999999,-26.5584,-19.0282,151.033,-0.0794161999999999,-0.146929,-0.547244,254.8,4.4,52.1701,4.42725,1.8,1.12479,291.641,4.41586,140.838,12.1624,190.679,0.932847,0.210389,237.364,4.12356,3.82384,9.71983337402344,22.0019989013672,35.0,22.0,64888.1,7998.77,pp-riro,4,0,-1,-1
1570539187.7,2019-10-08,14:53:07.700,15.0,12.0,18.8600006103516,-13.5,17.1,12.0,-23.7,-22.5,143.5,-16.0905,17.3465,10.8073,5.36575,-0.535464,7.327719999999999,-26.5584,-19.0282,151.033,-0.0794161999999999,-0.146929,-0.547244,254.8,4.4,52.1701,4.42725,1.8,1.0727,272.732,4.4158,142.47299999999998,10.6424,189.579,0.924982,0.222027,237.386,4.03877,3.77571,11.3037490844727,22.0025119781494,35.0,22.0,65296.6,2122.75,pp-riro,4,0,-1,-1
1570539187.8,2019-10-08,14:53:07.800,15.0,11.0,19.1800003051758,-12.3,17.2,13.0,-23.8,-25.9,139.7,-14.367,17.9156,12.2902,14.0831,-4.37399,12.4937,-26.9392,-25.0963,144.344,-0.387821,-0.485915,-0.840427,254.8,4.4,52.1701,4.42725,1.8,1.0610700000000002,253.079,4.41575,144.138,9.50237,188.379,0.916622,0.230809,237.387,3.94974,3.71214,13.9300003051758,22.0009689331055,35.0,22.0,65669.8,4922.32,pp-riro,4,0,-1,-1
1570539187.9,2019-10-08,14:53:07.900,15.0,10.0,19.229999542236303,-10.3,17.7,13.4,-23.3,-28.4,135.7,-13.6829,17.9506,12.9133,5.96413,0.8313510000000001,8.11231,-26.9911,-27.8147,143.27700000000002,-0.0148727999999999,-0.619905,-0.752217,254.8,4.4,52.1701,4.42725,1.7,1.00511,234.01,4.4157,145.891,7.98238,187.079,0.907747,0.242033,237.374,3.86547,3.61931,16.0384902954102,22.0009689331055,35.0,22.0,66095.7,3045.68,pp-riro,4,0,-1,-1
1570539188.0,2019-10-08,14:53:08.000,15.0,8.0,19.270000457763697,-8.3,17.9,13.9,-22.6,-30.7,131.5,-10.7544,18.8806,13.5757,21.7999,1.6738,6.406219999999999,-26.0973,-32.1022,137.28799999999998,-0.254732,0.0936011,-0.700507,254.8,4.4,52.1701,4.42725,1.7,0.995686,225.129,4.41561,147.614,7.2224,185.779,0.8987940000000001,0.24789,237.394,3.78588,3.5311,18.1469802856445,22.0009689331055,35.0,22.0,66322.9,2584.22,pp-riro,4,0,-1,-1
1570539188.1,2019-10-08,14:53:08.100,15.0,8.0,19.2199993133545,-6.9,17.9,14.3,-20.4,-32.3,125.5,-8.083969999999999,19.2853,14.5441,21.068,3.77184,9.65945,-23.9675,-36.7134,129.731,-0.399781,-0.126164,-0.8922969999999999,254.8,4.4,52.1701,4.42725,1.7,0.987375,226.162,4.41559,149.366,6.46243,184.479,0.8897309999999999,0.253561,237.454,3.6886,3.46779,20.2725067138672,22.0009689331055,35.0,22.0,66469.4,2799.57,pp-riro,4,0,-1,-1
1570539188.2,2019-10-08,14:53:08.200,15.0,9.0,19.0400009155273,-5.0,17.7,14.6,-17.5,-34.8,118.5,-7.233639999999999,19.278,14.831,17.0029,3.14396,7.088010000000001,-22.8167,-38.3885,126.88,-0.645644,-0.479886,-0.961036,254.8,4.4,52.1701,4.42725,1.7,1.00732,237.474,4.41554,151.17700000000002,6.08247,183.179,0.8804209999999999,0.256641,237.583,3.57562,3.3871,22.3878021240234,22.0009689331055,35.0,22.0,66637.7,1169.05,pp-riro,4,0,-1,-1
1570539188.3,2019-10-08,14:53:08.300,15.0,10.0,18.7099990844727,-2.9,17.9,15.1,-14.4,-37.0,111.0,-6.28112,19.4118,15.1671,22.038,5.18251,2.61501,-21.6732,-39.8196,123.776,-0.59768,0.0242554,-0.921169,265.9,3.8,52.1701,4.42725,1.7,1.01397,238.42,4.4154800000000005,152.959,4.9425,181.879,0.871297,0.264579,237.699,3.45696,3.28946,24.4877777099609,22.0009689331055,35.0,22.0,66725.5,1599.75,pp-riro,4,0,-1,-1
1570539188.4,2019-10-08,14:53:08.400,15.0,10.0,18.4699993133545,-0.8,17.7,15.5,-9.8,-38.6,102.3,-4.05587,19.7908,15.7375,25.5928,-0.2043299999999999,8.74272,-18.6865,-42.3018,116.382,-0.197733,-0.120013,-1.08204,265.9,3.8,52.1701,4.42725,1.7,1.02007,251.398,4.41554,154.68200000000002,4.94255,180.479,0.8619620000000001,0.264938,237.747,3.3336,3.19961,26.5928649902344,22.0009689331055,35.0,22.0,67026.1,1322.87,pp-riro,4,0,-1,-1
1570539188.5,2019-10-08,14:53:08.500,15.0,12.0,18.4699993133545,1.3,17.2,15.8,-4.8,-39.7,92.8,-1.55757,19.6258,16.1347,18.5735,-7.512339999999999,5.24176,-14.5803,-45.6832,108.03,-0.00516626,-0.250738,-1.07471,265.9,3.8,52.1701,4.42725,1.7,1.03613,258.372,4.41559,156.405,4.9426,179.178,0.852909,0.265234,237.891,3.20349,3.10925,28.703063964843803,22.0009689331055,23.0044822692871,22.0,67034.1,153.822,pp-riro,4,0,-1,-1
1570539188.6,2019-10-08,14:53:08.600,15.0,12.0,18.4200000762939,3.6,16.5,15.6,1.0,-40.2,82.5,0.852499,19.5863,16.7425,16.6012,-2.88722,4.2771300000000005,-9.20647,-47.9618,98.2179,-0.5205850000000001,-0.287251,-1.32423,265.9,3.8,52.1701,4.42725,1.7,1.05774,252.666,4.41565,158.128,4.94265,177.778,0.8435879999999999,0.265494,237.979,3.06551,3.00705,30.6446380615234,22.0009689331055,23.0044822692871,22.0,67220.2,2953.39,pp-ro,1,1,-1,-1
1570539188.7,2019-10-08,14:53:08.700,15.0,12.0,18.270000457763697,5.6,15.9,15.2,6.5,-40.0,73.3,4.7174,18.65,16.5231,26.389,-3.24974,-4.35482,0.634938,-49.8285,81.3967,-0.816602,0.0771593999999999,-1.38628,265.9,3.8,52.1701,4.42725,1.7,1.00344,230.578,4.4157,159.764,5.70273,176.47799999999998,0.83475,0.261007,238.121,2.9465,2.91812,32.2183532714844,22.0009689331055,23.0044822692871,22.0,67740.7,4799.26,pp-ro,1,1,-1,-1
1570539188.8,2019-10-08,14:53:08.800,15.0,12.0,17.9300003051758,7.5,14.9,14.9,12.5,-38.6,63.0,7.1466,17.8887,16.0872,19.3339,-0.445777,-3.63829,7.84836,-49.6949,69.6058,-0.621648,-0.0668368,-1.42826,265.9,3.8,52.1701,4.42725,1.7,0.980172,217.297,4.41576,161.312,6.08279,175.178,0.8262299999999999,0.258969,238.21400000000003,2.8069900000000003,2.82627,33.4480133056641,22.0009689331055,23.0044822692871,22.0,67982.5,2276.57,pp-ro,1,1,-1,-1
1570539188.9,2019-10-08,14:53:08.900,15.0,11.0,17.6800003051758,9.3,13.8,14.0,18.1,-36.6,53.5,9.34889,16.8372,15.4846,17.0783,-3.01799,-0.8573770000000001,15.4953,-49.3431,57.7978,-0.158032,-0.180064,-1.49509,265.9,3.8,52.1701,4.42724,1.7,0.968536,213.637,4.41581,162.80100000000002,6.84285,173.878,0.817847,0.254569,238.296,2.67472,2.72927,34.309814453125,22.0009689331055,23.0044822692871,22.0,68207.7,2338.1,pp-ro,1,1,-1,-1
1570539189.0,2019-10-08,14:53:09.000,15.0,13.0,17.4300003051758,10.8,12.6,13.1,23.0,-34.0,44.5,10.3928,16.2369,15.0722,23.3512,-8.19461,-13.4506,18.8795,-48.2598,52.543,-0.2187989999999999,-0.195159,-1.07156,265.9,3.8,52.1701,4.42724,1.7,0.961887,206.665,4.41587,164.174,7.60292,172.678,0.810104,0.250244,238.388,2.54255,2.6377200000000003,34.8207397460938,22.0009689331055,23.0044822692871,22.0,68473.9,2184.28,pp-ro,1,1,-1,-1
1570539189.1,2019-10-08,14:53:09.100,15.0,12.0,17.1700000762939,12.2,11.4,12.3,27.0,-30.6,36.7,11.4369,15.7309,14.7049,22.5858,-12.8069,-3.7031,21.4827,-46.9761,46.897,-0.555383,0.0528133,-1.43749,265.9,3.8,52.1701,4.42724,1.7,0.953576,204.432,4.41592,165.40099999999998,8.36298,171.578,0.803091,0.2459469999999999,238.467,2.41632,2.54728,34.974029541015604,22.0009689331055,21.8654441833496,22.0,68593.3,2307.34,pp-ro,1,1,-1,-1
1570539189.2,2019-10-08,14:53:09.200,15.0,12.0,17.0100002288818,13.2,10.1,11.2,30.9,-27.1,28.8,11.4369,15.7309,14.7049,22.5858,-12.8069,-3.7031,21.4827,-46.9761,46.897,-0.555383,0.0528133,-1.43749,265.9,3.8,52.1701,4.42724,1.7,0.952468,204.365,4.41598,166.56900000000002,9.88305,170.47799999999998,0.796118,0.2371469999999999,238.549,2.28846,2.46295,34.815643310546896,22.0009689331055,20.368564605712898,22.0,68756.4,1599.75,pp-ro,1,1,-1,-1
1570539189.3,2019-10-08,14:53:09.300,15.0,12.0,16.7999992370605,13.7,9.6,10.7,32.4,-25.2,25.3,15.5079,12.2548,12.0731,17.506,-18.1526,-8.320689999999999,33.2498,-38.1243,24.1054,-0.480355,-0.0389725,-1.10847,261.6,3.9,52.1701,4.42724,1.7,0.953576,204.404,4.41603,167.095,10.2631,170.078,0.7933060000000001,0.235012,238.647,2.22621,2.42204,34.246795654296896,22.0009689331055,19.6437187194824,22.0,68916.8,1661.28,pp-ro,1,1,-1,-1
1570539189.4,2019-10-08,14:53:09.400,15.0,13.0,16.8500003814697,14.7,8.3,9.5,35.1,-21.0,18.6,16.6961,10.7855,10.7207,8.33175,-17.5517,-17.9025,36.3099,-34.0193,16.3414,-0.4995239999999999,-0.0296182,-1.23035,261.6,3.9,52.1701,4.42724,1.7,0.945819,199.466,4.41601,168.11700000000002,11.7832,169.078,0.787025,0.226404,238.725,2.10272,2.32753,33.316864013671896,22.0009689331055,17.9261074066162,22.0,69204.8,2091.99,pp-ro,1,1,-1,-1
1570539189.5,2019-10-08,14:53:09.500,15.0,13.0,16.8500003814697,15.5,7.2,8.4,37.0,-17.3,12.7,17.7309,9.3335,9.34487,12.1201,-19.4436,-9.88198,38.1498,-29.5272,9.82874,-0.170475,-0.0264895999999999,-1.1904,261.6,3.9,52.1701,4.42724,1.7,0.943602,200.664,4.41599,168.993,13.3032,168.278,0.7817350000000001,0.2178429999999999,238.858,1.99323,2.24412,32.717361450195305,22.0009689331055,16.3958911895752,22.0,69296.6,1722.81,pp-ro,1,1,-1,-1
1570539189.6,2019-10-08,14:53:09.600,15.0,14.0,16.8500003814697,16.5,5.1,6.7,38.2,-11.8,5.5,17.7309,9.3335,9.34487,12.1201,-19.4436,-9.88198,38.1498,-29.5272,9.82874,-0.170475,-0.0264895999999999,-1.1904,261.6,3.9,52.1701,4.42724,1.7,0.955238,205.304,4.41596,170.074,15.5833,167.078,0.774425,0.205053,238.921,1.84804,2.10262,31.2543640136719,22.0009689331055,13.7575740814209,22.0,69467.0,1199.82,pp-ro,1,1,-1,-1
1570539189.7,2019-10-08,14:53:09.700,15.0,14.0,16.6399993896484,16.4,4.5,6.1,38.9,-10.4,3.3,18.5666,7.767739999999999,7.98652,2.44847,-21.7649,-11.8907,39.1378,-24.7742,4.25657,-0.3190699999999999,0.218325,-1.01841,261.6,3.9,52.1701,4.42724,1.7,0.955792,201.6,4.41597,170.424,15.9633,166.678,0.772104,0.2030269999999999,238.916,1.80554,2.06458,28.9295654296875,22.0009689331055,13.0786466598511,22.0,69555.2,1784.34,pp-ro,1,1,-1,-1
1570539189.8,2019-10-08,14:53:09.800,15.0,12.0,16.6900005340576,16.6,3.6,4.9,39.4,-7.3,-0.6,18.8897,5.475,5.95484,-4.95603,-19.8412,-18.2374,40.1044,-18.5463,-2.9051400000000003,-0.520215,-0.00775333,-0.8580469999999999,261.6,3.9,52.1701,4.42724,1.7,0.933075,185.655,4.41592,170.95,17.8634,166.078,0.768232,0.192354,239.008,1.7273,1.99104,26.8210830688477,22.0009689331055,11.6825542449951,22.0,69852.2,3137.98,pp-ro,1,1,-1,-1
1570539189.9,2019-10-08,14:53:09.900,15.0,12.0,16.5900001525879,16.7,2.9,3.9,39.8,-4.3,-4.0,19.0854,4.88109,5.336,-4.07646,-19.7922,-10.6141,40.3251,-16.5364,-5.0097,-0.618159,0.2721139999999999,-0.7871319999999999,261.6,3.9,52.1701,4.42724,1.7,0.8998299999999999,177.793,4.41589,171.446,19.3835,165.578,0.7648159999999999,0.183914,239.135,1.6545299999999998,1.92997,24.7228164672852,22.0009689331055,10.540452003479,22.0,70092.1,1784.34,pp-ro,1,1,-1,-1
1570539190.0,2019-10-08,14:53:10.000,15.0,12.0,16.5300006866455,16.8,2.1,3.1,39.8,-1.6,-7.4,19.0524,3.79559,3.95618,-3.20114,-8.536539999999999,-8.61239,40.1213,-12.4466,-8.44948,-0.303537,0.324452,-0.865872,261.6,3.9,52.1701,4.42724,1.7,0.91202,181.477,4.41587,171.826,21.2835,165.178,0.7618729999999999,0.173278,239.293,1.58692,1.87244,22.6143264770508,22.0009689331055,9.43426036834717,22.0,70133.0,522.996,pp-ro,1,1,-1,-1
1570539190.1,2019-10-08,14:53:10.100,15.0,12.0,16.2600002288818,16.8,1.3,2.3,40.4,1.1,-10.7,19.0732,2.12946,2.50474,-0.562902,-5.53585,-5.453119999999999,40.1923,-6.78765,-13.4748,0.144204,-0.00916469,-0.78845,261.6,3.9,52.1701,4.42724,1.7,0.916452,180.105,4.41585,172.14700000000002,22.8036,164.878,0.759491,0.164841,239.457,1.51895,1.81311,20.5126495361328,22.0009689331055,8.288829803466799,22.0,70270.6,1568.99,pp-ro,1,1,-1,-1
1570539190.2,2019-10-08,14:53:10.200,15.0,9.0,15.9300003051758,16.5,0.8,1.6,40.7,3.5,-14.0,18.8924,1.33162,1.63215,-7.03292,-6.57574,-13.458,40.5316,-3.41049,-16.2835,0.0165746,0.0319434,-0.8214670000000001,261.6,3.9,52.1701,4.42724,1.7,0.883207,162.136,4.415830000000001,172.351,24.7036,164.578,0.757255,0.1542,239.586,1.45632,1.7724,18.4041595458984,22.0009689331055,7.49509572982788,22.0,70603.9,2215.04,pp-ro,1,1,-1,-1
1570539190.3,2019-10-08,14:53:10.300,15.0,10.0,15.6499996185303,16.2,0.4,1.0,41.2,5.8,-16.7,18.3065,0.424713,0.592716,-3.98689,-6.64837,-2.34465,41.2335,1.2174,-20.6994,0.1469599999999999,0.149807,-0.780874,255.1,4.7,52.1701,4.42724,1.7,0.8726799999999999,158.046,4.41581,172.55599999999998,26.2237,164.378,0.755433,0.145765,239.757,1.4007,1.7364700000000002,16.2888488769531,22.0009689331055,6.79820680618286,22.0,70684.4,1507.46,pp-ro,1,1,-1,-1
1570539190.4,2019-10-08,14:53:10.400,15.0,10.0,15.4799995422363,16.0,0.0,0.4,41.5,7.8,-19.3,17.9592,-0.144534,0.0335305,-5.728190000000001,-5.38831,-0.6469199999999999,41.3208,4.26468,-23.2586,-0.100607,0.0998232,-0.7060310000000001,255.1,4.7,52.1701,4.42724,1.7,0.8704629999999999,155.967,4.41575,172.643,28.1237,164.178,0.753735,0.135128,239.898,1.35168,1.70002,14.1803588867188,22.0009689331055,6.071710109710691,22.0,70803.1,1322.87,pp-ro,1,1,-1,-1
1570539190.5,2019-10-08,14:53:10.500,15.0,11.0,15.3100004196167,15.9,-0.5,0.0,42.3,9.6,-21.6,17.8021,-0.406383,-0.238608,-2.48794,-3.9935,-6.774139999999999,41.4097,5.64259,-24.2743,-0.00236793,0.101822,-0.4701,255.1,4.7,52.1701,4.42724,1.7,0.867139,156.505,4.4157,172.702,29.6438,164.078,0.752552,0.126701,240.055,1.30737,1.66582,12.1059341430664,22.0009689331055,5.383960723876951,22.0,70908.2,769.112,pp-ro,1,1,-1,-1
1570539190.6,2019-10-08,14:53:10.600,15.0,11.0,15.25,15.9,-1.0,-0.6,42.6,11.3,-23.8,17.7835,-0.681294,-0.5364760000000001,-1.2393299999999998,-5.49415,-10.7468,41.5078,6.89912,-25.4576,-0.0608836,0.200648,-0.434454,255.1,4.7,52.1701,4.42724,1.7,0.8710180000000001,157.045,4.41564,172.702,31.5438,164.078,0.75161,0.116087,240.297,1.2671,1.62388,10.1643524169922,22.0009689331055,4.51568269729614,22.0,70994.1,1107.52,pp-ro,1,1,-1,-1
1570539190.7,2019-10-08,14:53:10.700,15.0,11.0,15.140000343322802,15.8,-1.5,-0.9,43.0,12.5,-25.7,17.7835,-0.681294,-0.5364760000000001,-1.2393299999999998,-5.49415,-10.7468,41.5078,6.89912,-25.4576,-0.0608836,0.200648,-0.434454,255.1,4.7,52.1701,4.42724,1.7,0.877666,165.44799999999998,4.41559,172.643,33.0638,164.078,0.750979,0.107575,240.459,1.23528,1.59388,8.44417572021484,22.0009689331055,3.8870735168457,22.0,71069.1,430.703,pp-ro,1,1,-1,-1
1570539190.8,2019-10-08,14:53:10.800,15.0,11.0,15.0200004577637,15.8,-2.0,-1.3,43.7,13.2,-27.3,17.5603,-1.53659,-1.22097,1.58047,-3.50909,-4.85117,42.1194,9.88264,-28.16,0.0523437,0.00621901,-0.450971,255.1,4.7,52.1701,4.42724,1.7,0.8998299999999999,178.042,4.41553,172.52599999999998,34.9639,163.97799999999998,0.749958,0.0969036,240.576,1.2148,1.56146,6.93178558349609,22.0009689331055,3.21703553199768,22.0,71083.1,123.058,pp-ro,1,1,-1,-1
1570539190.9,2019-10-08,14:53:10.900,15.0,10.0,14.8999996185303,15.9,-2.6,-1.6,44.3,13.6,-29.0,17.3508,-2.7659,-1.86525,0.0209983,-4.48352,-1.93222,43.137,12.7319,-30.7469,0.252396,0.0798248,-0.109738,255.1,4.7,52.1701,4.42724,1.5,0.918669,183.516,4.4154800000000005,172.322,36.4839,164.078,0.7499560000000001,0.0882691,240.723,1.19535,1.52983,5.60675048828125,22.0009689331055,2.52424478530884,22.0,71140.9,830.6410000000001,pp-ro,1,1,-1,-1
1570539191.0,2019-10-08,14:53:11.000,15.0,10.0,14.960000038147,15.9,-3.0,-1.7,45.3,13.9,-30.5,17.3069,-3.09469,-1.92955,-2.37849,-3.62609,-1.4805,43.3492,13.1358,-31.4383,0.107391,-0.154904,-0.246272,255.1,4.7,52.1701,4.42724,1.5,0.91479,183.75,4.415430000000001,172.05900000000003,38.384,164.078,0.749541,0.0774695,240.83,1.18105,1.5164,4.455413818359379,22.0009689331055,2.2034494876861603,22.0,71381.8,1445.93,pp-ro,1,1,-1,-1
1570539191.1,2019-10-08,14:53:11.100,15.0,9.0,14.960000038147,15.8,-3.3,-1.9,45.8,13.6,-31.8,17.1186,-3.70444,-2.11461,-4.70615,-4.3738,-0.2420929999999999,44.8898,13.966,-33.1582,0.329847,-0.15818,-0.346354,255.1,4.7,52.1701,4.42724,1.5,0.915344,184.116,4.415369999999999,171.767,39.904,164.078,0.7493920000000001,0.0687228999999999,240.86900000000003,1.17499,1.49995,3.2325592041015603,22.0009689331055,1.82270872592926,22.0,71440.0,1045.99,pp-ro,1,1,-1,-1
1570539191.2,2019-10-08,14:53:11.200,15.0,11.0,15.1999998092651,15.7,-3.7,-2.0,47.2,13.6,-32.7,17.0406,-3.78126,-2.17075,-2.10703,-0.759687,-4.3745,45.1586,14.0685,-33.7601,0.15567,-0.0860336,-0.0987151,255.1,4.7,52.1701,4.42724,1.5,0.919223,185.424,4.41532,171.445,41.804,164.178,0.749336,0.0579044,241.03,1.17162,1.48548,2.52405548095703,22.0009689331055,1.46231389045715,22.0,71549.6,1353.64,pp-ro,1,1,-1,-1
1570539191.3,2019-10-08,14:53:11.300,15.0,12.0,15.4300003051758,15.6,-4.1,-2.0,47.8,13.5,-33.3,16.9312,-3.97808,-2.20326,-4.79579,-2.1484400000000003,0.0746899999999999,45.5765,14.4433,-34.0096,0.0903961,-0.0151604,-0.141767,250.4,4.7,52.1701,4.42724,1.5,0.920331,183.087,4.41527,171.06599999999997,42.944,164.27900000000002,0.749908,0.0511623,241.029,1.17021,1.47284,2.2209014892578103,22.0009689331055,1.1296865940094,22.0,71680.8,1322.87,pp-ro,1,1,-1,-1
1570539191.4,2019-10-08,14:53:11.400,15.0,8.0,15.710000038147,15.4,-4.3,-1.9,48.4,12.9,-34.0,16.8001,-4.48797,-2.19953,-4.2887,-3.15925,-3.24775,46.3118,14.6108,-34.5906,0.0905009,-0.155514,0.158635,250.4,4.7,52.1701,4.42724,1.5,0.8992760000000001,174.59599999999998,4.4152,170.657,44.4641,164.37900000000002,0.750266,0.0422726,241.083,1.17514,1.47231,1.68951416015625,22.0009689331055,1.03601109981537,22.0,71959.6,1568.99,pp-ro,1,1,-1,-1
1570539191.5,2019-10-08,14:53:11.500,15.0,8.0,15.8199996948242,15.2,-4.4,-1.9,49.1,12.4,-34.4,16.6959,-4.61731,-2.21814,-0.721797,-1.25981,-1.35964,46.679,14.3487,-35.0422,0.287326,-0.163353,0.0362377,250.4,4.7,52.1701,4.42724,1.5,0.900384,172.683,4.41513,170.248,46.3641,164.37900000000002,0.750001,0.0313721,241.152,1.1840700000000002,1.47242,1.20752716064453,22.0009689331055,0.9789054393768308,22.0,72054.4,984.464,pp-ro,1,1,-1,-1
1570539191.6,2019-10-08,14:53:11.600,15.0,8.0,15.880000114440902,15.0,-4.5,-1.8,49.5,12.1,-34.2,16.2372,-4.85248,-2.01946,-3.37071,-1.48471,0.18647,48.1136,13.5926,-35.8072,0.063891,0.0509051,0.026716,250.4,4.7,52.1701,4.42724,1.5,0.8998299999999999,170.88299999999998,4.41506,169.78,47.8841,164.479,0.75043,0.0224315,241.188,1.19651,1.47571,1.04232788085938,22.0009689331055,0.955844104290009,22.0,72126.9,1445.93,pp-ro,1,1,-1,-1
1570539191.7,2019-10-08,14:53:11.700,15.0,9.0,16.1000003814697,15.0,-4.6,-1.7,49.9,11.7,-34.5,16.2372,-4.85248,-2.01946,-3.37071,-1.48471,0.18647,48.1136,13.5926,-35.8072,0.063891,0.0509051,0.026716,250.4,4.7,52.1701,4.42724,1.5,0.884315,164.28799999999998,4.41499,169.28400000000002,49.4041,164.579,0.750897,0.0134407,241.213,1.20405,1.48252,0.9776077270507808,22.0009689331055,0.999075472354889,22.0,72300.1,1753.58,pp-ro,1,1,-1,-1
1570539191.8,2019-10-08,14:53:11.800,15.0,10.0,16.2099990844727,15.0,-4.7,-1.7,50.3,11.1,-34.7,16.0453,-5.07043,-1.86563,-2.92459,-0.691481,0.706745,48.9419,13.0212,-35.809,0.0223852999999999,-0.1086559999999999,0.0677378999999999,250.4,4.7,52.1701,4.42724,1.5,0.879883,164.96200000000002,4.41492,168.84599999999998,50.9242,164.679,0.751165,0.00454033,241.291,1.21522,1.48465,0.969085693359375,22.0009689331055,0.96107691526413,22.0,72472.0,1015.23,pp-ro,1,1,-1,-1
1570539191.9,2019-10-08,14:53:11.900,15.0,10.0,16.3199996948242,15.2,-4.7,-1.7,50.7,10.6,-34.8,16.1251,-5.16984,-1.7986,1.02674,-2.73027,-5.62545,49.1418,12.0661,-36.1491,-0.0189675999999999,-0.102493,0.217881,250.4,4.7,52.1701,4.42724,1.1,0.8976129999999999,178.175,4.41485,168.34900000000002,52.8242,164.87900000000002,0.751533,-0.00651284,241.489,1.22793,1.49571,0.87371826171875,22.0009689331055,1.07886564731598,22.0,72515.1,276.88,pp-ro,1,1,-1,-1
1570539192.0,2019-10-08,14:53:12.000,15.0,10.0,16.5300006866455,15.4,-5.0,-1.3,50.9,10.4,-35.0,16.1251,-5.16984,-1.7986,1.02674,-2.73027,-5.62545,49.1418,12.0661,-36.1491,-0.0189675999999999,-0.102493,0.217881,250.4,4.7,52.1701,4.42724,1.1,0.910911,185.24400000000003,4.41478,167.82299999999998,53.9642,164.87900000000002,0.751974,-0.0135064,241.375,1.23286,1.5103,0.9588699340820308,22.0009689331055,1.28978061676025,22.0,72524.2,184.587,pp-ro,1,1,-1,-1
1570539192.1,2019-10-08,14:53:12.100,15.0,11.0,16.7999992370605,15.5,-5.2,-1.6,50.9,10.0,-35.2,16.1251,-5.16984,-1.7986,1.02674,-2.73027,-5.62545,49.1418,12.0661,-36.1491,-0.0189675999999999,-0.102493,0.217881,250.4,4.7,52.1701,4.42724,1.1,0.944156,200.571,4.41471,167.239,55.4842,164.979,0.752513,-0.0226647,241.382,1.24177,1.4972,1.19219970703125,22.0009689331055,0.922812581062317,22.0,72621.1,1230.58,pp-ro,1,1,-1,-1
1570539192.2,2019-10-08,14:53:12.200,15.0,6.0,17.3099994659424,15.7,-5.5,-1.6,50.9,9.4,-35.1,16.4975,-5.4831900000000005,-1.46559,0.620776,-3.42701,1.93624,49.5195,11.6664,-36.1352,-0.0528313,-0.142919,0.0499511999999999,250.4,4.7,52.1701,4.42724,1.1,0.949143,207.024,4.41464,166.68400000000003,57.3843,165.079,0.752581,-0.0338165,241.511,1.2582799999999998,1.49704,1.27735900878906,22.0009689331055,0.8321990370750431,22.0,72690.0,1261.34,pp-ro,1,1,-1,-1
1570539192.3,2019-10-08,14:53:12.300,15.0,11.0,17.9200000762939,16.0,-5.9,-1.4,50.9,8.6,-35.4,16.4975,-5.4831900000000005,-1.46559,0.620776,-3.42701,1.93624,49.5195,11.6664,-36.1352,-0.0528313,-0.142919,0.0499511999999999,256.3,5.5,52.1701,4.42724,1.1,0.977401,224.092,4.41458,166.1,58.9043,165.179,0.753025,-0.0429813,241.543,1.27094,1.50246,1.02870178222656,22.0009689331055,0.839008331298828,22.0,72709.5,-61.529,pp-ro,1,1,-1,-1
1570539192.4,2019-10-08,14:53:12.400,15.0,10.0,18.3500003814697,16.2,-6.1,-1.4,50.8,8.0,-35.6,16.8353,-6.160909999999999,-1.61657,4.29323,-5.26969,0.576033,48.8498,10.3844,-36.6542,0.0660806,-0.0373111999999999,0.0306084,256.3,5.5,52.1701,4.42724,1.1,1.00898,236.325,4.414540000000001,165.428,60.8043,165.179,0.752987,-0.0543807,241.553,1.28396,1.50647,0.8839340209960941,22.0009689331055,0.836462438106537,22.0,72883.8,1907.4,pp-ro,1,1,-1,-1
1570539192.5,2019-10-08,14:53:12.500,15.0,13.0,18.590000152587898,16.3,-6.1,-1.3,50.7,7.8,-36.2,17.1228,-6.62944,-1.39435,4.78528,-3.69667,-0.329935,48.8186,9.9309,-36.5343,-0.160818,-0.1206839999999999,0.0677775,256.3,5.5,52.1701,4.42724,1.1,1.01009,237.512,4.41451,164.815,61.9443,165.27900000000002,0.753793,-0.061625,241.491,1.28411,1.51735,0.8294296264648441,22.0009689331055,0.9342290759086608,22.0,73093.1,2061.22,pp-ro,1,1,-1,-1
1570539192.6,2019-10-08,14:53:12.600,15.0,9.0,18.5400009155273,16.5,-6.3,-1.4,50.5,7.9,-36.3,17.1546,-6.72962,-1.36599,0.258746,-0.362133,-1.06439,48.7274,9.63989,-36.7237,0.0166400999999999,-0.133928,-0.0577135,256.3,5.5,52.1701,4.42724,1.1,1.01231,241.205,4.41447,164.172,63.8443,165.37900000000002,0.7538729999999999,-0.0729708,241.617,1.28965,1.51727,0.8192138671875,22.0009689331055,0.837511658668518,22.0,73274.9,1599.75,pp-ro,1,1,-1,-1
1570539192.7,2019-10-08,14:53:12.700,15.0,11.0,18.590000152587898,16.5,-6.8,-1.4,50.0,7.8,-37.1,17.4803,-7.05576,-1.39705,1.55419,-4.195,0.221451,48.1352,9.64922,-37.6087,0.128308,-0.0233457,-0.0979176,256.3,5.5,52.1701,4.42724,1.1,1.02007,244.48,4.41443,163.442,65.3644,165.37900000000002,0.754217,-0.0825048,241.528,1.28775,1.50654,0.912887573242188,22.0009689331055,0.5180804729461671,22.0,73351.4,1415.17,pp-ro,1,1,-1,-1
1570539192.8,2019-10-08,14:53:12.800,15.0,10.0,18.590000152587898,16.5,-6.9,-1.4,50.4,7.7,-37.4,17.5655,-7.29644,-1.44564,1.12024,-4.02377,-4.54319,48.042,9.57405,-37.8764,-0.0848071,-0.140476,-0.0575848,256.3,5.5,52.1701,4.42724,1.1,1.0317,251.664,4.41437,162.741,67.2644,165.479,0.7543310000000001,-0.093922,241.645,1.29339,1.51099,0.8583831787109379,22.0009689331055,0.505124866962433,22.0,73518.6,1876.63,pp-ro,1,1,-1,-1
1570539192.9,2019-10-08,14:53:12.900,15.0,9.0,18.8299999237061,16.9,-6.8,-1.4,50.5,7.9,-37.6,17.4486,-7.46939,-1.44862,3.04875,1.71279,-5.86002,48.1006,9.16067,-38.399,-0.125277,0.0467401,-0.0318587,256.3,5.5,52.1701,4.42724,0.7,1.04057,251.985,4.41437,162.011,68.7844,165.579,0.754877,-0.1034809999999999,241.651,1.29514,1.52783,0.606315612792969,22.0019989013672,0.713379561901093,22.0,73808.6,2338.1,pp-ro,1,1,-1,-1
1570539193.0,2019-10-08,14:53:13.000,15.0,9.0,19.2000007629395,16.9,-6.9,-1.2,51.0,8.7,-37.8,17.4486,-7.46939,-1.44862,3.04875,1.71279,-5.86002,48.1006,9.16067,-38.399,-0.125277,0.0467401,-0.0318587,256.3,5.5,52.1701,4.42724,0.7,1.03835,254.416,4.4143,161.339,70.3044,165.679,0.755225,-0.1128599999999999,241.707,1.28937,1.53892,0.536491394042969,22.0019989013672,0.822739541530609,22.0,73957.8,2922.63,pp-ro,1,1,-1,-1
1570539193.1,2019-10-08,14:53:13.100,15.0,8.0,19.4300003051758,16.9,-7.1,-0.9,51.2,9.1,-38.4,17.895,-7.6599,-1.1214,-2.55979,-1.14426,0.649637,48.1006,10.2893,-39.039,-0.00201744,-0.0656209,-0.0918269999999999,256.3,5.5,52.1701,4.42724,0.7,1.08212,286.015,4.4143,160.609,72.2045,165.77900000000002,0.755239,-0.124401,241.85,1.28517,1.5520200000000002,0.655708312988281,22.0025119781494,0.983669400215149,22.0,74046.1,-461.467,pp-ro,1,1,-1,-1
1570539193.2,2019-10-08,14:53:13.200,15.0,8.0,19.5599994659424,16.9,-7.4,-0.9,50.9,9.5,-38.8,17.8255,-8.01544,-0.82611,3.0744700000000003,-4.37983,5.71762,48.3333,10.62,-39.8221,-0.0190719,-0.0257466999999999,-0.220412,256.3,5.5,52.1701,4.42724,0.7,1.11149,283.23400000000004,4.41426,159.82,73.7245,165.77900000000002,0.755488,-0.13408,241.786,1.28212,1.54865,0.8941497802734379,22.0019989013672,0.80517452955246,22.0,74244.6,3537.92,pp-ro,1,1,-1,-1
1570539193.3,2019-10-08,14:53:13.300,15.0,8.0,19.6499996185303,16.6,-7.5,-1.2,51.1,10.2,-38.9,17.6755,-8.16249,-0.870072,-3.23428,-3.5708800000000003,-2.30966,48.5333,10.769,-39.9153,0.306967,0.0831721,-0.0248810999999999,257.2,5.1,52.1701,4.42724,0.7,1.08988,272.928,4.41423,159.09,75.6245,165.87900000000002,0.755379,-0.145577,241.96,1.28028,1.53613,0.9605712890625,22.0025119781494,0.4628099203109739,22.0,74557.9,5968.31,pp-ro,1,1,-1,-1
1570539193.4,2019-10-08,14:53:13.400,15.0,7.0,19.7399997711182,16.7,-7.7,-1.3,51.7,10.7,-38.9,17.6755,-8.16249,-0.870072,-3.23428,-3.5708800000000003,-2.30966,48.5333,10.769,-39.9153,0.306967,0.0831721,-0.0248810999999999,257.2,5.1,52.1701,4.42724,0.7,1.05442,270.731,4.414219999999999,158.27200000000002,77.1445,165.979,0.7559,-0.155362,241.972,1.28086,1.53411,0.8651962280273441,22.0025119781494,0.273088067770004,22.0,74981.2,646.054,pp-ro,1,1,-1,-1
1570539193.5,2019-10-08,14:53:13.500,15.0,8.0,19.6499996185303,16.9,-8.1,-1.1,52.1,10.4,-39.7,17.6755,-8.16249,-0.870072,-3.23428,-3.5708800000000003,-2.30966,48.5333,10.769,-39.9153,0.306967,0.0831721,-0.0248810999999999,257.2,5.1,52.1701,4.42724,0.7,1.07935,280.831,4.41421,157.454,79.0445,166.179,0.756191,-0.1670839999999999,242.188,1.28302,1.54067,0.58758544921875,22.0025119781494,0.2559018433094019,22.0,75001.0,369.174,pp-ro,1,1,-1,-1
1570539193.6,2019-10-08,14:53:13.600,15.0,10.0,19.5599994659424,16.9,-8.2,-1.2,51.7,10.8,-40.9,17.5181,-8.375169999999999,-1.25899,3.17528,-2.4586,0.200241,48.5495,12.0418,-40.2148,-0.134775,0.13008,-0.272751,257.2,5.1,52.1701,4.42724,0.7,1.10927,303.29900000000004,4.41421,156.607,80.5645,166.27900000000002,0.75668,-0.17695,242.209,1.27036,1.5404,0.323600769042969,22.0035419464111,0.089302964508534,22.0,75163.4,1538.22,pp-ro,1,1,-1,-1
1570539193.7,2019-10-08,14:53:13.700,15.0,9.0,19.7900009155273,17.1,-8.7,-1.2,52.2,11.2,-41.3,17.7052,-8.951189999999999,-1.13723,-0.285356,0.732264,0.3185699999999999,48.599,12.3207,-41.8097,-0.0345358,-0.124469,-0.175182,257.2,5.1,52.1701,4.42724,0.7,1.1569200000000002,327.112,4.4142,155.731,82.4646,166.37900000000002,0.75669,-0.188807,242.352,1.26881,1.53655,0.269096374511719,22.003026962280305,-35.0,22.0,75213.4,369.174,pp-ro,1,1,-1,-1
1570539193.8,2019-10-08,14:53:13.800,15.0,8.0,20.1000003814697,17.3,-9.4,-1.1,52.3,11.1,-42.0,17.8894,-9.30728,-1.23858,4.12737,-8.17511,3.9015,48.4852,12.7356,-42.4945,-0.1085049999999999,-0.0371182,-0.139714,257.2,5.1,52.1701,4.42724,0.7,1.19516,350.987,4.4142,154.796,83.9846,166.479,0.75729,-0.198913,242.344,1.26856,1.52979,0.112411499023438,22.003026962280305,-35.0,22.0,75415.7,2153.51,pp-ro,1,1,-1,-1
1570539193.9,2019-10-08,14:53:13.900,15.0,12.0,20.4500007629395,17.3,-9.4,-0.8,52.6,10.7,-43.3,17.8894,-9.30728,-1.23858,4.12737,-8.17511,3.9015,48.4852,12.7356,-42.4945,-0.1085049999999999,-0.0371182,-0.139714,257.2,5.1,52.1701,4.42724,0.6,1.2322799999999998,360.329,4.4141900000000005,153.803,86.2646,166.579,0.756933,-0.212957,242.581,1.2675,1.55048,-0.252601623535156,22.003026962280305,-35.0,22.0,75833.2,4553.14,pp-ro,1,1,-1,-1
1570539194.0,2019-10-08,14:53:14.000,15.0,10.0,20.75,17.2,-9.2,-0.7,52.6,10.6,-43.7,17.8894,-9.30728,-1.23858,4.12737,-8.17511,3.9015,48.4852,12.7356,-42.4945,-0.1085049999999999,-0.0371182,-0.139714,257.2,5.1,52.1701,4.42724,0.6,1.21621,355.045,4.41418,152.868,87.7846,166.679,0.75741,-0.223066,242.604,1.2709,1.5654,-0.979690551757812,22.0035419464111,-35.0,22.0,76340.5,4768.5,pp-ro,1,1,-1,-1
1570539194.1,2019-10-08,14:53:14.100,15.0,8.0,21.0400009155273,17.0,-9.3,-0.3,53.3,11.3,-44.2,17.8894,-9.30728,-1.23858,4.12737,-8.17511,3.9015,48.4852,12.7356,-42.4945,-0.1085049999999999,-0.0371182,-0.139714,257.2,5.1,52.1701,4.42724,0.6,1.2079,350.653,4.41418,151.934,89.6846,166.77900000000002,0.757289,-0.235037,242.781,1.26453,1.58199,-2.0652008056640603,22.0035419464111,-35.0,22.0,76549.4,3907.09,pp-ro,1,1,-1,-1
1570539194.2,2019-10-08,14:53:14.200,15.0,8.0,21.3299999237061,16.8,-9.2,-0.1,53.4,10.6,-44.4,18.0476,-9.75286,-1.17243,3.04187,-10.5956,2.8851400000000003,48.4931,12.8949,-42.5493,0.0452399999999999,0.00438222,-0.0967309,257.2,5.1,52.1701,4.42724,0.6,1.1946,329.446,4.41417,150.941,91.2047,166.87900000000002,0.757796,-0.2453199999999999,242.796,1.27787,1.59624,-3.5074234008789102,22.003026962280305,-35.0,22.0,77011.4,5199.2,pp-ro,1,1,-1,-1
1570539194.3,2019-10-08,14:53:14.300,15.0,8.0,21.3299999237061,16.7,-8.9,0.0,53.5,10.3,-44.3,17.5527,-9.88464,-0.163769,0.552584,1.40099,2.54648,49.3401,13.9207,-44.6196,0.0570108,0.0112426,0.0106188,255.3,5.4,52.1701,4.42724,0.6,1.12202,295.801,4.41417,150.532,91.9647,166.87900000000002,0.757668,-0.250198,242.829,1.2862,1.61121,-5.311485290527339,22.0019989013672,-35.0,22.0,77754.1,7660.36,pp-ro,1,1,-1,-1
1570539194.4,2019-10-08,14:53:14.400,15.0,10.0,21.2900009155273,16.9,-8.5,0.2,53.8,9.1,-43.5,17.1552,-9.58943,0.0821498,-7.06389,4.33554,-0.340488,49.6591,13.7582,-44.3965,-0.0754537,0.131014,0.231227,255.3,5.4,52.1701,4.42724,0.6,1.08933,281.501,4.41415,149.655,93.8647,166.979,0.757246,-0.261948,243.083,1.31896,1.64327,-7.39034271240234,22.0025119781494,-35.0,22.0,78106.6,2676.51,pp-ro,1,1,-1,-1
1570539194.5,2019-10-08,14:53:14.500,15.0,12.0,21.1299991607666,17.6,-8.4,0.8,54.8,7.7,-42.8,17.609,-8.75813,0.765359,7.47785,-0.269959,7.065910000000001,50.8801,11.7312,-42.1446,0.0739621,0.12068,0.456168,255.3,5.4,52.1701,4.42724,0.6,1.10983,307.985,4.41414,148.779,95.3847,166.979,0.757037,-0.271861,243.137,1.35176,1.68649,-9.49479675292969,22.003026962280305,-35.0,22.0,78415.7,676.819,pp-ro,1,1,-1,-1
1570539194.6,2019-10-08,14:53:14.600,15.0,11.0,20.9599990844727,18.5,-8.4,1.6,55.5,5.7,-42.7,18.3067,-8.74442,1.66562,9.77369,-0.958574,8.789860000000001,51.7356,10.289,-41.1359,0.0777369,-0.170959,0.3105699999999999,255.3,5.4,52.1701,4.42724,0.6,1.17743,345.274,4.41412,147.874,97.2847,166.979,0.756259,-0.283636,243.337,1.38623,1.7349900000000005,-11.6060791015625,22.003026962280305,-35.0,22.0,78370.3,-338.409,pp-ro,1,1,-1,-1
1570539194.7,2019-10-08,14:53:14.700,15.0,12.0,21.0,19.4,-8.2,2.5,56.5,3.9,-41.5,19.0195,-8.46716,2.5480400000000003,6.35139,4.4254,9.17861,52.4617,8.446069999999999,-39.9856,0.0556341,0.00141201,0.392428,255.3,5.4,52.1701,4.42724,0.6,1.21898,364.164,4.41411,147.085,98.8047,166.87900000000002,0.75544,-0.2932329999999999,243.403,1.43008,1.78832,-13.6951675415039,22.0035419464111,-35.0,22.0,78385.7,307.645,pp-ro,1,1,-1,-1
1570539194.8,2019-10-08,14:53:14.800,15.0,12.0,21.1299991607666,20.3,-8.4,3.9,58.0,0.8,-40.5,19.0195,-8.46716,2.5480400000000003,6.35139,4.4254,9.17861,52.4617,8.446069999999999,-39.9856,0.0556341,0.00141201,0.392428,255.3,5.4,52.1701,4.42724,0.6,1.28159,396.957,4.41409,146.209,101.085,166.579,0.752967,-0.306615,243.606,1.4907700000000002,1.8439,-15.8013305664062,22.0035419464111,-35.0,22.0,78725.2,2461.16,pp-ro,1,1,-1,-1
1570539194.9,2019-10-08,14:53:14.900,15.0,11.0,21.7000007629395,20.9,-7.8,5.5,59.3,-3.3,-39.3,19.0195,-8.46716,2.5480400000000003,6.35139,4.4254,9.17861,52.4617,8.446069999999999,-39.9856,0.0556341,0.00141201,0.392428,255.3,5.4,52.1701,4.42724,0.4,1.30043,397.325,4.41408,145.362,102.985,166.179,0.750659,-0.318078,243.622,1.56556,1.92287,-17.9109039306641,22.003026962280305,-35.0,22.0,78911.6,3599.45,pp-ro,1,1,-1,-1
1570539195.0,2019-10-08,14:53:15.000,15.0,9.0,22.2299995422363,21.3,-6.4,7.1,60.2,-8.2,-37.3,20.3612,-7.31305,6.265,1.5093,13.9021,14.6909,55.6683,-0.7222970000000001,-35.5139,0.232486,-0.00669945,1.08266,255.3,5.4,52.1701,4.42724,0.4,1.24558,364.516,4.41405,144.661,105.265,165.579,0.746732,-0.3307199999999999,243.77,1.66142,2.02349,-20.0307235717773,22.0035419464111,-35.0,22.0,79922.6,6460.54,pp-ro,1,1,-1,-1
