time,date,time_of_day,airspeed_temperature,airspeed_angle_of_attack,airspeed_apparent_windspeed,kite_0_vx,kite_0_vy,kite_0_vz,kite_0_roll,kite_0_pitch,kite_0_yaw,kite_1_vx,kite_1_vy,kite_1_vz,kite_1_ax,kite_1_ay,kite_1_az,kite_1_roll,kite_1_pitch,kite_1_yaw,kite_1_roll_rate,kite_1_pitch_rate,kite_1_yaw_rate,ground_upwind_direction,ground_wind_velocity,ground_pos_latitude,ground_pos_longitude,ground_pos_altitude,ground_tether_reelout_speed,ground_tether_force,est_upwind_direction,kite_pos_east,kite_pos_north,kite_height,kite_elevation,kite_azimuth,kite_distance,kite_heading,kite_course,kite_actual_steering,kite_actual_depower,kite_set_steering,kite_set_depower,ground_mech_energy,ground_mech_power,flight_phase,flight_phase_index,phase,pattern,pattern_section
1570538924.6,2019-10-08,14:48:44.600,15.0,5.0,16.8199996948242,14.2,-3.3,0.7,20.3,-1.1,-57.7,12.7988,-2.9645900000000003,1.13919,7.83489,11.7201,5.03003,21.8522,13.633,-59.0557,0.168455,0.386315,1.03251,259.5,8.9,52.1701,4.42725,8.1,-1.22175,116.933,4.4066,57.4222,-3.79981,240.863,1.33627,0.371897,247.642,0.511627,1.29476,-34.746551513671896,22.0246562957764,-35.0,22.0,18508.8,5168.43,pp-riro,4,0,-1,-1
1570538924.7,2019-10-08,14:48:44.700,15.0,8.0,16.6100006103516,15.0,-2.0,1.0,22.4,-2.4,-52.8,13.247,-2.24411,1.39572,8.79758,11.2567,1.94355,23.1346,13.3309,-55.8851,0.0519535,0.1230049999999999,1.04323,259.5,8.9,52.1701,4.42725,8.1,-1.17743,105.703,4.40667,57.1009,-2.27976,240.963,1.33794,0.345621,247.647,0.628046,1.41799,-34.975250244140604,22.0066318511963,-35.0,22.0,18601.6,1753.58,pp-riro,4,0,-1,-1
1570538924.8,2019-10-08,14:48:44.800,15.0,5.0,16.229999542236303,15.8,-0.9,1.3,25.0,-3.7,-48.0,14.1257,-0.959086,1.68863,3.4408800000000004,13.0692,1.90924,25.7783,12.1903,-49.9431,0.0954883,0.119814,0.942395,259.5,8.9,52.1701,4.42725,8.1,-1.15969,103.954,4.40674,56.8965,-0.759702,241.063,1.33899,0.319,247.688,0.743355,1.52127,-34.976959228515604,22.0019989013672,-35.0,22.0,18273.0,-2707.28,pp-riro,4,0,-1,-1
1570538924.9,2019-10-08,14:48:44.900,15.0,6.0,15.7799997329712,16.6,0.1,1.7,26.8,-4.7,-43.0,15.227,0.7129810000000001,2.31056,6.850510000000001,10.0121,2.0493,29.4929,9.91974,-41.4492,0.312206,0.175379,0.960944,259.5,8.9,52.1701,4.42725,8.3,-1.16191,108.719,4.40681,56.8088,0.760354,241.163,1.33943,0.292231,247.765,0.86159,1.61315,-34.9854888916016,21.9994239807129,-35.0,22.0,18192.9,-1599.75,pp-riro,4,0,-1,-1
1570538925.0,2019-10-08,14:48:45.000,15.0,5.0,14.5500001907349,17.2,1.2,2.3,28.6,-6.7,-37.9,15.7932,1.7641099999999998,2.78385,3.5655900000000003,9.59512,5.4484900000000005,31.8158,8.250960000000001,-35.6253,0.349246,0.277915,1.00939,259.5,8.9,52.1701,4.42725,8.3,-1.12146,97.7175,4.40688,56.838,2.66042,241.063,1.339,0.258738,247.687,0.99159,1.71448,-34.9889068603516,21.9994239807129,-35.0,22.0,18132.9,-1045.99,pp-riro,4,0,-1,-1
1570538925.1,2019-10-08,14:48:45.100,15.0,5.0,14.5500001907349,17.6,2.3,2.8,29.8,-9.5,-33.0,16.3407,2.8136400000000004,3.2726900000000003,4.011430000000001,11.6666,4.6435900000000006,33.9077,6.11386,-29.6935,0.0890353,0.263791,1.02073,259.5,8.9,52.1701,4.42725,8.3,-1.12756,90.1075,4.40695,56.9548,4.18048,241.063,1.33818,0.232174,247.735,1.1144,1.80411,-34.9871978759766,21.9994239807129,-35.0,22.0,17966.1,-3199.51,pp-riro,4,0,-1,-1
1570538925.2,2019-10-08,14:48:45.200,15.0,7.0,14.2399997711182,17.8,3.5,3.1,30.8,-12.1,-27.9,16.5115,3.96882,3.66335,1.84454,7.23623,5.89949,34.8141,3.2726900000000003,-24.4901,0.131848,0.131169,0.933758,259.5,8.9,52.1701,4.42725,8.3,-1.18684,81.494,4.40701,57.2177,6.08056,240.863,1.3363,0.199501,247.64,1.24662,1.90074,-34.9871978759766,21.9994239807129,-35.0,22.0,17373.1,-7075.83,pp-riro,4,0,-1,-1
1570538925.3,2019-10-08,14:48:45.300,15.0,9.0,13.9899997711182,18.1,4.7,3.3,31.9,-13.8,-22.6,16.602,4.55192,3.75795,1.36876,14.077,-0.767667,35.3473,1.75878,-21.8506,-0.0178001,0.130403,1.00771,252.8,8.4,52.1701,4.42725,8.3,-1.32647,87.2259,4.4070800000000006,57.5974,7.600619999999999,240.763,1.33402,0.17411,247.673,1.37119,1.98436,-34.9906158447266,21.9994239807129,-35.0,22.0,16168.4,-7752.65,pp-riro,4,0,-1,-1
1570538925.4,2019-10-08,14:48:45.400,15.0,9.0,13.9899997711182,18.4,5.8,3.7,32.3,-15.7,-16.4,16.7648,5.63299,3.98469,-4.09071,6.641139999999999,1.74381,36.082,-0.789339,-16.289,0.2320239999999999,0.287976,1.13267,252.8,8.4,52.1701,4.42725,8.3,-1.36526,87.7206,4.40709,58.0939,9.88071,240.563,1.33057,0.136829,247.675,1.52326,2.07314,-35.0059814453125,21.9994239807129,-35.0,22.0,15787.5,-7198.89,pp-riro,4,0,-1,-1
1570538925.5,2019-10-08,14:48:45.500,15.0,10.0,14.1800003051758,18.2,6.8,4.4,32.3,-18.7,-10.8,16.9083,6.637410000000001,4.32634,2.13729,8.76721,2.4994,36.6158,-3.35651,-10.6714,0.14305,0.2033039999999999,1.06758,252.8,8.4,52.1701,4.42725,8.3,-1.43563,84.6066,4.407109999999999,58.7072,11.4008,240.263,1.32684,0.113474,247.594,1.65557,2.15295,-35.0076751708984,21.9994239807129,-35.0,22.0,15068.4,-7783.42,pp-riro,4,0,-1,-1
1570538925.6,2019-10-08,14:48:45.600,15.0,8.0,14.2399997711182,17.9,8.0,4.8,31.6,-21.5,-4.8,16.8192,7.5689,4.677980000000001,-0.874075,8.74436,2.58463,36.1464,-5.9867,-4.32691,0.0641448,0.197433,1.21368,252.8,8.4,52.1701,4.42725,8.3,-1.51597,86.1122,4.40713,59.4081,13.3009,239.863,1.32224,0.0850055,247.468,1.79775,2.24408,-35.0076751708984,21.9994239807129,-35.0,22.0,14155.4,-8921.7,pp-riro,4,0,-1,-1
1570538925.7,2019-10-08,14:48:45.700,15.0,8.0,14.3100004196167,17.8,8.7,4.9,31.3,-22.5,-1.8,16.648,8.03929,4.9161,-4.27407,10.2202,5.32207,35.6512,-7.35775,-1.28756,-0.0484973999999999,0.180789,1.07954,252.8,8.4,52.1701,4.42725,8.3,-1.62512,85.5126,4.40714,59.817,14.4409,239.663,1.31947,0.0683688,247.436,1.86874,2.29341,-35.0093841552734,21.9994239807129,-35.0,22.0,12955.7,-8183.35,pp-riro,4,0,-1,-1
1570538925.8,2019-10-08,14:48:45.800,15.0,12.0,14.5500001907349,17.5,10.1,5.1,30.6,-23.7,4.2,16.2501,9.83205,5.3499300000000005,-3.06644,12.5913,2.7974,34.1959,-10.8385,7.64413,-0.00836868,0.3256159999999999,0.962042,252.8,8.4,52.1701,4.42725,8.3,-1.70602,77.6998,4.40715,61.2774,15.961,239.263,1.31207,0.0504306999999999,247.5,1.99176,2.37756,-35.0059814453125,21.9994239807129,-35.0,22.0,11921.4,-11567.4,pp-riro,4,0,-1,-1
1570538925.9,2019-10-08,14:48:45.900,15.0,12.0,14.5500001907349,17.4,11.3,5.3,29.8,-24.9,10.3,16.2501,9.83205,5.3499300000000005,-3.06644,12.5913,2.7974,34.1959,-10.8385,7.64413,-0.00836868,0.3256159999999999,0.962042,252.8,8.4,52.1701,4.42725,8.4,-1.76032,80.6379,4.40716,61.7739,17.861,238.863,1.30782,0.0237648,247.367,2.12191,2.45388,-35.0093841552734,21.9994239807129,-35.0,22.0,11252.4,-12767.3,pp-riro,4,0,-1,-1
1570538926.0,2019-10-08,14:48:46.000,15.0,10.0,14.8500003814697,17.1,12.5,6.2,29.0,-26.4,16.0,16.0746,11.6613,5.645919999999999,-2.49421,10.3508,7.779210000000001,32.6946,-12.6815,16.9073,-0.0630347,0.442506,1.0241,252.8,8.4,52.1701,4.42725,8.4,-1.83845,105.681,4.40718,62.9422,19.3811,238.363,1.30123,0.00650371,247.293,2.23727,2.52891,-35.0076751708984,21.9994239807129,-35.0,22.0,10215.9,-8583.29,pp-riro,4,0,-1,-1
1570538926.1,2019-10-08,14:48:46.100,15.0,12.0,14.9099998474121,16.4,13.6,7.1,27.7,-28.2,22.2,15.6924,12.7418,6.48109,-5.298030000000001,8.0096,8.88982,31.1702,-13.8082,23.3121,-0.166963,0.296805,1.05604,252.8,8.4,52.1701,4.42725,8.4,-1.81462,127.461,4.40719,64.2273,21.2812,237.763,1.29355,-0.0147616,247.202,2.36388,2.6127700000000003,-35.0059814453125,21.9994239807129,-23.0,22.0,10287.1,4337.79,pp-riro,4,0,-1,-1
1570538926.2,2019-10-08,14:48:46.200,15.0,10.0,14.8500003814697,15.5,14.9,7.4,25.9,-29.5,29.1,14.4278,14.1971,7.3059,-9.023,11.5155,1.43004,28.5794,-15.6904,33.2837,-0.0231951,0.38292,1.02426,252.8,8.4,52.1701,4.42725,8.4,-1.70491,119.247,4.40721,65.6876,22.8013,237.062,1.28549,-0.0289229,247.049,2.49105,2.69675,-35.0059814453125,21.9994239807129,-23.0,22.0,11024.2,7106.6,pp-riro,4,0,-1,-1
1570538926.3,2019-10-08,14:48:46.300,15.0,12.0,15.0299997329712,15.0,16.2,7.3,24.2,-29.6,36.2,14.4278,14.1971,7.3059,-9.023,11.5155,1.43004,28.5794,-15.6904,33.2837,-0.0231951,0.38292,1.02426,259.2,9.5,52.1701,4.42725,8.4,-1.61681,105.205,4.40724,67.2064,24.7014,236.362,1.27665,-0.0470654,246.97,2.6192,2.7674,-34.8079833984375,21.9994239807129,-22.594053268432603,22.0,11209.4,-307.645,pp-riro,4,0,-1,-1
1570538926.4,2019-10-08,14:48:46.400,15.0,13.0,15.6700000762939,14.6,17.6,7.8,23.1,-29.8,43.0,13.4288,16.5648,7.56406,-4.338419999999999,14.9867,5.6269800000000005,25.385,-17.2174,45.7131,0.0536889,0.421437,0.962052,259.2,9.5,52.1701,4.42725,8.4,-1.58966,121.35,4.40728,68.842,25.8414,235.662,1.26835,-0.053984,246.868,2.73214,2.82639,-34.229400634765604,21.9994239807129,-21.9287662506104,22.0,11152.9,0.0,pp-riro,4,0,-1,-1
1570538926.5,2019-10-08,14:48:46.500,15.0,12.0,16.229999542236303,14.0,18.9,8.9,21.8,-30.9,50.0,12.9647,17.7743,8.46125,-6.12857,12.0614,10.8867,23.1924,-17.8697,52.8754,-0.0064386,0.249108,1.10317,259.2,9.5,52.1701,4.42725,8.4,-1.46389,168.766,4.40732,70.7112,27.7415,234.762,1.25787,-0.0687956,246.745,2.85624,2.89491,-33.2974853515625,21.9994239807129,-21.4107704162598,22.0,11943.4,11167.5,pp-riro,4,0,-1,-1
1570538926.6,2019-10-08,14:48:46.600,15.0,16.0,16.4400005340576,12.9,20.0,9.7,19.8,-31.6,56.8,12.5816,18.3103,8.990689999999999,-7.66032,9.5953,10.0226,21.7486,-18.3125,56.4695,-0.047624,0.343044,1.11503,259.2,9.5,52.1701,4.42725,8.4,-0.911466,195.052,4.40735,72.6097,28.8816,233.862,1.24832,-0.073544,246.572,2.96596,2.9614,-31.636795043945305,21.9994239807129,-20.6103553771973,22.0,14721.9,18089.5,pp-riro,4,0,-1,-1
1570538926.7,2019-10-08,14:48:46.700,15.0,15.0,16.6000003814697,11.6,21.0,9.9,17.7,-32.9,64.0,12.0398,18.7634,9.34845,-11.4991,6.7988800000000005,7.476669999999999,20.6015,-18.8646,60.0867,0.00504549,0.256526,1.15555,259.2,9.5,52.1701,4.42725,8.4,-0.491471,171.73,4.40739,74.6542,30.0216,232.862,1.2381,-0.0773583,246.372,3.07983,3.02835,-29.9078369140625,21.9994239807129,-19.8170776367188,22.0,15812.7,8152.59,pp-riro,4,0,-1,-1
1570538926.8,2019-10-08,14:48:46.800,15.0,11.0,16.7099990844727,10.2,22.2,9.8,15.3,-33.1,70.9,12.0398,18.7634,9.34845,-11.4991,6.7988800000000005,7.476669999999999,20.6015,-18.8646,60.0867,0.00504549,0.256526,1.15555,259.2,9.5,52.1701,4.42725,8.4,-0.3174889999999999,160.79,4.407430000000001,76.8739,31.5417,231.762,1.22654,-0.0843841999999999,246.208,3.18981,3.1032,-27.849464416503896,21.9994239807129,-19.0414485931396,22.0,16029.3,3907.09,pp-riro,4,0,-1,-1
1570538926.9,2019-10-08,14:48:46.900,15.0,9.0,17.1800003051758,8.8,22.9,9.9,13.8,-32.4,77.0,8.960560000000001,21.3636,9.41968,-17.8656,7.262939999999999,3.38742,15.8419,-21.6744,75.929,0.373755,0.235409,0.862287,259.2,9.5,52.1701,4.42725,8.5,-0.0116357,155.129,4.40747,79.0936,32.3018,230.862,1.21635,-0.0828118,246.164,3.2804300000000004,3.16093,-25.7398834228516,21.9994239807129,-18.3047943115234,22.0,16098.1,30.7645,pp-riro,4,0,-1,-1
1570538927.0,2019-10-08,14:48:47.000,15.0,8.0,17.4899997711182,7.3,23.3,10.0,11.8,-33.0,82.9,7.575810000000001,21.886,9.55275,-16.7425,3.4655,1.0597,14.2343,-22.4043,81.4346,0.188384,0.0466219,0.783004,259.2,9.5,52.1701,4.42725,8.5,0.228836,163.766,4.40751,81.3718,33.0618,229.862,1.20581,-0.0810559,246.071,3.36615,3.21778,-23.715652465820305,21.9994239807129,-17.614427566528303,22.0,15898.4,-2891.86,pp-riro,4,0,-1,-1
1570538927.1,2019-10-08,14:48:47.100,15.0,8.0,18.520000457763697,6.1,23.8,9.9,9.6,-32.2,88.5,6.24793,22.3144,9.44856,-14.8145,0.723854,1.45917,11.9684,-23.0446,87.0358,-0.188021,0.250473,0.866597,259.2,9.5,52.1701,4.42725,8.5,0.342977,171.097,4.40755,83.7083,33.8219,228.862,1.19505,-0.0791535,246.026,3.4492,3.26499,-22.3468170166016,21.9994239807129,-17.1418495178223,22.0,15916.3,2799.57,pp-riro,4,0,-1,-1
1570538927.2,2019-10-08,14:48:47.200,15.0,8.0,18.520000457763697,4.9,23.9,9.8,7.2,-31.5,94.6,5.68392,22.4144,9.39796,-23.0468,0.138973,2.19801,11.0607,-23.104,89.7783,0.111546,0.0847531999999999,0.754943,259.2,9.5,52.1701,4.42725,8.5,0.262635,179.58599999999998,4.40759,86.0741,34.582,227.862,1.18419,-0.0772358,246.02,3.53987,3.30832,-20.7100219726562,21.9994239807129,-16.7724914550781,22.0,16002.2,-430.703,pp-riro,4,0,-1,-1
1570538927.3,2019-10-08,14:48:47.300,15.0,11.0,18.8999996185303,3.5,23.9,10.2,5.0,-31.5,100.9,4.64535,22.4705,9.2908,-14.5107,1.80469,1.55209,8.48957,-23.2114,95.6828,-0.132779,0.2707739999999999,0.882962,256.1,10.1,52.1701,4.42725,8.5,0.363478,205.286,4.40761,88.4399,34.962,226.862,1.17385,-0.0716893,245.988,3.62812,3.35417,-19.3087539672852,21.9994239807129,-16.2329196929932,22.0,15918.7,-30.7645,pp-riro,4,0,-1,-1
1570538927.4,2019-10-08,14:48:47.400,15.0,11.0,18.8999996185303,2.1,23.7,10.3,2.9,-30.4,106.2,2.1114900000000003,22.4894,9.55445,-17.1992,-2.17851,-1.27532,3.4868,-22.4897,107.202,0.148504,0.146496,0.68296,256.1,10.1,52.1701,4.42725,8.5,0.36514,218.855,4.40761,90.8349,35.3421,225.862,1.1634,-0.0662809999999999,245.995,3.70572,3.4004800000000004,-18.1891098022461,21.9994239807129,-15.714750289917,22.0,15993.3,430.703,pp-riro,4,0,-1,-1
1570538927.5,2019-10-08,14:48:47.500,15.0,8.0,18.659999847412102,0.8,23.6,10.0,1.0,-29.3,110.8,2.1114900000000003,22.4894,9.55445,-17.1992,-2.17851,-1.27532,3.4868,-22.4897,107.202,0.148504,0.146496,0.68296,256.1,10.1,52.1701,4.42725,8.5,0.381763,205.85,4.40761,93.2006,35.7221,224.862,1.15304,-0.0612336,246.019,3.77384,3.44654,-17.0216751098633,21.9994239807129,-15.2290019989014,22.0,16048.6,1169.05,pp-riro,4,0,-1,-1
1570538927.6,2019-10-08,14:48:47.600,15.0,8.0,18.5599994659424,-0.3,23.0,9.8,-0.6,-28.4,114.9,0.8209059999999999,22.4091,9.26808,-11.1701,-3.13764,-1.53005,1.64213,-21.7417,111.726,0.0266567999999999,0.165324,0.711021,256.1,10.1,52.1701,4.42725,8.5,0.3180429999999999,188.262,4.40761,95.5664,35.7222,223.862,1.14317,-0.052934,246.014,3.83127,3.4814199999999995,-16.2536239624023,21.9994239807129,-14.857213973999,22.0,16217.5,338.409,pp-riro,4,0,-1,-1
1570538927.7,2019-10-08,14:48:47.700,15.0,8.0,18.5599994659424,-1.4,22.5,9.7,-2.0,-27.3,118.0,-0.4246439999999999,21.8875,9.17483,-11.0882,-6.24371,0.6245930000000001,0.221755,-20.8124,115.594,-0.0340716999999999,0.229465,0.642416,256.1,10.1,52.1701,4.42725,8.5,0.326909,189.231,4.40761,97.8446,35.7222,222.962,1.13375,-0.0452749,246.092,3.87587,3.51845,-15.5470199584961,21.9994239807129,-14.4555034637451,22.0,16226.9,184.587,pp-riro,4,0,-1,-1
1570538927.8,2019-10-08,14:48:47.800,15.0,9.0,18.8500003814697,-2.2,22.1,9.5,-3.0,-25.8,120.9,-1.77906,21.1857,8.95502,-6.34062,-2.33137,-3.29856,-1.51394,-19.6134,120.031,0.208838,0.233269,0.378094,256.1,10.1,52.1701,4.42725,8.5,0.326909,184.169,4.40761,100.064,35.3422,221.962,1.12481,-0.0347369,246.026,3.91787,3.54284,-14.9530639648438,21.9994239807129,-14.204446792602502,22.0,16296.1,830.6410000000001,pp-riro,4,0,-1,-1
1570538927.9,2019-10-08,14:48:47.900,15.0,6.0,18.7000007629395,-3.0,21.8,9.3,-4.3,-23.7,123.4,-2.5276400000000003,20.9515,8.5994,-3.78805,-4.07386,-1.31879,-2.92775,-18.1941,122.227,-0.0306221,0.265317,0.391238,256.1,10.1,52.1701,4.42725,8.8,0.305299,179.75099999999998,4.40761,102.284,35.3423,221.061,1.11555,-0.0279052,246.129,3.96135,3.57144,-14.4819946289062,21.9994239807129,-14.0285816192627,22.0,16386.8,399.9380000000001,pp-riro,4,0,-1,-1
1570538928.0,2019-10-08,14:48:48.000,15.0,6.0,18.7000007629395,-3.6,21.7,9.4,-5.5,-22.5,126.2,-3.13251,20.7246,8.60811,-11.7527,-0.196013,0.70906,-4.2613,-16.7675,124.942,-0.054573,0.295352,0.446503,256.1,10.1,52.1701,4.42725,8.8,0.311948,185.812,4.40761,104.533,34.9623,220.161,1.10663,-0.0179824,246.212,4.00182,3.58664,-14.1798934936523,21.9994239807129,-14.021710395813,22.0,16398.8,246.116,pp-riro,4,0,-1,-1
1570538928.1,2019-10-08,14:48:48.100,15.0,8.0,18.5599994659424,-4.2,21.2,9.5,-7.0,-21.6,129.1,-3.44056,20.6823,8.62077,-8.77797,-1.81744,1.52994,-5.13744,-15.9287,126.628,-0.0343751,0.252603,0.622883,256.1,10.1,52.1701,4.42725,8.8,0.339098,198.466,4.4076,106.753,34.5823,219.161,1.09758,-0.00849561,246.219,4.04256,3.60389,-14.0092163085938,21.9994239807129,-14.0191612243652,22.0,16410.5,184.587,pp-riro,4,0,-1,-1
1570538928.2,2019-10-08,14:48:48.200,15.0,11.0,18.6000003814697,-5.0,20.8,9.4,-9.0,-20.8,132.1,-3.74185,20.4844,8.66239,-7.81273,-3.01298,-1.39894,-6.07331,-15.2722,128.14700000000002,-0.155584,0.2599059999999999,0.564775,256.1,10.1,52.1701,4.42725,8.8,0.354613,206.537,4.4076,108.856,33.8223,218.161,1.08931,0.00353472,246.146,4.08217,3.62916,-13.9989776611328,21.9994239807129,35.0,22.0,16453.1,492.232,pp-riro,4,0,-1,-1
1570538928.3,2019-10-08,14:48:48.300,15.0,11.0,18.6000003814697,-5.9,21.0,9.3,-10.3,-18.7,134.5,-4.28371,19.9673,8.66677,-9.33381,-5.357,-2.63947,-7.53061,-14.8592,130.884,0.043122,0.0225719,0.281723,254.7,9.7,52.1701,4.42725,8.8,0.3629239999999999,209.038,4.40761,110.959,33.4424,217.261,1.08078,0.0120458,246.237,4.12535,3.65813,-14.0126342773438,21.9994239807129,35.0,22.0,16513.6,676.819,pp-riro,4,0,-1,-1
1570538928.4,2019-10-08,14:48:48.400,15.0,13.0,18.6499996185303,-6.8,20.9,9.4,-11.9,-17.8,137.4,-5.58765,20.0964,8.46482,-9.932,-1.72517,1.50367,-10.6888,-12.8259,134.535,-0.401852,0.219464,0.3346929999999999,254.7,9.7,52.1701,4.42725,8.8,1.01896,220.49400000000003,4.40762,113.12,32.6824,216.261,1.07221,0.0235129,246.238,4.16528,3.68384,-13.8402481079102,21.9994239807129,35.0,22.0,13876.0,-23873.2,pp-riro,4,0,-1,-1
1570538928.5,2019-10-08,14:48:48.500,15.0,12.0,18.6499996185303,-7.5,20.7,9.1,-13.6,-17.4,140.2,-6.51184,20.0095,8.548110000000001,-13.0019,-4.32594,-1.93896,-12.4722,-12.339,137.431,-0.0653742,-0.168713,0.449675,254.7,9.7,52.1701,4.42725,8.8,1.10373,221.729,4.40763,115.164,31.9224,215.261,1.06399,0.0343611,246.21,4.2005300000000005,3.70698,-13.2838363647461,21.9994239807129,35.0,22.0,14293.8,7998.77,pp-riro,4,0,-1,-1
1570538928.6,2019-10-08,14:48:48.600,15.0,11.0,18.5499992370605,-8.1,20.4,8.7,-14.6,-16.0,142.1,-6.842160000000001,19.8954,8.4224,-5.85684,3.75388,-0.628352,-13.622,-12.4068,138.885,-0.419009,-0.0733554,0.519088,254.7,9.7,52.1701,4.42725,8.8,0.911466,218.765,4.40764,117.209,31.1624,214.261,1.05572,0.0448976,246.205,4.23046,3.72896,-12.3724212646484,21.9994239807129,35.0,22.0,15435.6,4922.32,pp-riro,4,0,-1,-1
1570538928.7,2019-10-08,14:48:48.700,15.0,10.0,18.5499992370605,-9.1,19.7,9.0,-15.5,-15.5,144.2,-7.89887,19.409,8.11302,-9.50264,-5.38516,2.58468,-16.5297,-11.5697,142.186,-0.3068099999999999,0.0559936,0.467657,254.7,9.7,52.1701,4.42725,8.8,1.03004,241.783,4.40765,119.312,30.0224,213.261,1.04753,0.0582299,246.205,4.25403,3.76093,-11.1042861938477,21.9994239807129,35.0,22.0,14923.7,-2984.16,pp-riro,4,0,-1,-1
1570538928.8,2019-10-08,14:48:48.800,15.0,11.0,18.5,-10.1,19.2,9.0,-16.9,-16.1,146.2,-9.01678,18.8351,8.4065,-10.8901,-6.8073,1.13092,-17.8533,-11.3128,144.583,-0.260426,-0.0754312,0.385263,254.7,9.7,52.1701,4.42725,8.8,1.04334,262.738,4.40766,121.24,29.2624,212.261,1.03956,0.0679008999999999,246.191,4.2701,3.79759,-9.48114013671875,21.9994239807129,35.0,22.0,15337.5,615.29,pp-riro,4,0,-1,-1
1570538928.9,2019-10-08,14:48:48.900,15.0,12.0,18.5,-10.6,18.8,8.3,-17.2,-17.0,147.2,-9.99361,18.2968,8.12055,-12.5384,-6.865819999999999,-6.46464,-18.3446,-12.7714,146.463,0.301,-0.5619460000000001,0.144026,254.7,9.7,52.1701,4.42725,9.1,1.06439,264.911,4.40767,123.138,28.1224,211.261,1.03194,0.0801913,246.14,4.26635,3.82134,-7.50811004638672,21.9994239807129,35.0,22.0,15373.3,676.819,pp-riro,4,0,-1,-1
1570538929.0,2019-10-08,14:48:49.000,15.0,10.0,18.6000003814697,-11.2,18.5,8.4,-17.1,-15.8,146.4,-10.3809,18.1742,7.84495,-5.67595,-1.23584,-5.127190000000001,-19.0286,-13.265999999999998,146.859,-0.0797421,-0.1156599999999999,0.341285,254.7,9.7,52.1701,4.42725,9.1,1.10152,303.575,4.40768,124.978,27.3625,210.361,1.0243799999999998,0.0891747,246.211,4.25675,3.83959,-5.39170837402344,21.9994239807129,35.0,22.0,15575.8,-1568.99,pp-riro,4,0,-1,-1
1570538929.1,2019-10-08,14:48:49.100,15.0,9.0,18.9300003051758,-11.6,18.1,9.2,-17.7,-16.5,146.4,-10.6319,18.0728,7.74933,-2.59084,-3.34032,2.39431,-19.7424,-13.6928,146.78799999999998,-0.1985299999999999,-0.0312195,-0.404834,254.7,9.7,52.1701,4.42725,9.1,1.14196,310.9,4.4076900000000006,126.877,25.8425,209.261,1.0167,0.103769,246.08,4.238169999999999,3.8369,-3.2889556884765603,21.9994239807129,35.0,22.0,15543.9,-615.29,pp-riro,4,0,-1,-1
1570538929.2,2019-10-08,14:48:49.200,15.0,9.0,19.75,-11.1,18.1,9.3,-18.3,-17.6,146.6,-10.6319,18.0728,7.74933,-2.59084,-3.34032,2.39431,-19.7424,-13.6928,146.78799999999998,-0.1985299999999999,-0.0312195,-0.404834,254.7,9.7,52.1701,4.42725,9.1,1.1358700000000002,298.761,4.4077,128.688,24.7025,208.261,1.00918,0.115042,246.055,4.22186,3.80729,-1.19644927978516,21.9994239807129,35.0,22.0,16051.6,6460.54,pp-riro,4,0,-1,-1
1570538929.3,2019-10-08,14:48:49.300,15.0,9.0,19.75,-10.5,18.4,9.3,-18.6,-17.2,146.2,-10.8562,17.7167,8.66574,2.84112,4.13472,0.1095059999999999,-20.7978,-16.142,147.256,-0.2150889999999999,0.0343084,-0.119295,255.7,9.8,52.1701,4.42725,9.1,1.0716,266.433,4.40771,130.469,23.9425,207.261,1.00148,0.123196,246.074,4.21237,3.77311,0.90777587890625,21.9994239807129,35.0,22.0,16745.1,4122.44,pp-riro,4,0,-1,-1
1570538929.4,2019-10-08,14:48:49.400,15.0,8.0,20.1000003814697,-10.5,18.8,10.0,-19.4,-16.7,145.2,-10.37,17.8019,8.63825,8.64052,7.099289999999999,2.9793,-21.0287,-16.5522,147.317,-0.11024,-0.288549,-0.197135,255.7,9.8,52.1701,4.42725,9.1,1.05885,266.12,4.407719999999999,132.39700000000002,22.4225,206.161,0.993474,0.136901,246.036,4.19054,3.74636,3.01626586914062,21.9994239807129,35.0,22.0,16952.4,3968.62,pp-riro,4,0,-1,-1
1570538929.5,2019-10-08,14:48:49.500,15.0,7.0,20.4500007629395,-10.0,19.0,10.7,-20.2,-17.7,144.5,-10.37,17.8019,8.63825,8.64052,7.099289999999999,2.9793,-21.0287,-16.5522,147.317,-0.11024,-0.288549,-0.197135,255.7,9.8,52.1701,4.42725,9.1,1.06439,274.523,4.40774,134.208,21.2825,205.061,0.985575,0.147383,245.997,4.16292,3.70718,5.117942810058589,21.9994239807129,35.0,22.0,17067.2,215.351,pp-riro,4,0,-1,-1
1570538929.6,2019-10-08,14:48:49.600,15.0,10.0,20.7999992370605,-9.2,19.4,11.0,-20.9,-19.0,143.2,-10.37,17.8019,8.63825,8.64052,7.099289999999999,2.9793,-21.0287,-16.5522,147.317,-0.11024,-0.288549,-0.197135,255.7,9.8,52.1701,4.42725,9.1,1.09542,285.897,4.40775,136.106,20.5225,203.86,0.976916,0.154981,245.978,4.12655,3.66207,7.22643280029297,21.9994239807129,35.0,22.0,17264.0,2922.63,pp-riro,4,0,-1,-1
1570538929.7,2019-10-08,14:48:49.700,15.0,11.0,20.7099990844727,-8.9,19.6,11.8,-20.8,-19.7,140.1,-10.37,17.8019,8.63825,8.64052,7.099289999999999,2.9793,-21.0287,-16.5522,147.317,-0.11024,-0.288549,-0.197135,255.7,9.8,52.1701,4.42725,9.1,1.10595,301.629,4.407769999999999,138.005,19.3825,202.66,0.968408,0.1650859999999999,245.952,4.06763,3.63112,9.34514617919922,21.9994239807129,35.0,22.0,17465.1,1292.11,pp-riro,4,0,-1,-1
1570538929.8,2019-10-08,14:48:49.800,15.0,9.0,20.6200008392334,-8.4,20.2,13.1,-21.3,-21.7,137.1,-10.3359,18.5652,9.4826,3.65799,4.66037,13.5106,-22.5869,-16.9181,146.599,-0.238323,0.00836669,-0.224342,255.7,9.8,52.1701,4.42725,9.1,1.14806,318.686,4.407780000000001,139.93200000000002,18.6226,201.36,0.959358,0.172301,245.914,4.00203,3.58725,11.4468231201172,21.9994239807129,35.0,22.0,17557.6,1230.58,pp-riro,4,0,-1,-1
1570538929.9,2019-10-08,14:48:49.900,15.0,11.0,20.6200008392334,-6.7,20.6,13.8,-21.0,-24.2,133.2,-10.3359,18.5652,9.4826,3.65799,4.66037,13.5106,-22.5869,-16.9181,146.599,-0.238323,0.00836669,-0.224342,255.7,9.8,52.1701,4.42725,9.2,1.16191,319.913,4.4078,141.918,17.8626,199.96,0.949854,0.179384,245.854,3.92056,3.50877,13.5416870117188,21.9994239807129,35.0,22.0,17917.5,4491.62,pp-riro,4,0,-1,-1
1570538930.0,2019-10-08,14:48:50.000,15.0,10.0,20.7900009155273,-5.2,21.1,15.0,-20.2,-27.0,128.6,-6.90615,21.4727,13.9667,15.1587,12.9496,8.3051,-24.4483,-28.247,134.92,-0.539345,-0.354698,-0.880201,255.7,9.8,52.1701,4.42725,9.2,1.1403,310.53,4.40781,143.934,17.1026,198.46,0.939987,0.186307,245.756,3.82852,3.43565,15.6603927612305,21.9994239807129,35.0,22.0,18338.8,3876.33,pp-riro,4,0,-1,-1
1570538930.1,2019-10-08,14:48:50.100,15.0,9.0,20.7900009155273,-3.0,21.5,16.1,-19.8,-30.0,123.8,-5.10703,22.0124,15.3785,15.942,5.228190000000001,11.1409,-23.9771,-31.8098,130.683,-0.303355,-0.500149,-0.919718,255.7,9.8,52.1701,4.42725,9.2,1.1303299999999998,302.531,4.407830000000001,146.066,17.1027,196.86,0.929188,0.188002,245.727,3.73864,3.3457800000000004,17.7586669921875,21.9994239807129,35.0,22.0,18695.7,3876.33,pp-riro,4,0,-1,-1
1570538930.2,2019-10-08,14:48:50.200,15.0,10.0,20.75,-1.8,21.3,16.5,-17.8,-32.8,117.9,-2.84894,22.7141,16.4932,24.7669,3.23046,13.2277,-23.1193,-35.5869,125.983,-0.205786,-0.26493,-0.664982,255.7,9.8,52.1701,4.42725,9.2,1.11481,297.996,4.40784,148.256,16.7227,195.16,0.91809,0.192224,245.656,3.63557,3.2968800000000003,19.8807754516602,21.9994239807129,35.0,22.0,19062.7,3199.51,pp-riro,4,0,-1,-1
1570538930.3,2019-10-08,14:48:50.300,15.0,8.0,20.5699996948242,0.3,21.1,17.1,-16.4,-34.3,114.2,-2.84894,22.7141,16.4932,24.7669,3.23046,13.2277,-23.1193,-35.5869,125.983,-0.205786,-0.26493,-0.664982,255.3,9.7,52.1701,4.42725,9.2,1.11592,296.42900000000003,4.40781,149.279,15.9627,194.36,0.913093,0.198035,245.591,3.57157,3.21329,22.0028915405273,21.9994239807129,35.0,22.0,19381.1,3137.98,pp-riro,4,0,-1,-1
1570538930.4,2019-10-08,14:48:50.400,15.0,8.0,20.3099994659424,2.8,20.7,17.2,-13.4,-35.9,107.2,-2.84894,22.7141,16.4932,24.7669,3.23046,13.2277,-23.1193,-35.5869,125.983,-0.205786,-0.26493,-0.664982,255.3,9.7,52.1701,4.42725,9.2,1.08877,273.041,4.4078,151.352,16.7228,192.66,0.901953,0.194546,245.571,3.47056,3.12275,23.588523864746104,21.9994239807129,35.0,22.0,19938.5,4399.32,pp-riro,4,0,-1,-1
1570538930.5,2019-10-08,14:48:50.500,15.0,8.0,20.1299991607666,4.4,20.0,16.9,-9.2,-37.6,99.1,3.23754,22.4932,17.6764,19.2412,6.91047,-0.973774,-15.9912,-42.9802,108.66,-0.317509,0.0652695,-1.1243,255.3,9.7,52.1701,4.42725,9.2,1.06661,260.445,4.407769999999999,153.338,16.7229,191.16,0.89186,0.195994,245.631,3.3525400000000003,3.05841,26.233497619628896,21.9994239807129,35.0,22.0,20203.1,4922.32,pp-riro,4,0,-1,-1
1570538930.6,2019-10-08,14:48:50.600,15.0,8.0,20.090000152587898,6.1,19.3,16.8,-4.0,-39.2,89.5,5.0605400000000005,21.5681,17.6983,17.4837,-8.883989999999999,-0.8586440000000001,-11.2486,-45.3245,99.4955,-0.257816,-0.4898869999999999,-1.05687,255.3,9.7,52.1701,4.42725,9.2,1.03059,252.103,4.40773,155.266,17.1029,189.56,0.881567,0.194931,245.628,3.2198,2.99084,28.3351745605469,21.9994239807129,23.0,22.0,20591.5,3199.51,pp-ro,1,1,-1,-1
1570538930.7,2019-10-08,14:48:50.700,15.0,9.0,19.8700008392334,7.9,18.2,16.2,2.5,-39.4,78.7,7.13869,20.7619,17.5208,34.75,-6.052169999999999,-7.000210000000001,-4.9815,-48.2307,89.4427,-0.353396,-0.0396964,-1.07967,255.3,9.7,52.1701,4.42725,9.2,1.0378,253.341,4.4077,157.164,17.863,188.06,0.8714940000000001,0.19152,245.736,3.07667,2.9134,30.3244476318359,21.9994239807129,23.0,22.0,20713.9,922.935,pp-ro,1,1,-1,-1
1570538930.8,2019-10-08,14:48:50.800,15.0,12.0,19.409999847412102,9.6,17.3,15.7,9.3,-38.5,67.2,7.13869,20.7619,17.5208,34.75,-6.052169999999999,-7.000210000000001,-4.9815,-48.2307,89.4427,-0.353396,-0.0396964,-1.07967,255.3,9.7,52.1701,4.42725,9.2,1.0389,250.41,4.40766,158.888,18.6231,186.56,0.8619629999999999,0.18805,245.757,2.92259,2.83924,31.9611663818359,21.9994239807129,23.0,22.0,20992.4,3476.39,pp-ro,1,1,-1,-1
1570538930.9,2019-10-08,14:48:50.900,15.0,11.0,18.8999996185303,11.4,16.1,15.4,16.1,-36.6,55.7,10.4785,19.5982,16.7816,25.1623,-4.90134,-7.253939999999999,6.54494,-48.1351,70.0007,-0.119487,-0.141487,-1.48535,255.3,9.7,52.1701,4.42725,9.2,1.05774,274.481,4.4076,160.582,19.3832,185.159,0.852785,0.184662,245.858,2.76286,2.75703,33.243621826171896,21.9994239807129,23.0,22.0,21185.4,-430.703,pp-ro,1,1,-1,-1
1570538931.0,2019-10-08,14:48:51.000,15.0,12.0,18.2800006866455,13.4,14.8,15.0,21.5,-33.9,45.6,11.5476,18.97,16.6431,32.4782,-11.4367,-7.44623,10.6679,-47.9434,63.5321,-0.358536,-0.421405,-1.4160700000000002,255.3,9.7,52.1701,4.42725,9.2,1.08434,284.216,4.40759,162.1,20.9032,183.759,0.8438479999999999,0.1765509999999999,245.929,2.6177,2.66761,34.170135498046896,21.9994239807129,21.5792903900146,22.0,21188.7,61.529,pp-ro,1,1,-1,-1
1570538931.1,2019-10-08,14:48:51.100,15.0,12.0,18.2800006866455,15.4,13.2,14.3,25.8,-30.8,36.7,16.46,16.180999999999997,15.5116,33.5918,-13.9945,-3.21153,23.9593,-44.1049,39.2798,-0.2052949999999999,0.1534309999999999,-1.34285,255.3,9.7,52.1701,4.42725,9.2,1.10983,289.07,4.40756,163.59,22.0433,182.359,0.835126,0.170889,245.972,2.48029,2.56635,34.7492065429688,21.9994239807129,19.8768119812012,22.0,21457.8,3907.09,pp-ro,1,1,-1,-1
1570538931.2,2019-10-08,14:48:51.200,15.0,14.0,18.229999542236303,16.8,11.4,13.4,29.3,-27.8,28.9,17.4835,15.1784,15.1033,24.2898,-24.5948,-17.2773,26.4461,-42.4384,34.2248,-0.28785,-0.2360679999999999,-1.37628,255.3,9.7,52.1701,4.42725,9.2,1.08545,279.416,4.40752,164.84599999999998,23.9434,181.05900000000003,0.8270379999999999,0.160626,246.028,2.3591,2.4776,34.9808349609375,21.9994239807129,18.3364105224609,22.0,21852.0,3476.39,pp-ro,1,1,-1,-1
1570538931.3,2019-10-08,14:48:51.300,15.0,11.0,18.229999542236303,17.7,9.9,12.3,32.6,-24.0,21.2,19.1657,13.3887,13.8354,10.4356,-7.044860000000001,-14.7909,31.3311,-39.2157,24.7491,-0.880199,-0.0954716,-1.34866,252.0,9.0,52.1701,4.42725,9.2,1.0699299999999998,262.925,4.40749,165.955,25.0835,179.759,0.819674,0.154884,245.93400000000003,2.22613,2.39977,34.883758544921896,21.9994239807129,17.0543308258057,22.0,22189.7,3753.27,pp-ro,1,1,-1,-1
1570538931.4,2019-10-08,14:48:51.400,15.0,11.0,18.229999542236303,18.4,8.3,11.0,35.6,-19.9,13.7,20.506,11.5216,12.6125,6.99242,-21.1363,-11.6135,34.3178,-34.7437,16.9523,-0.240425,-0.125572,-1.43361,252.0,9.0,52.1701,4.42725,9.2,1.0012299999999998,232.045,4.40745,166.977,27.3636,178.65900000000002,0.81257,0.142485,246.068,2.0954200000000003,2.32099,34.386444091796896,21.9994239807129,15.6587581634521,22.0,22839.9,3753.27,pp-ro,1,1,-1,-1
1570538931.5,2019-10-08,14:48:51.500,15.0,12.0,17.5400009155273,18.6,6.7,9.6,37.9,-15.9,6.7,21.6408,8.75056,10.3716,6.17249,-17.1929,-19.413,38.4872,-28.1156,5.38028,0.171112,-0.0977118,-1.20002,252.0,9.0,52.1701,4.42725,9.2,0.992362,225.321,4.40741,167.824,28.8836,177.65900000000002,0.8065680000000001,0.134547,246.094,1.9675,2.24312,33.5178375244141,21.9994239807129,14.2972116470337,22.0,23022.0,1661.28,pp-ro,1,1,-1,-1
1570538931.6,2019-10-08,14:48:51.600,15.0,10.0,17.5400009155273,19.0,5.0,8.1,38.9,-11.2,0.6,22.2925,6.9388,8.60161,9.5794,-18.4283,-10.6834,39.7047,-22.8076,-1.47751,-0.271926,0.0141639,-1.28259,252.0,9.0,52.1701,4.42725,9.2,0.994024,227.351,4.40736,168.467,30.4037,176.859,0.801689,0.126477,246.139,1.84164,2.14785,32.9575042724609,21.9994239807129,12.5367422103882,22.0,23143.4,2338.1,pp-ro,1,1,-1,-1
1570538931.7,2019-10-08,14:48:51.700,15.0,14.0,17.1800003051758,19.2,3.0,6.7,39.7,-6.9,-4.8,22.2925,6.9388,8.60161,9.5794,-18.4283,-10.6834,39.7047,-22.8076,-1.47751,-0.271926,0.0141639,-1.28259,252.0,9.0,52.1701,4.42725,9.2,1.00788,235.634,4.40732,169.02200000000002,32.6838,176.259,0.797183,0.11406,246.381,1.73145,2.04557,31.153884887695305,21.9994239807129,10.5700082778931,22.0,23337.8,953.699,pp-ro,1,1,-1,-1
1570538931.8,2019-10-08,14:48:51.800,15.0,12.0,17.0699996948242,19.2,1.8,5.0,40.2,-3.2,-9.2,22.3999,4.5564800000000005,6.95215,1.0951799999999998,-28.2614,-14.6362,39.8659,-18.2334,-7.802519999999999,-0.0774678,0.0211437999999999,-1.01194,252.0,9.0,52.1701,4.42725,9.2,1.0112,236.74400000000003,4.40727,169.40099999999998,34.5838,175.759,0.793611,0.1037329999999999,246.544,1.63904,1.95693,29.3212890625,21.9994239807129,8.86053085327148,22.0,23577.6,2676.51,pp-ro,1,1,-1,-1
1570538931.9,2019-10-08,14:48:51.900,15.0,13.0,17.1700000762939,19.0,0.4,3.9,40.5,0.0,-13.5,22.1873,1.20684,3.59484,-5.07016,-18.4353,-9.45648,39.455,-8.92577,-16.727999999999998,-0.0624963,0.175807,-1.10578,252.0,9.0,52.1701,4.42724,9.1,1.00843,237.441,4.40723,169.635,36.4839,175.459,0.790972,0.093316,246.765,1.55389,1.87774,27.231544494628896,21.9994239807129,7.29426097869873,22.0,23702.5,2399.63,pp-ro,1,1,-1,-1
1570538932.0,2019-10-08,14:48:52.000,15.0,12.0,17.4300003051758,18.5,-0.4,2.9,40.5,3.2,-17.8,22.1873,1.20684,3.59484,-5.07016,-18.4353,-9.45648,39.455,-8.92577,-16.727999999999998,-0.0624963,0.175807,-1.10578,252.0,9.0,52.1701,4.42724,9.1,1.00843,233.54,4.40718,169.752,38.3839,175.15900000000002,0.78861,0.0828054,246.92,1.4688,1.82243,25.1383819580078,21.9994239807129,6.19350957870483,22.0,23872.5,1692.05,pp-ro,1,1,-1,-1
1570538932.1,2019-10-08,14:48:52.100,15.0,12.0,17.479999542236303,17.9,-0.8,1.8,40.1,6.0,-21.9,22.1873,1.20684,3.59484,-5.07016,-18.4353,-9.45648,39.455,-8.92577,-16.727999999999998,-0.0624963,0.175807,-1.10578,252.0,9.0,52.1701,4.42724,9.1,0.99347,221.364,4.40714,169.83900000000003,40.284,174.959,0.786564,0.0723653,247.141,1.39117,1.77498,23.0230712890625,21.9994239807129,5.2368655204772905,22.0,24173.7,3476.39,pp-ro,1,1,-1,-1
1570538932.2,2019-10-08,14:48:52.200,15.0,11.0,17.3299999237061,17.6,-1.4,0.9,40.3,9.1,-25.1,20.9633,-0.813341,1.33092,-13.3959,-5.30592,-16.1061,38.8195,-1.21772,-25.286,-0.2570429999999999,0.0704445,-1.01084,252.0,9.0,52.1701,4.42724,9.1,0.967428,211.74,4.40709,169.83900000000003,42.184,174.859,0.784996,0.061845,247.387,1.32129,1.72318,20.9145889282227,21.9994239807129,4.16759586334229,22.0,24462.0,2430.39,pp-ro,1,1,-1,-1
1570538932.3,2019-10-08,14:48:52.300,15.0,10.0,17.020000457763697,17.2,-2.0,0.4,40.0,12.1,-28.9,20.12,-2.05641,0.0344024999999999,-10.595999999999998,-3.11865,-5.05224,38.719,4.49397,-30.1648,0.166445,0.0355143,-0.7047899999999999,250.5,8.5,52.1701,4.42724,9.1,0.961333,209.971,4.40705,169.78099999999998,43.7041,174.759,0.783808,0.0533923,247.54,1.24403,1.68357,18.8026885986328,21.9994239807129,3.34626221656799,22.0,24720.8,1445.93,pp-ro,1,1,-1,-1
1570538932.4,2019-10-08,14:48:52.400,15.0,10.0,17.020000457763697,16.7,-2.6,-0.3,39.6,14.5,-32.6,19.5594,-2.739,-0.6313310000000001,-6.97404,-3.26417,-9.8851,38.2484,8.065339999999999,-33.7924,-0.194413,0.369578,-0.965173,250.5,8.5,52.1701,4.42724,9.1,0.963549,210.253,4.407,169.605,45.9841,174.65900000000002,0.782345,0.0406266,247.762,1.17864,1.63612,17.2187652587891,21.9994239807129,2.33528757095337,22.0,24799.8,1507.46,pp-ro,1,1,-1,-1
1570538932.5,2019-10-08,14:48:52.500,15.0,10.0,16.8099994659424,16.1,-3.1,-1.1,39.6,16.9,-35.5,18.6808,-3.37676,-1.47597,-3.10356,-5.54103,-7.074269999999999,38.301,11.3201,-36.87,0.152309,0.096664,-0.838933,250.5,8.5,52.1701,4.42724,9.1,0.960779,204.894,4.40695,169.43,47.5042,174.65900000000002,0.781676,0.0320771,247.929,1.12053,1.58172,15.1102752685547,21.9994239807129,1.18752014636993,22.0,25001.3,2430.39,pp-ro,1,1,-1,-1
1570538932.6,2019-10-08,14:48:52.600,15.0,10.0,16.8099994659424,15.7,-3.7,-1.5,39.8,18.5,-38.3,18.2101,-3.67512,-1.7266,-11.5897,-9.75804,-6.47281,38.2153,12.737,-38.2259,0.0161527,-0.0204872,-0.583372,250.5,8.5,52.1701,4.42724,9.1,0.943048,200.71400000000003,4.40691,169.138,49.4042,174.759,0.781275,0.0212952,248.171,1.0748799999999998,1.54186,12.998382568359402,21.9994239807129,0.286595433950424,22.0,25226.7,1845.87,pp-ro,1,1,-1,-1
1570538932.7,2019-10-08,14:48:52.700,15.0,13.0,16.8099994659424,15.5,-4.2,-2.2,40.1,19.9,-40.5,18.2101,-3.67512,-1.7266,-11.5897,-9.75804,-6.47281,38.2153,12.737,-38.2259,0.0161527,-0.0204872,-0.583372,250.5,8.5,52.1701,4.42724,9.1,0.953576,208.51,4.40686,168.787,50.9242,174.859,0.781287,0.0125107999999999,248.31,1.03776,1.49365,10.8967056274414,21.9994239807129,-0.785451531410217,22.0,25319.2,799.877,pp-ro,1,1,-1,-1
1570538932.8,2019-10-08,14:48:52.800,15.0,12.0,16.6499996185303,15.3,-4.7,-2.5,40.7,20.7,-42.3,17.7433,-4.31033,-2.34072,-5.30266,-9.001660000000001,-7.51041,38.0478,14.9472,-41.1058,-0.099082,-0.049963,-0.835041,250.5,8.5,52.1701,4.42724,9.1,0.976293,223.29,4.40681,168.408,52.8243,174.959,0.781018,0.00160663,248.52,1.01408,1.46443,8.78480529785156,21.9994239807129,-1.48717272281647,22.0,25383.8,522.996,pp-ro,1,1,-1,-1
1570538932.9,2019-10-08,14:48:52.900,15.0,11.0,16.4899997711182,15.4,-5.2,-2.7,41.4,21.6,-44.3,16.9192,-5.4646300000000005,-3.16066,-6.53601,-6.997310000000001,-4.1828,38.7808,19.3371,-44.4184,0.00267124,0.0646302,-0.27818,250.5,8.5,52.1701,4.42724,9.0,0.998456,229.227,4.40676,167.91099999999997,54.3443,175.15900000000002,0.781622,-0.00738055,248.652,0.985472,1.44466,6.148345947265621,21.9994239807129,-2.03843951225281,22.0,25490.1,1568.99,pp-ro,1,1,-1,-1
1570538933.0,2019-10-08,14:48:53.000,15.0,11.0,16.4400005340576,15.1,-5.5,-2.8,41.9,21.6,-46.4,16.9205,-6.05118,-3.2953300000000003,-3.75586,-2.54235,-0.0316985,39.6449,20.404,-46.3562,0.0266235999999999,-0.114402,-0.308105,250.5,8.5,52.1701,4.42724,9.0,0.995132,226.267,4.40671,167.385,55.4843,175.358,0.7826029999999999,-0.0144002999999999,248.69,0.96409,1.42757,4.04325866699219,21.9994239807129,-2.54126715660095,22.0,25726.7,2614.98,pp-ro,1,1,-1,-1
1570538933.1,2019-10-08,14:48:53.100,15.0,10.0,16.5499992370605,15.0,-5.9,-3.0,43.0,21.5,-47.4,16.9205,-6.05118,-3.2953300000000003,-3.75586,-2.54235,-0.0316985,39.6449,20.404,-46.3562,0.0266235999999999,-0.114402,-0.308105,250.5,8.5,52.1701,4.42724,9.0,0.987375,228.329,4.40666,166.83,57.3844,175.458,0.782655,-0.0255644,248.819,0.960647,1.40946,2.13233184814453,21.9994239807129,-3.05776858329773,22.0,25924.8,1384.4,pp-ro,1,1,-1,-1
1570538933.2,2019-10-08,14:48:53.200,15.0,10.0,16.7099990844727,15.0,-6.3,-3.0,44.2,21.3,-47.9,16.5274,-6.29933,-3.36581,-9.58206,-6.00678,-2.2678,40.0686,21.1139,-47.9798,0.317582,-0.00331158,-0.0931276,250.5,8.5,52.1701,4.42724,9.0,1.0006700000000002,228.596,4.40661,166.217,58.9044,175.75799999999998,0.78373,-0.0347981,248.976,0.963184,1.4013,0.102188110351562,21.9994239807129,-3.4297070503234903,22.0,26037.3,1415.17,pp-ro,1,1,-1,-1
1570538933.3,2019-10-08,14:48:53.300,15.0,10.0,16.7600002288818,15.0,-6.6,-2.9,45.0,20.4,-48.7,16.3006,-7.03605,-3.36782,-4.63253,-0.905621,-0.453771,42.3027,21.8767,-48.63,0.131933,-0.054303,-0.0120356,250.7,9.5,52.1701,4.42724,9.0,0.982942,225.188,4.4065900000000005,165.574,60.8044,175.858,0.7839,-0.04615,249.075,0.971099,1.40261,-0.607612609863281,21.9994239807129,-3.58084225654602,22.0,26423.3,2153.51,pp-ro,1,1,-1,-1
1570538933.4,2019-10-08,14:48:53.400,15.0,10.0,16.7099990844727,15.1,-6.9,-2.8,45.9,19.4,-48.8,16.3006,-7.03605,-3.36782,-4.63253,-0.905621,-0.453771,42.3027,21.8767,-48.63,0.131933,-0.054303,-0.0120356,250.7,9.5,52.1701,4.42724,9.0,0.985158,227.457,4.40661,164.873,61.9444,176.058,0.7852060000000001,-0.05361,249.032,0.986148,1.40378,-1.83649444580078,21.9994239807129,-3.7725741863250697,22.0,26482.3,1076.76,pp-ro,1,1,-1,-1
1570538933.5,2019-10-08,14:48:53.500,15.0,10.0,16.7099990844727,15.1,-7.1,-2.5,46.7,18.2,-48.5,16.1015,-7.47363,-2.96941,2.48611,-0.801423,1.42244,44.0986,20.6537,-48.7543,0.156764,0.00106301,0.0758606,250.7,9.5,52.1701,4.42724,9.0,0.995686,223.216,4.406619999999999,164.172,63.8445,176.25799999999998,0.7857069999999999,-0.0651192,249.19,1.01168,1.41723,-2.7718048095703103,21.9994239807129,-3.72477889060974,22.0,26771.3,3014.92,pp-ro,1,1,-1,-1
1570538933.6,2019-10-08,14:48:53.600,15.0,9.0,16.8099994659424,15.1,-6.9,-2.3,47.6,17.3,-47.9,16.1015,-7.47363,-2.96941,2.48611,-0.801423,1.42244,44.0986,20.6537,-48.7543,0.156764,0.00106301,0.0758606,250.7,9.5,52.1701,4.42724,9.0,0.96632,211.80900000000003,4.406630000000001,163.442,65.3645,176.458,0.786619,-0.0746823,249.246,1.03641,1.43946,-3.41696166992188,21.9994239807129,-3.51364970207214,22.0,27063.0,2645.75,pp-ro,1,1,-1,-1
1570538933.7,2019-10-08,14:48:53.700,15.0,9.0,17.1800003051758,15.4,-6.9,-2.0,48.4,15.9,-46.9,15.952,-7.377669999999999,-2.32978,-4.25812,-0.217905,0.690976,45.8326,18.8336,-47.3917,0.23563,-0.0931318,0.4539829999999999,250.7,9.5,52.1701,4.42724,9.0,0.959671,207.686,4.40665,162.741,67.2645,176.558,0.786714,-0.086202,249.363,1.0735,1.4667,-3.7395477294921897,21.9994239807129,-3.1752266883850098,22.0,27151.7,1661.28,pp-ro,1,1,-1,-1
1570538933.8,2019-10-08,14:48:53.800,15.0,10.0,17.4300003051758,15.5,-6.7,-1.5,49.1,14.5,-46.2,15.952,-7.377669999999999,-2.32978,-4.25812,-0.217905,0.690976,45.8326,18.8336,-47.3917,0.23563,-0.0931318,0.4539829999999999,250.7,9.5,52.1701,4.42724,9.0,0.955238,202.702,4.40665,162.011,68.4045,176.75799999999998,0.787946,-0.0937796,249.33900000000003,1.10391,1.50223,-3.72930908203125,21.9994239807129,-2.71076416969299,22.0,27347.6,2276.57,pp-ro,1,1,-1,-1
1570538933.9,2019-10-08,14:48:53.900,15.0,9.0,17.7800006866455,15.7,-6.5,-1.1,49.7,13.4,-45.0,16.1154,-7.34675,-2.13711,4.78895,-0.0412703,0.208048,46.283,18.1708,-47.0164,0.0250961,-0.018819,0.338885,250.7,9.5,52.1701,4.42724,9.0,0.944156,200.262,4.40667,161.339,69.9245,176.75799999999998,0.7880020000000001,-0.103241,249.326,1.13891,1.5368,-3.26165008544922,21.9994239807129,-2.2025377750396697,22.0,27547.2,1722.81,pp-ro,1,1,-1,-1
1570538934.0,2019-10-08,14:48:54.000,15.0,10.0,18.1299991607666,15.9,-6.3,-0.9,50.1,12.8,-44.0,16.2756,-7.1079300000000005,-1.41381,4.10075,2.17268,4.39428,47.3907,16.4838,-45.2302,0.0218031,-0.0299843,0.1865119999999999,250.7,9.5,52.1701,4.42724,9.0,0.939724,196.402,4.406680000000001,160.638,71.8246,176.858,0.787933,-0.114745,249.484,1.16708,1.56429,-2.83154296875,21.9994239807129,-1.87220597267151,22.0,27788.1,1876.63,pp-ro,1,1,-1,-1
1570538934.1,2019-10-08,14:48:54.100,15.0,10.0,18.1299991607666,16.3,-6.3,-0.6,50.8,11.8,-43.0,16.2756,-7.1079300000000005,-1.41381,4.10075,2.17268,4.39428,47.3907,16.4838,-45.2302,0.0218031,-0.0299843,0.1865119999999999,250.7,9.5,52.1701,4.42724,9.0,0.939724,197.976,4.40669,159.995,73.3446,176.858,0.787814,-0.1241309999999999,249.513,1.19834,1.58983,-2.3024444580078103,21.9994239807129,-1.5428466796875,22.0,27870.5,1538.22,pp-ro,1,1,-1,-1
1570538934.2,2019-10-08,14:48:54.200,15.0,8.0,18.1299991607666,16.5,-6.3,-0.1,51.1,10.6,-42.5,16.8476,-6.86684,-0.87344,4.000319999999999,-2.47534,1.40313,48.0373,14.1399,-43.8376,0.049606,-0.0327950999999999,0.291267,250.7,9.5,52.1701,4.42724,9.0,0.953576,214.936,4.40671,159.29399999999998,75.2446,176.858,0.787343,-0.135616,249.63,1.2272,1.62109,-1.87915802001953,21.9994239807129,-1.11625826358795,22.0,27954.0,461.467,pp-ro,1,1,-1,-1
1570538934.3,2019-10-08,14:48:54.300,15.0,9.0,18.1299991607666,16.9,-6.2,0.2,51.7,10.2,-41.8,16.8476,-6.86684,-0.87344,4.000319999999999,-2.47534,1.40313,48.0373,14.1399,-43.8376,0.049606,-0.0327950999999999,0.291267,250.7,9.3,52.1701,4.42724,9.0,0.999565,234.558,4.40669,158.681,76.7646,176.858,0.787053,-0.144894,249.702,1.24754,1.64884,-1.46611785888672,21.9994239807129,-0.739251613616943,22.0,27911.1,-215.351,pp-ro,1,1,-1,-1
1570538934.4,2019-10-08,14:48:54.400,15.0,9.0,18.1299991607666,17.1,-6.2,0.4,51.8,10.0,-40.9,17.6389,-6.7222,0.2144,2.14588,-1.25296,3.3697800000000004,48.6981,11.5167,-42.2176,0.0502426999999999,0.132135,0.114474,250.7,9.3,52.1701,4.42724,9.0,1.02062,238.892,4.40664,158.009,78.6647,176.75799999999998,0.7861060000000001,-0.156195,249.797,1.26948,1.66722,-1.07356262207031,21.9994239807129,-0.532482922077179,22.0,28094.6,2614.98,pp-ro,1,1,-1,-1
1570538934.5,2019-10-08,14:48:54.500,15.0,8.0,18.2199993133545,17.0,-6.4,0.8,51.6,9.3,-40.4,17.7279,-6.79086,0.606254,4.35826,-1.04203,2.56838,48.7256,10.9114,-41.8721,-0.125438,-0.0269971,0.214648,250.7,9.3,52.1701,4.42724,9.0,1.00566,237.178,4.406619999999999,157.33700000000002,80.1847,176.658,0.785586,-0.1655559999999999,249.785,1.29091,1.6807,-0.8926467895507809,21.9994239807129,-0.433041363954544,22.0,28352.5,2091.99,pp-ro,1,1,-1,-1
1570538934.6,2019-10-08,14:48:54.600,15.0,9.0,18.270000457763697,16.7,-6.1,1.1,51.7,8.7,-39.9,17.4373,-6.7775,1.09416,-0.61161,4.11493,4.37188,49.1643,9.24155,-41.0501,-0.0226394,0.0123536,0.0677798,250.7,9.3,52.1701,4.42724,9.0,1.0112,234.273,4.40658,157.016,80.9447,176.558,0.785131,-0.17018,249.758,1.30774,1.7035,-0.52056884765625,21.9994239807129,-0.040317460894585,22.0,28509.3,1753.58,pp-ro,1,1,-1,-1
1570538934.7,2019-10-08,14:48:54.700,15.0,9.0,18.270000457763697,16.8,-5.9,1.2,51.8,7.1,-40.0,17.4373,-6.7775,1.09416,-0.61161,4.11493,4.37188,49.1643,9.24155,-41.0501,-0.0226394,0.0123536,0.0677798,250.7,9.3,52.1701,4.42724,9.0,0.996794,226.825,4.40655,156.05200000000002,83.6047,176.458,0.7837609999999999,-0.185995,249.959,1.3372700000000002,1.7274599999999998,-0.448883056640625,21.9994239807129,-35.0,22.0,28807.0,3076.45,pp-ro,1,1,-1,-1
1570538934.8,2019-10-08,14:48:54.800,15.0,9.0,18.3199996948242,17.2,-5.7,1.5,52.1,7.2,-38.9,17.4373,-6.7775,1.09416,-0.61161,4.11493,4.37188,49.1643,9.24155,-41.0501,-0.0226394,0.0123536,0.0677798,250.7,9.3,52.1701,4.42724,9.0,0.999011,235.703,4.40651,155.468,85.5048,176.158,0.781801,-0.196972,250.026,1.35765,1.75857,-0.353302001953125,21.9994239807129,-35.0,22.0,29024.2,461.467,pp-ro,1,1,-1,-1
1570538934.9,2019-10-08,14:48:54.900,15.0,8.0,18.270000457763697,17.3,-6.0,1.9,52.0,6.4,-39.0,17.914,-6.353,1.68822,-0.274613,-1.6490200000000002,1.62828,49.2445,8.18432,-39.7258,-0.0582406999999999,0.0462634,-0.00644884,250.7,9.3,52.1701,4.427230000000001,9.0,1.01397,242.016,4.40648,154.825,87.0248,176.058,0.781018,-0.2061619999999999,250.081,1.37278,1.76983,-0.04949951171875,21.9994239807129,-35.0,22.0,29069.7,892.17,pp-ro,1,1,-1,-1
1570538935.0,2019-10-08,14:48:55.000,15.0,8.0,18.270000457763697,17.5,-6.0,2.0,52.2,6.2,-38.8,18.0664,-6.64763,2.04304,-2.39122,-0.128199,0.131935,49.2725,7.59323,-39.7272,-0.0688242,-0.0781429999999999,0.155082,250.7,9.3,52.1701,4.427230000000001,9.0,1.0339200000000002,256.777,4.40644,154.504,87.7848,175.858,0.780185,-0.210758,250.007,1.38101,1.7786,-0.04779052734375,21.9994239807129,-35.0,22.0,29217.8,1568.99,pp-ro,1,1,-1,-1
1570538935.1,2019-10-08,14:48:55.100,15.0,9.0,18.3199996948242,17.7,-6.3,2.4,52.2,5.7,-38.8,18.0664,-6.64763,2.04304,-2.39122,-0.128199,0.131935,49.2725,7.59323,-39.7272,-0.0688242,-0.0781429999999999,0.155082,250.7,9.3,52.1701,4.427230000000001,9.0,1.06439,265.264,4.40641,153.861,89.6848,175.658,0.778518,-0.221765,250.145,1.39504,1.79167,-0.416450500488281,21.9994239807129,-35.0,22.0,29432.9,2276.57,pp-ro,1,1,-1,-1
1570538935.2,2019-10-08,14:48:55.200,15.0,8.0,18.270000457763697,18.0,-6.5,2.8,52.5,5.2,-39.0,18.5158,-6.986219999999999,2.83657,-1.1743,1.03492,7.749560000000001,49.3652,6.74787,-39.4361,-0.0958255,-0.0922904,0.0932221999999999,250.7,9.3,52.1701,4.427230000000001,9.0,1.06162,263.89,4.40637,153.219,91.2048,175.358,0.7770520000000001,-0.230909,250.08900000000003,1.40527,1.80763,-1.13330078125,21.9994239807129,-35.0,22.0,29599.8,3230.27,pp-ro,1,1,-1,-1
1570538935.3,2019-10-08,14:48:55.300,15.0,8.0,18.270000457763697,18.0,-6.5,3.0,52.5,4.2,-39.2,18.5438,-7.0392,2.93299,1.52281,-1.94538,2.78998,49.4716,6.51966,-39.3611,-0.0798548,-0.0579874,0.111897,248.8,8.5,52.1701,4.427230000000001,9.0,1.04777,259.842,4.40636,152.547,93.4849,175.058,0.774506,-0.243773,250.31,1.42434,1.8238,-2.21710205078125,21.9994239807129,-35.0,22.0,29878.0,2245.81,pp-ro,1,1,-1,-1
1570538935.4,2019-10-08,14:48:55.400,15.0,9.0,18.3700008392334,18.3,-6.6,3.2,52.5,3.0,-39.0,18.5438,-7.0392,2.93299,1.52281,-1.94538,2.78998,49.4716,6.51966,-39.3611,-0.0798548,-0.0579874,0.111897,248.8,8.5,52.1701,4.427230000000001,9.0,1.04445,256.46,4.40635,151.875,95.0049,174.658,0.7727229999999999,-0.252955,250.195,1.44824,1.8357900000000005,-3.6593246459960898,21.9994239807129,-35.0,22.0,30245.6,2830.33,pp-ro,1,1,-1,-1
1570538935.5,2019-10-08,14:48:55.500,15.0,11.0,18.5100002288818,18.7,-6.6,4.1,53.0,0.7,-38.9,18.5409,-7.052110000000001,3.01125,3.21383,-2.56515,0.913859,49.3548,6.26647,-39.381,0.0231662,-0.068523,-0.0148877999999999,248.8,8.5,52.1701,4.427230000000001,9.0,1.04112,255.389,4.40635,150.82399999999998,98.0449,174.058,0.7689199999999999,-0.270382,250.313,1.49061,1.88133,-5.46509552001953,21.9994239807129,-35.0,22.0,30368.2,2430.39,pp-ro,1,1,-1,-1
1570538935.6,2019-10-08,14:48:55.600,15.0,11.0,18.5100002288818,18.9,-6.4,4.4,53.3,0.0,-38.8,18.5602,-6.997560000000001,3.13084,6.69958,0.290639,3.91563,49.3894,5.88301,-39.3205,0.0121723999999999,-0.095819,0.0714801,248.8,8.5,52.1701,4.427230000000001,9.0,1.03503,247.144,4.40635,150.502,98.8049,173.858,0.767939,-0.274893,250.28,1.5038200000000002,1.90261,-7.54736328125,21.9994239807129,-35.0,22.0,30610.0,2522.69,pp-ro,1,1,-1,-1
1570538935.7,2019-10-08,14:48:55.700,15.0,10.0,18.4599990844727,19.5,-6.0,5.0,53.8,-1.2,-38.4,19.4241,-6.615710000000001,4.75752,5.90676,5.34212,5.121659999999999,50.6792,2.83168,-37.131,0.0136556,0.170604,0.255076,248.8,8.5,52.1701,4.427230000000001,9.0,1.00898,240.015,4.40635,149.889,100.705,173.358,0.7650020000000001,-0.285552,250.322,1.53142,1.94583,-9.65181732177734,21.9994239807129,-35.0,22.0,31068.9,2676.51,pp-ro,1,1,-1,-1
1570538935.8,2019-10-08,14:48:55.800,15.0,10.0,18.4599990844727,20.1,-5.8,5.8,54.6,-3.5,-37.7,19.573,-6.35864,5.125859999999999,5.2412,3.59456,4.34675,51.0549,2.20312,-36.6642,0.0969082,-0.2117239999999999,0.356394,248.8,8.5,52.1701,4.427230000000001,9.0,1.0317,258.168,4.40635,149.246,102.605,172.858,0.7620779999999999,-0.296238,250.364,1.57661,1.98632,-11.7613906860352,21.9994239807129,-35.0,22.0,31135.8,30.7645,pp-ro,1,1,-1,-1
1570538935.9,2019-10-08,14:48:55.900,15.0,10.0,18.5100002288818,20.8,-5.5,6.9,55.5,-5.7,-36.7,20.122,-6.10053,5.96877,7.65025,0.772822,6.559480000000001,51.596,0.5778260000000001,-35.4531,0.181757,-0.0492769,0.4173,248.8,8.5,52.1701,4.427230000000001,8.7,1.05386,268.345,4.40635,148.662,104.885,172.257,0.758075,-0.308383,250.547,1.62529,2.03767,-13.862434387207,21.9994239807129,-35.0,22.0,31153.2,338.409,pp-ro,1,1,-1,-1
1570538936.0,2019-10-08,14:48:56.000,15.0,10.0,18.7000007629395,21.3,-5.0,8.0,56.3,-9.2,-35.5,20.8476,-5.48034,7.66954,4.66538,3.6284,15.6339,52.8322,-3.07494,-32.9111,-0.035244,0.00722228,0.561003,248.8,8.5,52.1701,4.427230000000001,8.7,1.0932,287.574,4.40635,148.107,107.165,171.55700000000002,0.7536510000000001,-0.320323,250.703,1.6929299999999998,2.09256,-15.9754257202148,21.9994239807129,-35.0,22.0,31408.9,2368.87,pp-ro,1,1,-1,-1
1570538936.1,2019-10-08,14:48:56.100,15.0,10.0,19.0699996948242,22.1,-4.2,9.1,57.6,-12.3,-33.4,20.8476,-5.48034,7.66954,4.66538,3.6284,15.6339,52.8322,-3.07494,-32.9111,-0.035244,0.00722228,0.561003,248.8,8.5,52.1701,4.427230000000001,8.7,1.09819,292.235,4.40634,147.66899999999998,109.065,170.757,0.749229,-0.330107,250.718,1.76449,2.15158,-18.0781707763672,21.9994239807129,-35.0,22.0,31519.5,1999.69,pp-ro,1,1,-1,-1
1570538936.2,2019-10-08,14:48:56.200,15.0,10.0,19.5799999237061,22.9,-3.4,10.9,59.1,-16.3,-31.6,21.0468,-5.18013,8.13847,4.6637900000000005,7.840339999999999,5.46868,53.1449,-4.61802,-31.8071,0.167292,0.0660904,0.650312,248.8,8.5,52.1701,4.427230000000001,8.7,1.12202,307.207,4.40634,147.231,111.345,169.757,0.743555,-0.341451,250.783,1.8451,2.22371,-20.1945724487305,21.9994239807129,-35.0,22.0,31676.5,1630.52,pp-ro,1,1,-1,-1
1570538936.3,2019-10-08,14:48:56.300,15.0,9.0,20.1499996185303,23.2,-2.0,12.6,60.4,-20.9,-29.0,21.2904,-4.73841,8.65421,5.74582,8.264669999999999,9.70787,53.5024,-6.15237,-30.5671,0.270488,0.156739,0.794054,249.6,8.6,52.1701,4.427230000000001,8.7,1.1874,351.97,4.40635,146.939,113.625,168.657,0.737217,-0.3522,250.892,1.94182,2.30885,-22.3041458129883,21.9994239807129,-35.0,22.0,31838.0,92.2935,pp-ro,1,1,-1,-1
1570538936.4,2019-10-08,14:48:56.400,15.0,8.0,20.7999992370605,23.0,-0.6,14.5,61.1,-26.5,-26.1,21.2904,-4.73841,8.65421,5.74582,8.264669999999999,9.70787,53.5024,-6.15237,-30.5671,0.270488,0.156739,0.794054,249.6,8.6,52.1701,4.427230000000001,8.7,1.22009,365.092,4.40638,146.763,115.905,167.357,0.729991,-0.362442,250.962,2.05369,2.39718,-24.4205474853516,21.9994239807129,-35.0,22.0,31851.0,246.116,pp-ro,1,1,-1,-1
1570538936.5,2019-10-08,14:48:56.500,15.0,8.0,21.2199993133545,22.5,1.1,16.3,60.8,-32.6,-21.1,21.7501,-0.349692,14.4297,-0.8675930000000001,11.9052,16.4741,55.398,-22.5833,-18.8885,0.1312829999999999,0.182923,1.36997,249.6,8.6,52.1701,4.427230000000001,8.7,1.2594299999999998,376.12,4.4064,146.763,118.185,165.957,0.722061,-0.371949,251.095,2.19178,2.49118,-26.530128479003896,21.9994239807129,-35.0,22.0,32214.7,5506.84,pp-ro,1,1,-1,-1
1570538936.6,2019-10-08,14:48:56.600,15.0,8.0,21.8299999237061,21.3,3.7,17.9,59.7,-38.6,-14.2,20.7214,1.63814,15.9185,-15.697,25.1234,17.351,53.8805,-28.109,-12.5323,0.182269,0.175116,1.2959,249.6,8.6,52.1701,4.427230000000001,8.7,1.23948,368.816,4.40642,146.997,120.465,164.257,0.7127220000000001,-0.380546,251.198,2.3429900000000004,2.61389,-28.6328735351562,21.9994239807129,-35.0,22.0,32720.0,4337.79,pp-ro,1,1,-1,-1
1570538936.7,2019-10-08,14:48:56.700,15.0,8.0,22.2999992370605,19.8,6.4,19.8,58.3,-44.7,-7.8,18.8144,5.34186,18.4589,-12.8532,26.2598,22.0555,49.9618,-36.811,-0.935258,0.282296,0.34551,1.27399,249.6,8.6,52.1701,4.427230000000001,8.7,1.23339,362.133,4.40645,147.493,122.365,162.657,0.703765,-0.386608,251.366,2.48252,2.74277,-30.57177734375,21.9994239807129,-35.0,22.0,33235.5,5599.14,pp-ro,1,1,-1,-1
1570538936.8,2019-10-08,14:48:56.800,15.0,9.0,22.6200008392334,18.2,9.1,21.5,55.9,-50.7,-0.8,17.1475,7.842280000000001,20.1634,-23.1346,28.1227,13.1451,46.1906,-41.9894,7.40567,-0.0272884,0.0928717,1.31353,249.6,8.6,52.1701,4.427230000000001,8.7,1.22951,376.977,4.40646,148.252,124.265,160.757,0.6933739999999999,-0.391676,251.522,2.61816,2.86428,-32.1590728759766,21.9994239807129,-35.0,22.0,33589.9,2368.87,pp-ro,1,1,-1,-1
1570538936.9,2019-10-08,14:48:56.900,15.0,7.0,23.0400009155273,15.6,11.3,23.0,50.9,-56.9,9.1,14.8809,10.0693,21.352,-25.8504,17.0598,9.8033,40.7869,-47.7205,17.6153,0.211953,0.122697,1.5193299999999998,249.6,8.6,52.1701,4.427230000000001,8.5,1.30486,421.409,4.40649,149.245,126.165,158.857,0.682539,-0.395895,251.848,2.76911,2.9870400000000004,-33.391357421875,22.0035419464111,-35.0,22.0,33588.2,-184.587,pp-ro,1,1,-1,-1
1570538937.0,2019-10-08,14:48:57.000,15.0,10.0,23.190000534057603,13.1,13.8,23.9,40.1,-62.2,24.3,14.8809,10.0693,21.352,-25.8504,17.0598,9.8033,40.7869,-47.7205,17.6153,0.211953,0.122697,1.5193299999999998,249.6,8.6,52.1701,4.427230000000001,8.5,1.38576,447.278,4.40652,150.472,127.305,156.857,0.672189,-0.396306,251.898,2.93447,3.10598,-34.2686462402344,22.003026962280305,-35.0,22.0,34022.3,5937.55,pp-ro,1,1,-1,-1
1570538937.1,2019-10-08,14:48:57.100,15.0,11.0,24.0499992370605,10.1,15.8,23.9,23.8,-64.9,45.6,12.2756,12.0839,22.2779,-27.7012,20.7541,-3.17126,31.2721,-52.2098,31.2641,-0.136945,0.24881,1.59895,249.6,8.6,52.1701,4.427230000000001,8.5,1.37856,440.653,4.406540000000001,151.874,128.825,154.757,0.6606069999999999,-0.397622,252.213,3.11053,3.22458,-34.794342041015604,22.003026962280305,-23.0139999389648,22.0,34407.1,7660.36,pp-ro,1,1,-1,-1
1570538937.2,2019-10-08,14:48:57.200,15.0,11.0,24.3700008392334,6.9,17.6,23.5,4.4,-65.3,69.3,9.63026,14.1496,22.2164,-28.1096,17.2754,2.7844,18.7299,-54.6653,48.5902,0.265763,0.4791939999999999,1.7744400000000002,249.6,8.6,52.1701,4.427230000000001,8.5,1.33977,424.893,4.40656,153.422,129.585,152.857,0.650595,-0.395534,252.38,3.28556,3.34476,-34.9496459960938,22.0035419464111,-23.0163822174072,22.0,35218.2,7568.06,pp-ro,1,1,-1,-1
1570538937.3,2019-10-08,14:48:57.300,15.0,11.0,24.510000228881804,3.6,19.2,22.5,-10.1,-61.9,87.9,9.63026,14.1496,22.2164,-28.1096,17.2754,2.7844,18.7299,-54.6653,48.5902,0.265763,0.4791939999999999,1.7744400000000002,248.4,8.2,52.1701,4.427230000000001,8.5,1.32315,408.065,4.40658,155.203,130.345,150.95600000000002,0.640173,-0.392753,252.717,3.44356,3.46932,-34.8062744140625,22.003026962280305,-23.0139999389648,22.0,35766.6,5414.55,pp-ro,1,1,-1,-1
1570538937.4,2019-10-08,14:48:57.400,15.0,11.0,24.510000228881804,0.5,20.2,20.9,-21.9,-57.3,103.6,1.8801,17.8017,20.889,-22.5743,2.41146,-8.89637,-11.5658,-49.9787,89.0077,0.131816,0.413325,1.65329,248.4,8.2,52.1701,4.427230000000001,8.5,1.27661,379.752,4.40658,157.16,130.726,149.056,0.63003,-0.388026,252.99400000000003,3.60385,3.58741,-34.2430419921875,22.003026962280305,-23.0139999389648,22.0,36618.3,9229.35,pp-ro,1,1,-1,-1
1570538937.5,2019-10-08,14:48:57.500,15.0,11.0,24.3600006103516,-2.0,21.2,19.4,-27.7,-50.6,113.6,0.582294,18.1042,20.2409,-24.7959,11.3256,-12.0055,-15.9935,-47.8674,95.1697,0.331534,0.26693,1.46502,248.4,8.2,52.1701,4.427230000000001,8.5,1.24779,382.926,4.4065900000000005,159.14600000000002,130.726,147.45600000000002,0.621365,-0.381866,253.298,3.7593,3.68973,-33.3179626464844,22.0035419464111,-23.0163822174072,22.0,37301.2,2030.46,pp-ro,1,1,-1,-1
1570538937.6,2019-10-08,14:48:57.600,15.0,10.0,23.7299995422363,-4.8,21.3,18.1,-32.6,-44.4,122.3,-0.7370979999999999,18.5874,19.3663,-26.2623,13.6836,-19.2075,-19.9764,-45.3297,101.167,0.0985156,0.5642560000000001,1.52319,248.4,8.2,52.1701,4.427230000000001,8.5,1.26885,395.15,4.4065900000000005,161.219,130.346,145.95600000000002,0.6134149999999999,-0.374107,253.545,3.90694,3.79006,-32.037887573242195,22.0035419464111,-23.0163822174072,22.0,37388.5,1661.28,pp-ro,1,1,-1,-1
1570538937.7,2019-10-08,14:48:57.700,15.0,10.0,23.7299995422363,-7.2,21.4,16.1,-35.0,-37.5,128.3,-1.84126,18.9619,18.6245,-27.9227,0.11868,-8.98028,-22.8811,-42.1688,106.089,0.4576449999999999,0.4881189999999999,1.45205,248.4,8.2,52.1701,4.427230000000001,8.5,1.31151,405.277,4.4066,163.41,129.966,144.45600000000002,0.605248,-0.366101,253.893,4.04894,3.89475,-30.38232421875,22.0035419464111,-23.0163822174072,22.0,37657.0,3968.62,pp-ro,1,1,-1,-1
1570538937.8,2019-10-08,14:48:57.800,15.0,13.0,23.2399997711182,-8.8,21.1,13.7,-37.2,-31.0,133.9,-6.89139,19.0083,15.9914,-20.279,-0.173233,-31.5461,-31.7549,-30.7787,122.238,-0.474016,0.332714,1.27193,248.4,8.2,52.1701,4.427230000000001,8.5,1.27771,371.242,4.40661,165.513,129.20600000000002,143.256,0.5987210000000001,-0.35704,254.187,4.18545,3.98766,-28.4229431152344,22.003026962280305,-23.0139999389648,22.0,38415.6,9260.11,pp-ro,1,1,-1,-1
1570538937.9,2019-10-08,14:48:57.900,15.0,13.0,23.2399997711182,-10.4,21.0,11.8,-38.6,-25.0,138.0,-7.70281,18.8281,14.9471,-5.92689,-8.67712,-25.0597,-33.0309,-27.4879,125.381,-0.281807,0.45981,1.40742,248.4,8.2,52.1701,4.427219999999999,8.4,1.19737,352.275,4.406630000000001,167.645,128.066,142.156,0.592954,-0.346583,254.389,4.30363,4.07428,-26.6461868286133,22.003026962280305,-22.586017608642603,22.0,39217.7,5476.08,pp-ro,1,1,-1,-1
1570538938.0,2019-10-08,14:48:58.000,15.0,14.0,22.850000381469695,-12.0,20.6,10.2,-38.8,-19.7,141.3,-10.1181,18.6955,12.1813,-9.64277,-6.37772,-7.661969999999999,-36.3411,-18.7738,133.048,-0.302351,0.3773829999999999,1.06023,248.4,8.2,52.1701,4.427219999999999,8.4,1.23283,375.843,4.406619999999999,169.748,127.306,141.156,0.587028,-0.337711,254.845,4.40634,4.15681,-25.2278518676758,22.003026962280305,-21.0963764190674,22.0,39328.4,615.29,pp-ro,1,1,-1,-1
1570538938.1,2019-10-08,14:48:58.100,15.0,15.0,22.7000007629395,-13.4,20.1,8.4,-39.5,-14.3,143.1,-10.1181,18.6955,12.1813,-9.64277,-6.37772,-7.661969999999999,-36.3411,-18.7738,133.048,-0.302351,0.3773829999999999,1.06023,248.4,8.2,52.1701,4.427219999999999,8.4,1.27827,383.853,4.406619999999999,171.792,126.166,140.256,0.582002,-0.327683,255.151,4.49702,4.24125,-23.9341201782227,22.003026962280305,-19.5505695343018,22.0,39585.7,4214.73,pp-ro,1,1,-1,-1
1570538938.2,2019-10-08,14:48:58.200,15.0,15.0,22.3400001525879,-14.4,19.7,6.5,-40.5,-9.4,146.0,-13.1036,17.6252,8.96273,-17.644000000000002,7.32945,-15.4216,-38.6359,-9.6763,140.148,-0.330023,0.0795497,0.624725,248.4,8.2,52.1701,4.427219999999999,8.4,1.24835,366.904,4.406630000000001,173.924,124.646,139.45600000000002,0.577592,-0.316065,255.41,4.58978,4.31944,-23.2701797485352,22.003026962280305,-18.121202468872102,22.0,40312.5,8091.06,pp-ro,1,1,-1,-1
1570538938.3,2019-10-08,14:48:58.300,15.0,14.0,22.1100006103516,-15.5,18.9,5.0,-41.2,-5.3,150.0,-14.0159,17.0086,7.09605,-6.84421,-10.7628,-9.44221,-39.8848,-5.05157,143.971,-0.418402,0.162449,1.00016,250.3,8.5,52.1701,4.427219999999999,8.4,1.25888,388.437,4.40666,175.94,123.506,138.656,0.572871,-0.306321,255.8,4.68221,4.39404,-21.9132995605469,22.0035419464111,-16.7740592956543,22.0,40705.0,-92.2935,pp-ro,1,1,-1,-1
