time,date,time_of_day,airspeed_temperature,airspeed_angle_of_attack,airspeed_apparent_windspeed,kite_0_vx,kite_0_vy,kite_0_vz,kite_0_roll,kite_0_pitch,kite_0_yaw,kite_1_vx,kite_1_vy,kite_1_vz,kite_1_ax,kite_1_ay,kite_1_az,kite_1_roll,kite_1_pitch,kite_1_yaw,kite_1_roll_rate,kite_1_pitch_rate,kite_1_yaw_rate,ground_upwind_direction,ground_wind_velocity,ground_pos_latitude,ground_pos_longitude,ground_pos_altitude,ground_tether_reelout_speed,ground_tether_force,est_upwind_direction,kite_pos_east,kite_pos_north,kite_height,kite_elevation,kite_azimuth,kite_distance,kite_heading,kite_course,kite_actual_steering,kite_actual_depower,kite_set_steering,kite_set_depower,ground_mech_energy,ground_mech_power,flight_phase,flight_phase_index,phase,pattern,pattern_section
1570532583.5,2019-10-08,13:03:03.500,14.0,8.0,14.8299999237061,12.6,-1.3,3.2,22.0,-6.4,-48.1,11.1037,-1.37884,3.41004,9.03307,6.42057,2.56797,25.6962,8.63643,-51.1992,0.0220095,0.204471,0.965872,260.3,7.9,52.1701,4.42721,-0.8,-2.64574,105.464,4.58946,53.0117,7.22054,232.049,1.3442,-0.0124687999999999,238.136,0.89936,1.6590900000000002,-34.968414306640604,22.003026962280305,-35.0,22.0,-709718.0,-3199.51,pp-riro,4,0,-1,-1
1570532583.6,2019-10-08,13:03:03.600,14.0,8.0,14.640000343322802,13.3,-0.3,3.5,23.5,-8.1,-43.1,11.1037,-1.37884,3.41004,9.03307,6.42057,2.56797,25.6962,8.63643,-51.1992,0.0220095,0.204471,0.965872,260.3,7.9,52.1701,4.42721,-0.8,-2.62358,99.8161,4.58943,52.8949,8.36058,231.749,1.34371,-0.0338196999999999,237.855,1.01478,1.75984,-34.970123291015604,22.0009689331055,-35.0,22.0,-710060.0,-3107.21,pp-riro,4,0,-1,-1
1570532583.7,2019-10-08,13:03:03.700,14.0,9.0,14.3999996185303,13.9,0.9,3.9,25.0,-9.7,-38.0,12.7856,1.36184,4.46704,6.31674,14.0679,5.274719999999999,29.761,4.15393,-36.428,0.19575,0.130413,0.961157,260.3,7.9,52.1701,4.42721,-0.8,-2.62968,91.9379,4.58939,52.8948,9.88064,231.549,1.34246,-0.061687,237.719,1.13824,1.87452,-34.973541259765604,22.0009689331055,-35.0,22.0,-710807.0,-9844.64,pp-riro,4,0,-1,-1
1570532583.8,2019-10-08,13:03:03.800,14.0,9.0,14.2200002670288,14.4,2.2,4.3,26.1,-11.7,-32.6,13.2482,2.56261,4.831919999999999,5.48191,14.0217,3.73172,31.0974,2.07201,-30.9174,0.205851,0.166382,0.96076,260.3,7.9,52.1701,4.42721,-0.8,-2.6402,89.2652,4.58935,52.9824,11.4007,231.249,1.34059,-0.0889253999999999,237.514,1.26769,1.98739,-34.9906158447266,22.0009689331055,-35.0,22.0,-711414.0,-11475.2,pp-riro,4,0,-1,-1
1570532583.9,2019-10-08,13:03:03.900,14.0,8.0,14.1499996185303,14.9,3.4,4.7,27.2,-13.5,-27.5,13.4479,3.14346,5.02065,2.3292,10.9941,5.8063400000000005,31.5419,0.98549,-28.1455,0.184549,0.119599,1.0215,258.9,8.0,52.1701,4.42721,-0.8,-2.6928400000000003,87.2413,4.58936,53.1869,12.9207,230.949,1.33809,-0.115254,237.346,1.38999,2.08476,-34.9906158447266,22.0009689331055,-35.0,22.0,-712751.0,-14397.8,pp-riro,4,0,-1,-1
1570532584.0,2019-10-08,13:03:04.000,14.0,9.0,14.0299997329712,15.1,4.6,5.1,27.9,-15.7,-22.4,13.7994,4.28028,5.36236,0.795145,11.38,3.8818,32.3463,-1.11098,-22.6154,0.2545739999999999,0.267036,0.957023,258.9,8.0,52.1701,4.42721,-0.8,-2.75102,88.2962,4.58941,53.5373,14.4408,230.649,1.33486,-0.140459,237.221,1.51247,2.17987,-34.9974365234375,22.0009689331055,-35.0,22.0,-714120.0,-13228.7,pp-riro,4,0,-1,-1
1570532584.1,2019-10-08,13:03:04.100,14.0,9.0,13.8999996185303,15.3,5.9,5.6,28.5,-17.7,-16.9,13.8791,4.851719999999999,5.60956,0.600776,8.4145,2.06081,32.6875,-2.16394,-19.8126,0.178118,0.204896,1.01513,258.9,8.0,52.1701,4.42721,-0.8,-2.84521,86.0667,4.58947,54.0339,15.5809,230.249,1.33125,-0.157789,237.017,1.63263,2.26847,-34.9974365234375,22.0009689331055,-35.0,22.0,-716226.0,-14613.1,pp-riro,4,0,-1,-1
1570532584.2,2019-10-08,13:03:04.200,14.0,9.0,13.8299999237061,15.3,7.2,6.0,28.9,-19.9,-11.5,14.0748,6.06278,5.99436,0.971668,14.6082,4.21077,33.2379,-4.300680000000001,-14.0189,0.1990309999999999,0.184164,1.02558,258.9,8.0,52.1701,4.42721,-0.8,-2.8707,85.3464,4.589519999999999,54.6472,17.4809,229.749,1.32607,-0.1867069999999999,236.805,1.7627,2.36623,-35.0059814453125,22.0009689331055,-35.0,22.0,-717031.0,-15228.4,pp-riro,4,0,-1,-1
1570532584.3,2019-10-08,13:03:04.300,14.0,9.0,13.7700004577637,15.4,8.5,6.3,29.0,-21.9,-5.9,14.0479,7.862719999999999,6.51401,-2.66673,12.5533,4.4762900000000005,33.294000000000004,-7.635330000000001,-5.24431,0.300655,0.237669,1.08357,258.9,8.0,52.1701,4.42721,-0.8,-2.94273,87.4853,4.589580000000001,55.3482,19.001,229.349,1.32097,-0.2078559999999999,236.697,1.88644,2.44775,-35.0059814453125,22.0009689331055,-35.0,22.0,-718581.0,-15536.1,pp-riro,4,0,-1,-1
1570532584.4,2019-10-08,13:03:04.400,14.0,9.0,13.8999996185303,15.2,9.7,6.7,28.7,-23.6,-0.2,13.9261,9.04783,6.8834800000000005,-2.65821,11.6058,3.49327,32.9279,-9.53255,0.5558,0.1201079999999999,0.210335,0.949261,258.9,8.0,52.1701,4.42721,-0.6,-2.99814,92.1056,4.58964,56.1951,20.521,228.749,1.315,-0.227348,236.443,2.0077,2.52818,-35.0059814453125,22.0009689331055,-35.0,22.0,-720099.0,-13659.4,pp-riro,4,0,-1,-1
1570532584.5,2019-10-08,13:03:04.500,14.0,9.0,14.0200004577637,15.0,11.1,7.1,28.5,-25.2,5.5,13.806,10.228,7.238189999999999,-1.23525,10.5755,4.28394,32.3973,-11.3474,6.3522300000000005,0.169091,0.388766,1.00383,258.9,8.0,52.1701,4.42721,-0.6,-3.03914,93.917,4.58969,57.1298,22.0411,228.249,1.30869,-0.245486,236.32,2.12576,2.61136,-35.0059814453125,22.0009689331055,-35.0,22.0,-721336.0,-12582.7,pp-riro,4,0,-1,-1
1570532584.6,2019-10-08,13:03:04.600,14.0,9.0,14.2700004577637,14.7,12.3,7.6,27.7,-27.0,11.3,13.6055,11.4549,7.63766,-3.35377,10.5915,3.40389,31.6078,-13.0159,12.6229,0.0648529,0.3355849999999999,1.03155,258.9,8.0,52.1701,4.42721,-0.6,-3.07183,97.6352,4.58975,58.2396,23.1812,227.549,1.30199,-0.256137,236.025,2.23789,2.67923,-35.0059814453125,22.0009689331055,-35.0,22.0,-723041.0,-10921.4,pp-riro,4,0,-1,-1
1570532584.7,2019-10-08,13:03:04.700,14.0,9.0,14.5799999237061,14.3,13.6,7.9,26.9,-28.4,17.6,13.1992,12.6205,7.999510000000001,-5.6540300000000006,9.66467,2.43502,30.4643,-14.6031,18.8376,0.1057289999999999,0.284456,1.0077,258.9,8.0,52.1701,4.42721,-0.6,-3.08181,100.896,4.5898,59.5247,25.0812,226.849,1.2934,-0.2761679999999999,235.866,2.3634,2.75782,-35.0042724609375,22.0009689331055,-23.0044822692871,22.0,-723556.0,-9906.17,pp-riro,4,0,-1,-1
1570532584.8,2019-10-08,13:03:04.800,14.0,9.0,14.8199996948242,13.9,14.9,8.4,25.9,-29.7,23.6,12.9995,13.2108,8.18158,-3.98296,10.6348,4.23887,29.9615,-15.3324,21.8341,0.0442093,0.2716139999999999,0.936271,258.9,8.0,52.1701,4.42721,-0.6,-3.07183,108.958,4.58986,60.8974,26.2213,226.149,1.28561,-0.28403,235.668,2.47079,2.82199,-35.0042724609375,22.0009689331055,-23.0044822692871,22.0,-724056.0,-4122.44,pp-riro,4,0,-1,-1
1570532584.9,2019-10-08,13:03:04.900,14.0,9.0,15.0,13.6,15.6,8.6,24.7,-30.7,30.0,12.5369,14.417,8.570219999999999,-4.62095,11.7881,4.34439,28.7964,-16.6256,28.2714,0.125134,0.317348,1.04024,262.2,7.6,52.1701,4.42721,-0.6,-2.99149,120.085,4.58995,62.3578,28.1214,225.349,1.27608,-0.301156,235.503,2.5901400000000003,2.86958,-34.8011627197266,22.0009689331055,-23.0044822692871,22.0,-723717.0,3199.51,pp-riro,4,0,-1,-1
1570532585.0,2019-10-08,13:03:05.000,14.0,10.0,15.2299995422363,13.0,16.8,9.1,24.0,-31.1,33.4,11.9693,15.5557,8.98995,-6.42021,12.5338,5.4370400000000005,27.3387,-17.5387,34.4398,0.0126615,0.305467,0.95643,262.2,7.6,52.1701,4.42721,-0.6,-2.93996,123.51,4.59008,64.0518,29.2614,224.949,1.26742,-0.306151,235.71400000000003,2.64921,2.92916,-34.208908081054695,22.0009689331055,-23.0044822692871,22.0,-723308.0,7475.77,pp-riro,4,0,-1,-1
1570532585.1,2019-10-08,13:03:05.100,14.0,10.0,15.5200004577637,11.8,18.7,9.7,21.8,-32.4,43.3,11.3258,16.7593,9.40725,-9.12496,9.81225,5.25056,25.7466,-18.6456,41.1692,-0.01215,0.294392,1.09748,262.2,7.6,52.1701,4.42721,-0.6,-2.81973,132.899,4.5902,65.775,30.4015,223.55,1.25734,-0.310706,235.0,2.80867,3.02201,-33.2599487304688,22.0009689331055,-23.0044822692871,22.0,-722211.0,12398.1,pp-riro,4,0,-1,-1
1570532585.2,2019-10-08,13:03:05.200,14.0,11.0,15.9099998474121,11.4,19.3,9.9,21.2,-32.7,46.7,10.9658,17.3437,9.64066,-5.60542,12.1884,2.7084,24.7867,-19.2456,44.265,-0.0349825,0.16897,1.07708,262.2,7.6,52.1701,4.42721,-0.6,-2.55764,150.235,4.590330000000001,66.6804,31.1615,223.05,1.25206,-0.315044,234.88,2.86493,3.05303,-31.9576721191406,22.0009689331055,-23.0044822692871,22.0,-719705.0,19812.3,pp-riro,4,0,-1,-1
1570532585.3,2019-10-08,13:03:05.300,14.0,11.0,16.3500003814697,10.5,20.5,10.3,19.4,-33.2,53.5,9.88147,18.9884,10.2022,-9.22141,7.93129,4.979080000000001,22.0326,-20.6392,53.6911,0.00720637,0.2257559999999999,0.99671,262.2,7.6,52.1701,4.42721,-0.6,-2.43962,155.10399999999998,4.59045,68.6957,32.3016,222.05,1.24139,-0.317536,234.667,2.97106,3.11059,-30.3003997802734,22.0009689331055,-23.0044822692871,22.0,-718541.0,22427.3,pp-riro,4,0,-1,-1
1570532585.4,2019-10-08,13:03:05.400,14.0,10.0,16.6700000762939,9.5,21.6,10.7,17.5,-33.5,59.9,8.598339999999999,20.4973,10.6751,-9.65898,9.12752,1.92632,19.0782,-21.9778,63.0462,0.0506618,0.256753,0.96323,262.2,7.6,52.1701,4.427219999999999,-0.4,-2.02794,161.484,4.5906400000000005,70.7694,33.4417,220.95,1.23033,-0.319569,234.404,3.06949,3.16636,-28.3307800292969,22.0009689331055,-23.0044822692871,22.0,-714984.0,23165.7,pp-riro,4,0,-1,-1
1570532585.5,2019-10-08,13:03:05.500,14.0,10.0,16.9899997711182,8.3,22.4,10.9,15.7,-33.4,66.5,8.06766,20.8835,10.7563,-13.9582,6.77798,1.22722,18.0395,-22.2262,66.0947,-0.0154828,0.173692,1.01157,262.2,7.6,52.1701,4.427219999999999,-0.4,-1.88942,161.471,4.5907,72.9015,34.5817,219.85,1.21905,-0.321246,234.189,3.1697,3.22195,-26.5659637451172,22.0009689331055,-23.0044822692871,22.0,-713813.0,22335.0,pp-riro,4,0,-1,-1
1570532585.6,2019-10-08,13:03:05.600,14.0,10.0,17.2399997711182,7.0,23.1,10.9,13.4,-33.1,73.2,8.06766,20.8835,10.7563,-13.9582,6.77798,1.22722,18.0395,-22.2262,66.0947,-0.0154828,0.173692,1.01157,262.2,7.6,52.1701,4.427219999999999,-0.4,-1.6051799999999998,162.329,4.59083,75.2089,35.3418,218.75,1.20775,-0.31767,234.002,3.26681,3.27399,-25.1647033691406,22.0009689331055,-22.7720336914062,22.0,-711919.0,18335.6,pp-riro,4,0,-1,-1
1570532585.7,2019-10-08,13:03:05.700,14.0,9.0,17.3400001525879,5.7,23.8,11.0,11.3,-32.9,78.9,6.477609999999999,21.9319,10.8097,-11.3707,8.82358,-0.464466,14.9467,-22.9634,74.8224,0.156892,0.139394,0.856273,262.2,7.6,52.1701,4.427219999999999,-0.4,-1.29489,164.547,4.59096,77.5162,36.1018,217.65,1.19644,-0.314365,233.845,3.34887,3.3248,-24.0979690551758,22.0009689331055,-22.1909637451172,22.0,-710280.0,15905.2,pp-riro,4,0,-1,-1
1570532585.8,2019-10-08,13:03:05.800,14.0,9.0,17.3999996185303,4.3,24.1,11.0,9.6,-32.5,84.2,5.253430000000001,22.597,10.8664,-7.648339999999999,1.51832,-1.14769,12.9983,-23.0055,80.4995,-0.0256572999999999,0.365077,0.949618,262.2,7.6,52.1701,4.427219999999999,-0.4,-1.00289,161.999,4.59115,79.882,36.4819,216.55,1.18553,-0.307105,233.679,3.42175,3.37116,-23.256530761718803,22.0009689331055,-21.5988864898682,22.0,-708923.0,11936.6,pp-riro,4,0,-1,-1
1570532585.9,2019-10-08,13:03:05.900,14.0,9.0,17.3400001525879,2.9,24.3,10.8,7.7,-31.9,89.3,3.33886,23.0528,10.7471,-14.7978,3.59686,-0.322584,10.4524,-22.6107,88.1042,0.279471,0.247646,0.824766,261.6,7.6,52.1701,4.427219999999999,-0.4,-0.574029,152.815,4.59117,82.2477,36.8619,215.45,1.17458,-0.300097,233.543,3.49254,3.41787,-22.5072555541992,22.0009689331055,-21.0187911987305,22.0,-707759.0,5845.25,pp-riro,4,0,-1,-1
1570532586.0,2019-10-08,13:03:06.000,14.0,9.0,17.2900009155273,1.6,24.4,10.5,6.3,-31.0,94.0,3.33886,23.0528,10.7471,-14.7978,3.59686,-0.322584,10.4524,-22.6107,88.1042,0.279471,0.247646,0.824766,261.6,7.6,52.1701,4.427219999999999,-0.4,-0.452131,151.903,4.59121,84.6719,37.242,214.35,1.1634,-0.293174,233.457,3.5586300000000004,3.46119,-22.1590728759766,22.0009689331055,-20.5315399169922,22.0,-707539.0,4183.97,pp-riro,4,0,-1,-1
1570532586.1,2019-10-08,13:03:06.100,14.0,9.0,17.3400001525879,0.4,24.5,10.3,4.7,-30.0,98.6,2.06927,23.1706,10.4908,-13.478,1.07851,0.363748,8.99103,-22.1779,92.6678,-0.0446315,0.278129,0.583174,261.6,7.6,52.1701,4.427219999999999,-0.4,-0.1983619999999999,152.477,4.59126,87.1253,37.242,213.35,1.15285,-0.2827949999999999,233.444,3.62121,3.49752,-21.5309753417969,22.0009689331055,-20.087335586547898,22.0,-707306.0,1815.1,pp-riro,4,0,-1,-1
1570532586.2,2019-10-08,13:03:06.200,14.0,8.0,17.3400001525879,-0.7,24.4,10.3,3.5,-29.1,102.9,-0.266522,23.254,10.0955,-17.9477,1.68904,-3.14766,6.23778,-20.5815,101.41,-0.177547,0.180466,0.6540779999999999,261.6,7.6,52.1701,4.427219999999999,-0.4,0.1678869999999999,154.355,4.59131,89.5787,37.242,212.35,1.14226,-0.2729,233.461,3.67984,3.52917,-20.810714721679695,22.0009689331055,-19.7630176544189,22.0,-707381.0,-1784.34,pp-riro,4,0,-1,-1
1570532586.3,2019-10-08,13:03:06.300,14.0,9.0,17.3299999237061,-1.8,24.3,10.1,1.7,-28.4,107.6,-0.741308,23.201,9.96152,-14.7189,-0.71339,-3.20559,5.4461,-20.0223,103.702,0.0881441,0.183895,0.6405890000000001,261.6,7.6,52.1701,4.427219999999999,-0.4,0.279812,153.156,4.59135,92.0905,37.2421,211.25,1.13125,-0.263239,233.44,3.74406,3.56258,-20.319168090820305,22.0009689331055,-19.4444389343262,22.0,-707526.0,-2922.63,pp-riro,4,0,-1,-1
1570532586.4,2019-10-08,13:03:06.400,14.0,9.0,17.2800006866455,-2.8,24.0,9.7,0.1,-27.8,111.9,-1.19816,23.1017,9.84777,-10.0162,-2.79885,-0.715917,4.55029,-19.5811,105.914,0.14035,0.189941,0.744065,261.6,7.6,52.1701,4.427219999999999,-0.4,0.270946,150.609,4.5914,94.4855,36.8621,210.25,1.12134,-0.250958,233.43400000000003,3.7998,3.59196,-19.8924713134766,22.0009689331055,-19.1061229705811,22.0,-707350.0,2491.92,pp-riro,4,0,-1,-1
1570532586.5,2019-10-08,13:03:06.500,14.0,9.0,17.2800006866455,-3.8,23.8,9.7,-1.1,-26.4,115.7,-2.69804,22.8194,9.39066,-12.0703,-5.79028,2.15763,2.23172,-18.8562,112.072,-0.181477,0.23312,0.516528,261.6,7.6,52.1701,4.427219999999999,-0.1,0.248783,164.259,4.59144,96.8805,36.8621,209.25,1.11086,-0.242607,233.517,3.856030000000001,3.62251,-19.5579452514648,22.0009689331055,-18.8747539520264,22.0,-707383.0,-1322.87,pp-riro,4,0,-1,-1
1570532586.6,2019-10-08,13:03:06.600,14.0,10.0,17.229999542236303,-4.9,23.6,9.9,-2.8,-25.2,119.9,-3.68414,22.6907,9.45301,-8.89458,-3.81866,4.77516,0.768131,-17.6986,115.969,-0.0574595,0.342185,0.600983,261.6,7.6,52.1701,4.427219999999999,-0.1,0.3180429999999999,186.264,4.59149,99.3047,36.4822,208.15,1.10056,-0.231146,233.493,3.91506,3.65243,-19.182449340820305,22.0009689331055,-18.5947723388672,22.0,-707360.0,953.699,pp-riro,4,0,-1,-1
1570532586.7,2019-10-08,13:03:06.700,14.0,10.0,17.229999542236303,-6.0,23.1,9.9,-4.4,-24.3,123.9,-4.71622,22.3914,9.5087,-8.56056,-4.012580000000001,-2.26569,-1.05419,-16.7202,119.977,-0.0820299,0.198978,0.688963,261.6,7.6,52.1701,4.427219999999999,-0.1,0.3174889999999999,185.269,4.5915300000000006,101.67,35.7222,207.15,1.0911,-0.217001,233.504,3.9674,3.68317,-18.8923034667969,22.0009689331055,-18.212232589721697,22.0,-707342.0,338.409,pp-riro,4,0,-1,-1
1570532586.8,2019-10-08,13:03:06.800,14.0,10.0,17.3299999237061,-7.1,22.9,9.6,-6.3,-23.4,127.6,-5.81942,22.0508,9.34742,-6.59594,-1.49051,-5.02693,-2.90627,-16.4369,123.917,-0.305434,0.0690149999999999,0.7362489999999999,261.6,7.6,52.1701,4.427219999999999,-0.1,0.32303,187.167,4.59158,103.949,35.3422,206.05,1.08122,-0.206903,233.476,4.0189,3.71904,-18.620925903320305,22.0009689331055,-17.8523216247559,22.0,-707296.0,615.29,pp-riro,4,0,-1,-1
1570532586.9,2019-10-08,13:03:06.900,14.0,11.0,17.4300003051758,-8.2,22.5,9.6,-7.7,-22.1,131.1,-7.43192,21.6141,9.04487,-8.77632,-1.95778,-1.0153,-5.70135,-14.8652,129.183,-0.179018,-0.027787,0.520749,262.5,7.7,52.1701,4.427219999999999,-0.1,0.331341,198.02,4.59163,106.227,34.5822,205.05,1.07194,-0.193943,233.507,4.06812,3.75094,-18.2812805175781,22.0009689331055,-17.4954681396484,22.0,-707269.0,92.2935,pp-riro,4,0,-1,-1
1570532587.0,2019-10-08,13:03:07.000,14.0,10.0,17.6299991607666,-9.3,22.0,9.6,-9.5,-21.4,134.7,-7.99705,21.4213,9.05196,-8.747630000000001,-3.9242,2.61728,-6.898789999999999,-14.4092,130.972,-0.139674,0.0746411,0.676547,262.5,7.7,52.1701,4.427219999999999,-0.1,0.360154,209.217,4.59168,108.476,33.4422,203.95,1.06292,-0.17831,233.412,4.11246,3.78152,-17.924560546875,22.0009689331055,-17.1154918670654,22.0,-707254.0,307.645,pp-riro,4,0,-1,-1
1570532587.1,2019-10-08,13:03:07.100,14.0,11.0,17.7800006866455,-10.3,21.4,9.4,-11.3,-20.3,138.2,-8.518139999999999,21.153,9.08141,-10.909,-5.59192,-3.40122,-7.9275,-14.1001,132.708,-0.3165699999999999,-0.0580884,0.589167,262.5,7.7,52.1701,4.427219999999999,-0.1,0.378438,220.908,4.59173,110.637,32.6823,202.85,1.0537,-0.166571,233.36,4.16172,3.81573,-17.5029907226562,22.0009689331055,-16.7715911865234,22.0,-707179.0,430.703,pp-riro,4,0,-1,-1
1570532587.2,2019-10-08,13:03:07.200,14.0,11.0,17.9300003051758,-11.2,20.8,9.2,-12.8,-19.2,141.4,-9.54876,20.5741,8.8583,-13.0454,-5.86423,-5.49328,-9.99223,-13.7676,136.12,-0.202096,-0.114777,0.538881,262.5,7.7,52.1701,4.427219999999999,-0.1,0.391182,226.028,4.59178,112.769,31.5423,201.85,1.04512,-0.152126,233.357,4.20458,3.84474,-16.997779846191403,22.0009689331055,-16.459793090820302,22.0,-707125.0,615.29,pp-riro,4,0,-1,-1
1570532587.3,2019-10-08,13:03:07.300,14.0,11.0,18.1200008392334,-12.1,20.1,9.2,-14.3,-17.9,144.3,-10.4692,19.9504,8.724310000000001,-6.70467,-2.32756,2.62986,-11.9692,-12.7674,139.2,-0.200945,0.201073,0.525099,262.5,7.7,52.1701,4.427219999999999,-0.1,0.392844,227.659,4.59186,114.785,30.0223,200.85,1.03723,-0.135237,233.276,4.24296,3.87102,-16.8202743530273,22.0009689331055,-16.1347541809082,22.0,-707088.0,738.3480000000001,pp-riro,4,0,-1,-1
1570532587.4,2019-10-08,13:03:07.400,14.0,11.0,18.1700000762939,-12.9,19.1,9.0,-15.8,-17.2,147.1,-11.345,19.2213,8.566460000000001,-8.50254,-9.81823,-0.304238,-13.3791,-11.5672,142.109,-0.298582,0.0805684,0.499774,262.5,7.7,52.1701,4.427219999999999,-0.1,0.395615,227.158,4.591880000000001,116.771,29.2623,199.75,1.02842,-0.125032,233.221,4.28049,3.90778,-16.543777465820302,22.0009689331055,-15.804406166076696,22.0,-707014.0,769.112,pp-riro,4,0,-1,-1
1570532587.5,2019-10-08,13:03:07.500,14.0,12.0,18.2199993133545,-13.7,18.5,8.6,-16.9,-16.2,149.6,-12.6411,17.986,8.219669999999999,-4.6003,-5.62309,-3.99317,-15.5634,-10.9248,146.433,-0.1592299999999999,-0.0198388,0.382535,262.5,7.7,52.1701,4.427219999999999,0.1,0.390074,224.512,4.5919300000000005,118.64,27.7423,198.75,1.02085,-0.109224,233.124,4.31177,3.93733,-16.2348480224609,22.0009689331055,-15.4580688476562,22.0,-706925.0,922.935,pp-riro,4,0,-1,-1
1570532587.6,2019-10-08,13:03:07.600,14.0,11.0,18.3099994659424,-14.5,18.1,8.3,-17.8,-14.9,151.6,-13.4324,17.4466,7.835719999999999,-8.12303,-6.69907,-2.14163,-16.9245,-10.0001,148.585,-0.180723,0.083381,0.5038779999999999,262.5,7.7,52.1701,4.427219999999999,0.1,0.388966,229.005,4.59198,120.568,26.2223,197.75,1.01295,-0.0937202999999999,233.087,4.33882,3.96235,-15.847412109375,22.0009689331055,-15.255681037902802,22.0,-706850.0,646.054,pp-riro,4,0,-1,-1
1570532587.7,2019-10-08,13:03:07.700,14.0,10.0,18.409999847412102,-15.2,17.3,8.3,-18.4,-14.1,154.3,-13.4324,17.4466,7.835719999999999,-8.12303,-6.69907,-2.14163,-16.9245,-10.0001,148.585,-0.180723,0.083381,0.5038779999999999,262.5,7.7,52.1701,4.427219999999999,0.1,0.427197,251.066,4.59203,122.32,24.7023,196.85,1.0058,-0.0788838999999999,233.072,4.37234,3.98767,-15.5231246948242,22.0009689331055,-15.031123161315902,22.0,-706798.0,338.409,pp-riro,4,0,-1,-1
1570532587.8,2019-10-08,13:03:07.800,14.0,10.0,18.5,-15.8,16.4,8.1,-19.1,-13.6,156.7,-13.4324,17.4466,7.835719999999999,-8.12303,-6.69907,-2.14163,-16.9245,-10.0001,148.585,-0.180723,0.083381,0.5038779999999999,262.5,7.7,52.1701,4.427219999999999,0.1,0.4404949999999999,256.064,4.59208,124.014,23.1823,195.85,0.998526,-0.0644658999999999,232.968,4.39912,4.01624,-15.261993408203098,22.0009689331055,-14.7837524414062,22.0,-706771.0,492.232,pp-riro,4,0,-1,-1
1570532587.9,2019-10-08,13:03:07.900,14.0,10.0,18.5499992370605,-16.5,15.7,7.8,-19.7,-12.5,158.8,-15.1807,15.5582,7.57708,-13.747,-8.935080000000001,-0.671519,-19.3991,-8.33313,154.88,-0.157722,0.0720392,0.339472,264.4,7.7,52.1701,4.427219999999999,0.1,0.445482,255.189,4.59215,125.621,21.6622,194.95,0.991697,-0.0504794,232.928,4.427569999999999,4.04645,-14.9701309204102,22.0009689331055,-14.5035228729248,22.0,-706606.0,1261.34,pp-riro,4,0,-1,-1
1570532588.0,2019-10-08,13:03:08.000,14.0,10.0,18.6900005340576,-17.0,15.0,7.7,-20.0,-11.8,161.0,-15.4409,15.1932,7.451739999999999,-5.46341,-6.5416,-2.13226,-19.6754,-7.934360000000001,156.013,-0.0697628999999999,0.124745,0.531946,264.4,7.7,52.1701,4.427219999999999,0.1,0.4404949999999999,252.931,4.59225,127.139,20.1422,194.051,0.985088,-0.0369309,232.864,4.45412,4.06781,-14.7311859130859,22.0009689331055,-14.4167966842651,22.0,-706541.0,1230.58,pp-riro,4,0,-1,-1
1570532588.1,2019-10-08,13:03:08.100,14.0,10.0,18.8299999237061,-17.3,14.2,7.4,-20.3,-11.3,163.3,-15.7631,14.8472,7.323860000000001,-2.66313,-5.88044,0.8873260000000001,-20.012,-7.47256,157.097,0.0197363,0.109145,0.452177,264.4,7.7,52.1701,4.427219999999999,0.1,0.435509,251.064,4.59238,128.571,18.2422,193.151,0.978893,-0.0208483,232.745,4.47814,4.088,-14.5127105712891,22.0009689331055,-14.3166065216064,22.0,-706441.0,922.935,pp-riro,4,0,-1,-1
1570532588.2,2019-10-08,13:03:08.200,14.0,8.0,18.9699993133545,-17.6,13.3,7.1,-20.5,-10.3,165.3,-16.301,13.5742,7.016210000000001,-3.58165,-4.4348,-6.46894,-20.6804,-6.78274,160.395,-0.0267315999999999,-0.288332,0.456577,264.4,7.7,52.1701,4.427219999999999,0.1,0.434401,251.056,4.59243,130.031,16.7222,192.251,0.9723,-0.00794085,232.697,4.505269999999999,4.11449,-14.3864135742188,22.0009689331055,-14.1950044631958,22.0,-706339.0,984.464,pp-riro,4,0,-1,-1
1570532588.3,2019-10-08,13:03:08.300,14.0,9.0,19.1100006103516,-17.8,12.5,6.8,-20.7,-9.5,167.3,-16.7508,12.398,6.5678600000000005,0.30705,-11.0308,-1.15629,-21.0084,-5.6596,163.502,-0.126049,0.0866582,0.45274,264.4,7.7,52.1701,4.427219999999999,0.1,0.435509,250.992,4.59253,131.287,14.4422,191.551,0.967136,0.0102975,232.672,4.5263,4.13242,-14.3454513549805,22.0009689331055,35.0,22.0,-706250.0,892.17,pp-riro,4,0,-1,-1
1570532588.4,2019-10-08,13:03:08.400,14.0,9.0,19.2000007629395,-17.9,11.8,6.6,-20.7,-8.7,169.5,-16.7508,12.398,6.5678600000000005,0.30705,-11.0308,-1.15629,-21.0084,-5.6596,163.502,-0.126049,0.0866582,0.45274,264.4,7.7,52.1701,4.427219999999999,0.1,0.52527,246.485,4.59262,132.484,12.9222,190.751,0.961523,0.0225848,232.605,4.55508,4.14878,-14.1952514648438,22.0009689331055,35.0,22.0,-706865.0,-13567.1,pp-riro,4,0,-1,-1
1570532588.5,2019-10-08,13:03:08.500,14.0,9.0,19.25,-17.8,11.1,6.0,-21.0,-7.6,171.7,-16.7508,12.398,6.5678600000000005,0.30705,-11.0308,-1.15629,-21.0084,-5.6596,163.502,-0.126049,0.0866582,0.45274,264.4,7.7,52.1701,4.427219999999999,0.4,1.11758,213.775,4.59272,133.653,11.0221,190.051,0.956298,0.0374388,232.602,4.58481,4.167590000000001,-13.9938583374023,22.0009689331055,35.0,22.0,-708526.0,10275.3,pp-riro,4,0,-1,-1
1570532588.6,2019-10-08,13:03:08.600,14.0,8.0,19.2000007629395,-17.4,10.8,5.3,-21.4,-6.3,173.6,-16.8779,10.6772,5.69851,3.05417,-3.80465,-4.89498,-21.4507,-3.73296,169.076,0.0567381,0.0429264,0.554006,264.4,7.7,52.1701,4.427219999999999,0.4,0.983496,193.782,4.59281,134.704,9.50211,189.451,0.951537,0.0492031,232.652,4.61493,4.1727,-13.4289093017578,22.0009689331055,35.0,22.0,-707410.0,21227.5,pp-riro,4,0,-1,-1
1570532588.7,2019-10-08,13:03:08.700,14.0,7.0,19.0599994659424,-17.2,10.1,5.2,-21.2,-5.1,175.4,-16.6843,10.4593,5.40825,6.24033,2.11478,-4.777019999999999,-21.3544,-3.43176,170.215,0.0197109,-0.119924,0.584819,264.4,7.7,52.1701,4.427219999999999,0.4,0.858828,185.338,4.5929,135.727,7.60208,188.851,0.946889,0.0635817,232.689,4.6406,4.18035,-12.5106658935547,22.0009689331055,35.0,22.0,-707615.0,-10890.6,pp-riro,4,0,-1,-1
1570532588.8,2019-10-08,13:03:08.800,14.0,8.0,18.7800006866455,-17.3,9.5,5.3,-21.4,-4.3,177.0,-16.359,9.67847,5.04421,0.730052,-9.90583,0.759633,-21.5149,-1.6742,172.955,0.0260922,0.0547208,0.344315,264.4,7.7,52.1701,4.427219999999999,0.4,1.01065,207.594,4.593,136.661,6.08206,188.351,0.942646,0.0749643,232.786,4.66187,4.19095,-11.2391204833984,22.0009689331055,35.0,22.0,-707776.0,4430.09,pp-riro,4,0,-1,-1
1570532588.9,2019-10-08,13:03:08.900,14.0,9.0,18.5400009155273,-17.1,9.2,5.0,-21.6,-3.4,178.4,-16.3867,9.0718,5.0660300000000005,2.71767,-6.59063,-2.71359,-21.4475,-0.850736,174.77200000000002,-0.155767,-0.0479671,0.265044,265.8,7.7,52.1701,4.427219999999999,0.4,0.934737,197.709,4.59304,137.567,3.80202,187.851,0.938526,0.0917151,232.867,4.67706,4.18979,-9.61426544189453,22.0009689331055,35.0,22.0,-707332.0,-1999.69,pp-riro,4,0,-1,-1
1570532589.0,2019-10-08,13:03:09.000,14.0,9.0,18.3500003814697,-17.1,8.9,4.8,-21.7,-3.1,179.5,-16.2461,8.79834,4.79373,-1.2513299999999998,-2.32721,0.714102,-21.7933,-0.562792,176.415,0.0692401999999999,-0.287485,0.285827,265.8,7.7,52.1701,4.427219999999999,0.4,0.956346,204.47,4.59304,138.414,2.282,187.351,0.934441,0.1028589999999999,232.946,4.68645,4.196359999999999,-7.62757873535156,22.0009689331055,35.0,22.0,-707137.0,3660.97,pp-riro,4,0,-1,-1
1570532589.1,2019-10-08,13:03:09.100,14.0,10.0,18.159999847412102,-17.3,8.5,4.9,-21.9,-2.2,-179.9,-16.5411,8.47949,4.58676,-5.04521,-7.713139999999999,-3.30096,-21.9377,-0.916209,177.80900000000003,-0.2504639999999999,0.02282,0.0568929999999999,265.8,7.7,52.1701,4.427219999999999,0.4,0.947481,210.33,4.59305,139.261,0.381965,186.851,0.930305,0.116601,233.039,4.69303,4.20171,-5.51459503173828,22.0009689331055,35.0,22.0,-707027.0,1968.93,pp-riro,4,0,-1,-1
1570532589.2,2019-10-08,13:03:09.200,14.0,10.0,18.0100002288818,-17.3,8.5,5.1,-22.5,-2.3,-179.4,-16.7852,8.3064,4.75666,-2.47485,-5.09966,1.70484,-22.3037,-0.804003,178.54,0.0991915,-0.115063,0.0110624,265.8,7.7,52.1701,4.427219999999999,0.4,0.989591,217.527,4.59305,140.049,-1.13806,186.351,0.926297,0.127469,233.113,4.69014,4.18778,-3.4118423461914102,22.0009689331055,35.0,22.0,-706996.0,1538.22,pp-riro,4,0,-1,-1
1570532589.3,2019-10-08,13:03:09.300,14.0,10.0,17.8600006103516,-17.3,8.5,5.3,-23.3,-2.2,-179.4,-16.884,8.219380000000001,4.87025,-0.0702005,3.13593,7.140569999999999,-22.7216,-1.08144,179.03400000000002,-0.158583,-0.135424,0.128573,265.8,7.7,52.1701,4.427219999999999,0.4,0.980172,215.712,4.59305,140.809,-3.03809,185.751,0.92205,0.140914,233.109,4.68034,4.171819999999999,-1.30568695068359,22.0009689331055,35.0,22.0,-706812.0,3691.74,pp-riro,4,0,-1,-1
1570532589.4,2019-10-08,13:03:09.400,14.0,10.0,17.7600002288818,-17.3,8.6,5.7,-24.2,-2.6,-179.5,-16.9551,8.29428,5.02295,-0.312473,1.10175,0.732892,-23.4019,-1.91345,179.565,-0.0754545,-0.035755,-0.0283095,265.8,7.7,52.1701,4.427219999999999,0.4,0.961333,208.588,4.59305,141.627,-4.55811,185.151,0.917562,0.151513,233.152,4.66619,4.14966,0.7987747192382809,22.0009689331055,35.0,22.0,-706525.0,1445.93,pp-riro,4,0,-1,-1
1570532589.5,2019-10-08,13:03:09.500,14.0,10.0,17.659999847412102,-17.2,8.7,6.2,-25.1,-3.3,-179.9,-17.0765,8.438180000000001,5.32749,-0.379123,1.2568,6.60462,-24.4303,-2.58277,179.641,-0.244801,-0.145263,0.0517971999999999,265.8,7.7,52.1701,4.427230000000001,0.7,0.959117,208.497,4.59305,142.415,-6.45814,184.551,0.913064,0.164655,233.202,4.64272,4.12058,2.90045166015625,22.0009689331055,35.0,22.0,-706428.0,1815.1,pp-riro,4,0,-1,-1
1570532589.6,2019-10-08,13:03:09.600,14.0,10.0,17.6100006103516,-16.8,9.0,6.8,-26.6,-4.6,179.2,-17.0765,8.438180000000001,5.32749,-0.379123,1.2568,6.60462,-24.4303,-2.58277,179.641,-0.244801,-0.145263,0.0517971999999999,265.8,7.7,52.1701,4.427230000000001,0.7,0.956346,202.412,4.59305,143.233,-7.978160000000001,183.851,0.908197,0.174981,233.197,4.6081900000000005,4.07683,5.010643005371089,22.0009689331055,35.0,22.0,-706274.0,1692.05,pp-riro,4,0,-1,-1
1570532589.7,2019-10-08,13:03:09.700,14.0,10.0,17.4599990844727,-16.5,9.5,7.3,-27.6,-6.0,177.8,-17.1956,8.76582,6.100219999999999,2.85423,-3.76581,2.66634,-25.7987,-4.40305,179.18900000000002,-0.194575,-0.124791,-0.17338,265.8,7.7,52.1701,4.427230000000001,0.7,0.935845,192.916,4.59305,144.109,-9.87819,183.051,0.902731,0.187776,233.18,4.56382,4.03003,7.119140625,22.0009689331055,35.0,22.0,-706025.0,2553.45,pp-riro,4,0,-1,-1
1570532589.8,2019-10-08,13:03:09.800,14.0,10.0,17.4099998474121,-16.2,10.1,7.9,-28.8,-7.2,176.0,-17.1956,8.76582,6.100219999999999,2.85423,-3.76581,2.66634,-25.7987,-4.40305,179.18900000000002,-0.194575,-0.124791,-0.17338,265.8,7.7,52.1701,4.427230000000001,0.7,0.923655,186.298,4.59305,145.015,-11.3982,182.351,0.897457,0.1977819999999999,233.262,4.51845,3.98075,9.22932434082031,22.0009689331055,35.0,22.0,-705811.0,1292.11,pp-riro,4,0,-1,-1
1570532589.9,2019-10-08,13:03:09.900,14.0,9.0,17.3099994659424,-15.8,10.6,8.7,-30.2,-9.4,173.9,-17.0313,8.970080000000001,6.43041,2.5815900000000003,3.92609,6.38472,-26.49,-5.46965,178.99599999999998,-0.307792,-0.349646,-0.287087,263.2,7.7,52.1701,4.427230000000001,0.7,0.921439,189.14,4.59304,145.97899999999998,-13.2982,181.451,0.891294,0.21018,233.262,4.456519999999999,3.9263,11.3310012817383,22.0009689331055,35.0,22.0,-705653.0,1415.17,pp-riro,4,0,-1,-1
1570532590.0,2019-10-08,13:03:10.000,14.0,9.0,17.2600002288818,-15.1,11.1,9.5,-30.7,-12.1,171.5,-16.8757,9.49625,6.94405,-0.426039,6.356380000000001,3.93904,-27.8177,-7.60352,178.058,-0.061263,-0.1511289999999999,-0.3678,263.2,7.7,52.1701,4.427230000000001,0.7,0.924763,192.586,4.59301,146.972,-14.4382,180.551,0.885214,0.217286,233.255,4.38956,3.86751,13.4394912719727,22.0009689331055,35.0,22.0,-705619.0,676.819,pp-riro,4,0,-1,-1
1570532590.1,2019-10-08,13:03:10.100,14.0,9.0,17.25,-14.4,12.0,10.2,-31.3,-14.7,167.9,-15.6526,11.7952,9.83545,7.31318,12.3473,8.65127,-31.3618,-17.0774,171.551,-0.4214859999999999,-0.0840908,-0.635155,263.2,7.7,52.1701,4.427230000000001,0.7,0.938061,193.472,4.59299,148.053,-15.9582,179.65099999999998,0.87869,0.226763,233.343,4.3061300000000005,3.79893,15.5513916015625,22.0009689331055,35.0,22.0,-705441.0,1907.4,pp-riro,4,0,-1,-1
1570532590.2,2019-10-08,13:03:10.200,14.0,9.0,17.2000007629395,-13.6,12.7,11.0,-31.6,-17.3,164.0,-15.6526,11.7952,9.83545,7.31318,12.3473,8.65127,-31.3618,-17.0774,171.551,-0.4214859999999999,-0.0840908,-0.635155,263.2,7.7,52.1701,4.427230000000001,0.7,0.92975,194.217,4.59296,149.25,-17.4782,178.65099999999998,0.8714709999999999,0.2359929999999999,233.447,4.21951,3.7322,17.6581802368164,22.0009689331055,35.0,22.0,-705272.0,1476.7,pp-riro,4,0,-1,-1
1570532590.3,2019-10-08,13:03:10.300,14.0,9.0,17.25,-12.5,13.6,12.0,-31.5,-20.4,159.7,-15.6526,11.7952,9.83545,7.31318,12.3473,8.65127,-31.3618,-17.0774,171.551,-0.4214859999999999,-0.0840908,-0.635155,263.2,7.7,52.1701,4.427230000000001,0.7,0.934737,197.698,4.59292,150.477,-18.6182,177.65099999999998,0.8642780000000001,0.2425469999999999,233.55900000000003,4.12533,3.65089,19.7751846313477,22.0009689331055,35.0,22.0,-705233.0,738.3480000000001,pp-riro,4,0,-1,-1
1570532590.4,2019-10-08,13:03:10.400,14.0,10.0,17.25,-11.3,14.4,12.9,-30.7,-23.7,154.7,-14.0906,13.6697,11.8008,8.20786,7.399939999999999,11.5625,-32.3473,-24.4067,164.67,-0.628671,-0.117265,-0.914044,263.2,7.7,52.1701,4.427230000000001,0.7,0.950805,206.416,4.5929,151.82,-19.7582,176.451,0.856136,0.248901,233.613,4.02134,3.5723300000000004,21.8853759765625,22.0009689331055,35.0,22.0,-705170.0,646.054,pp-riro,4,0,-1,-1
1570532590.5,2019-10-08,13:03:10.500,14.0,10.0,17.25,-9.9,15.3,13.8,-29.2,-27.1,148.9,-12.2656,15.2934,13.4944,12.0843,8.5505,12.8642,-31.8422,-30.3894,158.248,-0.3467659999999999,-0.140148,-0.976702,263.2,7.7,52.17,4.427230000000001,0.8,0.965766,211.955,4.59288,153.222,-20.8982,175.25099999999998,0.847793,0.255055,233.724,3.90779,3.4872,23.9955749511719,22.0009689331055,35.0,22.0,-705053.0,1568.99,pp-riro,4,0,-1,-1
1570532590.6,2019-10-08,13:03:10.600,14.0,10.0,17.25,-8.3,16.1,14.6,-27.0,-30.1,142.2,-10.8603,16.3594,14.5329,19.9747,8.20283,13.351,-30.9157,-34.5064,153.024,-0.583044,-0.0726725,-0.750159,263.2,7.7,52.17,4.427230000000001,0.8,0.977401,222.58,4.59285,154.71200000000002,-22.0382,174.051,0.8391649999999999,0.261022,233.913,3.78825,3.40014,26.1074676513672,22.0009689331055,35.0,22.0,-704868.0,707.5830000000001,pp-riro,4,0,-1,-1
1570532590.7,2019-10-08,13:03:10.700,14.0,11.0,17.25,-6.5,16.7,15.4,-24.1,-33.7,134.9,-10.0064,16.909000000000002,15.0994,20.6773,12.1154,12.6793,-30.2611,-36.7098,150.201,-0.3852239999999999,-0.279442,-0.85634,263.2,7.7,52.17,4.427230000000001,0.8,0.987375,227.365,4.59282,156.289,-22.4181,172.65099999999998,0.830031,0.262023,233.96,3.66293,3.31443,28.2091369628906,22.0009689331055,35.0,22.0,-704821.0,861.4060000000001,pp-riro,4,0,-1,-1
1570532590.8,2019-10-08,13:03:10.800,14.0,12.0,17.2999992370605,-5.4,17.1,15.8,-19.3,-36.9,126.2,-10.0064,16.909000000000002,15.0994,20.6773,12.1154,12.6793,-30.2611,-36.7098,150.201,-0.3852239999999999,-0.279442,-0.85634,263.2,7.7,52.17,4.427230000000001,0.8,1.004,235.057,4.59279,157.983,-23.1781,171.15099999999998,0.8200770000000001,0.265256,234.07,3.5248800000000005,3.2616,30.2205505371094,22.0009689331055,35.0,22.0,-704693.0,1507.46,pp-riro,4,0,-1,-1
1570532590.9,2019-10-08,13:03:10.900,14.0,11.0,17.2999992370605,-2.3,17.6,16.4,-13.8,-39.4,116.5,-4.924169999999999,19.0578,17.3067,20.4131,5.0233300000000005,3.72054,-22.3949,-47.8363,130.404,-0.531933,-0.189655,-1.35067,260.2,7.3,52.17,4.427230000000001,0.8,1.00954,238.537,4.59278,159.648,-23.9381,169.65099999999998,0.810217,0.268445,234.18400000000003,3.38262,3.12772,31.8743133544922,22.0009689331055,35.0,22.0,-704524.0,1876.63,pp-riro,4,0,-1,-1
1570532591.0,2019-10-08,13:03:11.000,14.0,11.0,17.25,0.0,17.8,16.9,-10.6,-40.4,105.6,-3.56811,19.2313,17.647000000000002,22.1066,-2.17715,4.48476,-19.3072,-49.7557,124.907,-0.417549,-0.0253394,-1.5349700000000002,260.2,7.3,52.17,4.427230000000001,0.8,1.01785,244.754,4.59279,160.553,-23.938,168.851,0.8050930000000001,0.267609,234.225,3.23627,3.03444,33.1823120117188,22.0009689331055,23.0044822692871,22.0,-704374.0,1292.11,pp-riro,4,0,-1,-1
1570532591.1,2019-10-08,13:03:11.100,14.0,12.0,17.3500003814697,2.4,17.8,17.1,-0.5,-42.3,94.6,0.308482,19.7743,18.3095,22.5314,4.4977800000000006,4.63766,-8.6947,-53.8052,106.635,-0.92725,-0.0075136,-1.61385,260.2,7.3,52.17,4.427230000000001,0.8,1.0317,251.364,4.5928,163.211,-23.9379,166.451,0.789907,0.265221,234.344,3.09324,2.94033,34.1258544921875,22.0009689331055,23.0044822692871,22.0,-704091.0,2245.81,pp-ro,1,1,-1,-1
1570532591.2,2019-10-08,13:03:11.200,14.0,13.0,17.4500007629395,3.8,17.8,17.1,2.7,-42.3,88.9,0.308482,19.7743,18.3095,22.5314,4.4977800000000006,4.63766,-8.6947,-53.8052,106.635,-0.92725,-0.0075136,-1.61385,260.2,7.3,52.17,4.427230000000001,0.8,1.03281,252.813,4.5928,164.993,-23.1779,165.65099999999998,0.782505,0.259153,234.947,3.02428,2.88909,34.718551635742195,22.0009689331055,23.0044822692871,22.0,-704001.0,1692.05,pp-ro,1,1,-1,-1
1570532591.3,2019-10-08,13:03:11.300,14.0,13.0,17.5900001525879,6.2,17.6,17.0,9.6,-41.6,78.3,4.70962,19.8891,18.3844,21.1392,-4.09848,2.3364700000000003,4.51525,-54.8856,86.0303,-0.368008,-0.0337441,-1.10434,260.2,7.3,52.17,4.427230000000001,0.8,1.045,259.6,4.59281,165.84,-23.1778,164.051,0.775142,0.258441,234.42,2.88713,2.79493,34.957000732421896,22.0009689331055,23.0044822692871,22.0,-703830.0,1938.16,pp-ro,1,1,-1,-1
1570532591.4,2019-10-08,13:03:11.400,14.0,13.0,17.6900005340576,9.6,16.5,16.2,20.1,-39.2,61.9,6.228219999999999,19.7099,18.2839,18.1983,3.17294,-3.50334,9.18701,-54.7456,78.6304,-0.464358,-0.335367,-1.53813,260.2,7.3,52.17,4.427230000000001,0.8,1.06162,267.504,4.59282,168.41,-22.0377,161.651,0.760684,0.24969,234.475,2.67402,2.65715,34.900787353515604,22.0009689331055,23.0044822692871,22.0,-703594.0,1722.81,pp-ro,1,1,-1,-1
1570532591.5,2019-10-08,13:03:11.500,14.0,13.0,17.840000152587898,10.7,16.1,15.8,23.1,-37.7,56.6,8.954089999999999,19.179,17.8376,32.1948,-6.6211,-7.735180000000001,17.9627,-52.8577,65.0138,-0.341881,-0.166099,-1.47153,260.2,7.3,52.17,4.42724,0.9,1.0610700000000002,262.499,4.59283,169.22799999999998,-21.6577,160.851,0.755972,0.246852,234.479,2.59947,2.60991,34.4205017089844,22.0009689331055,23.0044822692871,22.0,-703341.0,2799.57,pp-ro,1,1,-1,-1
1570532591.6,2019-10-08,13:03:11.600,14.0,13.0,17.9400005340576,12.4,15.3,14.9,28.2,-34.6,47.4,11.3671,18.3116,17.0839,16.0468,-5.02719,-8.10213,26.2048,-49.8719,52.1553,-0.554153,-0.0412218,-1.57769,260.2,7.3,52.17,4.42724,0.9,1.05331,258.318,4.59284,170.805,-20.5176,159.351,0.74715,0.239107,234.495,2.46587,2.53213,33.5757446289062,22.0009689331055,23.0044822692871,22.0,-703158.0,3414.86,pp-ro,1,1,-1,-1
1570532591.7,2019-10-08,13:03:11.700,14.0,13.0,18.1299991607666,14.1,14.4,13.8,32.9,-30.4,38.6,14.6488,16.9791,15.3687,23.7705,-13.0556,-16.9661,34.2585,-43.0827,36.6069,-0.405223,0.1429119999999999,-1.50367,260.2,7.3,52.17,4.42724,0.9,1.03558,257.072,4.59284,172.35299999999998,-18.9975,157.952,0.738819,0.229331,234.553,2.32478,2.44919,32.3801422119141,22.0009689331055,22.3519668579102,22.0,-702920.0,1753.58,pp-ro,1,1,-1,-1
1570532591.8,2019-10-08,13:03:11.800,14.0,12.0,18.2199993133545,15.4,13.2,12.6,36.4,-26.3,31.4,16.3747,15.6429,13.9097,18.6833,-14.9819,-17.4151,37.8856,-37.7539,28.1643,-0.120127,0.0394541999999999,-1.27872,260.2,7.3,52.17,4.42724,0.9,1.05719,267.335,4.59285,173.725,-17.8574,156.852,0.7317859999999999,0.221973,234.738,2.19919,2.36884,30.8217620849609,22.0009689331055,20.9816761016846,22.0,-702814.0,1230.58,pp-ro,1,1,-1,-1
1570532591.9,2019-10-08,13:03:11.900,14.0,12.0,18.3700008392334,16.7,12.1,11.4,39.0,-21.7,24.8,16.3747,15.6429,13.9097,18.6833,-14.9819,-17.4151,37.8856,-37.7539,28.1643,-0.120127,0.0394541999999999,-1.27872,263.4,7.1,52.17,4.42724,0.9,1.0610700000000002,264.889,4.592980000000001,175.04,-16.7173,155.752,0.724901,0.214751,234.898,2.07248,2.2869,28.915954589843803,22.0009689331055,19.5802268981934,22.0,-702428.0,3291.8,pp-ro,1,1,-1,-1
1570532592.0,2019-10-08,13:03:12.000,14.0,13.0,18.5100002288818,17.7,11.0,9.9,40.8,-16.9,18.9,17.1506,14.9255,13.325,15.968,-9.67656,-11.4033,39.4787,-34.909,24.1977,-0.295655,-0.0149311,-1.40973,263.4,7.1,52.17,4.42724,0.9,1.05386,262.434,4.59304,176.295,-14.4372,154.752,0.718755,0.201059,235.025,1.95365,2.20786,26.810867309570305,22.0009689331055,18.1829605102539,22.0,-702288.0,2707.28,pp-ro,1,1,-1,-1
1570532592.1,2019-10-08,13:03:12.100,14.0,13.0,18.6000003814697,18.7,9.9,8.5,42.4,-12.2,14.2,17.1506,14.9255,13.325,15.968,-9.67656,-11.4033,39.4787,-34.909,24.1977,-0.295655,-0.0149311,-1.40973,263.4,7.1,52.17,4.42724,0.9,1.05608,268.012,4.59316,177.405,-12.5371,154.05200000000002,0.713824,0.189839,235.291,1.84689,2.1269,24.7228164672852,22.0009689331055,16.719501495361303,22.0,-702083.0,1845.87,pp-ro,1,1,-1,-1
1570532592.2,2019-10-08,13:03:12.200,14.0,13.0,18.6499996185303,19.5,8.6,7.3,43.7,-8.0,9.6,17.1506,14.9255,13.325,15.968,-9.67656,-11.4033,39.4787,-34.909,24.1977,-0.295655,-0.0149311,-1.40973,263.4,7.1,52.17,4.42724,0.9,1.07492,281.42400000000004,4.5932900000000005,178.36900000000003,-11.0171,153.352,0.709183,0.18085,235.486,1.74545,2.04836,22.702880859375,22.0009689331055,15.3094091415405,22.0,-701964.0,892.17,pp-ro,1,1,-1,-1
1570532592.3,2019-10-08,13:03:12.300,14.0,13.0,18.6499996185303,20.0,7.6,5.9,44.3,-4.1,5.6,19.6775,12.2223,9.92552,5.491219999999999,-8.94667,-20.3464,42.4678,-24.0597,12.3145,-0.3038639999999999,0.271092,-1.18703,263.4,7.1,52.17,4.42724,0.9,1.10096,285.621,4.59341,179.303,-8.73697,152.752,0.70502,0.167728,235.71,1.65705,1.97827,21.732101440429695,22.0009689331055,14.0417737960815,22.0,-701781.0,2645.75,pp-ro,1,1,-1,-1
1570532592.4,2019-10-08,13:03:12.400,14.0,12.0,18.7399997711182,20.5,6.6,4.6,45.5,-0.6,2.1,19.6775,12.2223,9.92552,5.491219999999999,-8.94667,-20.3464,42.4678,-24.0597,12.3145,-0.3038639999999999,0.271092,-1.18703,263.4,7.1,52.17,4.42724,0.9,1.08933,284.918,4.59354,180.092,-7.2169,152.252,0.7014279999999999,0.158968,235.936,1.5766,1.90654,19.8552322387695,22.0009689331055,12.7383213043213,22.0,-701421.0,3322.56,pp-ro,1,1,-1,-1
1570532592.5,2019-10-08,13:03:12.500,14.0,11.0,18.7399997711182,21.0,5.6,3.6,46.3,2.6,-1.4,21.6442,8.76435,6.28612,5.666980000000001,-8.28501,-14.6793,43.9309,-11.2661,1.50563,-0.000581818,0.278427,-0.8870540000000001,263.4,7.1,52.17,4.42724,0.9,1.09764,293.839,4.59366,180.822,-4.93682,151.852,0.69835,0.146026,236.178,1.50279,1.84676,17.6581802368164,22.0009689331055,11.6483545303345,22.0,-701278.0,799.877,pp-ro,1,1,-1,-1
1570532592.6,2019-10-08,13:03:12.600,14.0,11.0,18.9200000762939,21.2,4.6,2.4,47.1,5.5,-4.8,22.6121,5.89306,3.1437,12.7566,-2.68033,-10.0328,45.4476,-0.8479530000000001,-7.13475,0.0630534,0.0536793999999999,-0.634979,263.4,7.1,52.17,4.42724,0.9,1.12202,297.135,4.593780000000001,181.465,-3.03675,151.55200000000002,0.695746,0.135402,236.446,1.43276,1.78207,16.0401916503906,22.0009689331055,10.4521675109863,22.0,-701064.0,2830.33,pp-ro,1,1,-1,-1
1570532592.7,2019-10-08,13:03:12.700,14.0,11.0,18.9200000762939,21.3,3.7,1.2,48.2,8.6,-7.8,22.709,4.32334,1.09763,-2.78943,-15.4889,-7.73738,45.9577,4.61002,-11.0084,-0.0514504999999999,0.251481,-0.843297,263.4,7.1,52.17,4.42724,0.9,1.10706,296.719,4.59391,182.019,-0.75668,151.252,0.693335,0.1227029999999999,236.662,1.36598,1.72123,14.0815811157227,22.0009689331055,9.32851123809814,22.0,-700710.0,3322.56,pp-ro,1,1,-1,-1
1570532592.8,2019-10-08,13:03:12.800,14.0,11.0,18.9200000762939,21.3,2.7,0.4,49.0,11.0,-10.9,22.7655,3.24132,0.160547,-2.7474,-14.1217,-6.990410000000001,46.9256,7.709510000000001,-14.0426,0.104797,0.174939,-0.6657529999999999,263.4,7.1,52.17,4.42724,0.9,1.12479,311.704,4.59403,182.428,1.9034,151.15200000000002,0.6918850000000001,0.107927,236.919,1.30885,1.67257,12.5828170776367,22.0009689331055,8.410463333129881,22.0,-700558.0,1045.99,pp-ro,1,1,-1,-1
1570532592.9,2019-10-08,13:03:12.900,14.0,11.0,18.9200000762939,21.2,1.8,-0.4,49.9,13.2,-13.3,22.6092,2.79062,-0.236425,4.55464,-4.58499,-11.1028,47.2196,9.29218,-15.227,0.417063,0.0199915,-0.550765,263.6,7.0,52.17,4.42724,0.9,1.16468,328.37800000000004,4.594130000000001,182.749,3.80345,151.05200000000002,0.690616,0.0974886,237.125,1.25967,1.62364,11.1760177612305,22.0009689331055,7.4885115623474094,22.0,-700396.0,2338.1,pp-ro,1,1,-1,-1
1570532593.0,2019-10-08,13:03:13.000,14.0,11.0,18.9200000762939,21.3,0.7,-1.2,50.7,15.1,-15.6,22.6092,2.79062,-0.236425,4.55464,-4.58499,-11.1028,47.2196,9.29218,-15.227,0.417063,0.0199915,-0.550765,263.6,7.0,52.17,4.42724,0.9,1.18906,340.13699999999994,4.59421,182.925,6.08351,150.952,0.689656,0.0849308,237.24400000000003,1.2170299999999998,1.56938,10.5220108032227,22.0025119781494,6.45067501068115,22.0,-700000.0,2645.75,pp-ro,1,1,-1,-1
1570532593.1,2019-10-08,13:03:13.100,14.0,11.0,19.1100006103516,21.1,-0.1,-1.8,51.5,16.4,-17.6,22.5438,1.92591,-1.1855,1.7894599999999998,-14.6938,-8.50891,47.9463,12.219,-17.1678,0.163657,-0.00741701,-0.58043,263.6,7.0,52.17,4.42724,0.9,1.19349,344.473,4.5943,183.071,7.983560000000001,151.05200000000002,0.689395,0.0745534,237.477,1.18437,1.52966,9.30255889892578,22.0025119781494,5.67364692687988,22.0,-699815.0,3568.68,pp-ro,1,1,-1,-1
1570532593.2,2019-10-08,13:03:13.200,14.0,11.0,19.3299999237061,21.1,-0.9,-2.5,51.9,17.6,-19.4,22.1984,0.11864,-2.66364,-5.46575,-7.74362,-19.1218,49.062,16.2899,-20.4975,0.203547,-0.0540010999999999,-0.0625891,263.6,7.0,52.17,4.42724,0.9,1.20402,356.29900000000004,4.59438,183.07,10.2636,151.15200000000002,0.689416,0.0620488,237.628,1.15665,1.48815,7.899169921875,22.0025119781494,4.85170125961304,22.0,-699565.0,1784.34,pp-ro,1,1,-1,-1
1570532593.3,2019-10-08,13:03:13.300,14.0,11.0,19.6100006103516,20.9,-1.7,-2.9,52.3,18.3,-21.2,22.1298,-0.294112,-2.94129,-3.25171,-9.79273,-6.77284,49.4079,17.1026,-21.2558,0.223955,-0.00717185,-0.355907,263.6,7.0,52.17,4.42724,0.9,1.2356,364.383,4.59446,183.012,12.1637,151.352,0.68991,0.0516062,237.8,1.13411,1.45521,6.85173797607422,22.0025119781494,4.17834091186523,22.0,-699272.0,3907.09,pp-ro,1,1,-1,-1
1570532593.4,2019-10-08,13:03:13.400,14.0,11.0,19.8700008392334,20.8,-2.3,-3.4,52.6,19.0,-22.5,22.0418,-1.4603700000000002,-3.63016,-1.12382,-4.16887,-12.5575,49.8003,18.8073,-23.4846,0.0992497,-0.097494,-0.166792,263.6,7.0,52.17,4.42724,0.9,1.22895,368.524,4.5945800000000006,182.837,14.4437,151.55200000000002,0.690584,0.0390561999999999,237.92,1.11855,1.42656,5.53861999511719,22.0025119781494,3.58643484115601,22.0,-698860.0,3445.62,pp-ro,1,1,-1,-1
1570532593.5,2019-10-08,13:03:13.500,14.0,11.0,20.1399993896484,20.6,-3.1,-3.7,52.7,19.4,-24.1,22.0418,-1.4603700000000002,-3.63016,-1.12382,-4.16887,-12.5575,49.8003,18.8073,-23.4846,0.0992497,-0.097494,-0.166792,263.6,7.0,52.17,4.42724,1.0,1.24724,370.246,4.59462,182.603,16.7238,151.852,0.691661,0.0264387,238.081,1.10348,1.39844,4.65809631347656,22.0025119781494,2.986088514328,22.0,-698576.0,3445.62,pp-ro,1,1,-1,-1
1570532593.6,2019-10-08,13:03:13.600,14.0,11.0,20.3500003814697,20.4,-3.4,-4.0,52.7,19.7,-25.3,21.9064,-1.7713599999999998,-3.78216,-3.67862,-6.03131,2.27923,49.9083,19.462,-24.1994,0.0271772,0.1121289999999999,-0.3650469999999999,263.6,7.0,52.17,4.42724,1.0,1.2345,366.952,4.5947,182.311,18.6238,152.15200000000002,0.692919,0.0159264,238.19,1.09287,1.3834,4.264671325683589,22.0025119781494,2.63405871391296,22.0,-698051.0,5322.26,pp-ro,1,1,-1,-1
1570532593.7,2019-10-08,13:03:13.700,14.0,11.0,20.5300006866455,20.2,-3.8,-4.0,52.5,20.0,-26.4,21.5429,-2.69776,-4.14865,6.57485,-1.92235,-2.76575,49.7561,20.2309,-26.024,-0.0699953,-0.0439218,-0.138475,263.6,7.0,52.17,4.42724,1.0,1.22951,358.69199999999995,4.59478,181.989,20.9038,152.452,0.6940850000000001,0.00328406,238.325,1.08474,1.37741,3.5527496337890603,22.0025119781494,2.47499942779541,22.0,-697455.0,4676.2,pp-ro,1,1,-1,-1
1570532593.8,2019-10-08,13:03:13.800,14.0,11.0,20.6499996185303,20.0,-4.1,-4.2,52.5,20.1,-27.5,21.2861,-3.32752,-4.31145,0.118376,-2.82327,1.15157,49.6625,20.9534,-27.3363,-0.0405851,-0.110694,-0.240767,263.6,7.0,52.17,4.42724,1.0,1.21787,356.82800000000003,4.594869999999999,181.639,22.8039,152.752,0.695377,-0.00732741,238.424,1.07781,1.3656700000000002,2.9839019775390603,22.0025119781494,2.18937015533447,22.0,-697186.0,5106.9,pp-ro,1,1,-1,-1
1570532593.9,2019-10-08,13:03:13.900,14.0,11.0,20.7800006866455,19.8,-4.4,-4.2,52.3,20.1,-28.0,21.2861,-3.32752,-4.31145,0.118376,-2.82327,1.15157,49.6625,20.9534,-27.3363,-0.0405851,-0.110694,-0.240767,264.9,7.0,52.17,4.42724,1.0,1.21233,353.24800000000005,4.59494,181.172,25.0839,153.15200000000002,0.697108,-0.0201114,238.554,1.08035,1.36241,2.5342788696289102,22.0025119781494,2.05270290374756,22.0,-696869.0,2645.75,pp-ro,1,1,-1,-1
1570532594.0,2019-10-08,13:03:14.000,14.0,11.0,20.909999847412102,19.7,-4.6,-4.4,51.9,20.1,-29.0,21.2861,-3.32752,-4.31145,0.118376,-2.82327,1.15157,49.6625,20.9534,-27.3363,-0.0405851,-0.110694,-0.240767,264.9,7.0,52.17,4.42724,1.0,1.21012,350.466,4.59497,180.704,27.3639,153.452,0.698437,-0.0328445999999999,238.643,1.07722,1.35609,2.26177215576172,22.0025119781494,1.88235664367676,22.0,-696419.0,5168.43,pp-ro,1,1,-1,-1
1570532594.1,2019-10-08,13:03:14.100,14.0,11.0,20.9500007629395,19.5,-4.8,-4.4,52.3,19.8,-29.3,20.9265,-4.08221,-4.25957,-4.76842,-7.76957,-6.760739999999999,49.1514,21.1692,-29.0964,-0.208803,-0.187874,-0.0179976,264.9,7.0,52.17,4.42724,1.0,1.2079,350.395,4.59501,180.237,28.884,153.753,0.700013,-0.0415005,238.662,1.08315,1.35293,1.9518051147460904,22.0019989013672,1.74362289905548,22.0,-695906.0,2830.33,pp-ro,1,1,-1,-1
1570532594.2,2019-10-08,13:03:14.200,14.0,10.0,20.9500007629395,19.5,-5.1,-4.4,51.8,20.0,-29.9,20.6538,-4.502330000000001,-4.43307,-4.3519,-6.26641,-1.28071,49.0312,21.0577,-29.7624,0.240637,0.0719581,-0.0492091,264.9,7.0,52.17,4.42724,1.0,1.21122,353.026,4.59504,179.71099999999998,31.164,154.153,0.701681,-0.0543398,238.81,1.08213,1.35259,1.7678604125976598,22.0025119781494,1.67125189304352,22.0,-695681.0,4153.21,pp-ro,1,1,-1,-1
1570532594.3,2019-10-08,13:03:14.300,14.0,11.0,21.0300006866455,19.5,-5.3,-4.3,52.0,20.0,-30.5,20.6538,-4.502330000000001,-4.43307,-4.3519,-6.26641,-1.28071,49.0312,21.0577,-29.7624,0.240637,0.0719581,-0.0492091,264.9,7.0,52.17,4.42724,1.0,1.21178,358.291,4.5951,179.15599999999998,33.064,154.453,0.703213,-0.065176,238.842,1.08231,1.3575,1.68951416015625,22.0025119781494,1.70545375347137,22.0,-695353.0,2553.45,pp-ro,1,1,-1,-1
1570532594.4,2019-10-08,13:03:14.400,14.0,11.0,21.1200008392334,19.4,-5.5,-4.3,52.0,19.8,-31.1,20.605,-5.0951900000000006,-4.17354,0.966952,-2.02735,4.13572,48.7527,21.0834,-31.0143,0.1205089999999999,0.00143762,-0.0646489,264.9,7.0,52.17,4.42724,1.0,1.23006,358.80400000000003,4.59512,178.601,35.3441,154.85299999999998,0.704806,-0.0780988,239.012,1.08635,1.35855,1.68781280517578,22.0025119781494,1.66864895820618,22.0,-695069.0,3784.03,pp-ro,1,1,-1,-1
1570532594.5,2019-10-08,13:03:14.500,14.0,12.0,21.2000007629395,19.5,-5.7,-4.1,52.1,19.9,-31.7,20.605,-5.0951900000000006,-4.17354,0.966952,-2.02735,4.13572,48.7527,21.0834,-31.0143,0.1205089999999999,0.00143762,-0.0646489,264.9,7.0,52.1701,4.42724,1.1,1.21289,358.648,4.59516,178.017,36.8641,155.153,0.706496,-0.0869496999999999,239.001,1.08398,1.36748,1.6963272094726598,22.0025119781494,1.7598950862884502,22.0,-694602.0,3968.62,pp-ro,1,1,-1,-1
1570532594.6,2019-10-08,13:03:14.600,14.0,10.0,21.2900009155273,19.3,-5.9,-4.1,52.1,19.6,-32.5,20.5623,-5.36864,-4.0844,-4.81924,-2.92942,-4.209630000000001,48.6455,20.9645,-31.679,-0.0239155,-0.0624095,-0.0236697,264.9,7.0,52.1701,4.42724,1.1,1.23006,360.108,4.5952,177.403,39.1441,155.453,0.707785,-0.099983,239.102,1.08704,1.36702,1.67418670654297,22.0025119781494,1.72026991844177,22.0,-694102.0,4583.91,pp-ro,1,1,-1,-1
1570532594.7,2019-10-08,13:03:14.700,14.0,12.0,21.3299999237061,19.3,-6.1,-4.1,52.1,19.6,-33.1,20.5623,-5.36864,-4.0844,-4.81924,-2.92942,-4.209630000000001,48.6455,20.9645,-31.679,-0.0239155,-0.0624095,-0.0236697,264.9,7.0,52.1701,4.42724,1.1,1.21621,359.952,4.59524,176.761,40.6641,155.85299999999998,0.709852,-0.10895,239.14,1.08598,1.36727,1.74060821533203,22.0019989013672,1.60349881649017,22.0,-693668.0,3168.74,pp-ro,1,1,-1,-1
1570532594.8,2019-10-08,13:03:14.800,14.0,12.0,21.4500007629395,19.4,-6.4,-4.1,52.2,19.6,-33.7,20.5126,-6.27221,-3.83546,0.723697,-2.24464,7.776260000000001,48.9538,20.728,-33.9909,-0.0523947,-0.0528748,-0.0605815,264.9,7.0,52.1701,4.42724,1.1,1.22397,359.559,4.595280000000001,176.118,42.9442,156.153,0.711075,-0.122042,239.26,1.08766,1.36905,1.72528076171875,22.0019989013672,1.61830937862396,22.0,-693534.0,2676.51,pp-ro,1,1,-1,-1
1570532594.9,2019-10-08,13:03:14.900,14.0,12.0,21.3700008392334,19.3,-6.6,-3.9,52.4,19.4,-34.3,20.5126,-6.27221,-3.83546,0.723697,-2.24464,7.776260000000001,48.9538,20.728,-33.9909,-0.0523947,-0.0528748,-0.0605815,264.0,7.0,52.1701,4.42724,1.1,1.21954,362.11300000000006,4.59532,175.388,44.8442,156.453,0.712701,-0.133233,239.269,1.09056,1.37629,1.6111755371093797,22.0019989013672,1.69412744045258,22.0,-692908.0,3660.97,pp-ro,1,1,-1,-1
1570532595.0,2019-10-08,13:03:15.000,14.0,10.0,21.3700008392334,19.2,-6.8,-3.9,52.3,19.3,-35.1,20.5126,-6.27221,-3.83546,0.723697,-2.24464,7.776260000000001,48.9538,20.728,-33.9909,-0.0523947,-0.0528748,-0.0605815,264.0,7.0,52.1701,4.42724,1.1,1.22508,362.265,4.59537,174.71599999999998,46.7442,156.85299999999998,0.714427,-0.14438,239.403,1.08986,1.37634,1.6111755371093797,22.0025119781494,1.6157209873199498,22.0,-692763.0,2738.04,pp-ro,1,1,-1,-1
1570532595.1,2019-10-08,13:03:15.100,14.0,10.0,21.2900009155273,18.9,-7.1,-3.7,52.1,18.7,-35.6,20.2531,-6.845039999999999,-3.65148,-4.7219,-2.10071,0.410246,48.7919,20.3972,-35.8113,-0.0872444,-0.0231382,-0.0636181,264.0,7.0,52.1701,4.42724,1.1,1.23062,360.802,4.59542,173.986,49.0242,157.153,0.715648,-0.157659,239.524,1.10026,1.37869,1.67588806152344,22.0025119781494,1.65600919723511,22.0,-692334.0,5137.67,pp-ro,1,1,-1,-1
1570532595.2,2019-10-08,13:03:15.200,14.0,9.0,21.2900009155273,18.6,-7.0,-3.7,52.1,18.7,-36.0,20.2531,-6.845039999999999,-3.65148,-4.7219,-2.10071,0.410246,48.7919,20.3972,-35.8113,-0.0872444,-0.0231382,-0.0636181,264.0,7.0,52.1701,4.42724,1.1,1.21122,346.755,4.59547,173.285,50.5443,157.453,0.717292,-0.166866,239.528,1.10167,1.38221,1.62309265136719,22.0025119781494,1.63807618618011,22.0,-691711.0,3660.97,pp-ro,1,1,-1,-1
1570532595.3,2019-10-08,13:03:15.300,14.0,10.0,21.3299999237061,18.6,-7.1,-3.6,52.1,19.0,-36.1,19.6444,-7.05307,-3.45941,-4.6715800000000005,1.29169,-1.94533,48.7099,20.0178,-36.7845,-0.113074,0.111195,-0.0800123,264.0,7.0,52.1701,4.42724,1.1,1.20125,339.264,4.59552,172.555,52.8243,157.753,0.718363,-0.180178,239.691,1.1056,1.39174,1.6282043457031203,22.0025119781494,1.85107445716858,22.0,-691432.0,5445.31,pp-ro,1,1,-1,-1
1570532595.4,2019-10-08,13:03:15.400,14.0,10.0,21.2900009155273,18.4,-7.2,-3.5,52.2,19.0,-36.5,19.6444,-7.05307,-3.45941,-4.6715800000000005,1.29169,-1.94533,48.7099,20.0178,-36.7845,-0.113074,0.111195,-0.0800123,264.0,7.0,52.1701,4.42724,1.1,1.16856,335.152,4.59557,171.795,54.3443,158.053,0.720057,-0.189526,239.683,1.10711,1.39517,1.6656723022460902,22.0025119781494,-35.0,22.0,-690841.0,1784.34,pp-ro,1,1,-1,-1
1570532595.5,2019-10-08,13:03:15.500,14.0,10.0,21.25,18.3,-7.4,-3.4,52.0,18.7,-37.3,19.5031,-7.310339999999999,-3.28432,2.94655,-2.02237,1.61148,48.6692,20.3786,-37.1831,-0.135203,-0.0927797,0.0108128999999999,264.0,7.0,52.1701,4.42724,1.1,1.18518,339.083,4.595619999999999,171.065,55.8643,158.35299999999998,0.721631,-0.198852,239.708,1.10768,1.39754,1.7695693969726598,22.0025119781494,-35.0,22.0,-690764.0,1538.22,pp-ro,1,1,-1,-1
1570532595.6,2019-10-08,13:03:15.600,14.0,10.0,21.2099990844727,18.2,-7.5,-3.3,51.7,18.8,-38.0,19.3218,-7.5434,-3.20026,-1.83328,-5.42922,-5.01095,48.4157,20.1373,-38.1252,-0.1985559999999999,-0.0727465,0.0472324,264.0,7.0,52.1701,4.42724,1.1,1.19571,346.105,4.59569,170.27599999999998,58.1444,158.653,0.722641,-0.21233,239.887,1.10722,1.4054,1.8223648071289096,22.0025119781494,-35.0,22.0,-690397.0,4153.21,pp-ro,1,1,-1,-1
1570532595.7,2019-10-08,13:03:15.700,14.0,10.0,21.2099990844727,18.1,-7.8,-3.1,51.7,18.9,-38.6,19.1865,-7.738689999999999,-3.12251,1.7216,-7.035839999999999,-3.01138,48.2259,20.2165,-38.9923,-0.0217064,0.0533521999999999,-0.0432349,264.0,7.0,52.1701,4.42724,1.1,1.20236,349.14300000000003,4.59571,169.488,60.0444,158.953,0.723911,-0.2237739999999999,239.995,1.10659,1.41004,1.5294189453125,22.0009689331055,-35.0,22.0,-690144.0,2091.99,pp-ro,1,1,-1,-1
1570532595.8,2019-10-08,13:03:15.800,14.0,10.0,21.1299991607666,17.9,-7.9,-3.0,51.5,18.4,-39.5,19.1865,-7.738689999999999,-3.12251,1.7216,-7.035839999999999,-3.01138,48.2259,20.2165,-38.9923,-0.0217064,0.0533521999999999,-0.0432349,264.0,7.0,52.1701,4.42724,1.1,1.20679,346.49800000000005,4.59576,168.67,61.5644,159.253,0.7255520000000001,-0.233348,240.003,1.10857,1.41352,0.8515701293945309,22.0009689331055,-35.0,22.0,-689739.0,4891.55,pp-ro,1,1,-1,-1
1570532595.9,2019-10-08,13:03:15.900,14.0,10.0,21.090000152587898,17.9,-7.8,-2.9,51.3,18.1,-39.9,19.1865,-7.738689999999999,-3.12251,1.7216,-7.035839999999999,-3.01138,48.2259,20.2165,-38.9923,-0.0217064,0.0533521999999999,-0.0432349,264.1,7.2,52.1701,4.42724,1.1,1.1846299999999998,336.205,4.5958,167.852,63.8444,159.553,0.726404,-0.24686,240.224,1.1166200000000002,1.42904,-0.182624816894531,22.0009689331055,-35.0,22.0,-689295.0,3445.62,pp-ro,1,1,-1,-1
1570532596.0,2019-10-08,13:03:16.000,14.0,10.0,21.0,17.8,-7.7,-2.7,51.3,17.8,-40.1,19.1865,-7.738689999999999,-3.12251,1.7216,-7.035839999999999,-3.01138,48.2259,20.2165,-38.9923,-0.0217064,0.0533521999999999,-0.0432349,264.1,7.2,52.1701,4.42724,1.1,1.15859,326.817,4.59584,167.472,64.6044,159.654,0.7269439999999999,-0.251606,240.229,1.12113,1.44076,-1.5770645141601598,22.0009689331055,-35.0,22.0,-688643.0,4583.91,pp-ro,1,1,-1,-1
1570532596.1,2019-10-08,13:03:16.100,14.0,10.0,21.0100002288818,18.0,-7.7,-2.3,51.7,17.3,-40.3,19.1865,-7.738689999999999,-3.12251,1.7216,-7.035839999999999,-3.01138,48.2259,20.2165,-38.9923,-0.0217064,0.0533521999999999,-0.0432349,264.1,7.2,52.1701,4.42724,1.1,1.15969,327.263,4.59588,166.65400000000002,66.1244,159.954,0.728452,-0.261194,240.273,1.13136,1.46584,-3.3213882446289102,22.0009689331055,-35.0,22.0,-688506.0,2461.16,pp-ro,1,1,-1,-1
1570532596.2,2019-10-08,13:03:16.200,14.0,9.0,20.9599990844727,18.2,-7.6,-1.9,52.2,16.0,-40.3,18.7723,-7.73614,-1.66569,5.20999,3.65589,7.689439999999999,49.0149,19.0427,-39.6556,0.0553894,0.0816101,0.156038,264.1,7.2,52.1701,4.42724,1.1,1.17465,327.559,4.59591,165.866,68.0245,160.154,0.729129,-0.272705,240.391,1.15518,1.49485,-5.38658142089844,22.0009689331055,-35.0,22.0,-688231.0,3384.09,pp-ro,1,1,-1,-1
1570532596.3,2019-10-08,13:03:16.300,14.0,9.0,21.0,18.6,-7.3,-1.4,52.8,14.8,-39.8,18.7723,-7.73614,-1.66569,5.20999,3.65589,7.689439999999999,49.0149,19.0427,-39.6556,0.0553894,0.0816101,0.156038,264.1,7.2,52.1701,4.42724,1.1,1.15582,324.54,4.59595,165.136,69.9245,160.35399999999998,0.729592,-0.284089,240.567,1.18369,1.53626,-7.49445343017578,22.0009689331055,-35.0,22.0,-687685.0,2584.22,pp-ro,1,1,-1,-1
1570532596.4,2019-10-08,13:03:16.400,14.0,9.0,21.1700000762939,19.0,-7.1,-0.8,53.6,13.1,-39.3,18.9752,-7.39469,-1.1119,-5.50059,4.18476,10.7829,49.8838,18.1392,-38.7081,0.127901,-0.0230396,0.0858017,264.1,7.2,52.1701,4.42724,1.1,1.16357,328.44300000000004,4.5959900000000005,164.405,71.8245,160.454,0.72968,-0.295465,240.693,1.21856,1.57757,-9.59890747070312,22.0009689331055,-35.0,22.0,-687569.0,2307.34,pp-ro,1,1,-1,-1
1570532596.5,2019-10-08,13:03:16.500,14.0,9.0,21.2999992370605,19.4,-6.8,0.1,54.5,10.5,-38.6,19.2179,-7.086539999999999,-0.434932,-0.7562409999999999,3.57256,8.8315,50.5545,16.5345,-37.9123,0.18537,-0.0681582,0.270445,264.1,7.2,52.1701,4.42724,1.1,1.17909,337.83,4.596019999999999,163.675,73.3445,160.554,0.730136,-0.304897,240.721,1.26597,1.6306200000000002,-11.718719482421902,22.0009689331055,-35.0,22.0,-687283.0,2707.28,pp-ro,1,1,-1,-1
1570532596.6,2019-10-08,13:03:16.600,14.0,9.0,21.4200000762939,19.8,-6.2,1.1,55.7,7.7,-36.9,19.2179,-7.086539999999999,-0.434932,-0.7562409999999999,3.57256,8.8315,50.5545,16.5345,-37.9123,0.18537,-0.0681582,0.270445,264.1,7.2,52.1701,4.42724,1.1,1.18629,333.221,4.59606,162.974,75.6246,160.554,0.729283,-0.318111,240.951,1.33072,1.6977799999999998,-13.8146438598633,22.0009689331055,-35.0,22.0,-686978.0,3291.8,pp-ro,1,1,-1,-1
1570532596.7,2019-10-08,13:03:16.700,14.0,9.0,21.4599990844727,20.4,-5.3,2.4,57.1,4.6,-35.3,19.4845,-6.4110000000000005,1.14982,1.03803,5.43796,12.586,52.5786,13.0645,-35.3676,0.112516,-0.100295,0.424267,264.1,7.2,52.1701,4.42724,1.1,1.16413,323.962,4.5961,162.39,77.5246,160.35399999999998,0.727889,-0.329092,241.027,1.39693,1.7829400000000002,-15.919097900390598,22.0009689331055,-35.0,22.0,-686464.0,5383.79,pp-ro,1,1,-1,-1
1570532596.8,2019-10-08,13:03:16.800,14.0,9.0,21.5,21.0,-4.6,3.9,58.6,1.1,-33.2,20.139,-5.14332,2.94736,3.23598,10.6117,14.5013,54.8425,8.67049,-32.1084,0.186914,-0.00242617,0.772201,264.1,7.2,52.1701,4.42724,1.1,1.15526,328.571,4.5961300000000005,161.893,79.8046,160.054,0.725448,-0.3417139999999999,241.237,1.47563,1.86577,-18.026969909668,22.0009689331055,-35.0,22.0,-686183.0,1845.87,pp-ro,1,1,-1,-1
1570532596.9,2019-10-08,13:03:16.900,14.0,10.0,21.5,21.4,-3.5,5.6,60.0,-2.9,-30.8,20.6928,-3.79922,5.32913,-0.00918537,8.1715,11.2291,57.0141,2.9504,-27.7215,0.0561364,0.154777,0.992686,266.4,6.7,52.1701,4.42724,1.1,1.18629,336.672,4.59616,161.42600000000002,82.0847,159.654,0.7225520000000001,-0.354184,241.424,1.56442,1.96323,-20.1467819213867,22.0009689331055,-35.0,22.0,-685993.0,2738.04,pp-ro,1,1,-1,-1
1570532597.0,2019-10-08,13:03:17.000,14.0,10.0,21.5400009155273,21.6,-2.2,7.4,61.5,-7.9,-27.9,20.6928,-3.79922,5.32913,-0.00918537,8.1715,11.2291,57.0141,2.9504,-27.7215,0.0561364,0.154777,0.992686,266.4,6.7,52.1701,4.42724,1.1,1.18075,337.172,4.59618,161.134,83.9847,159.054,0.719018,-0.364251,241.486,1.67061,2.0646400000000003,-22.2700119018555,22.0009689331055,-35.0,22.0,-685588.0,4183.97,pp-ro,1,1,-1,-1
