time,date,time_of_day,airspeed_temperature,airspeed_angle_of_attack,airspeed_apparent_windspeed,kite_0_vx,kite_0_vy,kite_0_vz,kite_0_roll,kite_0_pitch,kite_0_yaw,kite_1_vx,kite_1_vy,kite_1_vz,kite_1_ax,kite_1_ay,kite_1_az,kite_1_roll,kite_1_pitch,kite_1_yaw,kite_1_roll_rate,kite_1_pitch_rate,kite_1_yaw_rate,ground_upwind_direction,ground_wind_velocity,ground_pos_latitude,ground_pos_longitude,ground_pos_altitude,ground_tether_reelout_speed,ground_tether_force,est_upwind_direction,kite_pos_east,kite_pos_north,kite_height,kite_elevation,kite_azimuth,kite_distance,kite_heading,kite_course,kite_actual_steering,kite_actual_depower,kite_set_steering,kite_set_depower,ground_mech_energy,ground_mech_power,flight_phase,flight_phase_index,phase,pattern,pattern_section
1570537893.3,2019-10-08,14:31:33.300,15.0,15.0,13.789999961853,10.0,-4.1,2.3,18.3,-5.3,-65.4,7.23065,-4.140969999999999,2.45531,10.3725,6.12951,2.37227,19.9545,10.6087,-73.1351,-0.0446257,0.188356,0.7313890000000001,255.9,6.0,52.1701,4.42726,4.0,-2.21578,92.9499,4.33491,46.5568,14.0607,240.225,1.37104,0.084176,245.098,0.745252,1.51908,-34.847244262695305,22.016416549682603,-35.0,22.0,-587250.0,-8060.3,pp-riro,4,0,-1,-1
1570537893.4,2019-10-08,14:31:33.400,15.0,14.0,13.789999961853,10.9,-3.4,2.6,19.8,-6.9,-60.2,7.70533,-3.81693,2.58934,11.5629,5.4875,2.22749,20.7198,10.225,-70.6349,0.0946732,0.184129,0.780447,255.9,6.0,52.1701,4.42726,4.0,-2.23905,92.394,4.335,46.1479,15.2008,240.025,1.37107,0.0592345,244.893,0.8667450000000001,1.63143,-34.971832275390604,22.003026962280305,-35.0,22.0,-587743.0,-9321.64,pp-riro,4,0,-1,-1
1570537893.5,2019-10-08,14:31:33.500,15.0,13.0,13.789999961853,11.9,-2.7,2.9,21.3,-8.8,-54.9,10.3187,-1.65918,3.40427,11.1001,5.55583,3.04328,25.8528,6.17364,-54.4296,0.201585,0.144271,0.948118,255.9,6.0,52.1701,4.42726,4.0,-2.28171,94.069,4.33509,45.8266,16.7208,239.825,1.3701299999999998,0.0274390999999999,244.736,0.99805,1.74174,-34.970123291015604,22.0009689331055,-35.0,22.0,-588596.0,-8152.59,pp-riro,4,0,-1,-1
1570537893.6,2019-10-08,14:31:33.600,15.0,10.0,13.789999961853,12.7,-1.7,3.2,22.8,-10.3,-49.4,10.3187,-1.65918,3.40427,11.1001,5.55583,3.04328,25.8528,6.17364,-54.4296,0.201585,0.144271,0.948118,255.9,6.0,52.1701,4.42726,4.0,-2.32992,93.4937,4.33518,45.5929,17.4809,239.525,1.36969,0.0111317,244.451,1.11597,1.84738,-34.973541259765604,22.0009689331055,-35.0,22.0,-589907.0,-8675.59,pp-riro,4,0,-1,-1
1570537893.7,2019-10-08,14:31:33.700,15.0,10.0,13.789999961853,13.5,-0.5,3.7,23.9,-12.1,-44.0,12.2429,0.543733,4.37055,6.89951,9.69206,3.10286,28.9982,1.60006,-39.6526,0.156804,0.165024,1.02717,255.9,6.0,52.1701,4.42726,4.0,-2.34598,90.189,4.33527,45.4761,19.0009,239.225,1.36762,-0.0186518,244.249,1.24674,1.97376,-34.9871978759766,22.0009689331055,-35.0,22.0,-590417.0,-9137.05,pp-riro,4,0,-1,-1
1570537893.8,2019-10-08,14:31:33.800,15.0,10.0,13.5900001525879,14.1,0.5,4.1,24.8,-14.1,-38.8,12.5368,1.06004,4.6455,4.44693,11.0497,4.50439,29.5956,0.59008,-36.7991,0.0602971999999999,0.158494,1.00279,255.9,6.0,52.1701,4.42726,4.0,-2.40139,81.42,4.33535,45.4469,20.521,238.925,1.36504,-0.0470977,244.073,1.37327,2.0742,-34.9889068603516,22.0009689331055,-35.0,22.0,-591647.0,-13813.3,pp-riro,4,0,-1,-1
1570537893.9,2019-10-08,14:31:33.900,15.0,11.0,13.460000038147,14.6,1.7,4.4,25.5,-16.1,-33.6,13.2212,2.71702,5.21655,6.31941,10.8697,2.35326,30.8936,-2.84676,-28.7172,0.0995583999999999,0.126156,0.947179,255.9,6.0,52.1701,4.42726,4.0,-2.49836,78.7637,4.33544,45.5345,21.661,238.625,1.36255,-0.0670785,243.894,1.49097,2.17231,-34.9889068603516,22.0009689331055,-35.0,22.0,-593382.0,-17381.9,pp-riro,4,0,-1,-1
1570537894.0,2019-10-08,14:31:34.000,15.0,8.0,13.460000038147,15.1,3.0,4.8,26.4,-17.8,-28.0,13.6446,3.86182,5.55295,5.28795,12.6039,4.5671800000000005,31.6071,-4.90247,-23.1763,0.20592,0.249171,0.990228,255.9,6.0,52.1701,4.42726,4.0,-2.59809,83.7761,4.33553,45.7681,23.1811,238.225,1.35868,-0.0919688,243.686,1.61894,2.27523,-34.9889068603516,22.0009689331055,-35.0,22.0,-595124.0,-17781.9,pp-riro,4,0,-1,-1
1570537894.1,2019-10-08,14:31:34.100,15.0,7.0,13.7200002670288,15.4,4.2,5.3,26.7,-19.3,-22.8,13.9556,4.97464,6.06317,0.1516289999999999,10.0585,6.41369,32.0541,-6.65157,-17.2643,0.0982746,0.287062,0.997973,255.9,6.0,52.1701,4.42726,4.0,-2.68342,84.9585,4.33562,46.0894,24.7011,237.825,1.35437,-0.115216,243.506,1.73691,2.36767,-34.9991455078125,22.0009689331055,-35.0,22.0,-596634.0,-15166.9,pp-riro,4,0,-1,-1
1570537894.2,2019-10-08,14:31:34.200,15.0,11.0,13.789999961853,15.5,5.4,5.8,27.2,-21.2,-17.5,13.9556,4.97464,6.06317,0.1516289999999999,10.0585,6.41369,32.0541,-6.65157,-17.2643,0.0982746,0.287062,0.997973,262.1,5.9,52.1701,4.42726,4.0,-2.76265,77.5959,4.33571,46.5567,26.2212,237.425,1.34943,-0.13625,243.363,1.85528,2.45648,-35.0059814453125,22.0009689331055,-35.0,22.0,-598360.0,-18674.0,pp-riro,4,0,-1,-1
1570537894.3,2019-10-08,14:31:34.300,15.0,12.0,13.789999961853,15.5,6.7,6.0,27.5,-23.2,-11.8,13.9556,4.97464,6.06317,0.1516289999999999,10.0585,6.41369,32.0541,-6.65157,-17.2643,0.0982746,0.287062,0.997973,262.1,5.9,52.1701,4.42726,4.0,-2.87513,76.3413,4.3358300000000005,47.1408,27.7412,236.925,1.34391,-0.155344,243.157,1.97784,2.54403,-35.0076751708984,22.0009689331055,-35.0,22.0,-600680.0,-23104.1,pp-riro,4,0,-1,-1
1570537894.4,2019-10-08,14:31:34.400,15.0,11.0,13.789999961853,15.6,7.9,6.4,27.5,-24.3,-6.1,14.0605,6.58879,6.6212800000000005,0.0252131,10.4094,3.25372,31.9798,-9.52248,-8.699539999999999,0.131679,0.21803,0.964979,262.1,5.9,52.1701,4.42726,4.0,-2.97875,85.6294,4.33595,47.8126,29.2613,236.425,1.338,-0.172697,242.979,2.09384,2.61942,-35.0059814453125,22.0009689331055,-35.0,22.0,-602827.0,-20212.3,pp-riro,4,0,-1,-1
1570537894.5,2019-10-08,14:31:34.500,15.0,10.0,13.9799995422363,15.7,9.1,6.8,27.2,-25.7,-0.2,14.0605,6.58879,6.6212800000000005,0.0252131,10.4094,3.25372,31.9798,-9.52248,-8.699539999999999,0.131679,0.21803,0.964979,262.1,5.9,52.1701,4.42726,4.0,-3.05022,92.8056,4.336069999999999,48.6304,31.1614,235.825,1.33061,-0.193547,242.795,2.2164,2.69353,-35.0076751708984,22.0009689331055,-35.0,22.0,-604294.0,-14705.4,pp-riro,4,0,-1,-1
1570537894.6,2019-10-08,14:31:34.600,15.0,12.0,14.2299995422363,15.6,10.2,7.3,26.5,-27.4,5.5,14.2,9.79657,7.64908,-2.02038,12.361,3.96215,30.7877,-14.4334,9.002239999999999,0.1236829999999999,0.337624,1.00435,262.1,5.9,52.1701,4.42726,4.0,-3.10619,95.8304,4.33619,49.565,32.3014,235.225,1.3244,-0.201369,242.55,2.323,2.75315,-35.0059814453125,22.0009689331055,-35.0,22.0,-606010.0,-10521.5,pp-riro,4,0,-1,-1
1570537894.7,2019-10-08,14:31:34.700,15.0,12.0,14.289999961853,15.2,11.4,7.7,25.9,-29.0,11.4,14.1746,10.3039,7.85488,-0.281856,8.31944,4.24325,30.0507,-15.226,12.0956,0.1063079999999999,0.263217,1.0527,262.1,5.9,52.1701,4.42726,4.0,-3.12336,99.4321,4.33631,50.5872,33.8215,234.525,1.31693,-0.213244,242.291,2.43481,2.8258400000000004,-35.0076751708984,22.0009689331055,-23.0044822692871,22.0,-607018.0,-9167.82,pp-riro,4,0,-1,-1
1570537894.8,2019-10-08,14:31:34.800,15.0,11.0,14.289999961853,14.7,12.7,8.1,24.8,-30.5,17.6,14.0491,10.8145,8.06981,-2.94463,9.68131,4.60259,29.5006,-16.0305,15.2675,0.121469,0.266776,1.05467,262.1,5.9,52.1701,4.42725,3.9,-3.13112,100.991,4.33643,51.7555,35.3416,233.825,1.30893,-0.223167,242.078,2.5475,2.90037,-35.0059814453125,22.0009689331055,-23.0044822692871,22.0,-607351.0,-6491.31,pp-riro,4,0,-1,-1
1570537894.9,2019-10-08,14:31:34.900,15.0,11.0,14.4099998474121,14.1,14.0,8.3,23.6,-31.4,23.9,13.0177,13.0722,8.63195,-3.22988,12.7668,2.15558,26.8765,-18.7446,27.8881,0.127185,0.342233,0.959463,262.1,5.9,52.1701,4.42725,3.9,-3.13167,100.307,4.33655,53.0406,36.8616,233.025,1.3004,-0.2315019999999999,241.811,2.65682,2.9727200000000003,-34.7960357666016,22.0009689331055,-22.7782402038574,22.0,-608004.0,-4830.02,pp-riro,4,0,-1,-1
1570537895.0,2019-10-08,14:31:35.000,15.0,10.0,14.8999996185303,13.5,15.1,8.6,22.4,-32.1,30.2,13.0177,13.0722,8.63195,-3.22988,12.7668,2.15558,26.8765,-18.7446,27.8881,0.127185,0.342233,0.959463,262.1,5.9,52.1701,4.42725,3.9,-3.13167,98.375,4.33667,54.4425,38.3817,232.225,1.29145,-0.23835,241.58900000000003,2.76289,3.03454,-34.2020874023438,22.0009689331055,-22.0563831329346,22.0,-608741.0,-9352.4,pp-riro,4,0,-1,-1
1570537895.1,2019-10-08,14:31:35.100,15.0,8.0,15.25,12.9,16.2,8.9,21.2,-32.7,36.3,13.0177,13.0722,8.63195,-3.22988,12.7668,2.15558,26.8765,-18.7446,27.8881,0.127185,0.342233,0.959463,262.1,5.9,52.1701,4.42725,3.9,-3.13057,106.49,4.336790000000001,55.9029,39.5217,231.325,1.28305,-0.2397889999999999,241.243,2.8596,3.08878,-33.2479858398438,22.0009689331055,-21.332937240600604,22.0,-609428.0,-5722.19,pp-riro,4,0,-1,-1
1570537895.2,2019-10-08,14:31:35.200,15.0,9.0,15.6499996185303,12.3,17.2,9.3,19.4,-33.1,43.2,13.0177,13.0722,8.63195,-3.22988,12.7668,2.15558,26.8765,-18.7446,27.8881,0.127185,0.342233,0.959463,256.3,6.3,52.1701,4.42725,3.9,-3.09123,123.627,4.33691,57.5385,40.6618,230.425,1.27406,-0.23972,240.955,2.96583,3.13643,-31.950851440429695,22.0009689331055,-20.7326259613037,22.0,-609401.0,4368.56,pp-riro,4,0,-1,-1
1570537895.3,2019-10-08,14:31:35.300,15.0,9.0,16.1000003814697,11.6,18.3,9.6,17.5,-33.2,50.1,11.6281,15.6326,9.30533,-4.59488,8.24452,4.65822,23.0875,-20.7153,43.1249,0.0335277,0.303853,0.915776,256.3,6.3,52.1701,4.42725,3.9,-2.97265,138.286,4.337,59.2325,42.1819,229.525,1.26398,-0.243441,240.768,3.07421,3.1911400000000003,-31.1674346923828,22.0009689331055,-20.1427001953125,22.0,-608248.0,13597.9,pp-riro,4,0,-1,-1
1570537895.4,2019-10-08,14:31:35.400,15.0,8.0,16.8500003814697,10.8,19.4,9.9,15.7,-33.3,56.9,10.3725,17.657,9.77872,-6.1966,10.6007,2.5122,18.884,-21.9822,56.2763,0.106182,0.302786,1.08357,256.3,6.3,52.1701,4.42725,3.9,-2.69339,151.284,4.3371,61.1017,43.3219,228.525,1.25407,-0.2414099999999999,240.486,3.1754,3.24145,-28.8206176757812,22.0009689331055,-19.4945812225342,22.0,-605092.0,24242.4,pp-riro,4,0,-1,-1
1570537895.5,2019-10-08,14:31:35.500,15.0,9.0,17.370000839233402,9.7,20.5,10.0,13.9,-33.4,63.4,9.19853,19.1541,9.97872,-7.33007,8.392380000000001,0.198102,15.4018,-22.9035,65.5739,0.1167779999999999,0.038992,0.940938,256.3,6.3,52.1701,4.42725,3.9,-2.55487,154.696,4.3371900000000005,63.117,44.462,227.424,1.24353,-0.238499,240.172,3.27053,3.29929,-26.702507019043,22.0009689331055,-18.710252761840803,22.0,-603813.0,23811.7,pp-riro,4,0,-1,-1
1570537895.6,2019-10-08,14:31:35.600,15.0,9.0,17.8700008392334,8.4,21.2,10.1,11.5,-32.9,69.6,8.01572,19.8001,10.051,-15.1002,14.2875,-2.31986,13.338,-23.5708,71.3768,-0.0901241,0.0592045999999999,0.787933,256.3,6.3,52.1701,4.42725,3.9,-2.29612,166.332,4.337280000000001,65.1907,45.602,226.324,1.23277,-0.235298,239.9,3.36114,3.3552699999999995,-24.6509628295898,22.0009689331055,-17.976697921752898,22.0,-601280.0,25996.0,pp-riro,4,0,-1,-1
1570537895.7,2019-10-08,14:31:35.700,15.0,8.0,18.2099990844727,7.3,21.8,9.8,9.2,-31.7,75.7,8.01572,19.8001,10.051,-15.1002,14.2875,-2.31986,13.338,-23.5708,71.3768,-0.0901241,0.0592045999999999,0.787933,256.3,6.3,52.1701,4.42725,3.9,-1.97198,170.575,4.3373800000000005,67.352,46.3621,225.324,1.22269,-0.227857,239.702,3.44825,3.39899,-22.7871704101562,22.0009689331055,-17.3592491149902,22.0,-598507.0,27688.0,pp-riro,4,0,-1,-1
1570537895.8,2019-10-08,14:31:35.800,15.0,8.0,18.5499992370605,5.9,22.3,9.5,7.1,-30.1,81.3,7.000960000000001,20.5522,9.85709,-11.5158,5.31455,-0.8175279999999999,11.0116,-23.268,77.08800000000001,-0.0930077,0.3399,0.7446520000000001,256.3,6.3,52.1701,4.42725,3.9,-1.5026700000000002,166.771,4.33747,69.5425,47.1221,224.324,1.21249,-0.2206179999999999,239.537,3.52999,3.45262,-20.7578125,22.0009689331055,-16.5659523010254,22.0,-595248.0,19135.5,pp-riro,4,0,-1,-1
1570537895.9,2019-10-08,14:31:35.900,15.0,9.0,18.8299999237061,4.8,23.1,9.2,5.6,-28.7,86.4,7.000960000000001,20.5522,9.85709,-11.5158,5.31455,-0.8175279999999999,11.0116,-23.268,77.08800000000001,-0.0930077,0.3399,0.7446520000000001,256.3,6.3,52.1701,4.42725,3.9,-1.32315,172.926,4.33757,71.7623,47.5022,223.324,1.20298,-0.2099,239.333,3.60177,3.49445,-19.3275299072266,22.0009689331055,-15.8958168029785,22.0,-594339.0,17074.3,pp-riro,4,0,-1,-1
1570537896.0,2019-10-08,14:31:36.000,15.0,8.0,19.0699996948242,3.4,23.5,9.2,4.6,-27.4,90.6,4.0108,22.1867,9.14433,-15.0371,5.49626,-2.17643,5.975219999999999,-20.8412,89.584,-0.0586135,0.203367,0.677557,256.3,6.3,52.1701,4.42725,3.9,-0.981834,196.192,4.33769,74.1572,47.8822,222.424,1.193,-0.198632,239.3,3.65979,3.54062,-18.0423278808594,22.0009689331055,-15.1575574874878,22.0,-592719.0,16489.8,pp-riro,4,0,-1,-1
1570537896.1,2019-10-08,14:31:36.100,15.0,8.0,19.0699996948242,2.1,23.7,9.1,3.4,-27.1,94.1,3.40077,22.4287,9.16118,-11.5866,7.49822,-2.58721,4.79629,-20.4602,91.6733,-0.0463122,0.2174849999999999,0.628612,256.3,6.3,52.1701,4.42725,3.9,-0.494796,214.55900000000003,4.33778,76.4938,48.2622,221.424,1.18301,-0.18824,239.185,3.70458,3.58253,-16.9312133789062,22.0009689331055,-14.540714263916,22.0,-591422.0,10613.7,pp-riro,4,0,-1,-1
1570537896.2,2019-10-08,14:31:36.200,15.0,9.0,19.2099990844727,0.9,23.8,8.7,2.1,-26.3,96.9,1.49319,22.947,8.92715,-5.9115400000000005,8.74253,-6.22422,2.67004,-19.9242,97.0178,-0.0283817,0.171413,0.615263,257.0,6.8,52.1701,4.42725,3.9,0.251553,203.949,4.33785,78.8888,48.2623,220.424,1.17354,-0.174493,239.039,3.7379,3.61909,-15.939582824707,22.0009689331055,-13.9265098571777,22.0,-591551.0,-7075.83,pp-riro,4,0,-1,-1
1570537896.3,2019-10-08,14:31:36.300,15.0,8.0,19.0699996948242,0.0,23.5,8.0,1.2,-25.0,99.2,0.488564,22.7635,8.27206,-7.58926,-0.5386989999999999,-8.08762,1.65868,-19.1849,99.5362,-0.2191469999999999,0.0443336,0.268286,257.0,6.8,52.1701,4.42725,3.9,0.463767,189.319,4.3379,81.2545,49.0223,219.524,1.16277,-0.16837,239.158,3.77272,3.65275,-15.4889907836914,22.0009689331055,-13.6575317382812,22.0,-591856.0,-5783.72,pp-riro,4,0,-1,-1
1570537896.4,2019-10-08,14:31:36.400,15.0,6.0,19.1100006103516,-1.1,23.2,7.8,0.7,-23.6,101.4,0.488564,22.7635,8.27206,-7.58926,-0.5386989999999999,-8.08762,1.65868,-19.1849,99.5362,-0.2191469999999999,0.0443336,0.268286,257.0,6.8,52.1701,4.42725,3.9,0.2371469999999999,170.17700000000002,4.33796,83.6787,49.0224,218.724,1.15345,-0.1555119999999999,239.261,3.80116,3.68567,-14.6424331665039,22.0009689331055,-13.1602745056152,22.0,-591267.0,3722.5,pp-riro,4,0,-1,-1
1570537896.5,2019-10-08,14:31:36.500,15.0,6.0,19.0599994659424,-1.8,23.2,8.2,-0.4,-22.3,102.8,0.488564,22.7635,8.27206,-7.58926,-0.5386989999999999,-8.08762,1.65868,-19.1849,99.5362,-0.2191469999999999,0.0443336,0.268286,257.0,6.8,52.1701,4.42725,3.9,0.3357739999999999,197.909,4.33801,85.9569,48.2624,217.824,1.14581,-0.137232,239.093,3.81246,3.69324,-14.0262832641602,22.0009689331055,-12.940399169921902,22.0,-591595.0,-4953.08,pp-riro,4,0,-1,-1
1570537896.6,2019-10-08,14:31:36.600,15.0,7.0,18.9200000762939,-2.5,22.9,8.4,-1.6,-21.6,104.8,-0.967555,22.382,7.818989999999999,-13.0007,-1.26186,4.23501,1.01356,-18.3789,102.039,0.0489919,0.193545,0.160887,257.0,6.8,52.1701,4.42725,3.9,0.355721,214.431,4.33807,88.2643,48.2624,217.024,1.13675,-0.126058,239.206,3.8367,3.70915,-13.5023040771484,22.0009689331055,-12.8394327163696,22.0,-591418.0,646.054,pp-riro,4,0,-1,-1
1570537896.7,2019-10-08,14:31:36.700,15.0,8.0,18.8299999237061,-3.1,22.8,8.1,-3.2,-21.5,107.1,-2.39764,22.0351,8.10082,-5.09271,-0.485795,1.30512,-2.0474900000000003,-16.8652,105.893,-0.311918,0.0925526,0.25499,257.0,6.8,52.1701,4.42725,3.9,0.369573,206.612,4.33812,90.6593,47.8824,216.124,1.12785,-0.111654,239.21,3.85977,3.72289,-13.0653686523438,22.0009689331055,-12.6980409622192,22.0,-591423.0,-92.2935,pp-riro,4,0,-1,-1
1570537896.8,2019-10-08,14:31:36.800,15.0,9.0,18.7800006866455,-3.7,22.8,8.4,-4.9,-21.0,109.4,-2.92656,21.9495,7.869389999999999,-1.2223,1.46923,1.29145,-3.58157,-16.5536,108.134,-0.0249,0.0398899,0.594986,257.0,6.8,52.1701,4.42725,4.1,0.351288,209.343,4.33818,92.9374,47.5025,215.224,1.11926,-0.0982956,239.197,3.88593,3.73162,-12.8639678955078,22.0009689331055,-12.6813993453979,22.0,-591294.0,1384.4,pp-riro,4,0,-1,-1
1570537896.9,2019-10-08,14:31:36.900,15.0,8.0,18.8199996948242,-4.3,22.7,8.8,-6.6,-20.4,111.9,-3.4890800000000004,21.9389,7.99067,-7.46563,0.711992,0.7825529999999999,-5.2875,-16.3124,110.518,-0.212211,0.0106877999999999,0.347656,257.0,6.8,52.1701,4.42725,4.1,0.408913,233.81,4.33823,95.1864,47.5025,214.224,1.10988,-0.0887292,239.18400000000003,3.9192,3.74283,-12.857147216796902,22.0009689331055,-12.787878036499,22.0,-591303.0,215.351,pp-riro,4,0,-1,-1
1570537897.0,2019-10-08,14:31:37.000,15.0,9.0,18.9200000762939,-4.9,22.5,8.9,-8.6,-20.0,114.5,-3.4890800000000004,21.9389,7.99067,-7.46563,0.711992,0.7825529999999999,-5.2875,-16.3124,110.518,-0.212211,0.0106877999999999,0.347656,257.0,6.8,52.1701,4.42725,4.1,0.4033719999999999,230.225,4.33829,97.5813,46.7425,213.224,1.10121,-0.0726144,239.106,3.94715,3.75148,-12.7018280029297,22.0009689331055,-12.736647605896,22.0,-591186.0,1292.11,pp-riro,4,0,-1,-1
1570537897.1,2019-10-08,14:31:37.100,15.0,10.0,18.8700008392334,-5.5,22.3,8.9,-10.4,-19.3,116.7,-3.816,21.9841,8.259910000000001,-5.74037,-2.60278,13.6403,-6.557189999999999,-15.7196,111.691,-0.375508,0.0415156,0.341159,257.0,6.8,52.1701,4.42725,4.1,0.393398,227.32,4.3383400000000005,99.8011,46.3625,212.224,1.09244,-0.0608408,239.058,3.97471,3.76521,-12.7496185302734,22.0009689331055,-12.7320032119751,22.0,-591132.0,1015.23,pp-riro,4,0,-1,-1
1570537897.2,2019-10-08,14:31:37.200,15.0,9.0,18.6299991607666,-6.2,21.9,9.2,-11.9,-19.4,118.7,-5.28737,21.4682,8.57823,-5.20087,1.22135,4.48551,-11.7545,-14.8385,117.208,-0.227306,-0.0696958,0.399597,261.1,6.4,52.1701,4.42725,4.1,0.391736,223.946,4.3384,101.992,45.9826,211.224,1.0837,-0.0495661,239.024,3.9946,3.78119,-12.7444915771484,22.0009689331055,-12.715313911438,22.0,-591055.0,799.877,pp-riro,4,0,-1,-1
1570537897.3,2019-10-08,14:31:37.300,15.0,9.0,18.340000152587898,-6.5,21.5,9.3,-12.5,-19.8,119.7,-5.28737,21.4682,8.57823,-5.20087,1.22135,4.48551,-11.7545,-14.8385,117.208,-0.227306,-0.0696958,0.399597,261.1,6.4,52.1701,4.42725,4.1,0.382317,220.87,4.33847,104.153,44.8426,210.724,1.07711,-0.0326434,239.298,3.99223,3.77926,-12.7683868408203,22.0009689331055,-12.7612428665161,22.0,-590960.0,984.464,pp-riro,4,0,-1,-1
1570537897.4,2019-10-08,14:31:37.400,15.0,8.0,18.0,-7.1,20.8,8.9,-14.4,-20.2,122.0,-6.36039,20.7968,8.826089999999999,-5.16279,-1.04582,-1.36785,-13.6892,-15.327,120.012,0.00747982,0.0430598,0.166459,261.1,6.4,52.1701,4.42725,4.1,0.371789,208.435,4.33855,106.256,44.4626,209.124,1.06735,-0.0224702,238.747,4.0151900000000005,3.80377,-12.761566162109402,22.0009689331055,-12.7300415039062,22.0,-590835.0,1076.76,pp-riro,4,0,-1,-1
1570537897.5,2019-10-08,14:31:37.500,15.0,6.0,17.8999996185303,-7.5,20.5,9.0,-15.0,-19.7,123.0,-6.36039,20.7968,8.826089999999999,-5.16279,-1.04582,-1.36785,-13.6892,-15.327,120.012,0.00747982,0.0430598,0.166459,261.1,6.4,52.1701,4.42725,4.1,0.344639,197.403,4.33863,108.271,43.7026,208.224,1.05975,-0.00987933,238.725,4.0225800000000005,3.80974,-12.7171859741211,22.0009689331055,-12.8613176345825,22.0,-590734.0,861.4060000000001,pp-riro,4,0,-1,-1
1570537897.6,2019-10-08,14:31:37.600,15.0,7.0,17.7999992370605,-8.0,19.9,9.1,-15.3,-20.1,124.6,-7.03217,19.9335,8.72792,2.11033,-1.46712,3.57223,-15.461,-15.8721,122.34,0.0200657,0.102623,0.313142,261.1,6.4,52.1701,4.42725,4.1,0.3341119999999999,190.818,4.3387,110.403,42.9426,207.124,1.05127,0.00273023,238.607,4.03263,3.8227,-12.6779327392578,22.0009689331055,35.0,22.0,-590664.0,676.819,pp-riro,4,0,-1,-1
1570537897.7,2019-10-08,14:31:37.700,15.0,7.0,17.75,-8.3,19.6,9.0,-15.8,-20.7,125.3,-7.782489999999999,19.0702,8.82584,-0.39511,-5.8464,-0.248023,-15.5167,-16.1696,124.508,0.2163679999999999,-0.204545,0.338173,261.1,6.4,52.1701,4.42725,4.1,0.322476,184.643,4.33878,111.309,42.5626,206.724,1.04786,0.00837956,238.613,4.03374,3.83401,-12.83154296875,22.0009689331055,35.0,22.0,-590595.0,676.819,pp-riro,4,0,-1,-1
1570537897.8,2019-10-08,14:31:37.800,15.0,6.0,17.75,-8.7,19.0,8.6,-15.3,-20.2,126.6,-8.24854,18.5251,8.44939,-3.64124,-4.32506,-4.11166,-15.6703,-16.096,125.283,-0.162528,0.0555765,0.0441631,261.1,6.4,52.1701,4.42725,4.4,0.434401,181.562,4.33886,114.2,41.0426,205.224,1.03679,0.0285139,238.418,4.03917,3.84485,-12.8400726318359,22.0009689331055,35.0,22.0,-590983.0,-7721.89,pp-riro,4,0,-1,-1
1570537897.9,2019-10-08,14:31:37.900,15.0,7.0,17.5499992370605,-9.0,18.8,8.3,-15.1,-19.7,127.0,-8.24854,18.5251,8.44939,-3.64124,-4.32506,-4.11166,-15.6703,-16.096,125.283,-0.162528,0.0555765,0.0441631,261.1,6.4,52.1701,4.42725,4.4,0.931412,155.203,4.33894,115.193,40.6626,204.824,1.03302,0.0341114,238.486,4.04391,3.85886,-12.4714126586914,22.0009689331055,35.0,22.0,-592636.0,-9383.17,pp-riro,4,0,-1,-1
1570537898.0,2019-10-08,14:31:38.000,15.0,5.0,17.4500007629395,-9.2,18.3,8.1,-15.3,-20.0,128.5,-8.332980000000001,18.0995,8.23125,-0.560189,-1.22449,-3.16985,-15.2631,-15.9611,126.425,0.240488,-0.066576,0.328654,261.1,6.4,52.1701,4.42725,4.4,0.925318,139.489,4.33901,117.063,39.9026,203.924,1.02562,0.0448623,238.497,4.054530000000001,3.86721,-11.7443237304688,22.0009689331055,35.0,22.0,-592194.0,9229.35,pp-riro,4,0,-1,-1
1570537898.1,2019-10-08,14:31:38.100,15.0,6.0,17.1399993896484,-9.1,17.4,8.0,-15.6,-20.2,130.5,-8.60732,17.7916,7.97561,-3.58431,-4.93666,-4.302919999999999,-14.6279,-16.0662,127.806,0.25939,-0.196653,0.0641698,261.1,6.4,52.1701,4.42725,4.4,0.76962,123.323,4.339090000000001,119.691,38.3826,202.724,1.01578,0.0629803999999999,238.529,4.06682,3.86166,-10.6485748291016,22.0009689331055,35.0,22.0,-591704.0,-1784.34,pp-riro,4,0,-1,-1
1570537898.2,2019-10-08,14:31:38.200,15.0,6.0,16.879999160766598,-8.9,17.2,7.8,-15.3,-19.4,130.8,-8.51184,16.9926,7.87886,-0.645965,-6.54955,-1.57846,-14.3516,-16.518,128.995,-0.147448,0.0482077,0.0906448,265.7,6.0,52.1701,4.42725,4.4,0.839435,130.457,4.339169999999999,120.597,37.6226,202.324,1.01264,0.070821,238.525,4.07077,3.85265,-9.19952392578125,22.0009689331055,35.0,22.0,-591873.0,-769.112,pp-riro,4,0,-1,-1
1570537898.3,2019-10-08,14:31:38.300,15.0,5.0,16.6100006103516,-9.1,17.1,7.8,-14.8,-18.4,131.0,-8.37532,16.6448,7.68692,-3.14805,2.22424,0.0862308,-13.9273,-16.1001,130.735,0.146617,-0.0772836,0.0632744,265.7,6.0,52.1701,4.42725,4.4,0.837773,125.723,4.3392800000000005,122.291,36.8627,201.524,1.00589,0.0803353999999999,238.591,4.07343,3.85448,-7.39887237548828,22.0009689331055,35.0,22.0,-591732.0,2584.22,pp-riro,4,0,-1,-1
1570537898.4,2019-10-08,14:31:38.400,15.0,5.0,16.3400001525879,-9.2,17.1,8.2,-14.8,-18.9,131.7,-8.61357,16.6923,7.89381,3.72891,-2.0944,6.269819999999999,-13.6163,-16.3937,131.519,0.00513244,-0.0765223,0.134688,265.7,6.0,52.1701,4.42725,4.4,0.796216,119.048,4.3394,124.072,36.1027,200.624,0.998593,0.0898301,238.636,4.07166,3.84395,-5.308074951171879,22.0009689331055,35.0,22.0,-591531.0,1138.29,pp-riro,4,0,-1,-1
1570537898.5,2019-10-08,14:31:38.500,15.0,8.0,16.120000839233402,-9.0,17.0,8.5,-15.0,-19.9,132.9,-8.46386,16.5987,8.23151,0.116074,-2.43043,0.145404,-13.5942,-17.7861,132.878,-0.0655789,-0.300092,0.149535,265.7,6.0,52.1701,4.42725,4.4,0.843867,146.82,4.33951,125.737,34.9627,199.724,0.992007,0.101724,238.583,4.07107,3.82196,-3.20020294189453,22.0009689331055,35.0,22.0,-591607.0,-276.88,pp-riro,4,0,-1,-1
1570537898.6,2019-10-08,14:31:38.600,15.0,7.0,15.8999996185303,-8.8,17.1,8.6,-15.3,-19.8,133.8,-8.46386,16.5987,8.23151,0.116074,-2.43043,0.145404,-13.5942,-17.7861,132.878,-0.0655789,-0.300092,0.149535,265.7,6.0,52.1701,4.42725,4.4,0.858274,154.569,4.3396300000000005,127.402,33.8227,198.924,0.985586,0.113267,238.633,4.075130000000001,3.80064,-1.09745788574219,22.0009689331055,35.0,22.0,-591611.0,-61.529,pp-riro,4,0,-1,-1
1570537898.7,2019-10-08,14:31:38.700,15.0,9.0,15.960000038147,-8.7,17.4,8.8,-15.8,-18.5,134.0,-8.46386,16.5987,8.23151,0.116074,-2.43043,0.145404,-13.5942,-17.7861,132.878,-0.0655789,-0.300092,0.149535,265.7,6.0,52.1701,4.42725,4.4,0.877666,157.194,4.33974,129.154,33.0627,197.924,0.978017,0.1220329999999999,238.637,4.0814,3.78182,1.01677703857422,22.0009689331055,35.0,22.0,-591562.0,861.4060000000001,pp-riro,4,0,-1,-1
1570537898.8,2019-10-08,14:31:38.800,15.0,10.0,15.8999996185303,-8.8,17.6,9.5,-16.5,-18.5,134.3,-8.39679,17.4754,8.92296,-1.68599,2.93183,5.45275,-15.948,-18.9779,135.097,-0.337271,-0.1165279999999999,0.0289252,265.7,6.0,52.1701,4.42725,4.7,0.8693549999999999,160.186,4.33986,130.84799999999998,32.3027,197.024,0.970846,0.130497,238.711,4.07872,3.76558,3.11164093017578,22.0009689331055,35.0,22.0,-591415.0,1230.58,pp-riro,4,0,-1,-1
1570537898.9,2019-10-08,14:31:38.900,15.0,8.0,15.7299995422363,-8.6,17.6,10.1,-17.5,-19.9,135.0,-8.39679,17.4754,8.92296,-1.68599,2.93183,5.45275,-15.948,-18.9779,135.097,-0.337271,-0.1165279999999999,0.0289252,265.7,6.0,52.1701,4.42725,4.7,0.892073,173.36700000000002,4.339980000000001,132.572,31.5427,196.024,0.96331,0.138827,238.737,4.0701,3.74145,5.220130920410161,22.0009689331055,35.0,22.0,-591410.0,-92.2935,pp-riro,4,0,-1,-1
1570537899.0,2019-10-08,14:31:39.000,15.0,14.0,15.5600004196167,-8.3,17.5,10.3,-18.2,-21.6,135.1,-8.12435,17.6415,10.1438,5.431,-2.8559900000000003,3.10038,-17.8964,-22.5312,136.078,-0.194242,-0.372062,-0.2144869999999999,265.7,6.0,52.1701,4.42725,4.7,0.91479,178.847,4.34009,134.38299999999998,30.4027,194.924,0.955498,0.149803,238.701,4.047969999999999,3.71816,7.32862091064453,22.0009689331055,35.0,22.0,-591297.0,1322.87,pp-riro,4,0,-1,-1
1570537899.1,2019-10-08,14:31:39.100,15.0,10.0,15.5600004196167,-8.2,17.8,10.4,-19.1,-22.4,133.2,-8.12435,17.6415,10.1438,5.431,-2.8559900000000003,3.10038,-17.8964,-22.5312,136.078,-0.194242,-0.372062,-0.2144869999999999,265.7,6.0,52.1701,4.42725,4.7,0.8976129999999999,167.208,4.34021,136.077,29.6428,193.824,0.947743,0.157694,238.669,4.00776,3.70272,9.44052124023438,22.0009689331055,35.0,22.0,-591081.0,2276.57,pp-riro,4,0,-1,-1
1570537899.2,2019-10-08,14:31:39.200,15.0,11.0,15.5600004196167,-7.7,17.8,11.1,-19.6,-23.7,130.7,-8.1855,18.2098,10.2015,2.7955400000000004,7.09082,1.95079,-18.7439,-23.7755,134.779,-0.267778,-0.105983,-0.30038,262.7,5.2,52.1701,4.42725,4.7,0.884315,162.118,4.340319999999999,137.8,28.8828,192.724,0.93986,0.165457,238.674,3.95527,3.66604,11.5541152954102,22.0009689331055,35.0,22.0,-590962.0,2368.87,pp-riro,4,0,-1,-1
1570537899.3,2019-10-08,14:31:39.300,15.0,10.0,15.7299995422363,-7.1,17.7,11.7,-20.2,-26.3,128.7,-7.835489999999999,18.2313,11.0047,2.32724,0.0817288,3.44884,-19.3421,-25.9131,133.004,-0.156423,-0.4720649999999999,-0.484403,262.7,5.2,52.1701,4.42725,4.7,0.87545,166.28599999999997,4.3404,139.55200000000002,28.1228,191.524,0.931603,0.173129,238.636,3.89997,3.62791,13.6540908813477,22.0009689331055,35.0,22.0,-590845.0,646.054,pp-riro,4,0,-1,-1
1570537899.4,2019-10-08,14:31:39.400,15.0,10.0,15.5,-6.0,17.7,12.0,-20.1,-28.9,125.4,-7.835489999999999,18.2313,11.0047,2.32724,0.0817288,3.44884,-19.3421,-25.9131,133.004,-0.156423,-0.4720649999999999,-0.484403,262.7,5.2,52.1701,4.42725,4.7,0.91202,174.91099999999997,4.34048,141.305,27.3628,190.324,0.923316,0.180633,238.618,3.82792,3.57146,15.762580871582,22.0009689331055,35.0,22.0,-590792.0,1169.05,pp-riro,4,0,-1,-1
1570537899.5,2019-10-08,14:31:39.500,15.0,11.0,15.5,-4.9,17.7,12.3,-19.0,-31.1,121.1,-7.627839999999999,18.3441,11.3287,5.95948,-1.32246,5.74144,-19.7285,-27.4614,132.232,-0.406602,-0.421643,-0.547423,262.7,5.2,52.1701,4.42725,4.7,0.887086,163.696,4.34056,143.086,26.6028,189.124,0.914906,0.1880089999999999,238.64,3.74684,3.51453,17.8642578125,22.0009689331055,35.0,22.0,-590537.0,2553.45,pp-riro,4,0,-1,-1
1570537899.6,2019-10-08,14:31:39.600,15.0,11.0,15.4399995803833,-3.7,17.6,12.9,-17.1,-33.1,114.8,-5.75933,18.6804,12.43,4.33324,4.40789,4.97046,-20.0059,-34.1743,127.076,-0.28973,-0.29133,-0.726019,262.7,5.2,52.1701,4.42725,4.7,0.876558,161.923,4.3406400000000005,144.809,26.2229,187.923,0.90644,0.192609,238.689,3.6437,3.45279,19.9829711914062,22.0009689331055,35.0,22.0,-590451.0,1692.05,pp-riro,4,0,-1,-1
1570537899.7,2019-10-08,14:31:39.700,15.0,10.0,15.609999656677198,-2.2,17.2,13.2,-15.1,-35.0,108.4,-3.94927,18.9676,13.3826,16.0159,0.0153839,8.513819999999999,-18.0586,-38.6113,119.649,-0.415175,-0.32807,-0.706907,262.7,5.2,52.1701,4.42725,4.7,0.888194,170.912,4.34071,146.503,25.8429,186.723,0.898062,0.1971119999999999,238.74,3.54185,3.38038,22.096565246582,22.0009689331055,35.0,22.0,-590399.0,184.587,pp-riro,4,0,-1,-1
1570537899.8,2019-10-08,14:31:39.800,15.0,10.0,15.7799997329712,-0.6,17.1,13.8,-12.5,-36.9,102.1,-3.94927,18.9676,13.3826,16.0159,0.0153839,8.513819999999999,-18.0586,-38.6113,119.649,-0.415175,-0.32807,-0.706907,262.7,5.2,52.1701,4.42725,4.9,0.906479,177.168,4.34079,148.197,25.843000000000004,185.523,0.889467,0.19895,238.85,3.44572,3.30282,24.2033538818359,22.0009689331055,35.0,22.0,-590342.0,738.3480000000001,pp-riro,4,0,-1,-1
1570537899.9,2019-10-08,14:31:39.900,15.0,11.0,15.890000343322802,0.8,16.8,14.1,-9.2,-38.0,94.6,-1.41575,18.7562,14.2438,20.2348,-0.408614,8.47194,-15.5066,-43.6059,110.192,-0.601665,-0.213021,-0.924764,262.7,5.2,52.1701,4.42725,4.9,0.902046,172.41099999999997,4.34087,149.862,25.843000000000004,184.123,0.880439,0.200753,238.805,3.3386400000000003,3.2359,26.311843872070305,22.0009689331055,35.0,22.0,-590172.0,1876.63,pp-riro,4,0,-1,-1
1570537900.0,2019-10-08,14:31:40.000,15.0,10.0,15.890000343322802,2.4,16.1,14.3,-5.8,-38.9,86.7,1.36733,18.4944,14.9912,9.38725,-6.69772,4.33201,-10.6346,-47.0191,99.1744,-0.273983,-0.1407769999999999,-0.995595,262.7,5.2,52.1701,4.42725,4.9,0.8937350000000001,171.209,4.34095,151.498,25.843000000000004,182.823,0.871769,0.202521,238.838,3.2282,3.15736,28.4237365722656,22.0009689331055,23.0044822692871,22.0,-589974.0,1076.76,pp-riro,4,0,-1,-1
1570537900.1,2019-10-08,14:31:40.100,15.0,10.0,15.890000343322802,3.9,15.4,14.3,-1.5,-39.8,78.5,1.36733,18.4944,14.9912,9.38725,-6.69772,4.33201,-10.6346,-47.0191,99.1744,-0.273983,-0.1407769999999999,-0.995595,262.7,5.2,52.1701,4.42725,4.9,0.8953969999999999,169.206,4.34103,153.075,26.2231,181.523,0.863081,0.201699,238.894,3.11774,3.08335,30.3993835449219,22.0009689331055,23.0044822692871,22.0,-589863.0,1169.05,pp-ro,1,1,-1,-1
1570537900.2,2019-10-08,14:31:40.200,15.0,12.0,15.7200002670288,5.3,14.4,14.1,2.6,-39.8,69.8,4.90701,17.0245,15.3989,11.0029,-3.19096,-4.57297,-1.66953,-50.9062,81.2246,-0.5119130000000001,-0.30676,-1.13038,264.0,6.2,52.1701,4.42725,4.9,0.89041,164.16299999999998,4.34111,154.564,26.6031,180.123,0.8543950000000001,0.200836,238.835,3.00199,3.00768,32.0241851806641,22.0009689331055,23.0044822692871,22.0,-589779.0,1599.75,pp-ro,1,1,-1,-1
1570537900.3,2019-10-08,14:31:40.300,15.0,12.0,15.7200002670288,6.8,13.6,13.8,7.0,-39.0,60.9,4.90701,17.0245,15.3989,11.0029,-3.19096,-4.57297,-1.66953,-50.9062,81.2246,-0.5119130000000001,-0.30676,-1.13038,264.0,6.2,52.1701,4.42725,4.9,0.8693549999999999,155.311,4.34117,155.996,27.3632,178.82299999999998,0.845958,0.197573,238.875,2.88377,2.92811,33.298126220703104,22.0009689331055,23.0044822692871,22.0,-589587.0,2122.75,pp-ro,1,1,-1,-1
1570537900.4,2019-10-08,14:31:40.400,15.0,12.0,15.7200002670288,8.3,12.6,13.7,10.7,-37.7,52.2,9.30295,14.711,14.8279,17.3577,-6.73983,3.18624,12.6637,-51.9247,55.0424,-0.29158,-0.306502,-1.04842,264.0,6.2,52.1701,4.42725,4.9,0.859382,147.372,4.34124,157.39700000000002,28.1233,177.423,0.8373299999999999,0.19434,238.83900000000003,2.76531,2.8448,34.2110290527344,22.0009689331055,23.0044822692871,22.0,-589411.0,1292.11,pp-ro,1,1,-1,-1
1570537900.5,2019-10-08,14:31:40.500,15.0,12.0,15.7200002670288,9.3,11.5,13.1,14.6,-36.4,44.3,9.30295,14.711,14.8279,17.3577,-6.73983,3.18624,12.6637,-51.9247,55.0424,-0.29158,-0.306502,-1.04842,264.0,6.2,52.1701,4.42725,4.9,0.8510709999999999,144.692,4.34131,158.653,28.5033,176.22299999999998,0.8299120000000001,0.193322,238.826,2.65504,2.77251,34.7662353515625,22.0009689331055,23.0044822692871,22.0,-589329.0,1630.52,pp-ro,1,1,-1,-1
1570537900.6,2019-10-08,14:31:40.600,15.0,13.0,15.5500001907349,10.4,10.4,12.5,18.2,-34.4,36.6,10.7512,13.6057,14.3369,19.3606,-6.87202,-8.600710000000001,18.1095,-51.3146,45.3751,-0.341405,-0.178924,-0.905927,264.0,6.2,52.1701,4.42725,4.9,0.8471920000000001,138.82399999999998,4.341419999999999,159.792,29.6434,174.923,0.822142,0.187546,238.769,2.54531,2.69492,34.9655151367188,22.0009689331055,23.0044822692871,22.0,-589192.0,892.17,pp-ro,1,1,-1,-1
1570537900.7,2019-10-08,14:31:40.700,15.0,15.0,15.5500001907349,11.2,9.3,11.8,21.3,-31.7,29.1,13.2091,11.1195,12.8187,7.06381,-13.1425,-9.34138,26.289,-46.0937,27.5642,-0.383356,-0.101855,-1.06358,264.0,6.2,52.1701,4.42725,4.9,0.838881,131.44899999999998,4.34144,160.873,30.4034,173.623,0.8147439999999999,0.184164,238.641,2.42917,2.62299,34.819046020507805,22.0009689331055,22.1410732269287,22.0,-589103.0,1815.1,pp-ro,1,1,-1,-1
1570537900.8,2019-10-08,14:31:40.800,15.0,19.0,15.710000038147,12.1,8.4,10.9,24.1,-29.5,22.5,13.2091,11.1195,12.8187,7.06381,-13.1425,-9.34138,26.289,-46.0937,27.5642,-0.383356,-0.101855,-1.06358,264.0,6.2,52.1701,4.42725,5.2,0.798987,121.48,4.3415,161.80700000000002,31.9235,172.523,0.807906,0.176094,238.673,2.33112,2.54796,34.2672119140625,22.0009689331055,20.8544521331787,22.0,-588858.0,707.5830000000001,pp-ro,1,1,-1,-1
1570537900.9,2019-10-08,14:31:40.900,15.0,21.0,15.9399995803833,13.0,7.6,10.3,26.6,-26.8,16.3,13.2091,11.1195,12.8187,7.06381,-13.1425,-9.34138,26.289,-46.0937,27.5642,-0.383356,-0.101855,-1.06358,264.0,6.2,52.1701,4.42725,5.2,0.825583,137.284,4.341559999999999,162.684,33.0635,171.523,0.8017310000000001,0.170322,238.703,2.23058,2.4786,33.359451293945305,22.0009689331055,19.6854152679443,22.0,-588913.0,-738.3480000000001,pp-ro,1,1,-1,-1
1570537901.0,2019-10-08,14:31:41.000,15.0,18.0,15.9399995803833,14.1,6.7,9.6,28.8,-23.5,9.8,13.2091,11.1195,12.8187,7.06381,-13.1425,-9.34138,26.289,-46.0937,27.5642,-0.383356,-0.101855,-1.06358,264.0,6.2,52.1701,4.42725,5.2,0.843867,144.755,4.34164,163.531,34.5836,170.523,0.7953939999999999,0.162342,238.781,2.12033,2.39773,32.097412109375,22.0009689331055,18.2740516662598,22.0,-588931.0,-338.409,pp-ro,1,1,-1,-1
1570537901.1,2019-10-08,14:31:41.100,15.0,19.0,15.710000038147,15.0,5.6,8.7,31.0,-20.5,4.1,16.5723,7.8883,10.3077,11.2387,-11.6707,-10.036,33.6285,-35.2553,5.98236,-0.413568,0.0119304,-1.14212,264.0,6.2,52.1701,4.42725,5.2,0.862152,154.002,4.3417,164.231,35.7237,169.523,0.789696,0.156502,238.718,2.02074,2.30994,30.4760284423828,22.0009689331055,16.7249774932861,22.0,-588876.0,953.699,pp-ro,1,1,-1,-1
1570537901.2,2019-10-08,14:31:41.200,15.0,16.0,15.4300003051758,15.6,4.6,7.8,33.0,-18.3,-1.3,17.4891,6.47471,9.45548,8.79348,-11.0442,-10.9676,35.6276,-31.9001,-0.448539,-0.6240140000000001,0.0422744,-1.11135,254.0,5.6,52.1701,4.42725,5.2,0.8737879999999999,162.989,4.34177,164.81599999999997,37.2437,168.623,0.784367,0.1483799999999999,238.715,1.93542,2.23504,28.5140075683594,22.0009689331055,15.3972663879395,22.0,-588830.0,215.351,pp-ro,1,1,-1,-1
1570537901.3,2019-10-08,14:31:41.300,15.0,15.0,15.6000003814697,16.3,3.8,6.8,34.6,-15.0,-5.7,18.5256,4.61256,7.66505,3.86856,-6.004169999999999,-8.51563,37.8809,-26.0275,-8.427610000000001,0.189729,0.157855,-1.00941,254.0,5.6,52.1701,4.42725,5.2,0.892073,165.40200000000002,4.34175,165.34099999999998,39.1438,167.82299999999998,0.7792140000000001,0.13817,238.819,1.84967,2.16269,26.4038162231445,22.0009689331055,14.0982313156128,22.0,-588781.0,769.112,pp-ro,1,1,-1,-1
1570537901.4,2019-10-08,14:31:41.400,15.0,15.0,15.710000038147,16.3,3.0,6.0,36.1,-12.1,-10.0,18.9027,3.5911800000000005,6.70335,-2.18676,-11.5062,-11.8484,38.7732,-22.116,-12.709,0.0174665,0.0415932,-0.8894190000000001,254.0,5.6,52.1701,4.42725,5.2,0.8726799999999999,154.49,4.34174,165.77900000000002,40.6638,167.123,0.774829,0.130104,238.886,1.7679599999999998,2.10988,25.356384277343803,22.0009689331055,13.1809406280518,22.0,-588557.0,2430.39,pp-ro,1,1,-1,-1
1570537901.5,2019-10-08,14:31:41.500,15.0,13.0,15.869999885559098,16.6,2.2,5.0,37.4,-9.2,-13.6,18.8313,3.0438400000000003,6.21211,2.08849,-11.5192,-8.499089999999999,39.5678,-20.3675,-15.036,0.0779931,-0.0273776999999999,-1.12651,254.0,5.6,52.1701,4.42725,5.2,0.8543950000000001,151.661,4.34172,166.15900000000002,42.5639,166.523,0.770605,0.119897,239.061,1.6957,2.04336,23.2513046264648,22.0009689331055,11.9678220748901,22.0,-588436.0,799.877,pp-ro,1,1,-1,-1
1570537901.6,2019-10-08,14:31:41.600,15.0,11.0,15.9300003051758,16.9,1.5,4.2,38.4,-6.0,-16.7,18.967,2.59754,5.68251,11.8653,-6.77446,-10.5074,40.0743,-18.336,-17.0682,0.106115,0.250476,-0.906429,254.0,5.6,52.1701,4.42725,5.2,0.87545,158.971,4.3417,166.451,44.0839,165.923,0.7668659999999999,0.1117819999999999,239.123,1.62386,1.98601,21.1428070068359,22.0009689331055,10.9398183822632,22.0,-588358.0,984.464,pp-ro,1,1,-1,-1
1570537901.7,2019-10-08,14:31:41.700,15.0,10.0,16.2600002288818,16.9,0.7,3.4,39.4,-2.9,-19.8,18.967,2.59754,5.68251,11.8653,-6.77446,-10.5074,40.0743,-18.336,-17.0682,0.106115,0.250476,-0.906429,254.0,5.6,52.1701,4.42725,5.2,0.8760040000000001,164.42700000000002,4.34169,166.62599999999998,45.984,165.523,0.763734,0.101432,239.325,1.55461,1.92916,18.5131530761719,22.0009689331055,9.87632465362549,22.0,-588252.0,799.877,pp-ro,1,1,-1,-1
1570537901.8,2019-10-08,14:31:41.800,15.0,11.0,16.4200000762939,16.7,0.0,2.8,40.2,-0.8,-22.2,19.1415,0.212178,3.39016,-5.28795,-8.6863,-5.668130000000001,41.336000000000006,-8.69749,-23.9422,0.0279075,0.236695,-0.6598,254.0,5.6,52.1701,4.42725,5.3,0.883761,168.56900000000002,4.34167,166.77200000000002,47.504,165.023,0.760633,0.093214,239.378,1.50495,1.8829,16.4251022338867,22.0009689331055,9.04756164550781,22.0,-588240.0,246.116,pp-ro,1,1,-1,-1
1570537901.9,2019-10-08,14:31:41.900,15.0,12.0,16.520000457763697,16.6,-0.5,2.0,40.8,1.2,-24.2,18.8516,-0.532594,2.51215,-3.65843,-6.89779,-9.5707,41.86,-5.746090000000001,-26.4247,-0.223348,0.13318,-0.627799,254.0,5.6,52.1701,4.42725,5.3,0.901492,172.74599999999998,4.34166,166.83,49.4041,164.72299999999998,0.7580399999999999,0.0828274,239.597,1.46286,1.8361,14.4630813598633,22.0009689331055,8.1682596206665,22.0,-588171.0,953.699,pp-ro,1,1,-1,-1
1570537902.0,2019-10-08,14:31:42.000,15.0,9.0,16.520000457763697,16.9,-1.0,1.3,41.6,3.7,-25.6,18.7165,-1.2443,1.6872200000000002,4.25139,-5.26587,-10.845,42.0026,-2.3479400000000004,-28.0614,0.29079,0.349672,-0.518311,254.0,5.6,52.1701,4.42725,5.3,0.897059,175.21900000000002,4.34164,166.83,50.9241,164.423,0.755876,0.0744876999999999,239.709,1.4203,1.79047,12.623687744140598,22.0009689331055,7.31040525436401,22.0,-588021.0,1353.64,pp-ro,1,1,-1,-1
1570537902.1,2019-10-08,14:31:42.100,15.0,9.0,16.4699993133545,17.1,-1.8,1.0,42.5,5.4,-27.4,18.7165,-1.2443,1.6872200000000002,4.25139,-5.26587,-10.845,42.0026,-2.3479400000000004,-28.0614,0.29079,0.349672,-0.518311,254.0,5.6,52.1701,4.42725,5.3,0.913128,185.824,4.34162,166.801,53.2042,164.123,0.753104,0.0619997,239.978,1.38595,1.75347,10.986968994140598,22.0009689331055,6.63351106643677,22.0,-587975.0,246.116,pp-ro,1,1,-1,-1
1570537902.2,2019-10-08,14:31:42.200,15.0,8.0,16.729999542236303,17.1,-2.4,0.6,43.6,6.9,-29.2,18.81,-1.52818,1.37552,2.79108,-4.7698,-4.80657,42.4249,-0.532871,-28.4518,0.0891631,0.3654219999999999,-0.544715,261.7,5.5,52.1701,4.42725,5.3,0.939724,202.972,4.34161,166.62599999999998,54.7242,163.923,0.751638,0.0534549999999999,240.061,1.35136,1.71828,9.52738189697266,22.0009689331055,5.95275020599365,22.0,-587939.0,307.645,pp-ro,1,1,-1,-1
1570537902.3,2019-10-08,14:31:42.300,15.0,9.0,16.8400001525879,16.7,-2.8,0.2,44.6,8.4,-30.6,18.8922,-2.68505,0.811664,-1.43041,-2.96183,-6.834,43.3233,3.10352,-30.8833,0.243355,0.145491,-0.336407,261.7,5.5,52.1701,4.42725,5.3,0.969644,210.831,4.34167,166.45,56.6242,163.72299999999998,0.74979,0.042813,240.24400000000003,1.32306,1.6902099999999998,8.86315155029297,22.0009689331055,5.426489353179929,22.0,-587779.0,2245.81,pp-ro,1,1,-1,-1
1570537902.4,2019-10-08,14:31:42.400,15.0,6.0,17.1499996185303,16.7,-3.4,-0.1,45.7,9.3,-31.5,18.8922,-2.68505,0.811664,-1.43041,-2.96183,-6.834,43.3233,3.10352,-30.8833,0.243355,0.145491,-0.336407,261.7,5.5,52.1701,4.42725,5.3,0.962441,208.747,4.34173,166.187,58.5243,163.623,0.748428,0.0320598,240.449,1.30839,1.66055,7.40526580810547,22.0009689331055,4.8433575630188,22.0,-587642.0,2522.69,pp-ro,1,1,-1,-1
1570537902.5,2019-10-08,14:31:42.500,15.0,8.0,17.2000007629395,16.5,-4.0,-0.4,46.6,10.3,-32.5,18.4659,-3.51641,0.226879,0.763837,-2.8576,-3.59182,44.5562,6.22969,-32.4787,0.026739,0.0350119,-0.3311469999999999,261.7,5.5,52.1701,4.42725,5.3,0.961887,213.749,4.3418,165.866,60.4243,163.523,0.747167,0.0212394,240.629,1.29131,1.62944,6.4412841796875,22.0009689331055,4.22920560836792,22.0,-587498.0,1107.52,pp-ro,1,1,-1,-1
1570537902.6,2019-10-08,14:31:42.600,15.0,10.0,17.1000003814697,16.4,-4.4,-0.5,46.8,10.3,-33.2,17.9205,-5.12183,-0.733507,3.74318,-0.0179474999999999,-1.83955,46.762,9.49083,-34.8711,0.418245,-0.19296,-0.291792,261.7,5.5,52.1701,4.42725,5.3,0.982388,224.981,4.34186,165.428,61.9443,163.523,0.746841,0.0122417,240.71400000000003,1.2890700000000002,1.61459,5.43132019042969,22.0009689331055,3.8957953453064,22.0,-587429.0,676.819,pp-ro,1,1,-1,-1
1570537902.7,2019-10-08,14:31:42.700,15.0,11.0,16.8400001525879,16.2,-5.0,-0.8,47.8,10.5,-34.4,17.7476,-5.48946,-0.84759,-8.10188,-8.679680000000001,-0.8207479999999999,47.058,9.64036,-35.3909,0.206708,-0.0355508,-0.0766049999999999,261.7,5.5,52.1701,4.42725,5.3,0.999565,231.568,4.34192,165.22299999999998,62.7043,163.423,0.746319,0.00774498,240.702,1.27523,1.57915,4.71089172363281,22.0009689331055,3.1928513050079306,22.0,-587306.0,1507.46,pp-ro,1,1,-1,-1
1570537902.8,2019-10-08,14:31:42.800,15.0,10.0,16.6800003051758,15.9,-5.6,-1.1,49.0,10.7,-35.5,17.1795,-6.19305,-1.20778,1.27627,-0.624007,1.7986799999999998,48.1519,10.3327,-36.8834,0.0582523,-0.0261252999999999,-0.287338,261.7,5.5,52.1701,4.42725,5.3,1.00289,232.05900000000003,4.34199,164.493,65.3644,163.523,0.7458279999999999,-0.00783278,240.978,1.27022,1.54972,4.016014099121089,22.0009689331055,2.54120945930481,22.0,-587002.0,2184.28,pp-ro,1,1,-1,-1
1570537902.9,2019-10-08,14:31:42.900,15.0,10.0,16.6800003051758,15.8,-5.8,-1.2,49.2,10.8,-35.8,16.9767,-6.636189999999999,-1.34911,-2.5509,-2.39866,1.66429,48.8157,10.9301,-37.3169,0.0985523,0.00902907,-0.1166349999999999,261.7,5.5,52.1701,4.42725,5.3,0.999011,229.415,4.34205,164.23,66.1244,163.523,0.745721,-0.0124339,241.006,1.2685,1.53942,3.34838104248047,22.0009689331055,2.31478214263916,22.0,-586886.0,2245.81,pp-ro,1,1,-1,-1
1570537903.0,2019-10-08,14:31:43.000,15.0,10.0,16.7399997711182,15.5,-6.3,-1.4,50.0,10.3,-37.0,16.9767,-6.636189999999999,-1.34911,-2.5509,-2.39866,1.66429,48.8157,10.9301,-37.3169,0.0985523,0.00902907,-0.1166349999999999,261.7,5.5,52.1701,4.42725,5.3,0.982942,219.669,4.34211,163.35399999999998,68.7844,163.623,0.745455,-0.0282662,241.222,1.27118,1.51783,2.7693099975585898,22.0009689331055,1.8076090812683097,22.0,-586520.0,2522.69,pp-ro,1,1,-1,-1
1570537903.1,2019-10-08,14:31:43.100,15.0,10.0,16.7399997711182,15.5,-6.3,-1.4,50.4,9.9,-37.6,16.6598,-6.99565,-1.41665,-4.08478,-2.19011,0.337429,49.2602,10.8771,-37.9464,0.18828,-0.0624150999999999,-0.0196822,261.7,5.5,52.1701,4.42725,5.3,0.974631,217.751,4.34218,162.711,69.9244,163.72299999999998,0.746168,-0.0356699,241.18400000000003,1.27396,1.52284,2.3775863647460898,22.0009689331055,1.81169056892395,22.0,-586328.0,1661.28,pp-ro,1,1,-1,-1
1570537903.2,2019-10-08,14:31:43.200,15.0,12.0,16.7900009155273,15.4,-6.6,-1.4,50.7,9.7,-37.8,16.4718,-7.155460000000001,-1.60276,-4.7923800000000005,-2.85493,-2.58091,49.5376,10.6814,-38.663,0.175057,-0.0769638,-0.0297740999999999,257.1,6.4,52.1701,4.42725,5.3,0.975185,217.95,4.34224,162.39,71.0645,163.72299999999998,0.745721,-0.0423579,241.3,1.27865,1.51464,1.9586181640625,22.0009689331055,1.64156818389893,22.0,-586243.0,1568.99,pp-ro,1,1,-1,-1
1570537903.3,2019-10-08,14:31:43.300,15.0,13.0,16.8400001525879,15.4,-6.8,-1.2,50.7,9.3,-38.5,16.4126,-7.46695,-1.53876,-5.79419,-6.71677,-3.76882,49.8881,10.4788,-38.9381,0.00942298,-0.0566884,0.0511708,257.1,6.4,52.1701,4.42725,5.3,0.979064,218.736,4.342280000000001,161.748,72.5845,163.82299999999998,0.745946,-0.0516866999999999,241.389,1.28161,1.52255,1.72357940673828,22.0009689331055,1.72819805145264,22.0,-586081.0,1692.05,pp-ro,1,1,-1,-1
1570537903.4,2019-10-08,14:31:43.400,15.0,11.0,16.8400001525879,15.2,-6.8,-1.2,50.8,9.1,-39.0,16.3808,-7.58657,-1.48585,-0.0227792,-2.2055,-1.09802,49.9763,10.3972,-39.168,0.1726059999999999,-0.0594279,0.00724514,257.1,6.4,52.1701,4.42725,5.3,0.977401,217.474,4.34232,161.047,74.4845,163.923,0.745829,-0.063137,241.567,1.28596,1.5264,1.65374755859375,22.0009689331055,1.74818634986877,22.0,-585885.0,2061.22,pp-ro,1,1,-1,-1
1570537903.5,2019-10-08,14:31:43.500,15.0,10.0,17.0,15.1,-7.0,-1.2,50.7,8.7,-39.2,16.3808,-7.58657,-1.48585,-0.0227792,-2.2055,-1.09802,49.9763,10.3972,-39.168,0.1726059999999999,-0.0594279,0.00724514,257.1,6.4,52.1701,4.42725,5.3,0.96909,212.234,4.34237,160.375,76.0045,164.023,0.746031,-0.0725418,241.661,1.29502,1.52364,1.72528076171875,22.0009689331055,1.62267422676086,22.0,-585693.0,1784.34,pp-ro,1,1,-1,-1
1570537903.6,2019-10-08,14:31:43.600,15.0,11.0,17.1499996185303,14.9,-7.1,-1.1,50.8,8.3,-39.5,16.327,-7.69756,-1.33262,-0.677924,-2.46645,-0.578019,50.0011,10.0472,-40.0208,0.0113927,-0.0205670999999999,0.0150129,257.1,6.4,52.1701,4.42725,5.3,0.958008,201.685,4.3424,159.615,77.1445,164.023,0.7465729999999999,-0.0802263999999999,241.52,1.30166,1.52566,1.7167663574218797,22.0009689331055,1.57345628738403,22.0,-585447.0,2768.8,pp-ro,1,1,-1,-1
1570537903.7,2019-10-08,14:31:43.700,15.0,11.0,17.3099994659424,14.9,-6.9,-0.9,50.8,8.0,-39.7,16.1159,-7.6969,-1.3438,-1.49749,-3.10736,-6.334280000000001,49.8491,9.93208,-40.228,-0.0662158,-0.0996505,0.0296337,257.1,6.4,52.1701,4.42725,5.3,0.928642,192.211,4.34245,158.914,79.0446,164.123,0.7462949999999999,-0.0916291,241.74,1.31089,1.54948,1.5924377441406203,22.0009689331055,2.00890707969666,22.0,-585133.0,1292.11,pp-ro,1,1,-1,-1
1570537903.8,2019-10-08,14:31:43.800,15.0,10.0,17.3099994659424,15.0,-6.9,-0.8,50.6,7.8,-40.3,15.8552,-7.85588,-0.941503,0.154194,-3.5296300000000005,3.49927,49.8587,9.01742,-41.3718,0.0403825,-0.0695052,-0.075225,257.1,6.4,52.1701,4.42725,5.3,0.931412,194.138,4.34249,158.184,80.1846,164.22299999999998,0.746995,-0.0992603,241.704,1.31134,1.56106,1.6639709472656203,22.0009689331055,2.13431978225708,22.0,-585083.0,1015.23,pp-ro,1,1,-1,-1
1570537903.9,2019-10-08,14:31:43.900,15.0,10.0,17.3099994659424,15.2,-7.1,-0.8,50.6,7.8,-40.6,15.8552,-7.85588,-0.941503,0.154194,-3.5296300000000005,3.49927,49.8587,9.01742,-41.3718,0.0403825,-0.0695052,-0.075225,257.1,6.4,52.1701,4.42725,5.3,0.945265,201.862,4.34253,157.425,82.0846,164.22299999999998,0.746452,-0.1107609999999999,241.846,1.31571,1.56542,2.01992034912109,22.0009689331055,2.20718431472778,22.0,-584985.0,953.699,pp-ro,1,1,-1,-1
1570537904.0,2019-10-08,14:31:44.000,15.0,10.0,17.3099994659424,15.2,-7.3,-0.7,50.3,7.8,-41.3,15.8552,-7.85588,-0.941503,0.154194,-3.5296300000000005,3.49927,49.8587,9.01742,-41.3718,0.0403825,-0.0695052,-0.075225,257.1,6.4,52.1701,4.42725,5.3,0.965766,217.314,4.34258,156.694,83.6046,164.32299999999998,0.746577,-0.120314,241.96,1.31381,1.56911,2.2123794555664102,22.0009689331055,2.2167539596557595,22.0,-584852.0,707.5830000000001,pp-ro,1,1,-1,-1
1570537904.1,2019-10-08,14:31:44.100,15.0,9.0,17.2600002288818,15.2,-7.4,-0.6,50.3,7.4,-42.1,15.8552,-7.85588,-0.941503,0.154194,-3.5296300000000005,3.49927,49.8587,9.01742,-41.3718,0.0403825,-0.0695052,-0.075225,257.1,6.4,52.1701,4.42725,5.3,0.980172,222.906,4.34262,155.935,84.7446,164.32299999999998,0.746937,-0.128038,241.866,1.31444,1.57515,2.21578979492188,22.0009689331055,2.2595591545105003,22.0,-584827.0,492.232,pp-ro,1,1,-1,-1
1570537904.2,2019-10-08,14:31:44.200,15.0,8.0,17.2600002288818,15.0,-7.5,-0.4,50.3,7.5,-42.8,16.0689,-8.12495,-0.8267049999999999,2.35759,0.40658,-2.53862,49.57,8.85009,-42.299,0.0129353999999999,-0.1034619999999999,-0.145999,263.8,6.8,52.1701,4.42725,5.3,0.999565,229.852,4.34266,155.14600000000002,86.6446,164.32299999999998,0.746302,-0.139594,242.032,1.31275,1.5843,2.21578979492188,22.0009689331055,2.447434425354,22.0,-584610.0,1722.81,pp-ro,1,1,-1,-1
1570537904.3,2019-10-08,14:31:44.300,15.0,9.0,17.3600006103516,14.9,-7.6,-0.5,50.2,7.5,-42.9,15.8205,-8.47842,-0.594601,-1.70301,0.656389,2.4529400000000003,49.2512,8.28765,-43.943000000000005,0.185685,-0.0289320999999999,-0.0769585,263.8,6.8,52.1701,4.42725,5.3,0.99624,225.079,4.34273,154.358,88.1646,164.423,0.7464350000000001,-0.149288,242.145,1.31821,1.58096,2.24984741210938,22.0009689331055,2.31758284568787,22.0,-584494.0,2153.51,pp-ro,1,1,-1,-1
1570537904.4,2019-10-08,14:31:44.400,15.0,9.0,17.5100002288818,14.6,-7.5,-0.5,49.9,7.8,-43.2,15.8205,-8.47842,-0.594601,-1.70301,0.656389,2.4529400000000003,49.2512,8.28765,-43.943000000000005,0.185685,-0.0289320999999999,-0.0769585,263.8,6.8,52.1701,4.42725,5.3,0.972969,210.172,4.34279,153.59799999999998,89.6847,164.423,0.746147,-0.158892,242.22,1.31744,1.58505,2.3418197631835898,22.0009689331055,2.3854165077209504,22.0,-584208.0,3076.45,pp-ro,1,1,-1,-1
1570537904.5,2019-10-08,14:31:44.500,15.0,9.0,17.7099990844727,14.4,-7.6,-0.5,49.9,7.8,-43.4,15.7602,-8.5277,-0.547225,-2.98318,-3.13037,2.55915,49.3252,8.35015,-44.1715,-0.0934929999999999,0.0671648999999999,-0.0527973,263.8,6.8,52.1701,4.42725,5.3,0.945819,202.392,4.34286,152.78,91.2047,164.423,0.745955,-0.168652,242.27,1.32175,1.58392,2.32989501953125,22.0009689331055,2.34122490882874,22.0,-583883.0,1138.29,pp-ro,1,1,-1,-1
1570537904.6,2019-10-08,14:31:44.600,15.0,9.0,17.7099990844727,14.1,-7.6,-0.4,49.5,7.8,-43.7,14.9808,-8.50504,-0.53781,-2.30793,-0.512788,-3.90954,48.7361,8.8373,-45.1225,0.0274543,-0.135445,-0.00885289,263.8,6.8,52.1701,4.42725,5.3,0.948589,201.413,4.34292,151.99200000000002,92.7247,164.523,0.74595,-0.178318,242.419,1.32476,1.58872,2.34011840820312,22.0009689331055,2.39678120613098,22.0,-583829.0,1076.76,pp-ro,1,1,-1,-1
1570537904.7,2019-10-08,14:31:44.700,15.0,11.0,17.659999847412102,14.0,-7.5,-0.7,49.8,7.8,-44.1,14.9808,-8.50504,-0.53781,-2.30793,-0.512788,-3.90954,48.7361,8.8373,-45.1225,0.0274543,-0.135445,-0.00885289,263.8,6.8,52.1701,4.42725,5.3,0.945265,198.799,4.34299,151.174,93.8647,164.523,0.7462270000000001,-0.186246,242.347,1.32535,1.58177,2.35204315185547,22.0009689331055,-35.0,22.0,-583631.0,2091.99,pp-ro,1,1,-1,-1
1570537904.8,2019-10-08,14:31:44.800,15.0,11.0,17.6100006103516,14.2,-7.7,-0.7,49.8,8.1,-44.1,14.771,-8.52935,-0.765072,3.10641,-4.39608,-2.84959,48.5246,9.15942,-45.7496,-0.200382,-0.0154567999999999,-0.0940125,263.8,6.8,52.1701,4.42726,5.5,0.947481,207.63,4.34304,150.385,95.3847,164.623,0.746138,-0.195888,242.517,1.32819,1.58538,2.3912124633789102,22.0009689331055,-35.0,22.0,-583512.0,830.6410000000001,pp-ro,1,1,-1,-1
1570537904.9,2019-10-08,14:31:44.900,15.0,10.0,17.5599994659424,14.3,-8.1,-0.4,49.9,8.4,-44.7,14.771,-8.52935,-0.765072,3.10641,-4.39608,-2.84959,48.5246,9.15942,-45.7496,-0.200382,-0.0154567999999999,-0.0940125,263.8,6.8,52.1701,4.42726,5.5,0.983496,229.448,4.34312,149.53799999999998,96.9047,164.72299999999998,0.7461399999999999,-0.2057139999999999,242.664,1.32392,1.5934,2.19875335693359,22.0009689331055,-35.0,22.0,-583508.0,-184.587,pp-ro,1,1,-1,-1
1570537905.0,2019-10-08,14:31:45.000,15.0,11.0,17.659999847412102,14.3,-8.2,-0.3,49.9,7.8,-46.0,14.9952,-8.96198,-0.7069840000000001,2.01833,-6.55852,3.65144,48.5298,9.39281,-45.8153,0.0972501,-0.0782903,-0.0151602,263.8,6.8,52.1701,4.42726,5.5,1.02062,245.034,4.34318,148.662,98.4247,164.82299999999998,0.746163,-0.215607,242.805,1.3226,1.60101,1.6316146850585902,22.0009689331055,-35.0,22.0,-583463.0,738.3480000000001,pp-ro,1,1,-1,-1
1570537905.1,2019-10-08,14:31:45.100,15.0,11.0,17.7099990844727,14.5,-8.3,-0.3,50.2,7.7,-46.8,14.958,-9.20434,-0.390188,-0.945525,-0.4105319999999999,-0.0898503,48.6538,9.20736,-46.7714,0.187418,-0.145929,0.0120905,263.8,6.8,52.1701,4.42726,5.5,1.02727,247.458,4.34325,147.786,99.9448,164.82299999999998,0.7458359999999999,-0.225455,242.891,1.32101,1.60837,0.7153244018554691,22.0009689331055,-35.0,22.0,-583128.0,2553.45,pp-ro,1,1,-1,-1
1570537905.2,2019-10-08,14:31:45.200,15.0,10.0,17.7600002288818,14.7,-8.8,-0.2,50.8,8.0,-47.1,14.958,-9.20434,-0.390188,-0.945525,-0.4105319999999999,-0.0898503,48.6538,9.20736,-46.7714,0.187418,-0.145929,0.0120905,255.8,6.9,52.1701,4.42726,5.5,1.02561,247.027,4.34331,146.91,101.085,164.923,0.746366,-0.233601,242.899,1.31915,1.6052,-0.566650390625,22.0009689331055,-35.0,22.0,-583028.0,1999.69,pp-ro,1,1,-1,-1
1570537905.3,2019-10-08,14:31:45.300,15.0,10.0,17.7600002288818,14.6,-9.0,0.0,51.2,7.2,-47.8,15.2291,-9.72706,-0.120138,-1.24819,-1.83479,1.23291,49.4283,9.92736,-47.8325,0.00678733,-0.0753875,0.051189,255.8,6.9,52.1701,4.42726,5.5,1.02893,245.548,4.34334,145.946,102.605,164.923,0.746152,-0.243715,242.955,1.32774,1.61178,-2.19832611083984,22.0009689331055,-35.0,22.0,-582812.0,2276.57,pp-ro,1,1,-1,-1
1570537905.4,2019-10-08,14:31:45.400,15.0,10.0,17.7099990844727,14.6,-8.8,0.2,51.5,5.6,-48.4,15.1592,-9.84513,-0.0273084,-4.23419,1.37805,0.335229,49.6804,9.63844,-48.0267,0.2520429999999999,-0.119601,-0.00211696,255.8,6.9,52.1701,4.42726,5.5,1.01563,237.82,4.343380000000001,145.011,104.125,164.82299999999998,0.7455189999999999,-0.253707,242.975,1.3476,1.63395,-4.19525146484375,22.0009689331055,-35.0,22.0,-582543.0,2768.8,pp-ro,1,1,-1,-1
1570537905.5,2019-10-08,14:31:45.500,15.0,11.0,17.7600002288818,14.8,-8.7,0.5,52.2,4.7,-48.0,15.1592,-9.84513,-0.0273084,-4.23419,1.37805,0.335229,49.6804,9.63844,-48.0267,0.2520429999999999,-0.119601,-0.00211696,255.8,6.9,52.1701,4.42726,5.5,0.984604,217.747,4.34341,144.106,105.645,164.82299999999998,0.745073,-0.263621,243.092,1.3707,1.6609,-6.30483245849609,22.0009689331055,-35.0,22.0,-582115.0,2953.39,pp-ro,1,1,-1,-1
1570537905.6,2019-10-08,14:31:45.600,15.0,10.0,17.9599990844727,15.0,-8.6,1.0,53.1,3.6,-47.1,15.1592,-9.84513,-0.0273084,-4.23419,1.37805,0.335229,49.6804,9.63844,-48.0267,0.2520429999999999,-0.119601,-0.00211696,255.8,6.9,52.1701,4.42726,5.5,0.972969,212.92,4.34344,143.171,107.165,164.82299999999998,0.744644,-0.273598,243.205,1.40241,1.69605,-8.41099548339844,22.0009689331055,-35.0,22.0,-581969.0,2922.63,pp-ro,1,1,-1,-1
1570537905.7,2019-10-08,14:31:45.700,15.0,10.0,18.1000003814697,15.2,-8.3,1.7,53.4,1.3,-46.7,14.9392,-9.3742,0.408231,0.45642,3.67471,6.443280000000001,50.7258,8.592369999999999,-47.6958,0.17264,0.0208750999999999,0.169254,255.8,6.9,52.1701,4.42726,5.5,0.958008,209.969,4.34347,142.266,108.685,164.623,0.7434970000000001,-0.283459,243.213,1.44346,1.74616,-9.98464202880859,22.0009689331055,-35.0,22.0,-581757.0,1661.28,pp-ro,1,1,-1,-1
1570537905.8,2019-10-08,14:31:45.800,15.0,12.0,18.2000007629395,15.7,-7.8,2.4,54.4,-0.9,-45.8,15.2792,-8.83752,1.75807,-2.38757,3.83616,10.4573,52.3839,6.02959,-45.2265,-0.0238139,-0.0534995,0.396318,255.8,6.9,52.1701,4.42726,5.9,0.965766,208.262,4.34351,141.41899999999998,110.205,164.52200000000002,0.742477,-0.293096,243.335,1.48919,1.80692,-12.0942153930664,22.0009689331055,-35.0,22.0,-581542.0,2091.99,pp-ro,1,1,-1,-1
1570537905.9,2019-10-08,14:31:45.900,15.0,11.0,18.25,16.1,-7.4,3.1,55.4,-3.0,-44.1,15.4456,-8.52375,2.0759,1.05788,5.97815,4.76374,52.8464,4.92286,-44.7124,0.168714,0.12787,0.506579,255.8,6.9,52.1701,4.42726,5.9,0.951359,203.461,4.34354,140.571,112.105,164.222,0.74015,-0.3043599999999999,243.509,1.54441,1.86208,-14.2037887573242,22.0009689331055,-35.0,22.0,-581326.0,1815.1,pp-ro,1,1,-1,-1
1570537906.0,2019-10-08,14:31:46.000,15.0,9.0,18.3500003814697,16.5,-7.1,4.1,56.1,-5.3,-42.3,15.6046,-8.25725,2.38652,5.18406,6.20754,7.41665,53.4521,4.10565,-43.6499,0.15985,0.1552849999999999,0.38266,255.8,6.9,52.1701,4.42726,5.9,0.950251,203.276,4.34357,139.783,113.245,164.02200000000002,0.739268,-0.312063,243.448,1.60075,1.92077,-16.8356399536133,22.0009689331055,-35.0,22.0,-581242.0,1630.52,pp-ro,1,1,-1,-1
1570537906.1,2019-10-08,14:31:46.100,15.0,10.0,18.3500003814697,16.7,-6.5,5.1,56.7,-9.1,-40.8,15.6046,-8.25725,2.38652,5.18406,6.20754,7.41665,53.4521,4.10565,-43.6499,0.15985,0.1552849999999999,0.38266,255.8,6.9,52.1701,4.42726,5.9,0.96632,214.228,4.3436,139.023,115.145,163.622,0.736349,-0.322918,243.635,1.67543,1.9896,-18.4229431152344,22.0009689331055,-35.0,22.0,-581077.0,861.4060000000001,pp-ro,1,1,-1,-1
1570537906.2,2019-10-08,14:31:46.200,15.0,9.0,18.340000152587898,17.0,-5.7,6.1,57.2,-13.2,-38.6,16.313,-6.18395,5.57191,2.87204,8.7607,7.36896,55.6619,-4.9372,-35.5449,0.0368929,0.0321545,0.921197,257.6,7.4,52.1701,4.42726,5.9,0.972969,215.693,4.34363,138.381,116.665,163.122,0.7335020000000001,-0.331703,243.657,1.76069,2.06347,-21.070144653320305,22.0009689331055,-35.0,22.0,-581016.0,1230.58,pp-ro,1,1,-1,-1
1570537906.3,2019-10-08,14:31:46.300,15.0,9.0,18.4899997711182,17.2,-4.7,7.5,58.2,-17.4,-35.5,16.3623,-5.72825,6.0338400000000005,2.2881400000000003,6.43701,10.1923,56.0038,-6.91383,-33.6329,0.182141,0.115659,0.914121,257.6,7.4,52.1701,4.42726,5.9,0.962441,207.103,4.34361,137.797,118.565,162.52200000000002,0.7295119999999999,-0.341742,243.842,1.858,2.157,-23.1848449707031,22.0009689331055,-35.0,22.0,-580696.0,2276.57,pp-ro,1,1,-1,-1
1570537906.4,2019-10-08,14:31:46.400,15.0,10.0,18.5400009155273,17.4,-3.5,8.7,58.5,-21.9,-32.1,16.3623,-5.72825,6.0338400000000005,2.2881400000000003,6.43701,10.1923,56.0038,-6.91383,-33.6329,0.182141,0.115659,0.914121,257.6,7.4,52.1701,4.42726,5.9,0.952468,204.618,4.34359,137.329,120.085,161.822,0.725615,-0.349705,243.857,1.96027,2.24707,-25.3012466430664,22.0009689331055,-35.0,22.0,-580481.0,2030.46,pp-ro,1,1,-1,-1
1570537906.5,2019-10-08,14:31:46.500,15.0,10.0,18.7199993133545,17.4,-2.1,10.1,58.8,-26.6,-28.6,16.4415,-4.11777,7.924580000000001,3.0215400000000003,10.7713,12.375,56.501000000000005,-12.6427,-27.7122,0.126014,0.0377025,0.953432,257.6,7.4,52.1701,4.42726,5.9,0.950805,206.924,4.34356,137.00799999999998,122.365,161.02200000000002,0.719717,-0.360177,244.28,2.06668,2.35012,-26.881721496582,22.0009689331055,-35.0,22.0,-580405.0,1476.7,pp-ro,1,1,-1,-1
1570537906.6,2019-10-08,14:31:46.600,15.0,10.0,18.770000457763697,17.1,-0.6,11.7,59.0,-32.0,-24.8,16.3828,-2.1692400000000003,9.89255,-3.3858900000000003,14.8449,16.1969,56.1847,-19.3425,-20.8292,0.0212183,0.0778008999999999,0.992412,257.6,7.4,52.1701,4.42726,5.9,0.965766,214.261,4.34354,136.833,123.885,160.02200000000002,0.714248,-0.366928,244.29,2.18112,2.45835,-29.496505737304695,22.0009689331055,-35.0,22.0,-580334.0,769.112,pp-ro,1,1,-1,-1
1570537906.7,2019-10-08,14:31:46.700,15.0,11.0,18.909999847412102,16.6,0.9,13.0,58.7,-37.7,-20.8,16.2261,-1.43477,10.5873,2.53456,16.1409,14.5611,55.5437,-21.7794,-18.7117,0.278719,0.0988116,1.14519,257.6,7.4,52.1701,4.42726,5.9,0.980172,218.922,4.34352,136.774,125.785,158.922,0.707533,-0.374696,244.51,2.29953,2.55884,-31.2852020263672,22.0009689331055,-35.0,22.0,-580196.0,1722.81,pp-ro,1,1,-1,-1
1570537906.8,2019-10-08,14:31:46.800,15.0,10.0,18.9599990844727,16.0,2.7,14.4,57.8,-43.5,-15.9,16.2261,-1.43477,10.5873,2.53456,16.1409,14.5611,55.5437,-21.7794,-18.7117,0.278719,0.0988116,1.14519,257.6,7.4,52.1701,4.42726,6.6,0.978509,222.577,4.34349,136.92,126.925,157.722,0.7014600000000001,-0.378637,244.404,2.42192,2.66765,-32.4014282226562,22.0009689331055,-35.0,22.0,-580013.0,1538.22,pp-ro,1,1,-1,-1
1570537906.9,2019-10-08,14:31:46.900,15.0,10.0,18.8600006103516,15.2,4.4,15.5,55.5,-49.2,-9.9,14.7685,2.60601,13.7544,-6.80363,15.9149,16.3113,49.8994,-34.3382,-3.16234,0.192827,0.279914,1.24792,257.6,7.4,52.1701,4.42726,6.6,0.991807,225.66,4.343430000000001,137.183,128.825,156.422,0.693477,-0.385031,244.71,2.54921,2.76865,-33.8146362304688,22.0009689331055,-35.0,22.0,-579893.0,1353.64,pp-ro,1,1,-1,-1
