time,date,time_of_day,airspeed_temperature,airspeed_angle_of_attack,airspeed_apparent_windspeed,kite_0_vx,kite_0_vy,kite_0_vz,kite_0_roll,kite_0_pitch,kite_0_yaw,kite_1_vx,kite_1_vy,kite_1_vz,kite_1_ax,kite_1_ay,kite_1_az,kite_1_roll,kite_1_pitch,kite_1_yaw,kite_1_roll_rate,kite_1_pitch_rate,kite_1_yaw_rate,ground_upwind_direction,ground_wind_velocity,ground_pos_latitude,ground_pos_longitude,ground_pos_altitude,ground_tether_reelout_speed,ground_tether_force,est_upwind_direction,kite_pos_east,kite_pos_north,kite_height,kite_elevation,kite_azimuth,kite_distance,kite_heading,kite_course,kite_actual_steering,kite_actual_depower,kite_set_steering,kite_set_depower,ground_mech_energy,ground_mech_power,flight_phase,flight_phase_index,phase,pattern,pattern_section
1570542695.2,2019-10-08,15:51:35.200,14.0,8.0,15.7600002288818,11.0,-4.8,1.7,24.4,-3.8,-64.5,9.88065,-3.79889,2.09998,8.28486,7.33245,5.38159,26.8489,10.6156,-62.7761,0.175244,0.253224,1.03282,242.0,5.6,52.1701,4.42716,1.9,-1.28325,114.394,4.312869999999999,57.7141,18.621,241.729,1.32499,0.0873995,249.219,0.783999,1.50882,-34.9206390380859,22.007661819458,-35.0,22.0,2405380.0,2184.28,pp-riro,4,0,-1,-1
1570542695.3,2019-10-08,15:51:35.300,14.0,8.0,15.4200000762939,11.8,-3.5,2.0,25.9,-5.9,-59.4,9.88065,-3.79889,2.09998,8.28486,7.33245,5.38159,26.8489,10.6156,-62.7761,0.175244,0.253224,1.03282,242.0,5.6,52.1701,4.42716,1.9,-1.23062,85.89,4.31283,57.2759,19.7611,241.629,1.32511,0.0673314,249.109,0.901263,1.65277,-34.971832275390604,22.0009689331055,-35.0,22.0,2405260.0,-3476.39,pp-riro,4,0,-1,-1
1570542695.4,2019-10-08,15:51:35.400,14.0,8.0,14.9499998092651,12.7,-2.3,2.2,28.0,-7.8,-54.1,11.5448,-1.36915,2.80487,6.22634,12.5565,5.52886,30.8607,6.968380000000001,-51.0538,0.257469,0.178868,0.898999,242.0,5.6,52.1701,4.42716,1.9,-1.25888,77.10600000000001,4.312790000000001,56.9838,21.2811,241.529,1.32408,0.0421601999999999,249.07,1.02698,1.7845,-34.975250244140604,21.997879028320305,-35.0,22.0,2404930.0,-6952.77,pp-riro,4,0,-1,-1
1570542695.5,2019-10-08,15:51:35.500,14.0,7.0,14.710000038147,13.5,-1.1,2.7,29.4,-9.7,-49.0,11.5448,-1.36915,2.80487,6.22634,12.5565,5.52886,30.8607,6.968380000000001,-51.0538,0.257469,0.178868,0.898999,242.0,5.6,52.1701,4.42716,1.9,-1.43175,86.1606,4.31275,56.8086,22.4212,241.429,1.32303,0.0237281,249.033,1.14246,1.90324,-34.9923248291016,21.997879028320305,-35.0,22.0,2403340.0,-10213.8,pp-riro,4,0,-1,-1
1570542695.6,2019-10-08,15:51:35.600,14.0,6.0,14.5900001525879,14.2,-0.2,3.3,31.0,-11.4,-43.8,12.5607,0.201985,3.5446,5.97084,9.61028,6.9579,33.6632,3.88412,-42.7245,0.157778,0.24603,0.937557,242.0,5.6,52.1701,4.42716,1.9,-1.47386,91.5739,4.31269,56.6917,23.5612,241.329,1.32169,0.00581602,249.015,1.2582,1.99244,-34.9906158447266,21.997879028320305,-35.0,22.0,2402910.0,-8060.3,pp-riro,4,0,-1,-1
1570542695.7,2019-10-08,15:51:35.700,14.0,7.0,14.3999996185303,14.7,0.8,3.9,31.8,-13.9,-38.8,13.1569,1.1107,4.06074,4.55735,11.0348,6.55437,35.1958,1.58321,-36.9648,0.22694,0.251824,1.0476,242.0,5.6,52.1701,4.42716,1.9,-1.52705,92.7876,4.31263,56.7209,25.0813,241.129,1.31905,-0.016578,248.977,1.37849,2.08649,-35.0025634765625,21.9983940124512,-35.0,22.0,2402330.0,-5445.31,pp-riro,4,0,-1,-1
1570542695.8,2019-10-08,15:51:35.800,14.0,9.0,14.0900001525879,15.0,2.1,4.4,32.4,-16.6,-33.7,13.5836,2.17221,4.62165,3.11513,13.7371,3.78124,35.931,-0.935446,-31.3718,0.118931,0.184757,1.02442,242.0,5.6,52.1701,4.42716,1.9,-1.57913,80.2633,4.31255,56.867,26.2213,240.929,1.31651,-0.03221,248.93400000000003,1.49451,2.18739,-35.0076751708984,21.997879028320305,-35.0,22.0,2401620.0,-8306.41,pp-riro,4,0,-1,-1
1570542695.9,2019-10-08,15:51:35.900,14.0,9.0,13.8400001525879,15.2,3.4,4.6,32.7,-18.8,-28.7,13.8276,3.3963400000000004,4.9669,1.53756,10.8648,2.50911,36.3953,-3.72327,-26.0359,0.0629237,0.0999611,0.942728,242.0,5.6,52.1701,4.42716,1.9,-1.67776,67.1384,4.31251,57.1298,28.1214,240.629,1.3121,-0.0575372,248.911,1.61586,2.28945,-35.0076751708984,21.997879028320305,-35.0,22.0,2400320.0,-14367.0,pp-riro,4,0,-1,-1
1570542696.0,2019-10-08,15:51:36.000,14.0,8.0,13.5799999237061,15.4,4.6,4.9,33.3,-20.5,-23.1,13.9854,4.56398,5.31487,0.7031970000000001,11.6034,3.62696,36.708,-6.25846,-20.971,0.151853,0.178968,0.91192,242.0,5.6,52.1701,4.42716,1.9,-1.93873,62.0858,4.31245,57.5387,29.6414,240.229,1.30762,-0.0757583999999999,248.795,1.73693,2.37522,-35.0076751708984,21.997879028320305,-35.0,22.0,2397430.0,-21750.5,pp-riro,4,0,-1,-1
1570542696.1,2019-10-08,15:51:36.100,14.0,5.0,13.5799999237061,15.4,5.7,5.3,33.1,-22.6,-17.8,14.1704,5.61156,5.61796,2.34222,10.1827,4.5877,36.989,-8.38149,-15.4749,0.1006809999999999,0.331511,0.976277,242.0,5.6,52.1701,4.42716,1.9,-2.03237,63.8492,4.31239,58.0352,30.7815,239.829,1.30344,-0.0876947,248.663,1.84772,2.4504200000000003,-35.0076751708984,21.997879028320305,-35.0,22.0,2396280.0,-22673.4,pp-riro,4,0,-1,-1
1570542696.2,2019-10-08,15:51:36.200,14.0,6.0,13.5200004577637,15.5,6.2,5.6,32.5,-23.5,-15.3,14.1704,5.61156,5.61796,2.34222,10.1827,4.5877,36.989,-8.38149,-15.4749,0.1006809999999999,0.331511,0.976277,242.0,5.6,52.1701,4.42716,1.9,-2.21633,68.6616,4.31233,58.6485,32.6816,239.429,1.2974,-0.1083269999999999,248.664,1.9145,2.49681,-35.0076751708984,21.997879028320305,-35.0,22.0,2393950.0,-22950.3,pp-riro,4,0,-1,-1
1570542696.3,2019-10-08,15:51:36.300,14.0,7.0,13.4499998092651,15.5,7.8,6.3,31.9,-26.2,-6.4,14.1652,7.0246,6.19286,1.82728,11.8611,4.07145,36.2992,-11.2408,-6.67744,0.098955,0.274015,0.997302,242.0,5.6,52.1701,4.42716,1.9,-2.3687,73.1024,4.31227,59.3787,33.8216,238.929,1.29223,-0.117639,248.509,2.0817900000000003,2.5902700000000003,-35.0076751708984,21.9983940124512,-35.0,22.0,2391840.0,-21350.6,pp-riro,4,0,-1,-1
1570542696.4,2019-10-08,15:51:36.400,14.0,7.0,13.3199996948242,15.4,8.9,6.8,31.1,-28.2,-0.4,14.1549,7.4943,6.37593,1.29096,8.976980000000001,4.24898,35.7246,-12.1689,-3.74028,0.121618,0.29565,0.955435,242.0,5.6,52.1701,4.42716,1.9,-2.50888,79.0377,4.312209999999999,60.1965,35.7217,238.329,1.28513,-0.135414,248.395,2.2048400000000004,2.6636900000000003,-35.0076751708984,21.997879028320305,-35.0,22.0,2389780.0,-19627.7,pp-riro,4,0,-1,-1
1570542696.5,2019-10-08,15:51:36.500,14.0,8.0,13.710000038147,15.3,9.5,7.0,30.4,-29.3,2.7,13.9988,8.50313,6.82767,-2.14461,9.2921,6.64628,34.6809,-13.9965,2.3094,0.0747473,0.279392,0.981943,242.0,5.6,52.1701,4.42716,1.9,-2.65627,88.3846,4.31215,60.693000000000005,36.4817,238.029,1.2816299999999998,-0.140976,248.33900000000003,2.26464,2.6993,-35.0093841552734,21.997879028320305,-35.0,22.0,2387300.0,-15443.8,pp-riro,4,0,-1,-1
1570542696.6,2019-10-08,15:51:36.600,14.0,10.0,14.2799997329712,15.1,10.7,7.3,28.8,-30.9,9.3,13.6874,10.4662,7.479430000000001,-1.21957,10.4457,3.6173,31.6204,-17.6767,14.3434,0.1413029999999999,0.383026,0.929876,242.2,5.6,52.1701,4.42716,1.9,-2.71279,94.0101,4.3121,61.68600000000001,37.6218,237.329,1.27527,-0.147394,248.083,2.38156,2.76271,-35.0093841552734,21.997879028320305,-23.0,22.0,2386070.0,-11629.0,pp-riro,4,0,-1,-1
1570542696.7,2019-10-08,15:51:36.700,14.0,11.0,14.7700004577637,15.0,11.8,7.7,27.0,-31.8,16.1,13.4882,11.4886,7.72927,0.3301929999999999,10.5499,3.76956,29.7385,-18.8794,20.6729,0.101954,0.330737,0.983213,242.2,5.6,52.1701,4.42716,1.9,-2.73495,96.1105,4.312069999999999,62.7959,39.5218,236.629,1.26694,-0.161416,247.989,2.50375,2.82336,-35.0076751708984,21.997879028320305,-23.0,22.0,2385540.0,-10829.1,pp-riro,4,0,-1,-1
1570542696.8,2019-10-08,15:51:36.800,14.0,12.0,15.3000001907349,14.8,13.0,8.1,25.0,-33.3,23.1,13.4427,12.0548,7.88991,-0.635761,11.2409,1.77845,28.752,-19.4286,24.0306,-0.00938282,0.4085809999999999,1.06676,242.2,5.6,52.1701,4.42716,1.9,-2.75545,104.148,4.31203,64.0518,40.6619,235.829,1.25954,-0.165277,247.732,2.62017,2.87797,-34.720947265625,21.997879028320305,-23.0,22.0,2384810.0,-5722.19,pp-riro,4,0,-1,-1
1570542696.9,2019-10-08,15:51:36.900,14.0,12.0,15.5200004577637,14.4,14.6,8.6,23.1,-34.0,30.2,13.4427,12.0548,7.88991,-0.635761,11.2409,1.77845,28.752,-19.4286,24.0306,-0.00938282,0.4085809999999999,1.06676,242.2,5.6,52.1701,4.42716,1.9,-2.68342,133.102,4.31199,65.4829,42.562,234.929,1.24985,-0.175952,247.57,2.73969,2.95473,-34.0860290527344,21.9983940124512,-23.0,22.0,2385070.0,9106.29,pp-riro,4,0,-1,-1
1570542697.0,2019-10-08,15:51:37.000,14.0,12.0,15.9700002670288,13.8,16.1,9.3,21.1,-34.7,36.8,12.7671,14.6977,8.88612,-4.24676,12.8681,4.3257900000000005,23.8791,-20.9685,37.7387,-0.071654,0.29047,1.11521,242.2,5.6,52.1701,4.42716,1.9,-2.61749,142.77700000000002,4.31195,66.9724,43.702,234.029,1.24153,-0.177721,247.315,2.84238,3.02171,-33.092681884765604,21.9983940124512,-22.716241836547898,22.0,2385710.0,12767.3,pp-riro,4,0,-1,-1
1570542697.1,2019-10-08,15:51:37.100,14.0,11.0,16.4599990844727,13.0,17.5,9.8,19.1,-34.9,43.5,12.174,16.0547,9.52001,-7.0501,13.8585,5.67279,21.4519,-21.6587,44.478,0.0339019,0.255429,0.938949,242.2,5.6,52.1701,4.42716,1.8,-2.40638,157.154,4.31191,68.608,44.8421,233.028,1.23258,-0.178426,247.023,2.94361,3.08666,-31.746032714843803,21.9994239807129,-21.830247879028303,22.0,2387770.0,22335.0,pp-riro,4,0,-1,-1
1570542697.2,2019-10-08,15:51:37.200,14.0,11.0,17.1000003814697,12.2,18.9,10.1,17.3,-34.7,50.2,11.324000000000002,17.4065,9.88371,-6.28741,11.3536,0.449799,19.0304,-22.1766,50.5799,-0.0505811999999999,0.165093,0.933989,242.2,5.6,52.1701,4.42716,1.8,-1.99248,170.74400000000003,4.31188,70.3896,46.3622,231.928,1.22222,-0.181919,246.769,3.04622,3.15003,-30.938720703125,21.9994239807129,-21.1276454925537,22.0,2391510.0,25842.2,pp-riro,4,0,-1,-1
1570542697.3,2019-10-08,15:51:37.300,14.0,12.0,17.7099990844727,11.2,20.4,10.3,15.6,-34.5,56.4,10.524,18.7298,10.1376,-9.39597,14.1039,4.490419999999999,16.9976,-22.5672,56.3259,0.188503,0.289827,0.8716510000000001,242.2,5.6,52.1701,4.42716,1.8,-1.6423,181.186,4.31184,72.3173,47.5022,230.928,1.21231,-0.180649,246.605,3.13714,3.21403,-29.061279296875,21.9994239807129,-20.2734699249268,22.0,2394010.0,24611.6,pp-riro,4,0,-1,-1
1570542697.4,2019-10-08,15:51:37.400,14.0,12.0,18.0,9.9,21.5,10.6,13.8,-34.1,62.3,9.54736,20.0687,10.4614,-12.9108,10.3584,4.32338,14.9281,-22.9276,62.3522,0.1057309999999999,0.0226515999999999,0.99918,242.2,5.6,52.1701,4.42716,1.8,-1.45834,186.64,4.31179,74.4202,48.6423,229.728,1.20154,-0.178318,246.332,3.22269,3.27624,-26.4464874267578,21.9994239807129,-19.4803371429443,22.0,2395240.0,23534.8,pp-riro,4,0,-1,-1
1570542697.5,2019-10-08,15:51:37.500,14.0,11.0,18.2000007629395,8.5,22.5,10.9,12.4,-33.9,67.8,8.930589999999999,20.6362,10.6258,-13.9579,8.57824,3.3404,13.9089,-23.1869,65.1947,0.00905443,0.129341,0.817757,242.2,5.6,52.1701,4.42716,1.8,-1.06328,193.845,4.31176,76.5815,49.7824,228.628,1.19071,-0.175786,246.199,3.3019300000000005,3.3376300000000003,-24.5468521118164,21.9994239807129,-18.7158660888672,22.0,2397240.0,18950.9,pp-riro,4,0,-1,-1
1570542697.6,2019-10-08,15:51:37.600,14.0,10.0,18.2000007629395,7.2,23.1,10.7,10.0,-33.7,73.1,7.56349,21.5954,10.7575,-12.6888,5.24828,-2.32291,12.3178,-23.6774,70.6855,0.111488,0.134218,1.00486,242.8,6.1,52.1701,4.42716,1.8,-0.400047,183.405,4.311730000000001,78.8304,50.5424,227.528,1.18036,-0.169473,246.045,3.37483,3.3863800000000004,-22.814476013183604,21.9994239807129,-18.0924434661865,22.0,2398940.0,6983.54,pp-riro,4,0,-1,-1
1570542697.7,2019-10-08,15:51:37.700,14.0,7.0,18.2900009155273,6.1,23.7,10.3,8.5,-32.4,78.3,6.33665,22.1165,10.4837,-11.258,6.4877400000000005,-4.9561,10.5503,-23.9787,75.5009,0.231475,0.129821,0.570364,242.8,6.1,52.1701,4.42716,1.8,0.00664899,174.36900000000003,4.3117,81.1086,50.9224,226.528,1.17082,-0.159947,245.941,3.4460900000000003,3.42547,-21.2408294677734,21.9994239807129,-17.5474815368652,22.0,2399070.0,-307.645,pp-riro,4,0,-1,-1
1570542697.8,2019-10-08,15:51:37.800,14.0,9.0,18.5300006866455,5.0,24.1,10.1,6.9,-31.2,83.5,5.305219999999999,22.7325,10.1789,-7.8482,5.74568,-4.59813,9.16309,-23.6741,80.0351,0.258005,0.173876,0.7738229999999999,242.8,6.1,52.1701,4.42716,1.8,0.17232,172.872,4.31168,83.4743,51.6825,225.528,1.16021,-0.153664,245.972,3.52082,3.46422,-20.5376358032227,21.9994239807129,-17.1690254211426,22.0,2398920.0,-2707.27,pp-riro,4,0,-1,-1
1570542697.9,2019-10-08,15:51:37.900,14.0,8.0,18.6200008392334,4.0,24.2,9.9,5.0,-30.8,88.1,4.2860000000000005,23.1559,9.91891,-7.89456,1.30031,-6.39048,7.16896,-23.34,84.9811,-0.0201224,0.1904819999999999,0.694894,242.8,6.1,52.1701,4.42716,1.8,0.397277,171.33,4.31165,85.8693,52.0625,224.528,1.15024,-0.1443,245.961,3.58204,3.49387,-19.0305480957031,21.9994239807129,-16.871282577514602,22.0,2398800.0,2276.57,pp-riro,4,0,-1,-1
1570542698.0,2019-10-08,15:51:38.000,14.0,8.0,18.7600002288818,3.1,24.3,9.6,3.4,-29.8,92.6,3.49495,23.1576,9.71142,-6.39879,4.88632,0.3013,5.598319999999999,-22.8503,89.8678,0.160488,0.232557,0.722649,242.8,6.1,52.1701,4.42716,1.8,0.29311,185.939,4.31162,88.2935,52.4426,223.528,1.14014,-0.135199,245.99,3.64441,3.52109,-18.0696411132812,21.9994239807129,-16.6531963348389,22.0,2398930.0,-2091.99,pp-riro,4,0,-1,-1
1570542698.1,2019-10-08,15:51:38.100,14.0,7.0,18.7199993133545,1.9,24.3,9.9,2.0,-28.9,96.7,2.48603,23.195,9.63949,-7.479319999999999,-0.618257,2.93169,3.79902,-22.2019,94.0781,0.0923606,0.218793,0.775982,242.8,6.1,52.1701,4.42716,1.7,0.3612619999999999,200.777,4.3116,90.8053,52.4426,222.528,1.1304299999999998,-0.122939,245.997,3.69825,3.55251,-17.323776245117198,21.9994239807129,-16.2601585388184,22.0,2398890.0,-830.6410000000001,pp-riro,4,0,-1,-1
1570542698.2,2019-10-08,15:51:38.200,14.0,9.0,18.6200008392334,0.8,24.3,10.1,0.3,-27.8,100.8,0.8942629999999999,23.3034,9.87841,-4.01484,-0.430064,-4.05943,1.23938,-20.9517,100.149,-0.0169113,0.24055,0.479322,242.8,6.1,52.1701,4.42716,1.7,0.357937,214.102,4.31157,93.2295,52.4427,221.528,1.12095,-0.111579,246.001,3.75426,3.58172,-16.830520629882802,21.9994239807129,-15.9404516220093,22.0,2399010.0,1169.05,pp-riro,4,0,-1,-1
1570542698.3,2019-10-08,15:51:38.300,14.0,10.0,18.6700000762939,-0.1,24.2,9.8,-1.4,-26.4,104.8,0.8942629999999999,23.3034,9.87841,-4.01484,-0.430064,-4.05943,1.23938,-20.9517,100.149,-0.0169113,0.24055,0.479322,242.8,6.1,52.1701,4.42716,1.7,0.375668,213.109,4.31154,95.6537,52.4427,220.628,1.11161,-0.100656,246.123,3.81132,3.60731,-16.4225997924805,21.9994239807129,-15.7154541015625,22.0,2399020.0,61.529,pp-riro,4,0,-1,-1
1570542698.4,2019-10-08,15:51:38.400,14.0,9.0,18.8500003814697,-1.3,24.3,10.0,-3.0,-25.2,108.4,0.8942629999999999,23.3034,9.87841,-4.01484,-0.430064,-4.05943,1.23938,-20.9517,100.149,-0.0169113,0.24055,0.479322,242.8,6.1,52.1701,4.42716,1.7,0.370127,219.484,4.31152,98.0779,52.4427,219.628,1.10205,-0.0901646,246.183,3.86231,3.6413,-15.9702987670898,21.9994239807129,-15.368596076965302,22.0,2399120.0,984.464,pp-riro,4,0,-1,-1
1570542698.5,2019-10-08,15:51:38.500,14.0,8.0,18.9500007629395,-2.4,24.1,10.1,-4.8,-24.5,111.9,-1.82453,23.3727,9.84414,-9.65598,-6.0102400000000005,0.598152,-3.79099,-18.6547,109.105,-0.309138,0.0567161999999999,0.453742,242.8,6.1,52.1701,4.42716,1.7,0.393953,230.137,4.31149,100.59,52.4428,218.528,1.09198,-0.0796838999999999,246.218,3.90924,3.67182,-15.7415924072266,21.9994239807129,-15.1481485366821,22.0,2399130.0,61.529,pp-riro,4,0,-1,-1
1570542698.6,2019-10-08,15:51:38.600,14.0,10.0,19.090000152587898,-3.4,23.8,10.1,-6.8,-23.4,115.2,-1.82453,23.3727,9.84414,-9.65598,-6.0102400000000005,0.598152,-3.79099,-18.6547,109.105,-0.309138,0.0567161999999999,0.453742,235.8,5.4,52.1701,4.42716,1.7,0.411129,237.881,4.31147,102.985,52.0628,217.428,1.08286,-0.0671692,246.153,3.95419,3.69803,-15.381462097168,21.9994239807129,-14.9192142486572,22.0,2399210.0,922.935,pp-riro,4,0,-1,-1
1570542698.7,2019-10-08,15:51:38.700,14.0,10.0,19.1299991607666,-4.4,23.3,10.0,-8.5,-22.5,118.3,-3.65859,22.6156,9.75533,-5.00961,-5.12932,0.950837,-7.879119999999999,-17.4418,115.966,-0.263888,0.0865575,0.577863,235.8,5.4,52.1701,4.42716,1.7,0.409467,232.489,4.3114300000000005,105.35,51.6828,216.328,1.07378,-0.0551221999999999,246.105,3.99562,3.72672,-15.0742416381836,21.9994239807129,-14.6761827468872,22.0,2399290.0,861.4060000000001,pp-riro,4,0,-1,-1
1570542698.8,2019-10-08,15:51:38.800,14.0,11.0,19.0400009155273,-5.3,22.9,10.0,-10.1,-21.4,120.9,-4.66492,22.2488,9.72712,-5.63874,-6.49694,0.948227,-9.78091,-16.3623,118.545,-0.265161,0.1884839999999999,0.416506,235.8,5.4,52.1701,4.42716,1.7,0.393953,226.546,4.31139,107.658,51.3029,215.228,1.06481,-0.043699,246.06,4.03177,3.75172,-14.9530639648438,21.9994239807129,-14.5404434204102,22.0,2399410.0,1169.05,pp-riro,4,0,-1,-1
1570542698.9,2019-10-08,15:51:38.900,14.0,10.0,18.9899997711182,-6.2,22.7,9.9,-11.5,-20.5,123.3,-5.5848,21.9484,9.69024,-10.9107,-5.13931,-0.8502200000000001,-11.166,-15.4054,120.901,-0.00368634,0.0927445,0.4017699999999999,235.8,5.4,52.1701,4.42716,1.7,0.383979,219.172,4.31135,109.936,50.9229,214.028,1.05569,-0.0327381,245.941,4.06419,3.77776,-14.8711395263672,21.9994239807129,-14.4368762969971,22.0,2399530.0,892.17,pp-riro,4,0,-1,-1
1570542699.0,2019-10-08,15:51:39.000,14.0,10.0,18.840000152587898,-7.2,22.5,9.6,-12.8,-20.0,125.5,-6.06396,21.7948,9.59113,-10.0935,-0.322513,-0.630941,-12.0725,-15.272,122.147,-0.135547,-0.00761984,0.4483229999999999,235.8,5.4,52.1701,4.42716,1.7,0.382871,231.343,4.31131,112.214,50.1629,212.928,1.04726,-0.0192968,245.859,4.08876,3.80776,-14.630485534668,21.9994239807129,-14.166157722473098,22.0,2399610.0,584.525,pp-riro,4,0,-1,-1
1570542699.1,2019-10-08,15:51:39.100,14.0,10.0,19.0799999237061,-8.1,22.1,9.8,-13.5,-20.0,127.7,-6.06396,21.7948,9.59113,-10.0935,-0.322513,-0.630941,-12.0725,-15.272,122.147,-0.135547,-0.00761984,0.4483229999999999,235.8,5.4,52.1701,4.42716,1.5,0.435509,260.315,4.31126,114.434,49.4029,211.828,1.03894,-0.00644159,245.778,4.10998,3.829930000000001,-14.441032409668,21.9994239807129,-14.0896692276001,22.0,2399600.0,0.0,pp-riro,4,0,-1,-1
1570542699.2,2019-10-08,15:51:39.200,14.0,11.0,19.1700000762939,-9.0,21.7,10.0,-14.5,-19.8,129.6,-8.10484,21.23,9.55752,-9.78942,-1.70754,8.89305,-14.9676,-14.8316,126.465,-0.383973,-0.0863393,0.323212,235.8,5.4,52.1701,4.42716,1.5,0.479281,274.151,4.31122,116.654,48.2629,210.728,1.03105,0.0088793,245.649,4.12619,3.85002,-14.1628265380859,21.9994239807129,35.0,22.0,2399620.0,430.703,pp-riro,4,0,-1,-1
1570542699.3,2019-10-08,15:51:39.300,14.0,9.0,19.3099994659424,-9.6,21.2,9.9,-15.9,-19.6,131.8,-8.52109,21.0346,9.70383,-11.1957,-7.67117,-5.04789,-15.5139,-14.7869,127.408,0.0203148,-0.0832923,0.297023,235.8,5.4,52.1701,4.42716,1.5,0.638857,269.706,4.31118,118.815,47.503,209.528,1.02255,0.0208661,245.511,4.1494800000000005,3.86729,-13.9802017211914,21.9994239807129,35.0,22.0,2398800.0,-16059.1,pp-riro,4,0,-1,-1
1570542699.4,2019-10-08,15:51:39.400,14.0,13.0,19.3500003814697,-10.1,21.1,9.7,-16.9,-18.6,133.8,-8.79705,20.7413,9.71576,-2.02507,-2.95193,-4.28116,-16.0476,-14.6663,128.44,-0.125051,-0.0226213,0.211557,235.8,5.4,52.1701,4.42716,1.5,1.12922,239.097,4.31114,121.005,46.363,208.428,1.01456,0.0353514,245.426,4.17439,3.87657,-13.4784088134766,21.9994239807129,35.0,22.0,2396820.0,-16889.7,pp-riro,4,0,-1,-1
1570542699.5,2019-10-08,15:51:39.500,14.0,8.0,19.1200008392334,-10.2,20.5,9.2,-17.7,-18.3,135.4,-9.67012,20.4703,9.45881,-4.6744,-1.02264,-5.10273,-17.5192,-14.3546,131.506,-0.0231702,0.0325409,0.347803,235.8,5.4,52.1701,4.42716,1.5,0.815609,179.99,4.3111,123.079,45.223,207.328,1.00686,0.0491691,245.313,4.18832,3.88218,-12.6130752563477,21.9994239807129,35.0,22.0,2399190.0,5968.31,pp-riro,4,0,-1,-1
1570542699.6,2019-10-08,15:51:39.600,14.0,9.0,18.979999542236303,-10.3,20.1,9.1,-18.1,-17.7,137.0,-9.80466,19.3919,8.90312,-1.10825,0.0760467,3.70461,-19.0809,-14.3818,135.082,-0.222221,-0.0431099,0.187963,242.3,5.1,52.1701,4.42716,1.5,0.877666,186.346,4.31105,125.124,44.083,206.328,0.999381,0.0625807,245.297,4.20519,3.88064,-12.051544189453098,21.9994239807129,35.0,22.0,2398650.0,-10459.9,pp-riro,4,0,-1,-1
1570542699.7,2019-10-08,15:51:39.700,14.0,11.0,18.840000152587898,-10.7,20.1,9.3,-18.9,-17.2,138.8,-9.80466,19.3919,8.90312,-1.10825,0.0760467,3.70461,-19.0809,-14.3818,135.082,-0.222221,-0.0431099,0.187963,242.3,5.1,52.1701,4.42716,1.5,0.995686,210.845,4.31104,127.197,42.943000000000005,205.328,0.991729,0.0757453,245.322,4.22435,3.88105,-10.665641784668,21.9994239807129,35.0,22.0,2398720.0,6337.48,pp-riro,4,0,-1,-1
1570542699.8,2019-10-08,15:51:39.800,14.0,11.0,18.6499996185303,-11.0,19.5,9.5,-19.4,-17.3,140.6,-9.80466,19.3919,8.90312,-1.10825,0.0760467,3.70461,-19.0809,-14.3818,135.082,-0.222221,-0.0431099,0.187963,242.3,5.1,52.1701,4.42716,1.5,0.95413,222.236,4.31102,129.154,42.183,204.328,0.983981,0.0856855,245.378,4.24078,3.88798,-8.92131805419922,21.9994239807129,35.0,22.0,2398930.0,-1907.4,pp-riro,4,0,-1,-1
1570542699.9,2019-10-08,15:51:39.900,14.0,10.0,18.7399997711182,-11.2,19.5,9.5,-20.2,-16.9,141.5,-10.288,19.1584,9.09224,-3.28407,-5.5021,0.732581,-19.977,-13.7374,137.982,-0.0610577999999999,-0.249034,0.329917,242.3,5.1,52.1701,4.42716,1.5,1.02505,236.741,4.31099,131.053,40.663,203.328,0.977148,0.100534,245.297,4.24482,3.88278,-6.85270690917969,21.9994239807129,35.0,22.0,2398930.0,2153.51,pp-riro,4,0,-1,-1
1570542700.0,2019-10-08,15:51:40.000,14.0,10.0,18.6000003814697,-11.3,19.0,9.8,-20.4,-16.3,142.3,-10.8716,18.8312,9.31258,-5.03218,-4.73271,-0.770466,-21.1255,-14.9553,140.459,-0.105955,0.154058,0.137891,242.3,5.1,52.1701,4.42716,1.5,1.0006700000000002,222.872,4.310969999999999,133.039,39.523,202.228,0.969336,0.112631,245.27,4.25157,3.87824,-4.739715576171879,21.9994239807129,35.0,22.0,2399320.0,1907.4,pp-riro,4,0,-1,-1
1570542700.1,2019-10-08,15:51:40.100,14.0,9.0,18.5,-11.4,18.7,9.9,-20.8,-17.0,143.2,-10.8383,18.7083,9.36328,-1.9553,-7.16732,-0.338701,-21.2716,-14.6793,141.015,-0.0217696,-0.0710432,0.104646,242.3,5.1,52.1701,4.42716,1.3,0.990699,214.836,4.31095,134.879,38.763000000000005,201.228,0.96181,0.12159,245.331,4.2503,3.87694,-2.640380859375,21.9994239807129,35.0,22.0,2399510.0,3907.09,pp-riro,4,0,-1,-1
1570542700.2,2019-10-08,15:51:40.200,14.0,8.0,18.3099994659424,-11.2,18.6,10.0,-21.1,-16.9,142.8,-11.1252,18.283,9.69394,5.54283,-1.56805,5.88111,-22.0309,-15.3869,142.33100000000002,-0.13742,-0.186873,-0.0286354,242.3,5.1,52.1701,4.42716,1.3,0.953576,205.805,4.31093,136.748,37.243,200.128,0.954593,0.135563,245.231,4.23407,3.85802,-0.539344787597656,21.9994239807129,35.0,22.0,2399850.0,707.5830000000001,pp-riro,4,0,-1,-1
1570542700.3,2019-10-08,15:51:40.300,14.0,10.0,18.1200008392334,-11.2,18.6,10.2,-21.0,-16.8,141.4,-11.0568,18.3099,9.83265,3.78273,-2.76302,5.4930900000000005,-21.9818,-16.0473,142.35299999999998,-0.0196942,-0.2106179999999999,-0.00507299,242.3,5.1,52.1701,4.42716,1.3,0.961333,206.571,4.31091,138.64700000000002,36.103,199.028,0.946872,0.146742,245.231,4.2060900000000006,3.84578,1.5754013061523402,21.9994239807129,35.0,22.0,2399930.0,1384.4,pp-riro,4,0,-1,-1
1570542700.4,2019-10-08,15:51:40.400,14.0,10.0,17.9200000762939,-10.9,18.6,10.9,-21.5,-17.9,140.7,-11.0568,18.3099,9.83265,3.78273,-2.76302,5.4930900000000005,-21.9818,-16.0473,142.35299999999998,-0.0196942,-0.2106179999999999,-0.00507299,242.3,5.1,52.1701,4.42716,1.3,0.960225,210.541,4.31088,140.516,34.9631,197.928,0.939187,0.157628,245.24,4.17716,3.81521,3.67367553710938,21.9994239807129,35.0,22.0,2400130.0,1845.87,pp-riro,4,0,-1,-1
1570542700.5,2019-10-08,15:51:40.500,14.0,13.0,17.6200008392334,-10.5,19.0,11.1,-21.7,-19.2,139.8,-11.1693,18.4012,9.90246,-7.95154,-1.89831,-1.68223,-22.193,-16.8769,142.121,-0.0232559,-0.0961243999999999,-0.244561,242.3,5.1,52.1701,4.42716,1.3,0.96632,210.162,4.31086,142.327,33.8231,196.728,0.931391,0.168201,245.159,4.14394,3.78433,5.78216552734375,21.9994239807129,35.0,22.0,2400250.0,1353.64,pp-riro,4,0,-1,-1
1570542700.6,2019-10-08,15:51:40.600,14.0,13.0,17.4200000762939,-10.2,20.0,11.8,-22.1,-20.3,137.8,-10.6176,19.0766,10.9456,0.7504109999999999,6.61787,-0.823684,-23.34,-20.3882,140.21200000000002,-0.227991,-0.0291614,-0.441964,243.8,5.3,52.1701,4.42716,1.3,0.975739,231.245,4.31083,144.255,32.6831,195.528,0.923168,0.178752,245.171,4.09748,3.74433,7.88385009765625,21.9994239807129,35.0,22.0,2400480.0,430.703,pp-riro,4,0,-1,-1
1570542700.7,2019-10-08,15:51:40.700,14.0,12.0,17.370000839233402,-9.4,20.3,13.2,-23.0,-22.8,136.4,-10.6176,19.0766,10.9456,0.7504109999999999,6.61787,-0.823684,-23.34,-20.3882,140.21200000000002,-0.227991,-0.0291614,-0.441964,243.8,5.3,52.1701,4.42716,1.3,1.0067700000000002,252.516,4.31081,146.299,31.9231,194.228,0.914016,0.186742,245.249,4.04891,3.68874,9.98892974853516,21.9994239807129,35.0,22.0,2400420.0,-1230.58,pp-riro,4,0,-1,-1
1570542700.8,2019-10-08,15:51:40.800,14.0,11.0,17.7199993133545,-8.7,20.7,14.3,-23.5,-24.9,134.1,-10.6176,19.0766,10.9456,0.7504109999999999,6.61787,-0.823684,-23.34,-20.3882,140.21200000000002,-0.227991,-0.0291614,-0.441964,243.8,5.3,52.1701,4.42716,1.3,1.09542,297.509,4.31079,148.314,30.7831,192.728,0.904679,0.196955,245.13,3.99045,3.64,12.0940170288086,21.9994239807129,35.0,22.0,2400290.0,-676.819,pp-riro,4,0,-1,-1
1570542700.9,2019-10-08,15:51:40.900,14.0,13.0,18.2099990844727,-7.4,20.9,15.3,-23.6,-27.0,131.0,-10.6176,19.0766,10.9456,0.7504109999999999,6.61787,-0.823684,-23.34,-20.3882,140.21200000000002,-0.227991,-0.0291614,-0.441964,243.8,5.3,52.1701,4.42716,1.3,1.14418,299.596,4.31076,150.33,30.0232,191.228,0.895048,0.204504,245.08900000000003,3.92401,3.57651,14.1939849853516,21.9994239807129,35.0,22.0,2400610.0,5322.26,pp-riro,4,0,-1,-1
1570542701.0,2019-10-08,15:51:41.000,14.0,9.0,18.729999542236303,-5.6,20.8,16.3,-23.4,-29.9,127.4,-10.0329,20.3678,12.504,6.02851,1.3126799999999998,9.91399,-25.1206,-24.0374,138.401,-0.205642,-0.504774,-0.518804,243.8,5.3,52.1701,4.42716,1.3,1.11481,291.664,4.31074,152.345,29.2632,189.728,0.885388,0.211876,245.075,3.8454,3.49796,16.3024749755859,21.9994239807129,35.0,22.0,2400980.0,6860.48,pp-riro,4,0,-1,-1
1570542701.1,2019-10-08,15:51:41.100,14.0,9.0,19.1499996185303,-3.9,20.7,16.9,-22.4,-32.9,122.8,-5.6683,21.6384,16.7321,23.2744,3.84946,17.7398,-27.0105,-34.995,129.714,0.0950157,-0.353411,-0.737581,243.8,5.3,52.1701,4.42715,1.1,1.08766,287.402,4.31072,154.389,28.8832,188.028,0.874872,0.216731,244.999,3.7567,3.42844,18.4143753051758,21.9994239807129,35.0,22.0,2401230.0,1138.29,pp-riro,4,0,-1,-1
1570542701.2,2019-10-08,15:51:41.200,14.0,11.0,19.3799991607666,-2.3,20.3,17.2,-20.0,-35.8,116.0,-4.93012,21.8552,17.0659,14.7964,1.0606,5.20477,-26.3678,-36.4809,127.137,-0.333344,-0.0269033,-0.8005899999999999,243.8,5.3,52.1701,4.42715,1.1,1.09819,273.58,4.31069,156.405,28.5033,186.428,0.8646940000000001,0.2214219999999999,245.01,3.64292,3.36447,20.5415954589844,21.9994239807129,35.0,22.0,2401530.0,4891.55,pp-riro,4,0,-1,-1
1570542701.3,2019-10-08,15:51:41.300,14.0,9.0,19.4599990844727,-0.6,19.7,17.5,-16.2,-39.2,107.8,-3.18257,21.7789,17.7115,9.4884,-5.33551,5.976430000000001,-23.7123,-39.8481,120.843,-0.1689999999999999,-0.139015,-1.12297,243.8,5.3,52.1701,4.42715,1.1,1.03503,248.278,4.31067,158.361,28.1233,184.728,0.854416,0.225963,244.936,3.51243,3.2953300000000003,22.6637115478516,21.9994239807129,35.0,22.0,2402080.0,4583.91,pp-riro,4,0,-1,-1
1570542701.4,2019-10-08,15:51:41.400,14.0,11.0,19.4200000762939,1.4,18.7,17.3,-12.2,-41.6,99.3,-1.26688,21.1363,18.2557,18.8837,-12.1134,4.28872,-20.7142,-44.373000000000005,113.814,-0.400289,-0.434558,-1.42746,243.8,5.3,52.1701,4.42715,1.1,1.0006700000000002,225.603,4.31065,160.26,28.1234,183.127,0.8443709999999999,0.228026,244.969,3.3908400000000003,3.21431,24.7705078125,21.9994239807129,35.0,22.0,2402510.0,3261.04,pp-riro,4,0,-1,-1
1570542701.5,2019-10-08,15:51:41.500,14.0,9.0,19.229999542236303,3.6,18.2,17.0,-7.6,-42.4,90.2,1.07094,20.4394,18.2589,33.5722,-3.54469,-6.63022,-16.5221,-48.0775,105.255,-0.359427,-0.0788315,-1.10766,243.8,5.3,52.1701,4.42715,1.1,0.967428,210.844,4.31062,162.071,28.5034,181.627,0.834665,0.227677,245.088,3.27242,3.12597,26.8670654296875,21.9994239807129,23.0,22.0,2402820.0,2984.16,pp-riro,4,0,-1,-1
1570542701.6,2019-10-08,15:51:41.600,14.0,11.0,18.8600006103516,5.6,17.4,17.3,-1.8,-42.3,80.1,1.07094,20.4394,18.2589,33.5722,-3.54469,-6.63022,-16.5221,-48.0775,105.255,-0.359427,-0.0788315,-1.10766,242.2,4.9,52.1701,4.42715,1.1,0.959117,209.186,4.31059,163.91099999999997,28.8835,180.02700000000002,0.824607,0.22737,245.175,3.1428,3.04226,28.985778808593803,21.9994239807129,23.0,22.0,2402930.0,2061.22,pp-ro,1,1,-1,-1
1570542701.7,2019-10-08,15:51:41.700,14.0,10.0,18.5799999237061,7.5,16.5,17.2,4.2,-42.1,69.5,5.87507,19.1923,18.2736,21.7133,-2.27937,8.73268,-4.77822,-50.8371,83.5524,-0.264888,-0.4723159999999999,-1.06855,242.2,4.9,52.1701,4.42715,1.1,0.969644,221.027,4.31056,165.605,29.2636,178.627,0.815542,0.226925,245.334,3.00622,2.95989,30.8660583496094,21.9994239807129,23.0,22.0,2403020.0,553.761,pp-ro,1,1,-1,-1
1570542701.8,2019-10-08,15:51:41.800,14.0,10.0,18.1499996185303,9.3,15.1,17.0,10.2,-41.6,59.4,8.105310000000001,18.4366,18.3018,18.0505,-13.7958,-1.05455,2.0688,-52.3684,71.6808,-0.437063,-0.250372,-1.31301,242.2,4.9,52.1701,4.42715,1.1,1.004,236.275,4.31053,167.153,30.0236,177.127,0.806435,0.224136,245.388,2.87766,2.87433,32.4022827148438,21.9994239807129,23.0,22.0,2403090.0,1076.76,pp-ro,1,1,-1,-1
1570542701.9,2019-10-08,15:51:41.900,14.0,11.0,17.8500003814697,10.2,14.5,16.6,13.2,-41.1,54.2,8.105310000000001,18.4366,18.3018,18.0505,-13.7958,-1.05455,2.0688,-52.3684,71.6808,-0.437063,-0.250372,-1.31301,242.2,4.9,52.1701,4.42715,1.1,1.0112,231.74400000000003,4.3105,168.701,30.7837,176.42700000000002,0.7996,0.221402,246.037,2.81171,2.83049,33.584259033203104,21.9994239807129,23.0,22.0,2403270.0,2122.75,pp-ro,1,1,-1,-1
1570542702.0,2019-10-08,15:51:42.000,14.0,11.0,17.6499996185303,11.7,13.1,15.8,21.6,-37.9,39.6,10.4364,16.8371,18.1136,19.0961,-17.4339,-1.86541,9.40409,-52.5965,60.0162,-0.275698,-0.0300536,-1.09208,242.2,4.9,52.1701,4.42715,1.1,0.979064,211.152,4.31047,170.044,32.3038,174.227,0.788687,0.214187,245.588,2.614,2.74837,34.400070190429695,21.9994239807129,23.0,22.0,2403660.0,4430.09,pp-ro,1,1,-1,-1
1570542702.1,2019-10-08,15:51:42.100,14.0,11.0,17.5,12.9,11.6,14.8,24.0,-36.2,35.0,14.1561,13.9905,16.4143,13.4507,-19.2334,-11.7109,23.4072,-48.9002,36.5266,-0.296018,0.0750368,-1.37383,242.2,4.9,52.1701,4.42715,1.0,0.94194,201.394,4.31043,170.68599999999998,32.6838,173.52700000000002,0.7846489999999999,0.212761,245.58900000000003,2.54455,2.66344,34.8582153320312,21.9994239807129,23.0,22.0,2403920.0,1692.05,pp-ro,1,1,-1,-1
1570542702.2,2019-10-08,15:51:42.200,14.0,12.0,17.4500007629395,14.3,10.3,13.9,27.9,-32.7,27.0,14.9038,13.26,15.9116,18.0446,-6.756869999999999,-6.92325,26.3982,-47.3676,30.6647,-0.562608,-0.300166,-1.50624,242.2,4.9,52.1701,4.42715,1.0,0.946373,193.456,4.3104,171.825,34.2039,172.227,0.7768510000000001,0.205494,245.675,2.41972,2.57659,34.975738525390604,21.9994239807129,23.0,22.0,2404050.0,1907.4,pp-ro,1,1,-1,-1
1570542702.3,2019-10-08,15:51:42.300,14.0,11.0,17.1399993896484,14.9,8.7,12.7,31.2,-29.5,19.7,16.3483,11.6561,14.7844,9.74108,-22.7255,-10.0488,31.2055,-43.8048,21.695,-0.935615,0.0208976,-1.0884200000000002,242.2,4.9,52.1701,4.42715,1.0,0.922547,189.814,4.31037,172.84799999999998,35.7239,171.02700000000002,0.76965,0.198211,245.77,2.30378,2.49922,34.7645416259766,21.9994239807129,21.8353061676025,22.0,2404350.0,738.3480000000001,pp-ro,1,1,-1,-1
1570542702.4,2019-10-08,15:51:42.400,14.0,11.0,16.979999542236303,15.6,7.6,11.6,34.0,-25.6,13.4,17.7437,9.22214,12.7182,4.26001,-18.5489,-17.5112,35.8533,-37.406,10.832,-0.39997,-0.170716,-1.41889,242.2,4.9,52.1701,4.42715,1.0,0.925872,180.433,4.31034,173.72400000000002,36.864,169.92700000000002,0.763346,0.192939,245.793,2.18896,2.42663,34.153106689453104,21.9994239807129,20.6135959625244,22.0,2404490.0,2122.75,pp-ro,1,1,-1,-1
1570542702.5,2019-10-08,15:51:42.500,14.0,11.0,16.8299999237061,16.2,6.3,10.3,35.8,-19.6,5.2,18.4686,7.88052,11.4075,5.33864,-11.2407,-14.1376,37.782,-32.5175,4.7599,-0.235708,0.256252,-1.09144,242.2,4.9,52.1701,4.42715,1.0,0.8992760000000001,176.68200000000002,4.3103,174.571,38.7641,168.92700000000002,0.75695,0.183576,245.996,2.02734,2.34476,33.180618286132805,21.9994239807129,19.1832065582275,22.0,2404740.0,1722.81,pp-ro,1,1,-1,-1
1570542702.6,2019-10-08,15:51:42.600,14.0,11.0,16.620000839233402,16.7,5.1,9.2,37.7,-17.5,2.3,19.0799,6.2701,10.1598,2.36091,-13.7823,-7.98715,39.4241,-28.1052,-1.28757,-0.61188,0.174851,-1.27972,244.8,5.3,52.1701,4.42715,1.0,0.904262,181.308,4.31027,175.213,40.2841,168.02700000000002,0.751607,0.176127,246.08,1.97258,2.26786,31.8521728515625,21.9994239807129,17.827682495117198,22.0,2404770.0,584.525,pp-ro,1,1,-1,-1
1570542702.7,2019-10-08,15:51:42.700,14.0,10.0,16.3999996185303,16.9,4.0,8.1,39.2,-13.6,-2.5,19.0799,6.2701,10.1598,2.36091,-13.7823,-7.98715,39.4241,-28.1052,-1.28757,-0.61188,0.174851,-1.27972,244.8,5.3,52.1701,4.42715,1.0,0.927534,192.273,4.31025,175.768,42.1842,167.227,0.7465310000000001,0.166592,246.25,1.87401,2.19929,30.1711730957031,21.9994239807129,16.618606567382802,22.0,2404800.0,399.9380000000001,pp-ro,1,1,-1,-1
1570542702.8,2019-10-08,15:51:42.800,14.0,10.0,16.3999996185303,17.1,3.0,7.0,40.1,-9.9,-7.0,19.5746,4.2327,8.22305,-1.5979,-17.1902,-12.2137,40.8792,-21.9012,-8.94764,-0.3830949999999999,0.0577911999999999,-1.00606,244.8,5.3,52.1701,4.42715,1.0,0.921993,180.597,4.310230000000001,176.235,43.7042,166.52700000000002,0.742201,0.159074,246.374,1.77941,2.12881,28.1529388427734,21.9994239807129,15.3575315475464,22.0,2405090.0,2830.33,pp-ro,1,1,-1,-1
1570542702.9,2019-10-08,15:51:42.900,14.0,12.0,16.4500007629395,16.9,2.4,5.9,41.0,-6.2,-11.1,19.5756,3.09085,6.928139999999999,-4.93687,-10.2331,-10.5619,41.6643,-17.4514,-13.46,-0.390739,0.289987,-1.05386,244.8,5.3,52.1701,4.42715,1.0,0.897059,175.683,4.31021,176.58599999999998,45.2243,165.827,0.738157,0.151466,246.427,1.6891200000000002,2.0772,26.0444488525391,21.9994239807129,14.4657773971558,22.0,2405310.0,1630.52,pp-ro,1,1,-1,-1
1570542703.0,2019-10-08,15:51:43.000,14.0,12.0,16.3999996185303,16.7,1.4,5.0,41.8,-2.9,-14.8,19.2843,2.15781,5.64652,-8.47753,-4.00704,-5.317740000000001,42.1008,-12.6624,-17.3399,-0.236188,0.160166,-1.09309,244.8,5.3,52.1701,4.42715,1.0,0.8998299999999999,176.676,4.31019,176.878,47.1243,165.227,0.734275,0.141828,246.59,1.60977,2.0145,23.944480895996104,21.9994239807129,13.3386240005493,22.0,2405340.0,553.761,pp-ro,1,1,-1,-1
1570542703.1,2019-10-08,15:51:43.100,14.0,13.0,15.8500003814697,16.6,0.6,4.2,42.2,0.3,-18.2,19.11,1.02909,4.60387,1.4735200000000002,-10.4108,-4.67665,42.162,-8.294410000000001,-21.477,-0.0647125,0.336834,-0.99824,244.8,5.3,52.1701,4.42716,1.2,0.908695,173.628,4.31016,177.111,48.6444,164.727,0.7310800000000001,0.13417,246.718,1.53376,1.95722,21.3063125610352,21.9994239807129,12.3045101165771,22.0,2405450.0,1568.99,pp-ro,1,1,-1,-1
1570542703.2,2019-10-08,15:51:43.200,14.0,14.0,15.460000038147,16.3,0.0,3.5,42.7,3.1,-21.5,18.7543,0.5142220000000001,4.14535,-10.1415,-14.8004,-18.3307,41.915,-6.32892,-23.1768,-0.0248869,0.171724,-0.540321,244.8,5.3,52.1701,4.42716,1.2,0.87545,156.731,4.3101400000000005,177.22799999999998,50.5444,164.227,0.727883,0.1244339999999999,246.85,1.46554,1.9132,19.2012252807617,21.9994239807129,11.5306558609009,22.0,2405770.0,1876.63,pp-ro,1,1,-1,-1
1570542703.3,2019-10-08,15:51:43.300,14.0,15.0,15.0,16.1,-0.3,2.6,42.9,5.6,-24.6,18.1387,-0.49048,2.82349,-6.02077,-9.75728,-11.4659,42.8945,-0.8266620000000001,-27.7171,-0.208769,0.207976,-0.654803,244.8,5.3,52.1701,4.42716,1.2,0.855503,146.72299999999998,4.31012,177.28599999999997,52.0645,163.827,0.725384,0.116627,246.942,1.40228,1.86841,18.148681640625,21.9994239807129,10.7222747802734,22.0,2405940.0,1784.34,pp-ro,1,1,-1,-1
1570542703.4,2019-10-08,15:51:43.400,14.0,15.0,14.6999998092651,16.4,-1.3,1.4,42.9,8.6,-27.7,18.1486,-1.15601,1.73812,-2.21775,-9.07407,-9.45224,43.1161,3.0960400000000003,-30.239,-0.10262,0.177525,-0.8257059999999999,244.8,5.3,52.1701,4.42716,1.2,0.8532870000000001,153.75,4.3101,177.28599999999997,53.9645,163.52700000000002,0.723015,0.1068109999999999,247.151,1.3340299999999998,1.77853,16.1832580566406,21.9994239807129,9.00196266174316,22.0,2406030.0,584.525,pp-ro,1,1,-1,-1
1570542703.5,2019-10-08,15:51:43.500,14.0,14.0,14.8199996948242,16.6,-2.8,0.4,43.0,10.1,-29.9,18.1748,-1.7321799999999998,1.08874,0.7488279999999999,-9.62782,-12.4537,42.61600000000001,4.52384,-31.5686,0.0720363999999999,0.0492825,-0.597083,244.8,5.3,52.1701,4.42716,1.2,0.894843,179.731,4.31007,177.14,55.4846,163.227,0.721278,0.0987702999999999,247.185,1.29453,1.67904,14.0509262084961,21.9994239807129,7.06966495513916,22.0,2405980.0,-861.4060000000001,pp-ro,1,1,-1,-1
1570542703.6,2019-10-08,15:51:43.600,14.0,14.0,15.1700000762939,16.3,-3.7,-0.4,43.3,9.7,-31.2,17.8029,-3.10607,0.170421,-2.43757,-10.1333,-8.21735,42.4069,5.8015300000000005,-33.6426,-0.0961747,-0.141206,-0.360033,240.9,4.5,52.1701,4.42716,1.2,0.919777,194.588,4.31004,176.84799999999998,57.3846,163.127,0.7201770000000001,0.0885577999999999,247.343,1.29136,1.6126,12.346076965332,21.9994239807129,5.76176881790161,22.0,2405950.0,-553.761,pp-ro,1,1,-1,-1
1570542703.7,2019-10-08,15:51:43.700,14.0,13.0,15.6800003051758,16.4,-4.3,-1.1,43.9,9.8,-32.5,17.6188,-4.13901,-0.914419,-2.22801,-9.33187,-8.81253,42.3669,6.56451,-34.6484,0.2428699999999999,0.0722493,-0.266939,240.9,4.5,52.1701,4.42716,1.2,0.967428,217.961,4.31,176.52700000000002,59.2846,163.02700000000002,0.7190989999999999,0.0783817,247.496,1.28177,1.56645,10.6139831542969,21.9994239807129,4.863041400909419,22.0,2405890.0,-522.996,pp-ro,1,1,-1,-1
1570542703.8,2019-10-08,15:51:43.800,14.0,10.0,15.960000038147,16.7,-4.6,-1.0,45.6,10.6,-35.0,18.0108,-5.19955,-1.39546,1.50986,-3.72244,1.89924,43.9834,8.75194,-36.5519,0.255037,-0.187243,-0.393519,240.9,4.5,52.1701,4.42716,1.2,0.989037,216.249,4.30996,176.118,61.1847,162.92700000000002,0.71819,0.0680645,247.601,1.24916,1.57045,8.86656188964844,21.9994239807129,4.96177625656128,22.0,2406050.0,2830.33,pp-ro,1,1,-1,-1
1570542703.9,2019-10-08,15:51:43.900,14.0,9.0,16.1800003051758,16.4,-4.5,-1.2,46.0,11.7,-37.6,18.079,-5.34093,-1.45411,-7.308339999999999,-0.788747,-7.57858,44.4628,10.34,-39.0387,0.0289235,-0.000869401,-0.482925,240.9,4.5,52.1701,4.42716,1.2,0.948589,198.055,4.30992,175.709,62.7047,162.827,0.7175699999999999,0.0596929999999999,247.625,1.21013,1.5668799999999998,7.357574462890621,21.9994239807129,4.90242052078247,22.0,2406420.0,3291.8,pp-ro,1,1,-1,-1
1570542704.0,2019-10-08,15:51:44.000,14.0,8.0,16.2900009155273,15.9,-4.6,-1.3,46.9,12.9,-39.8,17.298,-5.395490000000001,-1.6041299999999998,-7.4639,0.5872890000000001,-0.162267,45.3886,12.0316,-41.5687,0.308536,-0.1064599999999999,-0.269159,240.9,4.5,52.1701,4.42716,1.2,0.923101,182.914,4.309880000000001,175.3,64.6047,162.727,0.716567,0.0494173,247.758,1.17592,1.55845,6.21306610107422,21.9994239807129,4.76584768295288,22.0,2406700.0,1692.05,pp-ro,1,1,-1,-1
1570542704.1,2019-10-08,15:51:44.100,14.0,10.0,16.3400001525879,15.7,-4.9,-1.5,48.1,13.7,-41.3,17.0029,-5.5409,-1.58738,-6.864160000000001,-2.56288,-3.66718,46.1553,12.4869,-42.5558,0.377773,-0.0698465,-0.20892,240.9,4.5,52.1701,4.42716,1.3,0.917006,178.30200000000002,4.309830000000001,174.803,66.1247,162.727,0.71639,0.0409118,247.808,1.15383,1.54077,5.398956298828121,21.9994239807129,4.404839992523191,22.0,2406820.0,2399.63,pp-ro,1,1,-1,-1
1570542704.2,2019-10-08,15:51:44.200,14.0,8.0,16.3899993896484,15.4,-4.9,-1.5,49.2,14.2,-42.0,16.8524,-5.56236,-1.6637,-3.07155,2.00298,-0.791726,46.8602,13.1219,-43.1392,0.212274,0.0347190999999999,-0.276005,240.9,4.5,52.1701,4.42716,1.3,0.892073,170.21599999999998,4.3097900000000005,174.30700000000002,68.0248,162.727,0.715813,0.0305135,247.972,1.14644,1.5427,4.833518981933589,21.9994239807129,4.45855903625488,22.0,2407030.0,1630.52,pp-ro,1,1,-1,-1
1570542704.3,2019-10-08,15:51:44.300,14.0,8.0,16.4500007629395,15.2,-5.4,-1.7,50.2,14.4,-42.8,16.438,-5.599469999999999,-1.7930700000000002,-5.7734,-2.8973,2.08161,48.1645,14.6198,-43.3847,0.309827,-0.0251102,-0.140237,240.9,4.5,52.1701,4.42716,1.3,0.8992760000000001,176.692,4.30975,173.752,69.5448,162.827,0.716005,0.0219106999999999,248.07,1.14028,1.51713,4.475852966308589,21.9994239807129,3.92250037193298,22.0,2407180.0,892.17,pp-ro,1,1,-1,-1
1570542704.4,2019-10-08,15:51:44.400,14.0,9.0,16.5499992370605,15.1,-5.7,-1.9,51.1,14.7,-42.6,16.3058,-5.69324,-1.81233,-4.37945,-5.45549,-6.552969999999999,48.5519,14.895,-43.9155,-0.0607833,-0.00679334,-0.147664,240.9,4.5,52.1701,4.42716,1.3,0.907587,182.666,4.30971,173.197,71.4448,162.827,0.7154729999999999,0.011436,248.222,1.14619,1.50189,4.32939147949219,21.9994239807129,3.6372253894805895,22.0,2407210.0,553.761,pp-ro,1,1,-1,-1
1570542704.5,2019-10-08,15:51:44.500,14.0,9.0,16.7099990844727,14.9,-5.9,-1.9,52.1,14.4,-42.1,15.8348,-6.12575,-2.07482,-1.52218,-1.50486,-2.25232,50.3135,15.0455,-44.2646,0.107601,0.0511417,0.0262587,240.9,4.5,52.1701,4.42716,1.3,0.928642,194.235,4.30967,172.612,72.5848,162.92700000000002,0.716044,0.00465973,248.211,1.16048,1.49528,3.92404174804688,21.9994239807129,3.46225380897522,22.0,2407240.0,369.174,pp-ro,1,1,-1,-1
1570542704.6,2019-10-08,15:51:44.600,14.0,10.0,16.9699993133545,14.9,-6.2,-1.8,52.5,13.9,-41.7,15.5377,-6.35316,-2.00807,-0.160211,-2.83861,4.80132,50.9129,15.0536,-43.513000000000005,0.100628,0.0514781999999999,0.0761414,244.2,5.2,52.1701,4.42716,1.3,0.947481,201.529,4.30965,171.99900000000002,74.1048,163.02700000000002,0.716266,-0.00406863,248.3,1.17742,1.49501,3.75373077392578,21.9994239807129,3.4351351261138903,22.0,2407340.0,1322.87,pp-ro,1,1,-1,-1
1570542704.7,2019-10-08,15:51:44.700,14.0,13.0,17.1800003051758,15.0,-6.4,-1.7,52.9,13.6,-41.4,15.6559,-6.623480000000001,-1.94019,1.29671,-3.81198,-1.52906,51.2325,14.8867,-42.9103,0.0336432,0.0997174,0.111221,244.2,5.2,52.1701,4.42716,1.3,0.950251,201.318,4.30963,171.327,76.0049,163.02700000000002,0.715881,-0.0147837,248.41,1.19201,1.5016,3.49825286865234,21.9994239807129,3.58661556243896,22.0,2407570.0,1661.28,pp-ro,1,1,-1,-1
1570542704.8,2019-10-08,15:51:44.800,14.0,14.0,17.3899993896484,15.1,-6.6,-1.8,53.1,13.0,-41.4,15.7238,-6.7679800000000006,-1.89234,0.157926,-2.39377,2.24347,51.5333,14.7526,-42.5852,-0.0858393999999999,-0.00558381,0.0772316,244.2,5.2,52.1701,4.42716,1.3,0.946373,200.894,4.30962,170.655,77.1449,163.02700000000002,0.71627,-0.0217887,248.299,1.2043,1.49674,3.4522705078125,21.9994239807129,3.46146988868713,22.0,2407660.0,1845.87,pp-ro,1,1,-1,-1
1570542704.9,2019-10-08,15:51:44.900,14.0,13.0,17.3299999237061,15.3,-7.0,-1.9,53.2,12.7,-41.3,15.7914,-6.98302,-1.89374,1.9849900000000005,0.426541,3.47879,51.5841,14.2196,-42.5879,0.12067,0.0499163,0.073162,244.2,5.2,52.1701,4.42716,1.3,0.951913,209.814,4.30961,169.925,79.0449,163.127,0.7162350000000001,-0.0326187999999999,248.462,1.21659,1.48994,3.5238037109375,21.9994239807129,3.32841348648071,22.0,2407780.0,830.6410000000001,pp-ro,1,1,-1,-1
1570542705.0,2019-10-08,15:51:45.000,14.0,10.0,17.4400005340576,15.6,-7.5,-1.6,53.3,12.3,-41.8,15.8823,-7.172280000000001,-1.94255,3.28327,-1.28078,-3.11439,51.3313,13.9458,-42.5689,0.101516,-0.0840664,0.187954,244.2,5.2,52.1701,4.42716,1.3,0.999565,238.18400000000003,4.30959,169.22400000000002,80.5649,163.227,0.716504,-0.0415365,248.537,1.22178,1.49871,3.55105590820312,21.9994239807129,3.48832321166992,22.0,2407840.0,492.232,pp-ro,1,1,-1,-1
1570542705.1,2019-10-08,15:51:45.100,14.0,10.0,17.5900001525879,15.8,-7.7,-1.5,53.1,12.0,-42.7,15.8823,-7.172280000000001,-1.94255,3.28327,-1.28078,-3.11439,51.3313,13.9458,-42.5689,0.101516,-0.0840664,0.187954,244.2,5.2,52.1701,4.42716,1.5,1.01619,245.479,4.30958,168.43599999999998,82.4649,163.227,0.716198,-0.0524780999999999,248.625,1.2224,1.5077,3.36199951171875,21.9994239807129,3.69968795776367,22.0,2407860.0,246.116,pp-ro,1,1,-1,-1
1570542705.2,2019-10-08,15:51:45.200,14.0,10.0,17.7399997711182,15.9,-7.9,-1.4,53.1,11.9,-43.7,16.7033,-8.32351,-1.6163,2.19944,-1.57018,-0.936758,50.5881,12.7274,-43.7113,0.0978061,-0.0947648,-0.18629,244.2,5.2,52.1701,4.42716,1.5,1.04334,256.074,4.30957,167.588,83.9849,163.327,0.716724,-0.0617345,248.627,1.21809,1.51366,3.37051391601562,21.9994239807129,3.79080104827881,22.0,2407990.0,1999.69,pp-ro,1,1,-1,-1
1570542705.3,2019-10-08,15:51:45.300,14.0,10.0,17.8299999237061,15.7,-8.0,-1.1,53.0,12.6,-44.9,16.8543,-8.464830000000001,-1.57014,-0.339047,-4.09547,0.977579,50.5838,12.7524,-44.6178,-0.203455,0.077473,-0.145419,244.2,5.2,52.1701,4.42716,1.5,1.04777,261.98400000000004,4.30955,166.8,85.1249,163.327,0.717224,-0.0690505,248.484,1.19997,1.52419,3.65664672851562,21.9994239807129,3.97401666641235,22.0,2408190.0,1692.05,pp-ro,1,1,-1,-1
1570542705.4,2019-10-08,15:51:45.400,14.0,9.0,17.9300003051758,15.5,-8.2,-0.9,52.4,13.1,-46.3,16.5439,-8.92463,-0.991149,-3.10761,-3.42364,0.585868,50.4917,13.4544,-46.67,0.0374640999999999,-0.143011,-0.133703,244.2,5.2,52.1701,4.42716,1.5,1.0378,235.954,4.30954,165.953,87.025,163.327,0.716905,-0.0801303,248.575,1.18461,1.52974,3.78267669677734,21.9994239807129,4.13279342651367,22.0,2408620.0,4430.09,pp-ro,1,1,-1,-1
1570542705.5,2019-10-08,15:51:45.500,14.0,10.0,18.0300006866455,14.7,-8.1,-1.4,51.5,13.6,-47.2,16.0525,-8.84314,-1.25166,-10.9779,3.08624,-2.97468,49.9301,14.036,-48.0498,-0.0428286,-0.0751093,-0.264276,244.2,5.2,52.1701,4.42716,1.5,0.954684,202.298,4.30952,165.106,88.545,163.327,0.717001,-0.0893938,248.548,1.17396,1.50056,3.93936920166016,21.9994239807129,3.5655357837677,22.0,2409230.0,5629.9,pp-ro,1,1,-1,-1
1570542705.6,2019-10-08,15:51:45.600,14.0,10.0,18.0799999237061,14.0,-8.1,-1.9,51.3,13.5,-47.5,15.056,-8.59877,-1.79043,-1.47602,-0.623077,-2.35359,49.4945,13.9325,-49.3366,0.215834,-0.0981613,0.0430277,232.2,5.1,52.1701,4.42716,1.5,0.92698,193.279,4.30947,164.28799999999998,90.065,163.42700000000002,0.7172890000000001,-0.0985547,248.618,1.1779,1.46747,4.170997619628911,21.9994239807129,2.90788507461548,22.0,2409330.0,2122.75,pp-ro,1,1,-1,-1
1570542705.7,2019-10-08,15:51:45.700,14.0,9.0,18.1800003051758,13.5,-8.2,-2.0,50.8,13.4,-47.6,15.056,-8.59877,-1.79043,-1.47602,-0.623077,-2.35359,49.4945,13.9325,-49.3366,0.215834,-0.0981613,0.0430277,232.2,5.1,52.1701,4.42716,1.5,0.936399,195.832,4.3093900000000005,163.47,91.585,163.52700000000002,0.717535,-0.107679,248.7,1.18422,1.45276,4.17610168457031,21.9994239807129,2.62564039230347,22.0,2409420.0,1169.05,pp-ro,1,1,-1,-1
1570542705.8,2019-10-08,15:51:45.800,14.0,10.0,18.1299991607666,13.2,-8.2,-2.0,50.5,13.7,-47.8,14.3665,-8.646289999999999,-2.00812,-5.9814,-1.27221,0.104045,49.1127,14.0887,-49.2341,-0.0291325,0.0508961999999999,0.102546,232.2,5.1,52.1701,4.42716,1.5,0.947481,202.895,4.3093,162.65200000000002,93.105,163.727,0.718042,-0.1168,248.859,1.18429,1.45071,3.913818359375,21.9994239807129,2.57728719711304,22.0,2409540.0,1045.99,pp-ro,1,1,-1,-1
1570542705.9,2019-10-08,15:51:45.900,14.0,11.0,18.0799999237061,13.5,-8.0,-2.0,50.2,14.4,-48.5,14.3665,-8.646289999999999,-2.00812,-5.9814,-1.27221,0.104045,49.1127,14.0887,-49.2341,-0.0291325,0.0508961999999999,0.102546,232.2,5.1,52.1701,4.42716,1.5,0.952468,201.5,4.30921,161.834,94.245,163.92700000000002,0.719013,-0.124165,248.887,1.17222,1.47022,3.29387664794922,21.9994239807129,2.91089272499084,22.0,2409690.0,1876.63,pp-ro,1,1,-1,-1
1570542706.0,2019-10-08,15:51:46.000,14.0,10.0,17.840000152587898,13.3,-8.2,-1.7,49.5,15.2,-49.5,14.3665,-8.646289999999999,-2.00812,-5.9814,-1.27221,0.104045,49.1127,14.0887,-49.2341,-0.0291325,0.0508961999999999,0.102546,232.2,5.1,52.1701,4.42716,1.5,0.969644,221.537,4.30912,161.017,95.385,164.127,0.719956,-0.13154,248.923,1.1554,1.47759,2.77952575683594,21.9994239807129,3.00376605987549,22.0,2409830.0,-307.645,pp-ro,1,1,-1,-1
1570542706.1,2019-10-08,15:51:46.100,14.0,10.0,17.6900005340576,13.2,-8.6,-1.9,49.3,15.6,-50.3,14.325,-8.76273,-2.08504,6.969239999999999,1.19892,1.72702,48.4781,15.5616,-49.5515,-0.178644,0.00211404,-0.158708,232.2,5.1,52.1701,4.427169999999999,1.8,0.990699,228.649,4.30903,160.22799999999998,96.905,164.227,0.719982,-0.1405829999999999,249.067,1.14714,1.45845,2.60070037841797,21.9994239807129,2.66800737380981,22.0,2409830.0,92.2935,pp-ro,1,1,-1,-1
1570542706.2,2019-10-08,15:51:46.200,14.0,10.0,17.3899993896484,13.2,-8.6,-2.2,49.2,15.9,-50.5,13.8621,-9.22267,-1.99291,-6.8547,0.7071850000000001,0.766486,47.0975,16.9249,-51.6506,0.0224062,0.1698859999999999,-0.0269435,232.2,5.1,52.1701,4.427169999999999,1.8,0.987375,219.976,4.30895,159.32299999999998,97.665,164.327,0.721286,-0.146483,248.849,1.14504,1.44833,2.74375915527344,21.9994239807129,2.366839408874509,22.0,2410190.0,3199.51,pp-ro,1,1,-1,-1
1570542706.3,2019-10-08,15:51:46.300,14.0,11.0,17.3899993896484,12.9,-8.7,-2.3,49.5,16.1,-51.1,13.5873,-9.23196,-2.21701,-0.908925,-2.05881,0.2645369999999999,46.746,17.590999999999998,-51.8646,0.018355,0.0512334,-0.0486188,232.2,5.1,52.1701,4.427169999999999,1.8,0.976847,218.284,4.30886,158.446,99.5651,164.627,0.721508,-0.1575,249.24,1.14297,1.43916,2.90215301513672,21.9994239807129,2.2315628528595,22.0,2410340.0,2707.28,pp-ro,1,1,-1,-1
1570542706.4,2019-10-08,15:51:46.400,14.0,10.0,17.4400005340576,13.1,-9.0,-2.2,49.7,16.3,-51.9,13.5873,-9.23196,-2.21701,-0.908925,-2.05881,0.2645369999999999,46.746,17.590999999999998,-51.8646,0.018355,0.0512334,-0.0486188,232.2,5.1,52.1701,4.427169999999999,1.8,1.00344,241.901,4.30877,157.57,101.085,164.827,0.721911,-0.166776,249.429,1.13735,1.44663,2.72843170166016,21.9994239807129,2.4058222770690896,22.0,2410430.0,-153.822,pp-ro,1,1,-1,-1
1570542706.5,2019-10-08,15:51:46.500,14.0,11.0,17.4899997711182,13.2,-9.1,-2.2,49.7,16.7,-53.0,13.6792,-9.70327,-2.18183,4.52616,-5.78282,0.6461779999999999,46.7507,17.8551,-52.7602,0.0307242,-0.12283,-0.11085,232.2,5.1,52.1701,4.427169999999999,1.8,1.02505,247.982,4.308680000000001,156.694,102.225,165.128,0.723122,-0.174347,249.54,1.12452,1.45156,2.33670806884766,21.9994239807129,2.42674493789673,22.0,2410430.0,61.529,pp-ro,1,1,-1,-1
1570542706.6,2019-10-08,15:51:46.600,14.0,11.0,17.5900001525879,13.1,-9.3,-2.2,49.5,16.7,-53.7,13.6792,-9.70327,-2.18183,4.52616,-5.78282,0.6461779999999999,46.7507,17.8551,-52.7602,0.0307242,-0.12283,-0.11085,232.7,5.5,52.1701,4.427169999999999,1.8,1.03613,246.908,4.30866,156.197,102.605,165.22799999999998,0.723973,-0.177482,249.45,1.11831,1.44485,2.25666046142578,21.9994239807129,2.21806526184082,22.0,2410690.0,3476.39,pp-ro,1,1,-1,-1
1570542706.7,2019-10-08,15:51:46.700,14.0,11.0,17.4400005340576,12.7,-9.4,-2.4,49.7,16.8,-54.5,13.4568,-10.0956,-2.15587,-3.24172,2.38726,1.69022,46.8,18.1939,-55.3506,-0.153768,-0.190021,-0.136784,232.7,5.5,52.1701,4.427169999999999,1.8,1.01508,242.502,4.3086,155.263,104.505,165.428,0.723846,-0.188668,249.788,1.11522,1.4282,2.40483856201172,21.9994239807129,-35.0,22.0,2410960.0,2153.51,pp-ro,1,1,-1,-1
1570542706.8,2019-10-08,15:51:46.800,14.0,11.0,17.4400005340576,12.4,-9.5,-2.5,49.8,16.7,-55.2,13.054,-10.1067,-2.34344,-3.45765,-2.05736,-0.107572,47.1372,18.1474,-56.0416,0.0176436,-0.0275628,-0.0833768999999999,232.7,5.5,52.1701,4.427169999999999,1.8,1.02117,241.956,4.30856,154.27,105.645,165.72799999999998,0.7252270000000001,-0.196632,249.851,1.1135,1.41671,2.3128662109375,21.9994239807129,-35.0,22.0,2411120.0,1630.52,pp-ro,1,1,-1,-1
1570542706.9,2019-10-08,15:51:46.900,14.0,10.0,17.4400005340576,12.2,-9.7,-2.7,50.2,16.5,-55.9,12.5729,-10.329,-2.50284,-0.768892,-1.37828,-2.67867,47.5164,18.1088,-56.9608,-0.0795289,-0.0694056,-0.149703,232.7,5.5,52.1701,4.427169999999999,1.8,1.00289,230.561,4.30852,153.335,106.785,165.928,0.726147,-0.204472,249.893,1.11291,1.4005,1.849609375,21.9994239807129,-35.0,22.0,2411550.0,3014.92,pp-ro,1,1,-1,-1
1570542707.0,2019-10-08,15:51:47.000,14.0,10.0,17.5400009155273,11.9,-9.6,-2.6,50.5,16.3,-56.2,12.2789,-10.2042,-2.45195,-7.797280000000001,1.86441,-1.23581,47.7538,17.7319,-57.352,0.162245,-0.100469,0.0271964,232.7,5.5,52.1701,4.427169999999999,1.8,0.992916,225.433,4.30848,152.342,108.305,166.22799999999998,0.726878,-0.214123,250.139,1.11839,1.40458,1.02188873291016,21.9994239807129,-35.0,22.0,2411680.0,2430.39,pp-ro,1,1,-1,-1
1570542707.1,2019-10-08,15:51:47.100,14.0,9.0,17.6900005340576,11.8,-9.5,-2.4,50.6,15.6,-56.9,12.1631,-10.1174,-2.25259,5.2947,2.60074,4.22475,48.3953,17.4344,-57.4965,-0.119727,-0.157056,-0.149599,232.7,5.5,52.1701,4.427169999999999,2.0,0.98128,217.96,4.30844,151.378,109.065,166.428,0.728384,-0.220396,250.017,1.12279,1.41796,-0.163848876953125,21.9994239807129,-35.0,22.0,2411900.0,2307.34,pp-ro,1,1,-1,-1
1570542707.2,2019-10-08,15:51:47.200,14.0,10.0,17.9400005340576,11.9,-9.5,-2.4,50.9,14.8,-57.1,12.1631,-10.1174,-2.25259,5.2947,2.60074,4.22475,48.3953,17.4344,-57.4965,-0.119727,-0.157056,-0.149599,232.7,5.5,52.1701,4.427169999999999,2.0,0.964657,213.99400000000003,4.3084,150.414,110.205,166.72799999999998,0.729571,-0.228338,250.135,1.1356,1.4266,-1.70677947998047,21.9994239807129,-35.0,22.0,2412230.0,1938.16,pp-ro,1,1,-1,-1
1570542707.3,2019-10-08,15:51:47.300,14.0,10.0,18.0400009155273,11.9,-9.5,-2.3,51.3,14.2,-56.5,12.0885,-9.94635,-2.24631,1.59305,1.52828,0.254007,48.851000000000006,17.5443,-57.0456,0.0781414,0.0202479,0.143529,232.7,5.5,52.1701,4.427169999999999,2.0,0.967428,216.83,4.30836,149.48,111.725,167.028,0.730057,-0.2378289999999999,250.449,1.15678,1.43772,-3.6012954711914102,21.9994239807129,-35.0,22.0,2412280.0,984.464,pp-ro,1,1,-1,-1
1570542707.4,2019-10-08,15:51:47.400,14.0,10.0,17.9899997711182,12.2,-9.8,-1.9,51.9,13.3,-56.1,12.0885,-9.94635,-2.24631,1.59305,1.52828,0.254007,48.851000000000006,17.5443,-57.0456,0.0781414,0.0202479,0.143529,232.7,5.5,52.1701,4.427169999999999,2.0,0.985158,221.995,4.308330000000001,148.516,112.865,167.22799999999998,0.730874,-0.245778,250.521,1.17818,1.46282,-5.71428680419922,21.9994239807129,-35.0,22.0,2412380.0,1322.87,pp-ro,1,1,-1,-1
1570542707.5,2019-10-08,15:51:47.500,14.0,11.0,17.840000152587898,12.6,-9.7,-1.6,52.5,11.8,-55.7,12.5268,-10.0729,-1.503,1.39814,2.716,2.9687,50.3064,16.3437,-54.6049,0.11704,-0.0825636,0.263341,232.7,5.5,52.1701,4.427169999999999,2.0,0.98405,222.459,4.30829,147.523,114.005,167.428,0.731721,-0.2538289999999999,250.584,1.20715,1.4973,-7.81703186035156,21.9994239807129,-35.0,22.0,2412590.0,2338.1,pp-ro,1,1,-1,-1
1570542707.6,2019-10-08,15:51:47.600,14.0,11.0,17.5900001525879,13.1,-9.5,-1.0,52.9,10.1,-55.3,12.5268,-10.0729,-1.503,1.39814,2.716,2.9687,50.3064,16.3437,-54.6049,0.11704,-0.0825636,0.263341,238.7,5.8,52.1701,4.427169999999999,2.0,0.985713,227.659,4.3083,146.559,115.525,167.628,0.731847,-0.263444,250.848,1.23984,1.5516,-9.91978454589844,21.9994239807129,-35.0,22.0,2412750.0,1015.23,pp-ro,1,1,-1,-1
1570542707.7,2019-10-08,15:51:47.700,14.0,12.0,17.5400009155273,13.7,-9.6,-0.4,54.2,8.6,-53.9,13.4297,-9.72866,-0.309444,4.698,-1.68868,6.23621,51.8901,13.8318,-52.2456,0.0829731,0.250403,0.480109,238.7,5.8,52.1701,4.427169999999999,2.0,1.0067700000000002,235.026,4.30832,145.566,116.665,167.72799999999998,0.732325,-0.271552,250.864,1.28113,1.5961,-12.0327682495117,21.9994239807129,-35.0,22.0,2412860.0,1445.93,pp-ro,1,1,-1,-1
1570542707.8,2019-10-08,15:51:47.800,14.0,11.0,17.5900001525879,14.3,-9.4,0.4,55.1,6.9,-52.6,13.4297,-9.72866,-0.309444,4.698,-1.68868,6.23621,51.8901,13.8318,-52.2456,0.0829731,0.250403,0.480109,238.7,5.8,52.1701,4.427169999999999,2.0,1.0067700000000002,234.61900000000003,4.30835,144.631,118.565,167.72799999999998,0.731073,-0.282634,251.21400000000003,1.32597,1.65854,-14.1389312744141,21.9994239807129,-35.0,22.0,2413090.0,2338.1,pp-ro,1,1,-1,-1
1570542707.9,2019-10-08,15:51:47.900,14.0,11.0,17.6399993896484,15.0,-9.0,1.4,56.1,4.3,-51.5,13.4297,-9.72866,-0.309444,4.698,-1.68868,6.23621,51.8901,13.8318,-52.2456,0.0829731,0.250403,0.480109,238.7,5.8,52.1701,4.427169999999999,2.0,1.0006700000000002,229.959,4.3083800000000005,143.667,119.705,167.72799999999998,0.731117,-0.290659,251.201,1.37781,1.7334599999999998,-15.7228240966797,21.9994239807129,-35.0,22.0,2413290.0,1938.16,pp-ro,1,1,-1,-1
1570542708.0,2019-10-08,15:51:48.000,14.0,12.0,17.840000152587898,15.6,-8.6,2.2,57.2,1.6,-49.9,14.7774,-8.92205,2.053,3.46699,3.83022,10.4785,54.7326,9.11995,-47.8297,0.0940888,0.0721347,0.516451,238.7,5.8,52.1701,4.427169999999999,2.0,0.994024,226.98,4.30841,142.791,121.225,167.628,0.730004,-0.2999159999999999,251.364,1.43804,1.79604,-17.8323974609375,21.9994239807129,-35.0,22.0,2413530.0,2553.45,pp-ro,1,1,-1,-1
1570542708.1,2019-10-08,15:51:48.100,14.0,11.0,17.9899997711182,16.3,-8.2,3.3,58.3,-1.5,-48.2,14.7774,-8.92205,2.053,3.46699,3.83022,10.4785,54.7326,9.11995,-47.8297,0.0940888,0.0721347,0.516451,238.7,5.8,52.1701,4.427169999999999,2.1,0.991253,230.953,4.30844,141.944,122.745,167.428,0.728494,-0.309041,251.489,1.50474,1.86863,-19.9522094726562,21.9994239807129,-35.0,22.0,2413710.0,1230.58,pp-ro,1,1,-1,-1
1570542708.2,2019-10-08,15:51:48.200,14.0,10.0,17.9899997711182,16.8,-7.6,4.7,59.5,-5.9,-46.4,15.7274,-7.860339999999999,4.25516,5.63111,4.66356,16.3825,57.1857,2.94542,-42.665,0.257779,0.0583728,0.7306590000000001,238.7,5.8,52.1701,4.427169999999999,2.1,1.00954,235.682,4.30847,141.097,124.265,167.028,0.726351,-0.318131,251.492,1.5899,1.95365,-22.0686111450195,21.9994239807129,-35.0,22.0,2413820.0,1353.64,pp-ro,1,1,-1,-1
1570542708.3,2019-10-08,15:51:48.300,14.0,9.0,18.1299991607666,17.3,-6.7,5.9,60.7,-10.4,-44.0,16.1283,-7.045389999999999,5.42777,2.63,11.3116,8.76484,57.8557,-1.12786,-39.5077,0.140177,0.214165,0.904097,238.7,5.8,52.1701,4.427169999999999,2.1,1.00788,234.491,4.30849,140.33700000000002,126.165,166.628,0.723328,-0.328361,251.748,1.68435,2.03941,-24.1850128173828,21.9994239807129,-35.0,22.0,2414070.0,2707.27,pp-ro,1,1,-1,-1
1570542708.4,2019-10-08,15:51:48.400,14.0,8.0,18.3299999237061,17.7,-5.7,7.5,61.6,-15.4,-41.1,16.3935,-5.95443,6.76099,4.43571,10.5885,15.9545,58.5654,-5.67202,-35.9596,0.0898061,0.105389,1.04613,238.7,5.8,52.1701,4.427169999999999,2.1,1.0012299999999998,233.525,4.30852,139.724,127.685,166.028,0.720052,-0.336528,251.777,1.7895900000000002,2.1365,-26.2945861816406,21.9994239807129,-35.0,22.0,2414260.0,1568.99,pp-ro,1,1,-1,-1
1570542708.5,2019-10-08,15:51:48.500,14.0,8.0,18.5599994659424,18.0,-4.3,9.0,62.1,-20.5,-37.5,16.3935,-5.95443,6.76099,4.43571,10.5885,15.9545,58.5654,-5.67202,-35.9596,0.0898061,0.105389,1.04613,238.7,5.8,52.1701,4.427169999999999,2.1,1.00898,235.335,4.30855,139.16899999999998,129.585,165.328,0.7156600000000001,-0.345915,251.979,1.90402,2.24145,-28.4041595458984,21.9994239807129,-35.0,22.0,2414460.0,2215.04,pp-ro,1,1,-1,-1
1570542708.6,2019-10-08,15:51:48.600,14.0,8.0,18.8899993896484,18.0,-2.8,10.7,62.6,-26.1,-33.6,16.4984,-5.42004,7.448739999999999,3.18094,10.4024,12.9862,58.8167,-8.07354,-33.9659,0.274945,0.18782,1.03591,241.3,5.6,52.1701,4.427169999999999,2.1,1.00898,241.389,4.30855,138.789,131.485,164.428,0.710302,-0.354539,252.165,2.02659,2.3517200000000003,-30.380615234375,21.9994239807129,-35.0,22.0,2414660.0,1630.52,pp-ro,1,1,-1,-1
1570542708.7,2019-10-08,15:51:48.700,14.0,8.0,19.0300006866455,17.8,-1.0,12.4,62.2,-32.1,-29.1,16.5754,-2.48307,10.4648,-4.08724,12.6399,13.779000000000002,58.1442,-18.7169,-24.3284,0.273551,0.307292,1.31833,241.3,5.6,52.1701,4.427169999999999,2.1,1.0278200000000002,247.876,4.30855,138.556,133.385,163.428,0.704345,-0.362552,252.384,2.15811,2.46916,-32.0054626464844,21.9994239807129,-35.0,22.0,2414760.0,1138.29,pp-ro,1,1,-1,-1
1570542708.8,2019-10-08,15:51:48.800,14.0,9.0,19.1700000762939,17.1,0.9,13.9,61.3,-38.6,-23.6,16.5754,-2.48307,10.4648,-4.08724,12.6399,13.779000000000002,58.1442,-18.7169,-24.3284,0.273551,0.307292,1.31833,241.3,5.6,52.1701,4.427169999999999,2.1,1.03558,251.136,4.30856,138.526,134.905,162.328,0.6983659999999999,-0.368327,252.466,2.30115,2.58624,-33.275299072265604,21.9994239807129,-35.0,22.0,2415000.0,2707.28,pp-ro,1,1,-1,-1
1570542708.9,2019-10-08,15:51:48.900,14.0,8.0,19.3500003814697,16.2,2.9,15.4,59.9,-44.8,-17.2,14.8855,2.14143,14.0719,-9.8937,18.7116,12.8386,52.592,-33.2038,-7.827960000000001,0.154254,0.138313,1.46672,241.3,5.6,52.1701,4.427169999999999,2.1,1.03281,252.518,4.30856,138.643,136.805,161.128,0.691135,-0.374899,252.784,2.44383,2.70664,-34.1969604492188,21.9994239807129,-35.0,22.0,2415220.0,1845.87,pp-ro,1,1,-1,-1
