time,date,time_of_day,airspeed_temperature,airspeed_angle_of_attack,airspeed_apparent_windspeed,kite_0_vx,kite_0_vy,kite_0_vz,kite_0_roll,kite_0_pitch,kite_0_yaw,kite_1_vx,kite_1_vy,kite_1_vz,kite_1_ax,kite_1_ay,kite_1_az,kite_1_roll,kite_1_pitch,kite_1_yaw,kite_1_roll_rate,kite_1_pitch_rate,kite_1_yaw_rate,ground_upwind_direction,ground_wind_velocity,ground_pos_latitude,ground_pos_longitude,ground_pos_altitude,ground_tether_reelout_speed,ground_tether_force,est_upwind_direction,kite_pos_east,kite_pos_north,kite_height,kite_elevation,kite_azimuth,kite_distance,kite_heading,kite_course,kite_actual_steering,kite_actual_depower,kite_set_steering,kite_set_depower,ground_mech_energy,ground_mech_power,flight_phase,flight_phase_index,phase,pattern,pattern_section
1570541570.0,2019-10-08,15:32:50.000,14.0,8.0,15.5900001525879,9.5,-5.0,1.9,18.6,-0.5,-79.5,7.975969999999999,-4.48847,2.00454,10.4486,6.48893,1.79863,18.3452,13.0368,-85.4779,0.123799,0.211858,0.860261,245.4,10.0,52.1701,4.427230000000001,-0.3,-1.97198,108.154,4.25304,59.8462,18.2411,244.023,1.31982,0.163492,251.916,0.493306,1.43154,-34.036529541015604,22.0771789550781,-35.0,22.0,1733480.0,-2614.98,pp-riro,4,0,-1,-1
1570541570.1,2019-10-08,15:32:50.100,14.0,9.0,15.2399997711182,10.6,-4.5,2.3,20.2,-2.5,-74.5,9.01589,-3.97565,2.27983,10.0237,6.837330000000001,3.94004,20.4306,12.5911,-79.8786,0.1283089999999999,0.191874,0.897927,245.4,10.0,52.1701,4.427230000000001,-0.2,-1.95314,107.121,4.25303,59.0868,20.1411,243.923,1.32025,0.130838,251.785,0.6203310000000001,1.54965,-34.678268432617195,22.0395889282227,-35.0,22.0,1733480.0,123.058,pp-riro,4,0,-1,-1
1570541570.2,2019-10-08,15:32:50.200,14.0,8.0,14.890000343322802,11.7,-3.8,2.6,22.0,-4.2,-69.3,10.5802,-3.13452,2.92825,8.49681,8.27097,2.40162,23.2745,11.0647,-71.3736,0.13062,0.20338,1.043,245.4,10.0,52.1701,4.427230000000001,-0.2,-1.93707,97.3735,4.253019999999999,58.8531,20.5211,243.723,1.32043,0.12387,251.567,0.724701,1.6438400000000002,-34.9564819335938,22.0153865814209,-35.0,22.0,1733250.0,-3076.45,pp-riro,4,0,-1,-1
1570541570.3,2019-10-08,15:32:50.300,14.0,9.0,14.710000038147,12.8,-3.0,2.8,23.6,-5.5,-63.9,11.6,-2.23484,3.20135,7.87985,8.8407,2.35581,25.2071,9.57248,-65.0673,0.250796,0.229937,0.978773,245.4,10.0,52.1701,4.427230000000001,-0.2,-1.96256,91.2792,4.253,58.5026,21.6612,243.523,1.32002,0.104776,251.387,0.8441219999999999,1.74345,-34.971832275390604,22.0019989013672,-35.0,22.0,1732590.0,-7137.36,pp-riro,4,0,-1,-1
1570541570.4,2019-10-08,15:32:50.400,14.0,8.0,14.5900001525879,13.8,-1.8,3.4,25.3,-7.0,-58.5,12.6172,-1.45675,3.5198,9.51715,5.99898,1.19074,26.9877,7.80162,-59.403,0.113453,0.182498,1.03823,245.4,10.0,52.1701,4.427230000000001,-0.2,-2.0019,95.9734,4.2529900000000005,58.2398,22.8012,243.323,1.3192,0.0862286999999999,251.233,0.963661,1.86522,-34.971832275390604,22.0009689331055,-35.0,22.0,1731700.0,-8152.59,pp-riro,4,0,-1,-1
1570541570.5,2019-10-08,15:32:50.500,14.0,8.0,14.4700002670288,15.2,-1.0,4.0,27.2,-10.0,-50.8,13.9173,-0.355039,4.20527,8.000110000000001,8.193710000000001,6.62154,29.3421,5.04016,-50.3048,0.133027,0.203745,1.0345,246.7,9.8,52.1701,4.427230000000001,-0.2,-2.02683,102.507,4.25298,57.9769,24.7013,242.923,1.31697,0.0566500999999999,250.965,1.14075,1.95911,-34.971832275390604,22.0009689331055,-35.0,22.0,1731150.0,-3907.09,pp-riro,4,0,-1,-1
1570541570.6,2019-10-08,15:32:50.600,14.0,9.0,14.2200002670288,16.0,0.0,4.4,28.1,-12.3,-45.7,13.9173,-0.355039,4.20527,8.000110000000001,8.193710000000001,6.62154,29.3421,5.04016,-50.3048,0.133027,0.203745,1.0345,246.7,9.8,52.1701,4.427230000000001,-0.2,-2.0296,100.285,4.25296,57.9184,26.2213,242.723,1.31462,0.034302,250.912,1.2623,2.04593,-34.9957275390625,22.0009689331055,-35.0,22.0,1730860.0,-3230.27,pp-riro,4,0,-1,-1
1570541570.7,2019-10-08,15:32:50.700,14.0,9.0,14.1000003814697,16.7,1.2,4.7,29.1,-14.6,-40.2,14.3628,0.0408894999999999,4.42025,5.91434,6.14853,4.34906,29.8727,3.94436,-47.3411,0.1049089999999999,0.19507,1.07674,246.7,9.8,52.1701,4.427230000000001,-0.2,-2.05675,89.6134,4.25294,57.9768,28.1214,242.323,1.3109,0.00783767,250.74400000000003,1.39494,2.14076,-34.9991455078125,22.0009689331055,-35.0,22.0,1729940.0,-7752.65,pp-riro,4,0,-1,-1
1570541570.8,2019-10-08,15:32:50.800,14.0,9.0,14.0299997329712,17.0,1.9,4.9,29.3,-15.4,-37.6,16.1021,2.76056,5.427919999999999,3.90252,12.7303,3.15758,32.0394,-2.0622700000000003,-33.4702,0.0305214999999999,0.1428289999999999,1.02891,246.7,9.8,52.1701,4.427230000000001,-0.2,-2.11438,89.0787,4.25292,58.0352,28.8814,242.123,1.3092,-0.00229967,250.651,1.45368,2.18922,-35.0008544921875,22.0009689331055,-35.0,22.0,1728950.0,-9536.99,pp-riro,4,0,-1,-1
1570541570.9,2019-10-08,15:32:50.900,14.0,8.0,14.1000003814697,17.7,3.1,5.3,29.9,-17.5,-32.4,16.1021,2.76056,5.427919999999999,3.90252,12.7303,3.15758,32.0394,-2.0622700000000003,-33.4702,0.0305214999999999,0.1428289999999999,1.02891,246.7,9.8,52.1701,4.427230000000001,-0.2,-2.17089,96.3481,4.2529,58.2689,30.4015,241.723,1.30532,-0.0214039,250.499,1.57199,2.26806,-35.0008544921875,22.0009689331055,-35.0,22.0,1728010.0,-8429.47,pp-riro,4,0,-1,-1
1570541571.0,2019-10-08,15:32:51.000,14.0,9.0,14.1599998474121,18.2,4.2,5.8,30.2,-19.3,-27.2,16.9392,4.36411,6.07897,4.09277,10.2876,4.80527,32.5343,-5.23184,-25.1854,0.129439,0.241439,0.961222,246.7,9.8,52.1701,4.427230000000001,-0.2,-2.1853,99.6824,4.25288,58.5901,32.3016,241.323,1.30035,-0.0443449999999999,250.426,1.69187,2.34349,-35.0008544921875,22.0009689331055,-35.0,22.0,1727580.0,-7352.71,pp-riro,4,0,-1,-1
1570541571.1,2019-10-08,15:32:51.100,14.0,9.0,14.1599998474121,18.5,5.4,6.4,30.3,-21.1,-21.9,17.0783,4.90895,6.33721,1.27774,11.0826,4.16717,32.4713,-6.221,-22.2991,0.0889168,0.1967799999999999,1.03937,246.7,9.8,52.1701,4.427230000000001,-0.3,-2.1986,96.7757,4.25286,59.0574,33.8216,240.823,1.29538,-0.0605717,250.255,1.80583,2.41679,-35.0025634765625,22.0009689331055,-35.0,22.0,1726830.0,-5691.43,pp-riro,4,0,-1,-1
1570541571.2,2019-10-08,15:32:51.200,14.0,9.0,14.2799997329712,18.7,6.8,6.8,30.0,-23.4,-16.1,17.4212,6.780310000000001,6.9379800000000005,3.88304,13.2131,4.880319999999999,32.0205,-9.3169,-13.5816,0.142299,0.19501,1.00128,246.7,9.8,52.1701,4.427230000000001,-0.3,-2.2107900000000003,94.8861,4.25285,59.6415,36.1017,240.323,1.28845,-0.0847721,250.231,1.93724,2.5023,-35.0025634765625,22.0009689331055,-35.0,22.0,1726550.0,-5660.67,pp-riro,4,0,-1,-1
1570541571.3,2019-10-08,15:32:51.300,14.0,9.0,14.5299997329712,18.8,8.1,7.0,29.9,-25.1,-10.3,17.4871,7.96963,7.195939999999999,-1.20291,11.4077,7.08455,31.3861,-11.2212,-7.83443,0.143063,0.251822,0.923622,246.7,9.8,52.1701,4.427230000000001,-0.3,-2.23738,98.444,4.25283,60.3425,37.6218,239.723,1.28243,-0.097936,250.048,2.05324,2.5694,-35.0008544921875,22.0009689331055,-35.0,22.0,1725780.0,-8152.59,pp-riro,4,0,-1,-1
1570541571.4,2019-10-08,15:32:51.400,14.0,9.0,14.7700004577637,19.1,9.4,7.6,29.3,-26.5,-4.3,17.6495,9.20574,7.58285,2.49595,13.7901,4.62216,30.6572,-12.9537,-1.86621,0.160648,0.201346,1.01406,246.7,9.8,52.1701,4.427230000000001,-0.3,-2.24348,108.719,4.25279,61.1603,39.5218,239.123,1.27519,-0.114101,249.965,2.17228,2.6343,-35.0008544921875,22.0009689331055,-35.0,22.0,1725280.0,-4583.91,pp-riro,4,0,-1,-1
1570541571.5,2019-10-08,15:32:51.500,14.0,10.0,14.9499998092651,19.1,10.8,8.2,28.4,-28.3,1.6,17.7771,9.84512,7.88755,0.8476540000000001,12.8682,5.11937,30.2141,-13.6684,1.23825,0.00199951,0.262241,0.956407,248.8,9.6,52.1701,4.427230000000001,-0.3,-2.20248,118.433,4.25279,62.1825,41.8019,238.423,1.26631,-0.1322559999999999,249.92,2.29193,2.70713,-35.0008544921875,22.0009689331055,-35.0,22.0,1725340.0,953.699,pp-riro,4,0,-1,-1
1570541571.6,2019-10-08,15:32:51.600,14.0,10.0,15.2399997711182,18.9,12.2,8.7,27.4,-30.0,7.9,17.7771,9.84512,7.88755,0.8476540000000001,12.8682,5.11937,30.2141,-13.6684,1.23825,0.00199951,0.262241,0.956407,248.8,9.6,52.1701,4.427230000000001,-0.3,-2.06451,128.852,4.25277,63.2923,43.322,237.623,1.25858,-0.140613,249.695,2.40621,2.77111,-35.0025634765625,22.0009689331055,-23.0044822692871,22.0,1726180.0,8552.53,pp-riro,4,0,-1,-1
1570541571.7,2019-10-08,15:32:51.700,14.0,10.0,15.5799999237061,18.6,13.7,9.1,26.0,-31.2,14.4,17.597,11.7037,8.66503,-5.55086,12.5935,5.82423,28.1782,-15.8986,10.8771,0.0813054,0.21919,1.01997,248.8,9.6,52.1701,4.427230000000001,-0.3,-1.92821,135.474,4.25275,64.51899999999999,45.6021,236.823,1.24879,-0.15565,249.655,2.52562,2.84323,-34.9991455078125,22.0009689331055,-23.0044822692871,22.0,1727150.0,10306.1,pp-riro,4,0,-1,-1
1570541571.8,2019-10-08,15:32:51.800,14.0,10.0,16.0300006866455,18.3,15.2,9.5,24.7,-32.2,21.4,17.1975,13.7909,9.19116,-0.3310659999999999,14.1324,3.28535,25.8969,-18.0808,20.7339,0.070376,0.274422,0.994109,248.8,9.6,52.1701,4.427230000000001,-0.3,-1.76475,146.732,4.25274,65.9209,47.1222,235.923,1.23996,-0.160957,249.451,2.6413,2.90281,-34.738006591796896,22.0009689331055,-23.0044822692871,22.0,1728300.0,11844.3,pp-riro,4,0,-1,-1
1570541571.9,2019-10-08,15:32:51.900,14.0,11.0,16.3099994659424,17.8,16.6,10.2,23.1,-33.2,28.3,16.8834,15.13,9.72702,-3.82467,14.5454,5.3172,24.2277,-19.1185,27.4263,0.0841858,0.240706,1.12527,248.8,9.6,52.1701,4.427230000000001,-0.3,-1.64673,152.624,4.25272,67.4689,49.0222,235.023,1.22981,-0.168681,249.382,2.75592,2.96442,-34.0962524414062,22.0009689331055,-23.0044822692871,22.0,1729050.0,13813.3,pp-riro,4,0,-1,-1
1570541572.0,2019-10-08,15:32:52.000,14.0,11.0,16.520000457763697,16.9,18.1,10.7,21.1,-34.3,35.4,15.8875,17.1262,10.5198,-10.582,12.6133,2.38331,21.1505,-20.7567,38.0615,-0.0779704,0.132513,1.0641,248.8,9.6,52.1701,4.427230000000001,-0.3,-1.27217,165.704,4.2527,69.1629,50.9223,234.023,1.21906,-0.174967,249.286,2.87065,3.03453,-33.1012115478516,22.0009689331055,-23.0044822692871,22.0,1731280.0,15166.9,pp-riro,4,0,-1,-1
1570541572.1,2019-10-08,15:32:52.100,14.0,11.0,16.6800003051758,16.0,19.5,10.9,19.2,-34.8,42.5,15.0276,18.5034,10.789,-8.48981,13.3203,-1.27937,19.1047,-21.8094,45.0302,-0.18037,0.126418,1.04586,248.8,9.6,52.1701,4.427230000000001,-0.6,-1.10041,167.447,4.25269,71.0029,52.0624,233.023,1.20954,-0.172986,249.102,2.97542,3.09157,-31.754562377929695,22.0009689331055,-22.642724990844695,22.0,1732050.0,14028.6,pp-riro,4,0,-1,-1
1570541572.2,2019-10-08,15:32:52.200,14.0,10.0,16.8899993896484,14.9,20.9,11.3,17.5,-34.7,49.6,14.1254,19.8266,11.1279,-8.776660000000001,12.1096,4.70867,17.2079,-22.5508,51.6661,0.278762,0.108155,1.00111,248.8,9.6,52.1701,4.427230000000001,-0.6,-0.795108,171.09599999999998,4.252669999999999,72.98899999999999,53.9625,231.923,1.19774,-0.1769119999999999,249.054,3.08374,3.15743,-30.047790527343803,22.0009689331055,-22.0031261444092,22.0,1733150.0,10583.0,pp-riro,4,0,-1,-1
1570541572.3,2019-10-08,15:32:52.300,14.0,10.0,17.1499996185303,13.9,22.2,11.6,15.7,-35.1,56.5,14.1254,19.8266,11.1279,-8.776660000000001,12.1096,4.70867,17.2079,-22.5508,51.6661,0.278762,0.108155,1.00111,248.8,9.6,52.1701,4.427230000000001,-0.6,-0.270946,181.718,4.25265,75.1503,55.4826,230.723,1.1861,-0.176225,248.916,3.18466,3.21162,-28.0269622802734,22.0009689331055,-21.4793395996094,22.0,1734090.0,3999.38,pp-riro,4,0,-1,-1
1570541572.4,2019-10-08,15:32:52.400,14.0,10.0,17.3500003814697,12.5,23.2,11.6,13.5,-34.9,62.9,13.0793,21.0579,11.4433,-10.06,9.17388,0.169024,15.2419,-23.4031,58.0859,0.0393536,0.161501,1.01242,248.8,9.6,52.1701,4.427230000000001,-0.6,-0.0880991,184.407,4.25263,77.37,57.0026,229.723,1.17459,-0.175213,249.015,3.27746,3.2704,-27.030212402343803,22.0009689331055,-20.8656063079834,22.0,1734160.0,1199.82,pp-riro,4,0,-1,-1
1570541572.5,2019-10-08,15:32:52.500,14.0,9.0,17.659999847412102,11.2,23.9,11.6,11.4,-34.6,68.9,11.9417,21.9958,11.5601,-16.4659,9.54244,-0.256808,13.3884,-23.9622,63.9891,0.1597579999999999,0.0623006,0.6442829999999999,247.3,10.6,52.1701,4.427230000000001,-0.6,0.3080699999999999,181.698,4.252619999999999,79.7065,58.1427,228.623,1.1634,-0.170454,249.003,3.36121,3.3172,-24.843826293945305,22.0009689331055,-20.3904838562012,22.0,1733770.0,-5537.61,pp-riro,4,0,-1,-1
1570541572.6,2019-10-08,15:32:52.600,14.0,8.0,17.8500003814697,9.9,24.6,11.4,9.6,-34.3,74.9,10.1049,23.1719,11.3505,-14.6122,4.57646,0.55577,10.3336,-24.3809,72.8794,-0.13184,0.0694114,0.779543,247.3,10.6,52.1701,4.427230000000001,-0.6,0.273717,177.861,4.2526,82.0723,59.2828,227.523,1.15212,-0.165766,249.032,3.44487,3.36444,-23.3504028320312,22.0009689331055,-19.931604385376,22.0,1734030.0,1476.7,pp-riro,4,0,-1,-1
1570541572.7,2019-10-08,15:32:52.700,14.0,9.0,18.0499992370605,8.6,25.1,11.6,7.7,-33.4,80.4,8.87252,23.6956,11.3536,-13.6077,2.2885,4.42759,8.44913,-24.4258,78.2821,-0.204123,0.236013,0.7145050000000001,247.3,10.6,52.1701,4.427230000000001,-0.6,0.342423,204.096,4.2525900000000005,84.4964,60.4228,226.523,1.14084,-0.160984,249.206,3.52293,3.40732,-22.0669097900391,22.0009689331055,-19.5762538909912,22.0,1733930.0,-1138.29,pp-riro,4,0,-1,-1
1570541572.8,2019-10-08,15:32:52.800,14.0,10.0,18.1900005340576,7.3,25.4,11.9,5.6,-32.7,85.6,7.67023,24.1349,11.5921,-10.5125,5.7489300000000005,0.686001,6.021319999999999,-24.0807,83.6195,-0.227126,0.0965304,0.800719,247.3,10.6,52.1701,4.427230000000001,-0.6,0.373452,215.588,4.25257,87.0082,61.1829,225.423,1.12992,-0.153046,249.258,3.59378,3.44425,-20.9916381835938,22.0009689331055,-19.2556552886963,22.0,1733930.0,92.2935,pp-riro,4,0,-1,-1
1570541572.9,2019-10-08,15:32:52.900,14.0,11.0,18.4400005340576,6.1,25.8,11.8,3.1,-31.9,90.9,7.67023,24.1349,11.5921,-10.5125,5.7489300000000005,0.686001,6.021319999999999,-24.0807,83.6195,-0.227126,0.0965304,0.800719,247.3,10.6,52.1701,4.427230000000001,-0.6,0.378992,218.866,4.25256,89.52,61.943000000000005,224.323,1.11899,-0.145472,249.343,3.66707,3.48112,-20.131423950195305,22.0009689331055,-18.9671001434326,22.0,1734000.0,646.054,pp-riro,4,0,-1,-1
1570541573.0,2019-10-08,15:32:53.000,14.0,10.0,18.7199993133545,4.8,26.1,11.6,0.7,-30.6,96.1,7.67023,24.1349,11.5921,-10.5125,5.7489300000000005,0.686001,6.021319999999999,-24.0807,83.6195,-0.227126,0.0965304,0.800719,247.3,10.6,52.1701,4.427230000000001,-0.6,0.376222,222.324,4.25255,92.2071,62.323,223.223,1.10829,-0.134528,249.429,3.73898,3.51779,-19.4982070922852,22.0009689331055,-18.604022979736303,22.0,1734110.0,553.761,pp-riro,4,0,-1,-1
1570541573.1,2019-10-08,15:32:53.100,14.0,10.0,18.8600006103516,3.5,26.4,11.7,-1.1,-29.2,100.4,5.30328,24.8573,11.4152,-5.5967400000000005,0.4740069999999999,-3.3882800000000004,1.45938,-22.8935,93.6462,-0.188093,0.1829569999999999,0.668258,247.3,10.6,52.1701,4.427230000000001,-0.9,0.399493,234.411,4.25253,94.8357,62.7031,222.023,1.09754,-0.1243359999999999,249.439,3.79975,3.55338,-19.2507247924805,22.0009689331055,-18.3077507019043,22.0,1734140.0,307.645,pp-riro,4,0,-1,-1
1570541573.2,2019-10-08,15:32:53.200,14.0,11.0,19.090000152587898,2.2,26.6,11.7,-3.3,-28.0,104.8,3.39735,25.353,11.3297,-10.0549,3.00171,-0.0447315,-2.26662,-21.2234,100.459,-0.2178159999999999,0.142541,0.7301989999999999,247.3,10.6,52.1701,4.427230000000001,-0.9,0.4116829999999999,241.261,4.25252,97.4935,63.0831,220.823,1.08667,-0.114428,249.49400000000003,3.86175,3.58892,-18.736984252929695,22.0009689331055,-18.0527610778809,22.0,1734160.0,461.467,pp-riro,4,0,-1,-1
1570541573.3,2019-10-08,15:32:53.300,14.0,11.0,19.3199996948242,0.8,26.7,11.6,-5.5,-26.9,108.6,3.39735,25.353,11.3297,-10.0549,3.00171,-0.0447315,-2.26662,-21.2234,100.459,-0.2178159999999999,0.142541,0.7301989999999999,247.3,10.6,52.1701,4.427230000000001,-0.9,0.434401,254.187,4.2525,100.122,63.0832,219.623,1.07657,-0.102354,249.476,3.91313,3.62595,-18.404167175293,22.0009689331055,-17.6904296875,22.0,1734210.0,553.761,pp-riro,4,0,-1,-1
1570541573.4,2019-10-08,15:32:53.400,14.0,11.0,19.5400009155273,-0.5,27.0,11.5,-7.3,-24.9,112.3,1.43828,25.4706,11.3355,-13.6652,0.516057,0.0837132,-5.74066,-19.7186,106.651,-0.282128,0.0389606,0.469927,247.3,10.6,52.1701,4.427230000000001,-0.9,0.4731859999999999,281.395,4.25249,102.838,63.8432,218.423,1.06476,-0.0956836,249.721,3.97405,3.66509,-18.1310806274414,22.0009689331055,-17.5597076416016,22.0,1734300.0,461.467,pp-riro,4,0,-1,-1
1570541573.5,2019-10-08,15:32:53.500,14.0,11.0,19.8099994659424,-2.0,27.1,11.7,-9.2,-23.5,115.9,1.43828,25.4706,11.3355,-13.6652,0.516057,0.0837132,-5.74066,-19.7186,106.651,-0.282128,0.0389606,0.469927,248.7,10.1,52.1701,4.427230000000001,-0.9,0.497566,293.654,4.25249,105.525,63.0832,217.223,1.05577,-0.0789005,249.602,4.0219,3.698080000000001,-17.8477554321289,22.0009689331055,-17.1478805541992,22.0,1734310.0,215.351,pp-riro,4,0,-1,-1
1570541573.6,2019-10-08,15:32:53.600,14.0,12.0,20.1700000762939,-3.5,27.0,11.7,-11.2,-22.7,119.6,-0.0578151999999999,25.8673,11.2404,-17.0513,-0.364971,2.96647,-8.05574,-18.5407,110.402,-0.15036,0.221158,0.534169,248.7,10.1,52.1701,4.427230000000001,-0.9,0.538014,317.231,4.2525,108.242,63.0833,216.023,1.04525,-0.0677831,249.723,4.07176,3.73716,-17.434715270996097,22.0009689331055,-16.8862590789795,22.0,1734370.0,676.819,pp-riro,4,0,-1,-1
1570541573.7,2019-10-08,15:32:53.700,14.0,11.0,20.5100002288818,-5.1,26.9,11.6,-13.0,-21.1,122.8,-2.26742,25.9057,11.3916,-8.7402,3.14962,1.28739,-11.7793,-16.7428,115.91,-0.192233,0.0856268999999999,0.740502,248.7,10.1,52.1701,4.427230000000001,-0.9,0.580678,337.944,4.2525,111.046,62.7033,214.623,1.03466,-0.0541451,249.652,4.11865,3.77802,-17.1548004150391,22.0009689331055,-16.5749092102051,22.0,1734440.0,892.17,pp-riro,4,0,-1,-1
1570541573.8,2019-10-08,15:32:53.800,14.0,12.0,20.8899993896484,-6.6,26.7,11.5,-14.5,-19.9,126.0,-2.26742,25.9057,11.3916,-8.7402,3.14962,1.28739,-11.7793,-16.7428,115.91,-0.192233,0.0856268999999999,0.740502,248.7,10.1,52.1701,4.427230000000001,-0.9,0.605612,354.20300000000003,4.25251,113.733,61.9433,213.323,1.02518,-0.0388405,249.557,4.16148,3.81415,-16.8151550292969,22.0009689331055,-16.2783298492432,22.0,1734590.0,1445.93,pp-riro,4,0,-1,-1
1570541573.9,2019-10-08,15:32:53.900,14.0,11.0,21.229999542236303,-8.2,26.3,11.3,-16.1,-19.0,129.1,-6.9250300000000005,25.4528,11.054,-18.3007,-3.77766,-8.56199,-17.9719,-13.901,125.903,-0.163232,-0.102959,0.479908,248.7,10.1,52.1701,4.427230000000001,-0.9,0.636641,368.855,4.25252,116.39,61.5634,212.023,1.01507,-0.0266587999999999,249.581,4.203119999999999,3.85784,-16.5949859619141,22.0009689331055,-15.9858503341675,22.0,1734720.0,1353.64,pp-riro,4,0,-1,-1
1570541574.0,2019-10-08,15:32:54.000,14.0,11.0,21.6399993896484,-9.6,25.8,11.1,-17.3,-17.7,132.3,-7.61136,25.1866,10.9366,-13.2053,-4.04592,-3.4388400000000003,-18.7702,-13.4607,127.587,-0.205815,0.163774,0.624117,248.7,10.1,52.1701,4.427230000000001,-0.9,0.6599119999999999,387.958,4.25253,119.019,60.8034,210.723,1.00557,-0.0124397,249.533,4.24816,3.89428,-16.3355560302734,22.0009689331055,-15.7922143936157,22.0,1734900.0,1661.28,pp-riro,4,0,-1,-1
1570541574.1,2019-10-08,15:32:54.100,14.0,12.0,22.0,-11.1,25.2,10.7,-18.4,-16.4,135.6,-9.03816,24.5361,10.6925,-19.1124,-7.36958,-7.718039999999999,-20.0979,-12.5784,130.628,-0.201999,-0.0405198,0.4730609999999999,248.7,10.1,52.1701,4.42724,-1.2,0.711996,409.712,4.25253,121.677,59.2834,209.423,0.997025,0.00648421,249.355,4.29107,3.93334,-15.9873657226562,22.0025119781494,35.0,22.0,1735180.0,2830.33,pp-riro,4,0,-1,-1
1570541574.2,2019-10-08,15:32:54.200,14.0,11.0,22.3600006103516,-12.5,24.5,10.3,-19.3,-15.1,138.9,-9.03816,24.5361,10.6925,-19.1124,-7.36958,-7.718039999999999,-20.0979,-12.5784,130.628,-0.201999,-0.0405198,0.4730609999999999,248.7,10.1,52.1701,4.42724,-1.2,0.714766,414.515,4.25254,124.189,58.1434,208.223,0.988432,0.0219739,249.32,4.33702,3.97372,-15.8337554931641,22.0025119781494,35.0,22.0,1735320.0,2861.1,pp-riro,4,0,-1,-1
1570541574.3,2019-10-08,15:32:54.300,14.0,10.0,22.5900001525879,-13.6,23.7,9.8,-19.9,-14.0,142.0,-9.03816,24.5361,10.6925,-19.1124,-7.36958,-7.718039999999999,-20.0979,-12.5784,130.628,-0.201999,-0.0405198,0.4730609999999999,248.7,10.1,52.1701,4.42724,-1.2,1.1802,422.907,4.25255,126.584,57.0034,207.123,0.980309,0.0367191,249.345,4.37903,4.00905,-15.4821624755859,22.0019989013672,35.0,22.0,1732860.0,-27749.6,pp-riro,4,0,-1,-1
1570541574.4,2019-10-08,15:32:54.400,14.0,10.0,22.7900009155273,-14.2,22.8,8.7,-20.4,-12.2,145.0,-12.9653,22.3017,9.30048,-11.0082,-11.0991,-8.07339,-23.0459,-9.3877,140.474,-0.0506139,0.0799945,0.4867359999999999,248.7,10.1,52.1701,4.42724,-1.2,1.27993,386.291,4.25256,129.00799999999998,55.4834,205.923,0.972275,0.0536728,249.25,4.42467,4.039619999999999,-14.8421249389648,22.0019989013672,35.0,22.0,1733920.0,26488.2,pp-riro,4,0,-1,-1
1570541574.5,2019-10-08,15:32:54.500,14.0,8.0,22.8600006103516,-14.7,21.6,8.3,-20.5,-11.4,147.5,-12.9653,22.3017,9.30048,-11.0082,-11.0991,-8.07339,-23.0459,-9.3877,140.474,-0.0506139,0.0799945,0.4867359999999999,249.4,10.5,52.1701,4.42724,-1.2,1.2356,379.524,4.25258,131.22799999999998,53.9634,204.923,0.965185,0.0696628999999999,249.251,4.45452,4.0631900000000005,-13.847076416015598,22.0009689331055,35.0,22.0,1733860.0,-8367.94,pp-riro,4,0,-1,-1
1570541574.6,2019-10-08,15:32:54.600,14.0,9.0,22.899999618530305,-15.3,20.7,8.2,-21.1,-10.1,150.1,-13.5762,20.7623,8.15425,-3.59144,-4.26376,-0.205994,-23.5777,-8.44673,145.374,0.144805,-0.242813,0.5899,249.4,10.5,52.1701,4.42724,-1.2,1.30043,392.401,4.2525900000000005,133.33100000000002,52.8235,203.923,0.957878,0.0825911999999999,249.303,4.49327,4.08482,-12.4953079223633,22.0009689331055,35.0,22.0,1733890.0,707.5830000000001,pp-riro,4,0,-1,-1
1570541574.7,2019-10-08,15:32:54.700,14.0,9.0,22.8600006103516,-15.6,20.0,7.7,-21.3,-8.6,152.1,-14.4393,19.8285,8.01248,-2.48937,-6.6135,1.27307,-23.9375,-7.51933,148.134,-0.105289,0.0893699,0.563824,249.4,10.5,52.1701,4.42724,-1.2,1.27661,395.922,4.2525900000000005,135.434,50.9234,203.023,0.95161,0.100145,249.307,4.52201,4.09875,-10.7919464111328,22.0009689331055,35.0,22.0,1734590.0,5537.61,pp-riro,4,0,-1,-1
1570541574.8,2019-10-08,15:32:54.800,14.0,10.0,22.8600006103516,-15.9,19.5,7.5,-21.4,-7.4,153.6,-14.8518,18.8165,7.33781,-3.68943,-4.44373,-5.0865,-24.0476,-5.85531,151.628,0.0237807999999999,-0.0321255,0.305146,249.4,10.5,52.1701,4.42724,-1.2,1.28713,382.124,4.252619999999999,137.39,49.4034,202.123,0.94523,0.1145819999999999,249.34,4.54334,4.10751,-8.74722290039062,22.0009689331055,35.0,22.0,1735030.0,6337.48,pp-riro,4,0,-1,-1
1570541574.9,2019-10-08,15:32:54.900,14.0,9.0,22.7399997711182,-16.3,18.9,7.7,-22.1,-7.2,155.2,-14.8518,18.8165,7.33781,-3.68943,-4.44373,-5.0865,-24.0476,-5.85531,151.628,0.0237807999999999,-0.0321255,0.305146,249.4,10.5,52.1701,4.42724,-1.2,1.24059,384.112,4.25264,139.231,47.5034,201.223,0.939511,0.1309519999999999,249.264,4.55446,4.11219,-6.63764953613281,22.0009689331055,35.0,22.0,1735720.0,4891.55,pp-riro,4,0,-1,-1
1570541575.0,2019-10-08,15:32:55.000,14.0,11.0,22.6599998474121,-16.2,18.7,7.7,-23.2,-7.2,156.4,-15.5513,18.118,7.36002,-2.0209900000000003,-6.0648800000000005,-2.24131,-24.7929,-6.263999999999999,154.77100000000002,0.165285,-0.108724,0.384432,249.4,10.5,52.1701,4.42724,-1.2,1.29434,395.312,4.25265,141.1,45.9834,200.323,0.933195,0.144705,249.305,4.55995,4.1017,-4.528076171875,22.0009689331055,35.0,22.0,1735820.0,1968.93,pp-riro,4,0,-1,-1
1570541575.1,2019-10-08,15:32:55.100,14.0,10.0,22.469999313354503,-16.0,18.4,7.8,-24.1,-7.0,156.9,-15.7366,17.9862,7.41218,-7.389369999999999,-9.15841,0.276732,-25.0493,-6.60012,155.798,-0.00614801,-0.213065,0.115772,249.4,10.5,52.1701,4.42724,-1.5,1.28104,393.128,4.252669999999999,142.998,44.0834,199.423,0.927065,0.160684,249.322,4.55598,4.08634,-2.4150848388671897,22.0009689331055,35.0,22.0,1736460.0,7475.77,pp-riro,4,0,-1,-1
1570541575.2,2019-10-08,15:32:55.200,14.0,10.0,22.3099994659424,-16.0,18.1,8.3,-25.2,-7.2,156.7,-15.5736,17.8172,7.409669999999999,7.664060000000001,0.86375,2.108,-25.4088,-6.73617,156.784,0.00169856,-0.14475,0.329382,249.4,10.5,52.1701,4.42724,-1.5,1.27494,384.859,4.25269,144.751,42.5634,198.523,0.920922,0.173716,249.351,4.54055,4.07166,-0.319168090820312,22.0009689331055,35.0,22.0,1737160.0,5568.37,pp-riro,4,0,-1,-1
1570541575.3,2019-10-08,15:32:55.300,14.0,11.0,22.030000686645497,-15.6,17.9,8.8,-27.0,-9.2,157.1,-15.723,17.5545,7.8458,2.78822,-3.26798,4.42915,-27.4347,-8.659930000000001,158.569,-0.325294,-0.516444,-0.0288173,249.4,10.5,52.1701,4.42724,-1.5,1.25666,379.554,4.2527,146.474,41.0434,197.523,0.914545,0.1864819999999999,249.308,4.51465,4.0435300000000005,1.7865982055664098,22.0009689331055,35.0,22.0,1737670.0,4430.09,pp-riro,4,0,-1,-1
1570541575.4,2019-10-08,15:32:55.400,14.0,11.0,21.75,-15.0,18.2,9.3,-28.2,-9.5,156.1,-15.723,17.5545,7.8458,2.78822,-3.26798,4.42915,-27.4347,-8.659930000000001,158.569,-0.325294,-0.516444,-0.0288173,249.4,10.5,52.1701,4.42724,-1.5,1.25777,376.79,4.25272,148.256,39.5234,196.523,0.90791,0.199138,249.325,4.48754,4.00084,3.88146209716797,22.0009689331055,35.0,22.0,1737890.0,4430.09,pp-riro,4,0,-1,-1
1570541575.5,2019-10-08,15:32:55.500,14.0,13.0,21.5400009155273,-14.3,18.4,9.9,-29.1,-10.3,154.1,-14.7818,17.945,9.24791,8.34769,6.3364400000000005,11.0814,-30.6208,-11.9045,157.436,-0.338369,-0.118494,-0.386317,249.3,10.6,52.1701,4.42724,-1.5,1.22895,358.72,4.25274,150.00799999999998,37.6234,195.423,0.901332,0.21391,249.215,4.44001,3.95316,5.98995208740234,22.0009689331055,35.0,22.0,1738720.0,5414.55,pp-riro,4,0,-1,-1
1570541575.6,2019-10-08,15:32:55.600,14.0,12.0,21.4599990844727,-14.0,18.9,11.0,-30.2,-13.0,152.9,-14.7693,18.1504,9.7543,-10.2667,6.679010000000001,9.68925,-31.1648,-13.4057,157.07299999999998,-0.4338229999999999,-0.131767,-0.317104,249.3,10.6,52.1701,4.42724,-1.5,1.21843,353.629,4.252759999999999,151.79,36.4834,194.323,0.894006,0.22375,249.264,4.38722,3.90967,8.10865783691406,22.0009689331055,35.0,22.0,1739000.0,5168.43,pp-riro,4,0,-1,-1
1570541575.7,2019-10-08,15:32:55.700,14.0,10.0,21.409999847412102,-13.6,19.1,12.3,-31.1,-15.7,150.8,-14.4779,18.9121,10.734000000000002,2.67866,13.5949,10.8953,-32.7878,-16.5946,155.97299999999998,-0.375148,-0.251235,-0.538679,249.3,10.6,52.1701,4.42724,-1.5,1.21399,361.68,4.25278,153.63,34.9634,193.023,0.886216,0.235841,249.164,4.32076,3.8637,10.2137451171875,22.0009689331055,35.0,22.0,1739410.0,3507.15,pp-riro,4,0,-1,-1
1570541575.8,2019-10-08,15:32:55.800,14.0,8.0,21.159999847412102,-11.5,19.2,13.4,-32.1,-19.2,147.7,-14.4779,18.9121,10.734000000000002,2.67866,13.5949,10.8953,-32.7878,-16.5946,155.97299999999998,-0.375148,-0.251235,-0.538679,249.3,10.6,52.1701,4.42724,-1.5,1.24669,374.932,4.2528,155.441,33.4434,191.723,0.8784379999999999,0.247671,249.074,4.23337,3.76749,12.3154220581055,22.0009689331055,35.0,22.0,1739590.0,1722.81,pp-riro,4,0,-1,-1
1570541575.9,2019-10-08,15:32:55.900,14.0,10.0,20.7900009155273,-10.0,19.6,14.0,-31.4,-23.0,144.3,-14.1045,19.2241,11.4149,7.0774300000000006,-0.0612836,12.9797,-33.1119,-18.3599,154.93200000000002,-0.124719,-0.198368,-0.518227,249.3,10.6,52.1701,4.42724,-1.5,1.24004,348.176,4.25282,157.281,32.6835,190.323,0.869771,0.254686,249.055,4.14363,3.698280000000001,14.4239120483398,22.0009689331055,35.0,22.0,1740160.0,7691.12,pp-riro,4,0,-1,-1
1570541576.0,2019-10-08,15:32:56.000,14.0,8.0,20.479999542236303,-8.2,19.7,14.7,-31.0,-26.2,139.7,-10.5341,20.023,14.4262,14.4572,9.58783,9.89173,-34.4301,-28.2123,148.84,-0.232404,-0.715655,-0.918992,249.3,10.6,52.1701,4.42724,-1.5,1.10927,296.436,4.25284,159.15,31.9235,189.023,0.8612549999999999,0.2615929999999999,249.154,4.046130000000001,3.61942,16.549430847168,22.0009689331055,35.0,22.0,1741320.0,5353.02,pp-riro,4,0,-1,-1
1570541576.1,2019-10-08,15:32:56.100,14.0,9.0,20.1399993896484,-7.2,19.7,15.6,-29.5,-28.8,134.3,-10.5341,20.023,14.4262,14.4572,9.58783,9.89173,-34.4301,-28.2123,148.84,-0.232404,-0.715655,-0.918992,249.3,10.6,52.1701,4.427230000000001,-1.8,1.10152,295.236,4.25285,160.99,31.1635,187.623,0.8525450000000001,0.268325,249.181,3.94609,3.56805,18.6528167724609,22.0009689331055,35.0,22.0,1741450.0,2399.63,pp-riro,4,0,-1,-1
1570541576.2,2019-10-08,15:32:56.200,14.0,11.0,19.7800006866455,-5.3,19.8,15.9,-27.0,-32.8,127.5,-6.857260000000001,20.7227,16.3795,16.1834,-0.7164119999999999,10.9998,-32.2972,-35.1192,138.336,-0.4772909999999999,-0.160404,-1.11018,249.3,10.6,52.1701,4.427230000000001,-1.8,1.11038,284.53700000000003,4.25287,162.889,30.0235,186.223,0.843852,0.277242,249.225,3.81596,3.48779,20.7630081176758,22.0009689331055,35.0,22.0,1741710.0,3999.38,pp-riro,4,0,-1,-1
1570541576.3,2019-10-08,15:32:56.300,14.0,11.0,19.2399997711182,-2.4,20.0,16.7,-23.5,-35.7,120.3,-4.58666,20.9528,17.1696,20.6308,-0.0288922,13.8306,-29.917,-39.7131,131.779,-0.355776,0.0489000999999999,-1.4008200000000002,249.3,10.6,52.1701,4.427230000000001,-1.8,1.06605,272.219,4.25289,164.75799999999998,29.6436,184.723,0.8345450000000001,0.281478,249.292,3.69723,3.3692300000000004,22.8817138671875,22.0009689331055,35.0,22.0,1742220.0,4430.09,pp-riro,4,0,-1,-1
1570541576.4,2019-10-08,15:32:56.400,14.0,11.0,18.909999847412102,-1.6,20.1,17.2,-18.7,-38.5,111.0,-3.45875,21.0876,17.4646,14.2337,-1.95743,2.9819,-28.6415,-41.7893,128.07399999999998,-0.134453,-0.439461,-1.23672,249.3,10.6,52.1701,4.427230000000001,-1.8,1.08212,285.161,4.25291,166.685,29.6436,183.223,0.8248709999999999,0.283475,249.466,3.55754,3.3350800000000005,24.9970169067383,22.0009689331055,35.0,22.0,1742350.0,953.699,pp-riro,4,0,-1,-1
1570541576.5,2019-10-08,15:32:56.500,14.0,11.0,18.8600006103516,0.5,20.0,18.2,-16.4,-40.1,106.4,-0.336566,21.5932,19.0837,30.9291,2.78554,16.5034,-22.4554,-48.3239,114.754,-0.266861,-0.0117636,-0.8994209999999999,247.9,10.6,52.1701,4.427230000000001,-1.8,1.12479,311.396,4.25293,168.613,29.6437,182.423,0.817127,0.285431,250.174,3.48826,3.25166,27.0918884277344,22.0009689331055,35.0,22.0,1742430.0,461.467,pp-riro,4,0,-1,-1
1570541576.6,2019-10-08,15:32:56.600,14.0,12.0,18.8199996948242,2.9,19.5,19.1,-11.4,-42.9,97.9,2.4906200000000003,21.2222,20.2853,30.972,0.984651,10.2327,-17.6103,-51.7865,106.083,-0.449197,-0.1912589999999999,-1.24854,247.9,10.6,52.1701,4.427230000000001,-1.8,1.16524,325.158,4.25294,169.606,29.6437,180.623,0.809333,0.286416,249.539,3.36763,3.15983,29.1901550292969,22.0009689331055,35.0,22.0,1742570.0,2122.75,pp-riro,4,0,-1,-1
1570541576.7,2019-10-08,15:32:56.700,14.0,13.0,18.8600006103516,5.7,19.2,19.2,-4.7,-44.5,87.6,2.4906200000000003,21.2222,20.2853,30.972,0.984651,10.2327,-17.6103,-51.7865,106.083,-0.449197,-0.1912589999999999,-1.24854,247.9,10.6,52.1701,4.427230000000001,-1.8,1.15249,319.116,4.25296,171.475,30.0238,178.82299999999998,0.798826,0.286109,249.565,3.23522,3.05848,31.0261535644531,22.0009689331055,23.0044822692871,22.0,1743180.0,3814.8,pp-riro,4,0,-1,-1
1570541576.8,2019-10-08,15:32:56.800,14.0,12.0,18.8600006103516,8.3,18.5,19.8,2.5,-45.2,76.6,5.55614,21.0458,20.7842,30.7396,-4.59224,1.8764,-9.82485,-53.6068,93.0663,-0.4548439999999999,0.04097,-1.41249,247.9,10.6,52.1701,4.427230000000001,-1.8,1.15969,326.373,4.25296,173.34400000000002,30.4039,177.023,0.788323,0.2857949999999999,249.61900000000003,3.09915,2.96498,32.5283203125,22.0009689331055,23.0044822692871,22.0,1743460.0,2584.22,pp-ro,1,1,-1,-1
1570541576.9,2019-10-08,15:32:56.900,14.0,11.0,18.9500007629395,10.8,17.3,19.5,10.6,-45.5,64.5,10.0416,19.6352,21.2697,20.3598,0.544317,3.98731,4.21896,-56.3531,72.5639,-0.316583,-0.448937,-1.46041,247.9,10.6,52.1701,4.427230000000001,-1.8,1.16967,331.425,4.25298,175.155,31.5439,175.123,0.777327,0.28123,249.685,2.95565,2.87025,33.6694183349609,22.0009689331055,23.0044822692871,22.0,1743600.0,2707.28,pp-ro,1,1,-1,-1
1570541577.0,2019-10-08,15:32:57.000,14.0,12.0,19.1800003051758,13.1,15.8,18.9,19.0,-44.1,52.3,10.0416,19.6352,21.2697,20.3598,0.544317,3.98731,4.21896,-56.3531,72.5639,-0.316583,-0.448937,-1.46041,247.9,10.6,52.1701,4.427230000000001,-1.8,1.18075,334.06300000000005,4.2529900000000005,176.791,32.684,173.22299999999998,0.766807,0.27659,249.659,2.80674,2.77466,34.451171875,22.0009689331055,23.0044822692871,22.0,1743910.0,3291.8,pp-ro,1,1,-1,-1
1570541577.1,2019-10-08,15:32:57.100,14.0,12.0,19.409999847412102,15.2,14.2,18.0,26.7,-41.0,41.1,15.5827,16.730999999999998,19.9882,21.3438,-18.4871,-14.4656,25.1988,-53.3924,41.7955,-0.286783,-0.00983906,-1.64949,247.9,10.6,52.1701,4.427230000000001,-2.1,1.17022,330.811,4.253,178.25099999999998,33.8241,171.523,0.757332,0.271861,249.675,2.6564400000000004,2.67857,34.876953125,22.0009689331055,23.0044822692871,22.0,1744530.0,4091.68,pp-ro,1,1,-1,-1
1570541577.2,2019-10-08,15:32:57.200,14.0,12.0,19.7199993133545,17.1,12.5,17.0,32.5,-37.2,30.8,18.0509,14.8672,18.9533,19.0684,-12.9881,-10.9016,33.553000000000004,-49.7593,28.73,-0.482121,-0.0460625,-1.64545,247.9,10.6,52.1701,4.427230000000001,-2.1,1.16967,331.157,4.25301,179.59400000000002,35.7242,169.82299999999998,0.7477600000000001,0.263022,249.74,2.50857,2.58568,34.953582763671896,22.0009689331055,23.0044822692871,22.0,1744690.0,3045.68,pp-ro,1,1,-1,-1
1570541577.3,2019-10-08,15:32:57.300,14.0,13.0,19.979999542236303,18.6,10.6,15.7,37.1,-32.5,21.8,20.3125,12.898,17.5056,21.1291,-20.0395,-18.7795,39.0616,-44.7098,17.9925,-0.387272,0.0659044999999999,-1.4539,247.9,10.6,52.1701,4.427230000000001,-2.1,1.18352,336.39,4.25303,180.763,37.2443,168.22299999999998,0.739123,0.256167,249.722,2.36075,2.49103,34.7134399414062,22.0009689331055,23.0044822692871,22.0,1744980.0,3230.27,pp-ro,1,1,-1,-1
1570541577.4,2019-10-08,15:32:57.400,14.0,13.0,20.1100006103516,20.2,8.6,14.3,40.5,-27.7,14.2,21.2704,11.8748,16.6866,22.0682,-25.9603,-13.2882,40.6485,-41.935,13.7082,-0.682002,-0.0163319,-1.25315,247.9,10.6,52.1701,4.427230000000001,-2.1,1.19072,347.153,4.25304,181.756,39.1443,166.72299999999998,0.731006,0.247223,249.728,2.22506,2.38756,34.0594482421875,22.0009689331055,21.5320205688477,22.0,1745300.0,2707.28,pp-ro,1,1,-1,-1
1570541577.5,2019-10-08,15:32:57.500,14.0,14.0,20.1100006103516,21.2,6.7,12.7,43.2,-22.7,7.3,23.0091,9.37926,15.0959,9.42158,-26.2552,-19.791,43.3819,-35.9881,5.97441,-0.4875069999999999,0.0202587,-1.46863,247.4,10.0,52.1701,4.427230000000001,-2.1,1.21954,355.87,4.25305,182.573,40.6644,165.523,0.724425,0.240188,249.769,2.0906700000000003,2.2916,33.0545806884766,22.0009689331055,19.825702667236303,22.0,1745530.0,2522.69,pp-ro,1,1,-1,-1
1570541577.6,2019-10-08,15:32:57.600,14.0,14.0,20.1100006103516,21.9,4.9,11.0,45.1,-17.3,0.5,23.6775,8.28578,14.0767,13.7804,-18.2437,-18.1156,44.5304,-33.1325,2.01318,-0.236223,-0.0720809999999999,-1.30813,247.4,10.0,52.1701,4.427230000000001,-2.1,1.22286,361.779,4.25306,183.216,43.3245,164.32299999999998,0.717589,0.227128,249.894,1.95406,2.2014400000000003,31.6818542480469,22.0009689331055,18.221637725830103,22.0,1746110.0,3384.09,pp-ro,1,1,-1,-1
1570541577.7,2019-10-08,15:32:57.700,14.0,14.0,20.0699996948242,22.2,3.4,9.4,47.2,-11.9,-6.1,25.2356,4.0941,10.3334,10.4817,-17.9354,-24.2705,47.0613,-21.0656,-11.1442,-0.346753,-0.179232,-1.42154,247.4,10.0,52.1701,4.427230000000001,-2.1,1.2284,359.944,4.25307,183.712,45.6045,163.22299999999998,0.711592,0.216,249.943,1.81675,2.12286,29.9616851806641,22.0009689331055,16.8362522125244,22.0,1746290.0,3384.09,pp-ro,1,1,-1,-1
1570541577.8,2019-10-08,15:32:57.800,14.0,13.0,20.1100006103516,22.1,2.0,7.6,47.9,-6.7,-11.6,25.2964,3.25495,9.29068,-2.8422,-11.9007,-15.0455,47.2769,-17.9416,-14.0483,0.0175067,0.1398839999999999,-1.32299,247.4,10.0,52.1701,4.427230000000001,-2.1,1.21898,353.495,4.253080000000001,184.062,47.5046,162.423,0.707063,0.206734,250.034,1.6922099999999998,2.04109,27.919616699218803,22.0009689331055,15.344630241394,22.0,1746810.0,5814.49,pp-ro,1,1,-1,-1
1570541577.9,2019-10-08,15:32:57.900,14.0,13.0,20.1900005340576,21.9,0.6,5.7,48.4,-1.3,-16.8,24.8601,0.681632,6.15423,-8.67497,-23.0544,-16.0477,47.3927,-8.42019,-21.7763,-0.436025,0.131567,-1.3661299999999998,247.4,10.0,52.1701,4.427230000000001,-2.1,1.2018,345.96,4.253080000000001,184.325,49.7847,161.72299999999998,0.702766,0.195512,250.217,1.5691,1.95213,25.8094177246094,22.0009689331055,13.6999320983887,22.0,1747460.0,3691.74,pp-ro,1,1,-1,-1
1570541578.0,2019-10-08,15:32:58.000,14.0,13.0,20.1900005340576,21.5,-0.7,3.9,48.7,3.7,-21.2,24.4229,-0.946039,3.9924,-9.26083,-9.3185,-13.9078,46.6613,-2.28985,-26.4751,0.0918361,0.261797,-1.0338200000000002,247.4,10.0,52.1701,4.427230000000001,-2.1,1.20347,349.145,4.2531,184.384,51.6847,161.22299999999998,0.699795,0.185996,250.323,1.45908,1.86311,23.7111434936523,22.0009689331055,12.0121402740479,22.0,1747660.0,4030.15,pp-ro,1,1,-1,-1
1570541578.1,2019-10-08,15:32:58.100,14.0,16.0,20.1900005340576,20.6,-2.1,2.1,48.5,8.5,-25.3,23.9869,-1.6928900000000002,3.04747,-13.5059,-20.5944,-14.7858,46.0691,0.659565,-28.7686,-0.674473,0.131273,-1.29335,247.4,10.0,52.1701,4.427230000000001,-2.2,1.21344,359.32199999999995,4.25311,184.354,53.9648,160.82299999999998,0.6970310000000001,0.174516,250.525,1.35663,1.76627,21.5958404541016,22.0009689331055,10.1600198745728,22.0,1747960.0,2307.34,pp-ro,1,1,-1,-1
1570541578.2,2019-10-08,15:32:58.200,14.0,16.0,20.1499996185303,20.1,-3.7,0.0,48.1,12.6,-28.9,23.311,-2.57305,1.93027,-6.73575,-19.863,-20.4825,45.8527,3.30309,-30.7668,-0.229985,0.21015,-1.28884,247.4,10.0,52.1701,4.427230000000001,-2.2,1.23616,360.585,4.25311,184.15,55.8648,160.72299999999998,0.695838,0.164732,250.727,1.26842,1.6430900000000002,19.4839477539062,22.0009689331055,7.72432136535645,22.0,1748280.0,4060.91,pp-ro,1,1,-1,-1
1570541578.3,2019-10-08,15:32:58.300,14.0,13.0,19.8799991607666,19.4,-5.1,-1.8,47.8,16.5,-33.1,22.7091,-4.22926,-0.522197,-18.301,-21.1128,-25.8577,44.9604,8.34835,-34.113,-0.0814677,0.632674,-1.0551700000000002,247.4,10.0,52.1701,4.427230000000001,-2.2,1.21621,363.811,4.25312,183.799,58.1448,160.72299999999998,0.69497,0.152876,250.988,1.17804,1.53341,17.3856811523438,22.0009689331055,5.54418754577637,22.0,1748830.0,5106.9,pp-ro,1,1,-1,-1
1570541578.4,2019-10-08,15:32:58.400,14.0,13.0,19.7000007629395,18.3,-6.4,-3.2,47.2,19.5,-37.3,20.8816,-6.39831,-3.29275,-13.7101,-10.0055,-18.9003,43.1407,14.6114,-40.2427,0.136854,-0.0152002999999999,-0.7460220000000001,247.4,10.0,52.1701,4.427230000000001,-2.2,1.29378,403.156,4.2531300000000005,183.303,60.4249,160.923,0.694999,0.140828,251.291,1.10002,1.43334,15.2805938720703,22.0019989013672,3.52006101608276,22.0,1748980.0,1107.52,pp-ro,1,1,-1,-1
1570541578.5,2019-10-08,15:32:58.500,14.0,14.0,19.4300003051758,17.3,-7.0,-4.2,46.3,22.3,-41.3,19.7676,-7.804119999999999,-4.5512,-10.9563,-9.98832,-6.40149,42.8051,18.0195,-43.744,-0.0509693,0.111116,-0.804906,247.3,9.7,52.1701,4.427230000000001,-2.2,1.29378,385.357,4.25314,182.748,61.9449,161.22299999999998,0.696029,0.132436,251.449,1.02494,1.36379,13.1772079467773,22.0019989013672,2.06890869140625,22.0,1749570.0,8244.88,pp-ro,1,1,-1,-1
1570541578.6,2019-10-08,15:32:58.600,14.0,10.0,19.3899993896484,16.5,-7.1,-5.3,45.9,25.0,-45.6,18.5911,-8.00041,-5.958469999999999,-15.2735,-3.29552,-11.6748,41.7492,21.9411,-47.7109,0.124099,0.104571,-0.848626,247.3,9.7,52.1701,4.427230000000001,-2.2,1.2356,370.1230000000001,4.25315,182.105,63.8449,161.523,0.696914,0.12204,251.651,0.949588,1.30592,11.067024230957,22.0025119781494,0.854704320430756,22.0,1750360.0,6706.66,pp-ro,1,1,-1,-1
1570541578.7,2019-10-08,15:32:58.700,14.0,10.0,19.4300003051758,16.0,-7.7,-5.8,45.5,28.0,-49.8,17.8015,-8.68206,-6.63559,0.8272299999999999,-3.05826,-2.73003,41.2153,25.6628,-51.6903,0.327653,-0.125808,-1.16642,247.3,9.7,52.1701,4.427230000000001,-2.2,1.23173,375.804,4.25315,181.433,65.3649,161.923,0.698448,0.113444,251.813,0.8714299999999999,1.26311,8.41863250732422,22.0019989013672,-0.08629135787487,22.0,1750510.0,3045.68,pp-ro,1,1,-1,-1
1570541578.8,2019-10-08,15:32:58.800,14.0,11.0,19.7000007629395,15.3,-8.2,-6.3,44.0,30.7,-54.0,16.9071,-9.19485,-7.27695,-10.7116,-9.56927,-2.66998,40.3069,29.206,-55.6326,0.215427,0.0836662,-0.875517,247.3,9.7,52.1701,4.427230000000001,-2.2,1.27716,390.441,4.25315,180.674,67.265,162.423,0.7001189999999999,0.1028319999999999,252.08900000000003,0.79919,1.21815,7.36438751220703,22.0019989013672,-1.08090555667877,22.0,1750640.0,1692.05,pp-ro,1,1,-1,-1
1570541578.9,2019-10-08,15:32:58.900,14.0,11.0,19.7900009155273,14.4,-8.7,-7.1,43.4,32.3,-57.1,16.3417,-9.43862,-7.43222,-4.44025,-3.3705300000000005,3.00268,39.7822,30.6832,-57.6598,0.621386,0.0769696,-0.653832,247.3,9.7,52.1701,4.427230000000001,-2.2,1.26165,380.73800000000006,4.25316,179.856,68.785,162.82299999999998,0.701916,0.0939477,252.172,0.75157,1.15317,5.28996276855469,22.0019989013672,-2.48165559768677,22.0,1751500.0,6275.96,pp-ro,1,1,-1,-1
1570541579.0,2019-10-08,15:32:59.000,14.0,12.0,19.9699993133545,13.4,-8.9,-7.7,42.7,32.9,-59.3,15.3952,-9.59763,-8.10297,-13.5437,-2.65099,-11.9726,38.5661,32.6132,-60.8417,0.0991691,0.0637955,-0.5129100000000001,247.3,9.7,52.1701,4.427230000000001,-2.2,1.255,380.511,4.25316,179.009,70.305,163.423,0.7043470000000001,0.0849878999999999,252.377,0.7254430000000001,1.09719,2.9123687744140603,22.0025119781494,-3.73697185516357,22.0,1751770.0,4922.32,pp-ro,1,1,-1,-1
1570541579.1,2019-10-08,15:32:59.100,14.0,12.0,20.1100006103516,12.9,-9.7,-8.1,42.1,33.7,-61.7,14.4167,-9.82784,-8.67403,-13.4036,-9.66533,-5.45569,38.3803,34.2399,-62.3118,0.163853,0.302054,-0.247581,247.3,9.7,52.1701,4.42724,-2.4,1.2755,394.324,4.25317,178.074,71.825,164.123,0.707244,0.0758353,252.598,0.6950270000000001,1.05372,1.17176055908203,22.0025119781494,-4.77041006088257,22.0,1752090.0,3137.98,pp-ro,1,1,-1,-1
1570541579.2,2019-10-08,15:32:59.200,14.0,13.0,20.2800006866455,12.4,-10.0,-8.5,41.9,33.7,-63.5,14.0775,-10.1511,-8.826880000000001,-5.60736,-1.50145,-3.65024,38.1876,34.5832,-63.2797,0.2097389999999999,-0.208303,-0.338154,247.3,9.7,52.1701,4.42724,-2.4,1.3192700000000002,415.737,4.25317,177.081,72.965,164.82299999999998,0.710608,0.0683708,252.682,0.678649,1.0195,-0.107528686523438,22.0019989013672,-5.64630317687988,22.0,1752540.0,3076.45,pp-ro,1,1,-1,-1
1570541579.3,2019-10-08,15:32:59.300,14.0,15.0,20.5,12.3,-10.5,-8.8,41.7,34.2,-65.1,13.5555,-10.6691,-9.14361,-7.673389999999999,-3.93863,-1.7211299999999998,38.105,35.4113,-65.5112,0.1454,-0.00373158,-0.0715479,247.3,9.7,52.1701,4.42724,-2.4,1.32869,421.485,4.25318,176.05900000000003,74.485,165.623,0.713928,0.058977,252.935,0.660903,1.00255,-1.73066711425781,22.0019989013672,-6.18410921096802,22.0,1753070.0,6029.84,pp-ro,1,1,-1,-1
1570541579.4,2019-10-08,15:32:59.400,14.0,12.0,20.6700000762939,12.3,-11.0,-9.0,42.2,34.5,-65.4,13.5291,-11.1605,-9.35777,-0.409161,-4.66105,-1.77751,38.1476,35.8519,-66.5688,0.282124,0.00182982,-0.0823046,247.3,9.7,52.1701,4.42724,-2.4,1.32592,421.288,4.25318,175.007,75.625,166.423,0.717659,0.0513166999999999,253.068,0.659512,0.992779,-3.4920654296875,22.0019989013672,-6.60511589050293,22.0,1753330.0,5045.38,pp-ro,1,1,-1,-1
1570541579.5,2019-10-08,15:32:59.500,14.0,10.0,20.9300003051758,12.5,-11.4,-9.0,42.7,33.1,-65.7,13.6303,-11.6691,-9.28362,-1.95531,-5.10256,-3.70397,38.1592,35.81,-66.9831,0.171058,-0.0660341,0.250317,247.9,9.4,52.1701,4.42724,-2.4,1.32924,410.324,4.2532,173.75099999999998,76.765,167.324,0.7221420000000001,0.0431663,253.14,0.675067,0.999674,-4.70387268066406,22.0009689331055,-6.74546718597412,22.0,1753880.0,6737.42,pp-ro,1,1,-1,-1
1570541579.6,2019-10-08,15:32:59.600,14.0,10.0,21.340000152587898,12.8,-11.2,-8.7,43.7,32.0,-65.7,13.9982,-11.6616,-8.87412,2.55313,3.3179300000000005,8.87495,39.8199,34.4819,-66.3312,0.222413,0.0304335,-0.0658468,247.9,9.4,52.1701,4.42724,-2.4,1.29046,403.894,4.25323,172.612,78.285,168.12400000000002,0.725604,0.0333745,253.356,0.6925560000000001,1.03043,-5.69721984863281,22.0019989013672,-6.36385059356689,22.0,1754760.0,3045.68,pp-ro,1,1,-1,-1
1570541579.7,2019-10-08,15:32:59.700,14.0,12.0,21.75,13.1,-11.3,-8.3,44.5,31.6,-65.5,13.9982,-11.6616,-8.87412,2.55313,3.3179300000000005,8.87495,39.8199,34.4819,-66.3312,0.222413,0.0304335,-0.0658468,247.9,9.4,52.1701,4.42724,-2.4,1.3093,406.779,4.25326,171.47299999999998,79.425,168.924,0.729432,0.0253603,253.469,0.7044100000000001,1.05867,-6.35944366455078,22.0014839172363,-6.05830192565918,22.0,1754940.0,3322.56,pp-ro,1,1,-1,-1
1570541579.8,2019-10-08,15:32:59.800,14.0,12.0,22.149999618530305,13.5,-11.3,-7.8,45.5,30.8,-64.9,14.3282,-11.7099,-8.22835,6.55208,0.91638,5.4124,40.3751,33.3721,-66.3904,0.0799429,-0.2549369999999999,0.0778126,247.9,9.4,52.1701,4.42724,-2.4,1.30265,402.231,4.25329,170.27599999999998,80.945,169.62400000000002,0.732642,0.0153484,253.61,0.726658,1.0966,-6.55401611328125,22.0019989013672,-5.5376091003418,22.0,1755710.0,4491.62,pp-ro,1,1,-1,-1
1570541579.9,2019-10-08,15:32:59.900,14.0,10.0,22.3099994659424,13.8,-11.1,-7.3,46.5,29.4,-64.2,14.3282,-11.7099,-8.22835,6.55208,0.91638,5.4124,40.3751,33.3721,-66.3904,0.0799429,-0.2549369999999999,0.0778126,247.9,9.4,52.1701,4.42724,-2.4,1.29932,394.395,4.25331,169.107,82.465,170.324,0.735729,0.00535709,253.787,0.7563840000000001,1.13468,-6.69226837158203,22.0009689331055,-5.01602840423584,22.0,1755990.0,5752.96,pp-ro,1,1,-1,-1
1570541580.0,2019-10-08,15:33:00.000,14.0,10.0,22.4300003051758,14.3,-11.0,-7.0,47.6,28.7,-62.2,15.2333,-11.5174,-6.75095,6.6151,4.13137,5.84187,43.9198,30.035,-63.9741,-0.0303846999999999,0.155204,0.181497,247.9,9.4,52.1701,4.42724,-2.4,1.26109,382.839,4.253340000000001,167.968,83.605,170.924,0.7388520000000001,-0.00279573,253.807,0.793859,1.16934,-6.39528656005859,22.0009689331055,-4.566529273986821,22.0,1756720.0,6737.42,pp-ro,1,1,-1,-1
1570541580.1,2019-10-08,15:33:00.100,14.0,11.0,22.350000381469695,14.7,-11.4,-6.9,48.8,27.5,-60.7,15.3954,-11.3473,-6.5788,3.32635,4.06525,-0.470151,44.4367,29.4207,-63.2586,0.0192928,-0.0349448,0.260941,247.9,9.4,52.1701,4.42724,-2.6,1.29101,405.389,4.253369999999999,166.8,84.745,171.62400000000002,0.7423,-0.0110475,253.887,0.830617,1.1834,-5.729644775390621,22.0009689331055,-4.56135559082031,22.0,1757160.0,2645.75,pp-ro,1,1,-1,-1
1570541580.2,2019-10-08,15:33:00.200,14.0,11.0,22.2399997711182,14.9,-11.6,-6.6,49.7,25.5,-59.1,16.0678,-11.8707,-6.34349,5.4896,-0.5262899999999999,0.4627449999999999,45.798,26.2734,-61.6722,-0.000730029,-0.133067,0.3665449999999999,247.9,9.4,52.1701,4.42724,-2.6,1.3104,420.071,4.2534,165.632,86.6451,172.22400000000002,0.744486,-0.0229819,254.17,0.8802040000000001,1.20396,-5.04352569580078,22.003026962280305,-4.36938238143921,22.0,1757290.0,2584.22,pp-ro,1,1,-1,-1
1570541580.3,2019-10-08,15:33:00.300,14.0,12.0,22.2399997711182,15.3,-11.8,-6.0,50.3,24.0,-57.9,16.0678,-11.8707,-6.34349,5.4896,-0.5262899999999999,0.4627449999999999,45.798,26.2734,-61.6722,-0.000730029,-0.133067,0.3665449999999999,247.9,9.4,52.1701,4.42724,-2.6,1.37523,456.537,4.253430000000001,164.43400000000003,87.7851,172.72400000000002,0.747336,-0.0314075999999999,254.123,0.917336,1.23835,-4.686805725097661,22.0035419464111,-3.9381263256073,22.0,1757430.0,769.112,pp-ro,1,1,-1,-1
1570541580.4,2019-10-08,15:33:00.400,14.0,12.0,22.3600006103516,15.9,-11.9,-5.4,51.0,22.9,-56.4,16.0678,-11.8707,-6.34349,5.4896,-0.5262899999999999,0.4627449999999999,45.798,26.2734,-61.6722,-0.000730029,-0.133067,0.3665449999999999,247.9,9.4,52.1701,4.42724,-2.6,1.4156799999999998,464.525,4.25346,163.208,89.6851,173.22400000000002,0.749242,-0.0435398,254.336,0.956544,1.28205,-4.40007019042969,22.003026962280305,-3.28486442565918,22.0,1757850.0,6091.37,pp-ro,1,1,-1,-1
1570541580.5,2019-10-08,15:33:00.500,14.0,10.0,22.3199996948242,16.4,-11.8,-4.9,51.6,21.6,-55.5,16.7846,-12.4039,-5.22815,8.80217,3.71263,6.09893,47.1205,23.0736,-59.2622,-0.221973,-0.144281,0.0412847,246.9,9.3,52.1701,4.42724,-2.6,1.38798,448.633,4.25349,161.981,91.2051,173.62400000000002,0.751286,-0.0539123,254.365,0.989579,1.32174,-4.04676818847656,22.003026962280305,-2.7205772399902304,22.0,1758680.0,8337.18,pp-ro,1,1,-1,-1
1570541580.6,2019-10-08,15:33:00.600,14.0,14.0,22.280000686645497,16.7,-11.7,-4.4,52.0,20.4,-54.8,17.3282,-12.2855,-4.33025,-3.45272,-0.831255,-0.200717,48.0427,21.0442,-57.6426,0.143869,-0.179219,0.378448,246.9,9.3,52.1701,4.42724,-2.6,1.35141,436.575,4.25351,160.725,93.1051,174.024,0.752832,-0.0661725,254.53,1.02052,1.35706,-3.5859375,22.003026962280305,-2.22823524475098,22.0,1759700.0,5906.78,pp-ro,1,1,-1,-1
1570541580.7,2019-10-08,15:33:00.700,14.0,11.0,22.1599998474121,17.0,-11.6,-3.8,51.5,19.1,-55.3,17.6914,-12.4223,-3.80057,9.78949,-4.30448,10.7237,48.0781,19.9217,-57.6045,-0.0643213,-0.389846,0.0105628999999999,246.9,9.3,52.1701,4.42724,-2.6,1.36083,440.049,4.25355,159.498,94.6251,174.324,0.75447,-0.0766186,254.524,1.03671,1.39441,-2.90151977539062,22.0035419464111,-1.69902944564819,22.0,1759940.0,4706.97,pp-ro,1,1,-1,-1
1570541580.8,2019-10-08,15:33:00.800,14.0,13.0,22.2399997711182,17.1,-11.6,-3.2,51.4,17.7,-54.5,17.6914,-12.4223,-3.80057,9.78949,-4.30448,10.7237,48.0781,19.9217,-57.6045,-0.0643213,-0.389846,0.0105628999999999,246.9,9.3,52.1701,4.42724,-2.6,1.37523,454.326,4.25357,158.33,96.5251,174.524,0.755101,-0.0886648999999999,254.645,1.07142,1.4256,-2.61648559570312,22.0035419464111,-1.22817969322205,22.0,1760410.0,4553.14,pp-ro,1,1,-1,-1
1570541580.9,2019-10-08,15:33:00.900,14.0,12.0,22.440000534057603,17.0,-11.3,-2.8,52.1,17.0,-54.0,17.9986,-12.271,-3.0089900000000003,1.00102,-2.54351,8.5195,48.6955,17.2315,-57.0961,0.0665525,0.0280279999999999,0.178814,246.9,9.3,52.1701,4.42724,-2.6,1.40626,456.815,4.2536,157.07399999999998,98.0451,174.72400000000002,0.7564029999999999,-0.0992337,254.585,1.09321,1.45191,-2.06008148193359,22.0035419464111,-0.9097796678543092,22.0,1761180.0,8029.53,pp-ro,1,1,-1,-1
1570541581.0,2019-10-08,15:33:01.000,14.0,12.0,22.4799995422363,17.2,-11.2,-2.4,51.6,16.0,-54.4,17.9084,-12.0014,-2.2815,4.21306,-3.30911,-0.399741,49.3108,16.1083,-56.908,0.0113042,-0.262682,0.0318887999999999,246.9,9.3,52.1701,4.42724,-2.6,1.38687,449.199,4.25363,155.935,99.9452,174.824,0.756546,-0.111221,254.692,1.10856,1.48105,-1.59925079345703,22.003026962280305,-0.4471115767955779,22.0,1761630.0,8552.53,pp-ro,1,1,-1,-1
1570541581.1,2019-10-08,15:33:01.100,14.0,12.0,22.399999618530305,17.0,-11.2,-1.9,51.5,15.1,-53.9,17.9084,-12.0014,-2.2815,4.21306,-3.30911,-0.399741,49.3108,16.1083,-56.908,0.0113042,-0.262682,0.0318887999999999,246.9,9.3,52.1701,4.427230000000001,-2.7,1.36969,444.003,4.25366,154.766,101.465,175.024,0.75753,-0.121572,254.718,1.13269,1.50155,-1.02236175537109,22.003026962280305,-0.2295105904340739,22.0,1762510.0,5106.9,pp-ro,1,1,-1,-1
1570541581.2,2019-10-08,15:33:01.200,14.0,13.0,22.2000007629395,16.7,-10.9,-1.4,51.8,14.3,-53.0,17.5758,-11.7284,-1.37688,-2.06775,0.944818,8.21997,49.6871,14.4528,-56.2758,0.193114,0.0448749,0.129803,246.9,9.3,52.1701,4.427230000000001,-2.7,1.36748,439.773,4.25369,153.59799999999998,102.985,175.024,0.757892,-0.131938,254.621,1.16065,1.52834,-0.593955993652344,22.0035419464111,0.168595924973488,22.0,1762810.0,5845.25,pp-ro,1,1,-1,-1
1570541581.3,2019-10-08,15:33:01.300,14.0,14.0,21.9599990844727,16.8,-11.0,-1.3,51.9,13.9,-52.5,17.5758,-11.7284,-1.37688,-2.06775,0.944818,8.21997,49.6871,14.4528,-56.2758,0.193114,0.0448749,0.129803,246.9,9.3,52.1701,4.427230000000001,-2.7,1.34476,419.556,4.25372,152.488,104.885,175.12400000000002,0.757774,-0.143834,254.798,1.17997,1.53944,-0.295272827148438,22.003026962280305,0.283957600593567,22.0,1763550.0,8244.88,pp-ro,1,1,-1,-1
1570541581.4,2019-10-08,15:33:01.400,14.0,14.0,21.760000228881804,16.8,-11.0,-0.9,52.2,13.3,-52.7,17.5758,-11.7284,-1.37688,-2.06775,0.944818,8.21997,49.6871,14.4528,-56.2758,0.193114,0.0448749,0.129803,246.9,9.3,52.1701,4.427230000000001,-2.7,1.30265,407.927,4.2537400000000005,151.378,106.405,175.12400000000002,0.757891,-0.154031,254.767,1.19191,1.56089,0.073234558105469,22.003026962280305,0.59492814540863,22.0,1764260.0,6275.96,pp-ro,1,1,-1,-1
1570541581.5,2019-10-08,15:33:01.500,14.0,14.0,21.5200004577637,16.9,-10.9,-0.8,52.2,13.0,-52.8,17.572,-11.6421,-0.767288,4.30012,-1.28696,5.8304800000000006,50.1534,13.4016,-55.055,0.0464321999999999,-0.144877,0.0450131999999999,244.4,9.1,52.1701,4.427230000000001,-2.7,1.30819,408.573,4.25376,150.239,108.305,175.22400000000002,0.757708,-0.165979,254.962,1.20271,1.57747,0.281021118164062,22.003026962280305,0.8212968707084659,22.0,1764980.0,6091.37,pp-ro,1,1,-1,-1
1570541581.6,2019-10-08,15:33:01.600,14.0,13.0,21.3999996185303,16.9,-10.8,-0.5,52.1,12.3,-53.0,17.5881,-11.4578,-0.355931,-0.0151347,-2.08698,1.94599,49.9482,12.4697,-56.0136,-0.359202,-0.4486949999999999,0.0902558,244.4,9.1,52.1701,4.427230000000001,-2.7,1.31816,422.603,4.253769999999999,149.129,109.825,175.22400000000002,0.757713,-0.176149,254.96,1.21591,1.59815,0.3661727905273439,22.003026962280305,1.12307822704315,22.0,1765350.0,2338.1,pp-ro,1,1,-1,-1
1570541581.7,2019-10-08,15:33:01.700,14.0,13.0,21.3999996185303,16.4,-11.0,-0.2,51.9,11.9,-53.6,17.3479,-11.5866,-0.231011,-8.5131,-5.48731,-3.86559,49.45399999999999,11.5713,-56.4964,0.203036,-0.225529,0.2339639999999999,244.4,9.1,52.1701,4.427230000000001,-2.7,1.3431,429.761,4.25378,148.57399999999998,110.965,175.225,0.757084,-0.182881,255.13,1.21819,1.59826,0.7476806640625,22.003026962280305,1.1308915615081798,22.0,1765480.0,2522.69,pp-ro,1,1,-1,-1
1570541581.8,2019-10-08,15:33:01.800,14.0,13.0,21.4400005340576,16.0,-10.9,0.0,51.6,10.3,-55.0,17.3479,-11.5866,-0.231011,-8.5131,-5.48731,-3.86559,49.45399999999999,11.5713,-56.4964,0.203036,-0.225529,0.2339639999999999,244.4,9.1,52.1701,4.427230000000001,-2.7,1.35529,434.576,4.25379,146.91,112.865,175.325,0.757854,-0.196484,255.068,1.22998,1.61004,0.9758987426757808,22.003026962280305,-35.0,22.0,1766020.0,6245.19,pp-ro,1,1,-1,-1
1570541581.9,2019-10-08,15:33:01.900,14.0,13.0,21.4799995422363,15.8,-10.5,0.0,51.6,10.5,-54.9,17.3479,-11.5866,-0.231011,-8.5131,-5.48731,-3.86559,49.45399999999999,11.5713,-56.4964,0.203036,-0.225529,0.2339639999999999,244.4,9.1,52.1701,4.427230000000001,-2.7,1.3464200000000002,423.293,4.25379,145.829,114.765,175.325,0.757011,-0.208159,255.296,1.2371,1.62595,1.10874938964844,22.0035419464111,-35.0,22.0,1766590.0,5414.55,pp-ro,1,1,-1,-1
1570541582.0,2019-10-08,15:33:02.000,14.0,13.0,21.4799995422363,15.8,-10.5,0.0,51.7,10.7,-55.7,16.5273,-11.3316,0.181139,-0.72019,3.00329,7.00942,49.748000000000005,10.6013,-57.2509,-0.262853,0.0123305,-0.301819,244.4,9.1,52.1701,4.427230000000001,-2.7,1.30653,397.664,4.2538,144.77700000000002,116.285,175.325,0.75668,-0.218101,255.385,1.23184,1.63277,0.953758239746094,22.003026962280305,-35.0,22.0,1767450.0,9229.35,pp-ro,1,1,-1,-1
1570541582.1,2019-10-08,15:33:02.100,14.0,12.0,21.3600006103516,15.7,-10.7,0.2,51.7,10.3,-55.8,16.4699,-11.0862,0.175463,-0.878973,3.58857,1.65798,49.802,10.6386,-57.9218,-0.0929143,-0.285197,0.00695569,244.4,9.1,52.1701,4.427230000000001,-2.7,1.27051,390.784,4.25381,143.697,118.185,175.425,0.755999,-0.229708,255.715,1.24374,1.6403299999999998,0.3917236328125,22.0025119781494,-35.0,22.0,1768230.0,3168.74,pp-ro,1,1,-1,-1
1570541582.2,2019-10-08,15:33:02.200,14.0,14.0,21.270000457763697,15.5,-10.6,0.2,51.8,10.3,-55.9,16.2115,-11.1509,0.398904,-2.756,-0.0674408,-0.598046,49.7773,10.9348,-57.9399,0.161519,0.0815538,0.313508,244.4,9.1,52.1701,4.427230000000001,-2.7,1.28104,396.744,4.253819999999999,142.674,119.325,175.425,0.756157,-0.23794,255.672,1.24829,1.645,-0.539344787597656,22.003026962280305,-35.0,22.0,1768410.0,3476.39,pp-ro,1,1,-1,-1
1570541582.3,2019-10-08,15:33:02.300,14.0,13.0,21.229999542236303,15.7,-10.5,0.3,52.2,9.9,-55.8,16.2115,-11.1509,0.398904,-2.756,-0.0674408,-0.598046,49.7773,10.9348,-57.9399,0.161519,0.0815538,0.313508,244.4,9.1,52.1701,4.427230000000001,-2.7,1.29267,391.48,4.253819999999999,141.623,120.845,175.425,0.755681,-0.247834,255.802,1.26141,1.6627299999999998,-1.80577087402344,22.0025119781494,-35.0,22.0,1768800.0,4491.62,pp-ro,1,1,-1,-1
1570541582.4,2019-10-08,15:33:02.400,14.0,13.0,21.1900005340576,16.1,-10.8,0.8,52.2,8.8,-56.2,16.0417,-11.0293,0.583274,1.22389,-1.2617200000000002,5.97659,50.1336,10.7897,-57.8423,0.180979,0.00639223,0.183561,244.4,9.1,52.1701,4.427230000000001,-2.7,1.26497,386.154,4.253830000000001,140.542,122.745,175.425,0.7545470000000001,-0.259349,256.11,1.27824,1.68806,-3.42720794677734,22.0025119781494,-35.0,22.0,1769500.0,7137.36,pp-ro,1,1,-1,-1
1570541582.5,2019-10-08,15:33:02.500,14.0,13.0,21.1900005340576,16.1,-10.6,1.4,52.4,6.8,-56.1,16.3531,-11.2025,0.907676,-2.30097,1.85237,11.8786,50.0058,9.90782,-57.9223,0.197107,0.0424684,0.27187,244.4,8.5,52.1701,4.427230000000001,-2.7,1.28381,402.653,4.253830000000001,139.491,123.885,175.425,0.754642,-0.267661,256.084,1.3101,1.7224,-5.42072296142578,22.003026962280305,-35.0,22.0,1769730.0,830.6410000000001,pp-ro,1,1,-1,-1
1570541582.6,2019-10-08,15:33:02.600,14.0,14.0,21.1499996185303,16.5,-10.1,2.0,53.3,5.3,-55.3,16.2676,-10.9114,1.57886,-0.844303,4.84711,7.789339999999999,51.1345,8.50756,-56.6842,0.00526286,0.136592,-0.0380215,244.4,8.5,52.1701,4.427230000000001,-2.7,1.31761,407.701,4.253830000000001,138.439,125.785,175.325,0.753055,-0.278988,256.371,1.34674,1.77498,-7.53712463378906,22.0025119781494,-35.0,22.0,1770150.0,5691.43,pp-ro,1,1,-1,-1
1570541582.7,2019-10-08,15:33:02.700,14.0,13.0,21.1900005340576,16.8,-9.9,2.4,54.2,4.3,-54.6,16.3302,-10.2549,2.33775,4.2428,10.7712,4.46638,51.9627,7.452319999999999,-55.6269,-0.00914675,-0.324656,0.232896,244.4,8.5,52.1701,4.427230000000001,-2.7,1.28713,394.158,4.253830000000001,137.475,127.305,175.225,0.751925,-0.2884489999999999,256.534,1.37456,1.8071,-9.64328002929688,22.003026962280305,-35.0,22.0,1770790.0,6614.36,pp-ro,1,1,-1,-1
1570541582.8,2019-10-08,15:33:02.800,14.0,12.0,21.229999542236303,17.5,-9.7,3.5,55.4,0.0,-53.0,16.9733,-9.93425,3.07581,8.03307,0.8109,7.22875,53.0533,5.81051,-54.3283,0.4258119999999999,0.0754891,0.611739,244.4,8.5,52.1701,4.427230000000001,-2.7,1.26497,386.969,4.253830000000001,136.541,129.205,174.825,0.7491479999999999,-0.299242,256.712,1.45634,1.869,-11.7494430541992,22.0035419464111,-35.0,22.0,1771630.0,5660.67,pp-ro,1,1,-1,-1
1570541582.9,2019-10-08,15:33:02.900,14.0,13.0,21.229999542236303,18.1,-8.5,5.3,57.0,-3.8,-50.3,17.2978,-9.36894,4.32131,-4.40128,13.6808,8.217030000000001,54.4368,3.08062,-52.4816,0.253196,0.0853335,0.675657,244.4,8.5,52.1701,4.427230000000001,-2.7,1.26386,390.505,4.253830000000001,135.606,130.725,174.325,0.746729,-0.308512,256.646,1.54426,1.98249,-13.862434387207,22.003026962280305,-35.0,22.0,1771800.0,3353.33,pp-ro,1,1,-1,-1
1570541583.0,2019-10-08,15:33:03.000,14.0,13.0,21.3099994659424,18.5,-8.0,6.0,58.2,-6.0,-49.0,17.5449,-8.28347,5.4244900000000005,8.47555,8.625110000000001,9.52109,56.7657,-0.0333643,-49.2229,0.692763,0.166391,0.8463379999999999,244.4,8.5,52.1701,4.427230000000001,-2.7,1.2899,386.236,4.253819999999999,135.197,131.865,174.125,0.7448359999999999,-0.314359,256.878,1.5924200000000002,2.0289200000000003,-15.9754257202148,22.003026962280305,-35.0,22.0,1772180.0,4830.02,pp-ro,1,1,-1,-1
1570541583.1,2019-10-08,15:33:03.100,14.0,14.0,21.3999996185303,19.5,-7.3,7.5,59.8,-9.3,-46.5,18.6212,-7.099419999999999,7.74072,6.61526,10.0788,17.2644,58.767,-5.2539,-44.568000000000005,0.199114,-0.1277319999999999,0.774293,244.4,8.5,52.1701,4.427230000000001,-2.7,1.24669,380.876,4.253819999999999,134.408,133.765,173.525,0.741085,-0.324434,257.04,1.6720099999999998,2.10902,-18.0781707763672,22.003026962280305,-35.0,22.0,1772910.0,6952.77,pp-ro,1,1,-1,-1
1570541583.2,2019-10-08,15:33:03.200,14.0,13.0,21.5599994659424,20.1,-6.2,9.5,61.1,-13.7,-43.6,18.6212,-7.099419999999999,7.74072,6.61526,10.0788,17.2644,58.767,-5.2539,-44.568000000000005,0.199114,-0.1277319999999999,0.774293,244.4,8.5,52.1701,4.427230000000001,-2.7,1.27827,394.47,4.253819999999999,133.737,135.665,172.725,0.736498,-0.33399,257.147,1.77003,2.20856,-20.1979827880859,22.0025119781494,-35.0,22.0,1773070.0,1199.82,pp-ro,1,1,-1,-1
1570541583.3,2019-10-08,15:33:03.300,14.0,14.0,21.6399993896484,20.2,-4.8,11.4,62.0,-19.1,-39.6,18.6212,-7.099419999999999,7.74072,6.61526,10.0788,17.2644,58.767,-5.2539,-44.568000000000005,0.199114,-0.1277319999999999,0.774293,244.4,8.5,52.1701,4.427230000000001,-2.7,1.29267,394.329,4.253819999999999,133.18200000000002,137.565,171.725,0.7310810000000001,-0.34302,257.198,1.89261,2.3098400000000003,-22.3280410766602,22.0025119781494,-35.0,22.0,1773550.0,5752.96,pp-ro,1,1,-1,-1
