time,date,time_of_day,airspeed_temperature,airspeed_angle_of_attack,airspeed_apparent_windspeed,kite_0_vx,kite_0_vy,kite_0_vz,kite_0_roll,kite_0_pitch,kite_0_yaw,kite_1_vx,kite_1_vy,kite_1_vz,kite_1_ax,kite_1_ay,kite_1_az,kite_1_roll,kite_1_pitch,kite_1_yaw,kite_1_roll_rate,kite_1_pitch_rate,kite_1_yaw_rate,ground_upwind_direction,ground_wind_velocity,ground_pos_latitude,ground_pos_longitude,ground_pos_altitude,ground_tether_reelout_speed,ground_tether_force,est_upwind_direction,kite_pos_east,kite_pos_north,kite_height,kite_elevation,kite_azimuth,kite_distance,kite_heading,kite_course,kite_actual_steering,kite_actual_depower,kite_set_steering,kite_set_depower,ground_mech_energy,ground_mech_power,flight_phase,flight_phase_index,phase,pattern,pattern_section
1570536697.6,2019-10-08,14:11:37.600,15.0,7.0,15.5299997329712,12.3,-2.7,2.7,20.2,-3.3,-62.2,10.7827,-2.18915,3.00071,9.29851,9.99162,1.62135,22.2464,11.754,-63.8502,0.185673,0.226165,1.00042,265.1,5.6,52.1701,4.42724,11.3,-2.53216,115.619,4.5199,59.4374,8.360660000000001,234.745,1.32047,0.0527455,242.297,0.648856,1.54996,-34.8079833984375,22.0354690551758,-35.0,22.0,-825160.0,4183.97,pp-riro,4,0,-1,-1
1570536697.7,2019-10-08,14:11:37.700,15.0,8.0,15.359999656677198,13.3,-1.5,3.0,22.1,-5.0,-56.8,11.7118,-1.20023,3.40023,8.30222,12.0937,7.64412,24.259,10.4794,-57.8382,0.140508,0.233462,0.911277,265.1,5.6,52.1701,4.42724,11.4,-2.46179,109.636,4.51996,59.1745,10.2607,234.545,1.3201200000000002,0.0207430999999999,242.112,0.782555,1.6836099999999998,-34.970123291015604,22.0122966766357,-35.0,22.0,-824903.0,2768.8,pp-riro,4,0,-1,-1
1570536697.8,2019-10-08,14:11:37.800,15.0,9.0,15.0699996948242,14.1,-0.3,3.3,23.6,-6.6,-51.4,12.5546,-0.0930151,3.70667,7.997039999999999,12.547,3.32401,26.1957,8.975439999999999,-51.8281,0.219902,0.273998,1.05128,265.1,5.6,52.1701,4.42724,11.4,-2.42245,103.282,4.52001,59.0576,11.4008,234.345,1.31956,0.00170528,241.941,0.902992,1.79184,-34.971832275390604,22.0009689331055,-35.0,22.0,-825088.0,-2430.39,pp-riro,4,0,-1,-1
1570536697.9,2019-10-08,14:11:37.900,15.0,8.0,14.9499998092651,14.9,0.6,3.7,25.4,-8.3,-46.0,13.2358,1.1059,4.104430000000001,5.67775,10.1366,3.2781,28.0453,7.17365,-45.9863,0.0895497,0.137971,1.01484,265.1,5.6,52.1701,4.42724,11.4,-2.4086,99.8658,4.52007,59.0284,12.9208,234.145,1.31824,-0.0231763,241.816,1.02977,1.87801,-34.975250244140604,22.0009689331055,-35.0,22.0,-825463.0,-5229.96,pp-riro,4,0,-1,-1
1570536698.0,2019-10-08,14:11:38.000,15.0,8.0,14.710000038147,15.7,1.8,4.2,26.8,-10.2,-40.5,14.2526,2.6709400000000003,4.72173,7.03734,9.59857,3.76801,30.6069,4.181080000000001,-36.93,0.179574,0.190692,1.05991,265.1,5.6,52.1701,4.42724,11.4,-2.41026,101.368,4.52013,59.11600000000001,14.4409,233.845,1.31621,-0.0473304,241.633,1.15837,1.97581,-34.9889068603516,22.0009689331055,-35.0,22.0,-826071.0,-6029.84,pp-riro,4,0,-1,-1
1570536698.1,2019-10-08,14:11:38.100,15.0,8.0,14.5299997329712,16.3,3.0,4.6,28.0,-12.0,-35.3,14.8192,3.75355,5.24367,3.65381,11.366,5.43446,31.7108,2.19065,-31.0833,0.17225,0.198423,1.01656,265.1,5.6,52.1701,4.42724,11.4,-2.4086,102.684,4.52019,59.3496,15.5809,233.645,1.31397,-0.0645349,241.568,1.27413,2.05951,-34.9940185546875,22.0009689331055,-35.0,22.0,-826591.0,-4091.68,pp-riro,4,0,-1,-1
1570536698.2,2019-10-08,14:11:38.200,15.0,8.0,14.3999996185303,16.7,4.3,5.0,29.0,-14.2,-29.9,14.8192,3.75355,5.24367,3.65381,11.366,5.43446,31.7108,2.19065,-31.0833,0.17225,0.198423,1.01656,265.0,6.3,52.1701,4.42724,11.4,-2.40472,98.0701,4.52022,59.6709,17.480999999999998,233.245,1.31027,-0.0928143999999999,241.39,1.4061,2.1556900000000003,-34.9957275390625,22.0009689331055,-35.0,22.0,-827002.0,-4553.14,pp-riro,4,0,-1,-1
1570536698.3,2019-10-08,14:11:38.300,15.0,9.0,14.3999996185303,17.0,5.7,5.5,29.7,-16.3,-24.5,15.0318,4.39196,5.46097,3.39865,12.4028,4.4128300000000005,32.1905,1.03786,-28.1797,0.0988466,0.189115,1.04975,265.0,6.3,52.1701,4.42724,11.4,-2.4218900000000003,92.5869,4.52025,60.1674,19.0011,232.845,1.30617,-0.113754,241.242,1.52981,2.24682,-34.9974365234375,22.0009689331055,-35.0,22.0,-827829.0,-9044.76,pp-riro,4,0,-1,-1
1570536698.4,2019-10-08,14:11:38.400,15.0,8.0,14.3999996185303,17.2,6.9,5.9,30.3,-18.2,-18.9,15.5482,6.85018,6.232069999999999,0.0145026,9.708,4.99784,33.6395,-3.64165,-16.6194,0.163003,0.254556,1.00623,265.0,6.3,52.1701,4.42724,11.4,-2.47841,94.8414,4.5202800000000005,60.7515,20.9011,232.445,1.30113,-0.1392509999999999,241.16,1.65959,2.32813,-34.9974365234375,22.0009689331055,-35.0,22.0,-829319.0,-10767.6,pp-riro,4,0,-1,-1
1570536698.5,2019-10-08,14:11:38.500,15.0,8.0,14.3999996185303,17.4,8.3,6.4,30.6,-20.4,-13.2,15.6542,7.478169999999999,6.43289,0.101099,11.2707,2.32483,33.8996,-4.83134,-13.7198,0.0320161,0.172586,1.00111,265.0,6.3,52.1701,4.42724,11.4,-2.50279,97.0788,4.52031,61.5109,22.4212,231.944,1.29569,-0.157464,241.007,1.78445,2.40786,-34.9974365234375,22.0009689331055,-35.0,22.0,-829729.0,-7783.42,pp-riro,4,0,-1,-1
1570536698.6,2019-10-08,14:11:38.600,15.0,8.0,14.460000038147,17.5,9.6,6.8,30.8,-22.4,-7.8,15.8526,9.25165,7.105519999999999,3.3652800000000003,11.5266,2.61774,33.9589,-8.10535,-5.02519,0.16887,0.2670599999999999,1.08281,265.0,6.3,52.1701,4.42724,11.4,-2.52218,98.9961,4.52034,62.3579,24.3213,231.444,1.28928,-0.179819,240.929,1.90615,2.4838400000000003,-34.9991455078125,22.0009689331055,-35.0,22.0,-830498.0,-6829.72,pp-riro,4,0,-1,-1
1570536698.7,2019-10-08,14:11:38.700,15.0,9.0,14.5900001525879,17.4,10.9,7.3,30.5,-24.4,-1.9,15.8079,10.4879,7.542910000000001,-2.03396,12.5953,5.72674,33.5109,-10.1182,1.24244,-0.0217751,0.340997,1.02201,265.0,6.3,52.1701,4.42724,11.4,-2.52717,102.947,4.52037,63.3509,25.8413,230.844,1.28266,-0.19529,240.77,2.02796,2.55514,-34.9991455078125,22.0009689331055,-35.0,22.0,-831324.0,-4153.21,pp-riro,4,0,-1,-1
1570536698.8,2019-10-08,14:11:38.800,15.0,9.0,14.7700004577637,17.2,12.3,7.6,30.1,-26.1,4.0,15.5326,12.2765,8.1642,-2.00813,11.4241,4.57618,32.4229,-13.1196,10.1496,0.1033309999999999,0.281748,1.06449,265.0,6.3,52.1701,4.42724,11.4,-2.52662,106.038,4.5204,64.4608,27.7414,230.144,1.27483,-0.214419,240.606,2.15009,2.63105,-34.9991455078125,22.0009689331055,-35.0,22.0,-831566.0,-4737.73,pp-riro,4,0,-1,-1
1570536698.9,2019-10-08,14:11:38.900,15.0,9.0,15.0600004196167,16.9,13.6,8.2,29.3,-27.7,10.4,15.5326,12.2765,8.1642,-2.00813,11.4241,4.57618,32.4229,-13.1196,10.1496,0.1033309999999999,0.281748,1.06449,265.0,6.3,52.1701,4.42724,11.4,-2.4978,113.078,4.52044,65.7459,29.2615,229.444,1.2668700000000002,-0.226793,240.465,2.27153,2.69821,-34.9974365234375,22.0009689331055,-35.0,22.0,-831703.0,-1199.82,pp-riro,4,0,-1,-1
1570536699.0,2019-10-08,14:11:39.000,15.0,10.0,15.3000001907349,16.5,14.9,8.7,28.3,-29.2,16.7,15.5326,12.2765,8.1642,-2.00813,11.4241,4.57618,32.4229,-13.1196,10.1496,0.1033309999999999,0.281748,1.06449,265.0,6.3,52.1701,4.42724,11.4,-2.40416,123.158,4.52047,67.1478,31.1616,228.74400000000003,1.25781,-0.2425739999999999,240.424,2.39216,2.76748,-35.0042724609375,22.0009689331055,-23.0044822692871,22.0,-831085.0,6060.6,pp-riro,4,0,-1,-1
1570536699.1,2019-10-08,14:11:39.100,15.0,10.0,15.5799999237061,16.0,16.4,9.2,27.2,-30.7,22.8,14.9583,14.7348,9.07795,-6.08666,14.5164,5.09237,30.0547,-16.1984,22.7285,0.131368,0.283284,1.08348,265.0,6.3,52.1701,4.42724,11.4,-2.34321,127.057,4.5205,68.6665,32.6816,227.944,1.24879,-0.2523289999999999,240.295,2.5023,2.83633,-35.0042724609375,22.0009689331055,-23.0044822692871,22.0,-830706.0,7198.89,pp-riro,4,0,-1,-1
1570536699.2,2019-10-08,14:11:39.200,15.0,10.0,15.5799999237061,15.4,17.9,9.7,25.7,-31.8,29.7,14.5007,15.98,9.58232,-4.81797,9.19294,5.17163,28.3734,-17.5966,29.1316,0.0717626,0.3255659999999999,0.985954,267.2,6.9,52.1701,4.42724,11.4,-2.14208,143.35299999999998,4.520569999999999,70.3897,34.5817,227.044,1.23821,-0.264797,240.207,2.62366,2.90666,-34.966720581054695,22.0009689331055,-23.0044822692871,22.0,-829113.0,13505.6,pp-riro,4,0,-1,-1
1570536699.3,2019-10-08,14:11:39.300,15.0,10.0,15.9799995422363,14.7,19.2,10.2,24.3,-32.7,36.5,13.9376,17.3008,10.0092,-5.27111,12.9272,6.25052,26.7224,-18.8158,35.5614,0.129706,0.357516,0.938745,267.2,6.9,52.1701,4.42724,11.4,-2.03404,149.504,4.52065,72.1714,36.1018,226.044,1.2279,-0.272092,240.016,2.73635,2.96672,-34.557098388671896,22.0009689331055,-23.0044822692871,22.0,-828273.0,15659.1,pp-riro,4,0,-1,-1
1570536699.4,2019-10-08,14:11:39.400,15.0,11.0,16.5699996948242,13.7,20.5,10.8,22.4,-33.9,43.6,13.1832,18.5256,10.5497,-6.8144100000000005,11.9156,4.22588,24.8685,-19.9534,42.3719,0.0808505,0.258866,1.01811,267.2,6.9,52.1701,4.42724,11.4,-1.67388,165.959,4.52074,74.1282,37.2419,225.044,1.21762,-0.273871,239.847,2.84782,3.0282400000000003,-33.790740966796896,22.0009689331055,-23.0044822692871,22.0,-825526.0,19597.0,pp-riro,4,0,-1,-1
1570536699.5,2019-10-08,14:11:39.500,15.0,12.0,16.8400001525879,12.6,21.8,11.3,20.4,-34.8,50.9,13.1832,18.5256,10.5497,-6.8144100000000005,11.9156,4.22588,24.8685,-19.9534,42.3719,0.0808505,0.258866,1.01811,267.2,6.9,52.1701,4.42724,11.4,-1.34919,171.19099999999997,4.52082,76.2311,38.7619,223.944,1.20601,-0.278838,239.717,2.96232,3.09256,-32.664276123046896,22.0009689331055,-23.0044822692871,22.0,-823660.0,18212.6,pp-riro,4,0,-1,-1
1570536699.6,2019-10-08,14:11:39.600,15.0,11.0,17.0400009155273,11.3,23.0,11.4,18.0,-35.2,58.3,11.7848,20.2917,11.2212,-11.3531,10.5604,1.71317,21.5509,-21.7158,52.8732,0.0302493,0.139913,1.04101,267.2,6.9,52.1701,4.42724,11.4,-1.0278200000000002,171.356,4.5209,78.4216,39.902,222.74400000000003,1.19459,-0.279185,239.493,3.07215,3.1544,-31.187911987304695,22.0009689331055,-23.0044822692871,22.0,-822101.0,14028.6,pp-riro,4,0,-1,-1
1570536699.7,2019-10-08,14:11:39.700,15.0,10.0,17.3500003814697,9.9,24.1,11.7,16.0,-34.9,65.6,10.6603,21.3795,11.5531,-15.0027,14.2929,1.85497,19.264,-22.6644,59.7444,0.0422236999999999,0.293272,1.05089,267.2,6.9,52.1701,4.42724,11.4,-0.838327,171.378,4.520980000000001,80.7582,41.0421,221.644,1.1828,-0.278788,239.441,3.17886,3.21499,-29.3514251708984,22.0009689331055,-23.0044822692871,22.0,-821525.0,11690.5,pp-riro,4,0,-1,-1
1570536699.8,2019-10-08,14:11:39.800,15.0,11.0,17.6100006103516,8.5,24.9,11.7,13.6,-34.9,72.3,8.151539999999999,23.2475,11.8797,-13.6048,6.47694,3.43618,14.7347,-23.8429,73.1022,0.151482,0.216075,1.03345,267.2,6.9,52.1701,4.42724,11.4,-0.512526,174.65400000000002,4.52107,83.1824,42.1821,220.443,1.17055,-0.27795,239.362,3.27601,3.2698,-27.419357299804695,22.0009689331055,-23.0044822692871,22.0,-820690.0,7137.36,pp-riro,4,0,-1,-1
1570536699.9,2019-10-08,14:11:39.900,15.0,10.0,17.75,6.8,25.3,11.8,11.6,-34.8,78.6,8.151539999999999,23.2475,11.8797,-13.6048,6.47694,3.43618,14.7347,-23.8429,73.1022,0.151482,0.216075,1.03345,267.2,6.9,52.1701,4.42724,11.4,-0.143507,179.24,4.52115,85.6649,42.9422,219.243,1.15874,-0.27343,239.27,3.36375,3.32568,-25.8371734619141,22.0009689331055,-23.0044822692871,22.0,-820353.0,1999.69,pp-riro,4,0,-1,-1
1570536700.0,2019-10-08,14:11:40.000,15.0,8.0,17.7999992370605,5.3,25.8,11.7,9.4,-34.7,84.5,6.03382,24.074,11.8799,-15.986,6.24745,-4.80759,11.6179,-24.2691,82.1446,0.170668,0.130222,0.682761,267.2,6.9,52.1701,4.42724,11.4,0.201132,175.112,4.52123,88.1768,43.3223,218.143,1.14764,-0.265513,239.246,3.4424300000000003,3.3733699999999995,-24.603172302246104,22.0009689331055,-22.4396171569824,22.0,-820583.0,-3784.03,pp-riro,4,0,-1,-1
1570536700.1,2019-10-08,14:11:40.100,15.0,8.0,17.8999996185303,3.9,26.1,11.4,7.4,-33.7,90.1,4.64161,24.5362,11.7142,-17.3651,4.87939,-2.52909,9.63135,-24.4284,87.595,-0.0471041,0.122137,0.727089,267.2,6.9,52.1701,4.42724,11.4,0.278149,164.37400000000002,4.52134,90.747,43.7023,216.943,1.13613,-0.257753,239.185,3.51937,3.41677,-23.6542053222656,22.0009689331055,-21.985414505004897,22.0,-820380.0,4706.97,pp-riro,4,0,-1,-1
1570536700.2,2019-10-08,14:11:40.200,15.0,9.0,17.9500007629395,2.5,26.1,11.5,5.9,-32.8,95.4,3.23817,24.703000000000003,11.3477,-14.7685,1.67852,-0.335983,8.029819999999999,-24.0285,92.6812,-0.141959,0.252425,0.677873,262.1,6.8,52.1701,4.42724,11.4,0.20501,171.635,4.52133,93.3464,44.0824,215.843,1.12468,-0.25014,239.259,3.59245,3.4571400000000003,-22.8486099243164,22.0009689331055,-21.607707977294897,22.0,-820377.0,61.529,pp-riro,4,0,-1,-1
1570536700.3,2019-10-08,14:11:40.300,15.0,9.0,17.8999996185303,1.0,26.1,11.8,3.7,-32.1,100.9,1.93005,24.7689,11.6725,-16.1083,1.44158,2.2960700000000003,6.05399,-23.5318,98.0327,-0.114393,0.33875,0.797593,262.1,6.8,52.1701,4.42724,11.4,0.396169,208.802,4.52134,96.0334,44.4624,214.643,1.11273,-0.24255,239.314,3.66796,3.50017,-22.503845214843803,22.0009689331055,-21.2192077636719,22.0,-820524.0,2861.1,pp-riro,4,0,-1,-1
1570536700.4,2019-10-08,14:11:40.400,15.0,10.0,17.840000152587898,-0.1,25.9,11.6,1.5,-31.5,106.4,1.3209,24.7394,11.7269,-12.5354,2.74384,-4.59494,4.75323,-22.9416,100.749,-0.0723929,0.1036079999999999,0.878174,262.1,6.8,52.1701,4.42724,11.4,0.342423,202.652,4.52134,98.6036,44.4625,213.443,1.10175,-0.232569,239.285,3.74114,3.52965,-21.829666137695305,22.0009689331055,-21.0148429870605,22.0,-820412.0,2184.28,pp-riro,4,0,-1,-1
1570536700.5,2019-10-08,14:11:40.500,15.0,11.0,18.0400009155273,-1.3,25.9,11.3,-0.9,-30.2,111.5,1.3209,24.7394,11.7269,-12.5354,2.74384,-4.59494,4.75323,-22.9416,100.749,-0.0723929,0.1036079999999999,0.878174,262.1,6.8,52.1701,4.42724,11.4,0.337436,193.447,4.52135,101.174,44.4625,212.343,1.09093,-0.223016,239.38,3.81297,3.56466,-21.411506652832,22.0009689331055,-20.7172508239746,22.0,-820426.0,-461.467,pp-riro,4,0,-1,-1
1570536700.6,2019-10-08,14:11:40.600,15.0,9.0,18.3299999237061,-2.7,25.8,11.3,-2.9,-28.3,115.8,-1.03044,24.6185,11.1326,-16.6158,2.49764,-2.68687,0.1532859999999999,-21.3285,110.797,0.24301,0.277468,0.749544,262.1,6.8,52.1701,4.42724,11.4,0.346301,205.573,4.52135,103.773,44.0825,211.243,1.08052,-0.21066,239.449,3.87546,3.60218,-21.075271606445305,22.0009689331055,-20.306037902832,22.0,-820341.0,984.464,pp-riro,4,0,-1,-1
1570536700.7,2019-10-08,14:11:40.700,15.0,10.0,18.6200008392334,-4.1,25.5,11.3,-4.9,-27.5,120.5,-2.44285,24.4919,11.0842,-11.6124,-5.1372,0.690075,-2.1915,-19.8053,115.385,-0.207258,0.169553,0.699026,262.1,6.8,52.1701,4.427230000000001,11.5,0.397277,227.286,4.52136,106.373,44.0826,210.043,1.06934,-0.201838,239.534,3.94025,3.64314,-20.8380279541016,22.0009689331055,-19.9612655639648,22.0,-820351.0,184.587,pp-riro,4,0,-1,-1
1570536700.8,2019-10-08,14:11:40.800,15.0,10.0,18.659999847412102,-5.5,25.1,11.0,-7.2,-25.8,124.7,-3.83479,24.1656,11.0752,-17.0271,-2.9825,-3.76519,-4.59672,-18.6613,119.978,-0.42937,0.0993682,0.7313149999999999,262.1,6.8,52.1701,4.427230000000001,11.5,0.4033719999999999,232.785,4.52136,108.885,43.7026,208.843,1.05894,-0.190654,239.543,4.00254,3.68531,-20.3567199707031,22.0009689331055,-19.5186653137207,22.0,-820302.0,984.464,pp-riro,4,0,-1,-1
1570536700.9,2019-10-08,14:11:40.900,15.0,11.0,18.8500003814697,-6.9,24.9,10.9,-8.9,-23.8,128.6,-5.11498,23.8057,10.7066,-12.8671,-6.9238100000000005,-1.23466,-6.87639,-17.4519,123.879,-0.253635,-0.0237904,0.663155,262.1,6.8,52.1701,4.427230000000001,11.5,0.431076,253.688,4.52136,111.396,42.9426,207.742,1.0492,-0.176914,239.604,4.0615,3.72304,-19.8958892822266,22.0009689331055,-19.0984058380127,22.0,-820240.0,153.822,pp-riro,4,0,-1,-1
1570536701.0,2019-10-08,14:11:41.000,15.0,11.0,19.0300006866455,-8.4,24.5,10.9,-10.6,-22.0,132.5,-7.296539999999999,23.4532,10.5783,-13.7358,-4.38421,-0.754686,-10.3781,-14.8073,129.586,-0.229868,0.2390179999999999,0.688447,262.1,6.8,52.1701,4.427230000000001,11.5,0.4482529999999999,263.263,4.52137,113.967,42.1827,206.542,1.0389700000000002,-0.163476,239.64,4.11997,3.76427,-19.6859512329102,22.0009689331055,-18.6665439605713,22.0,-820212.0,522.996,pp-riro,4,0,-1,-1
1570536701.1,2019-10-08,14:11:41.100,15.0,12.0,19.2600002288818,-9.8,23.9,10.6,-12.8,-20.7,136.3,-7.296539999999999,23.4532,10.5783,-13.7358,-4.38421,-0.754686,-10.3781,-14.8073,129.586,-0.229868,0.2390179999999999,0.688447,262.1,6.8,52.1701,4.427230000000001,11.5,0.479281,279.84,4.52137,116.362,41.0427,205.442,1.02994,-0.148078,239.648,4.17199,3.80525,-19.2558441162109,22.0009689331055,-18.155292510986303,22.0,-820154.0,553.761,pp-riro,4,0,-1,-1
1570536701.2,2019-10-08,14:11:41.200,15.0,12.0,19.4500007629395,-11.2,23.4,10.4,-14.3,-18.6,139.6,-7.94198,23.1899,10.5998,-4.06494,-1.103,-0.48383,-11.6624,-14.0984,131.553,-0.201995,-0.0197092,0.882346,261.1,7.0,52.1701,4.427230000000001,11.5,0.501999,294.182,4.52139,118.727,40.2827,204.242,1.02025,-0.136105,239.653,4.2267,3.84757,-18.7608795166016,22.0009689331055,-17.742496490478498,22.0,-820066.0,953.699,pp-riro,4,0,-1,-1
1570536701.3,2019-10-08,14:11:41.300,15.0,11.0,19.7199993133545,-12.6,22.5,10.3,-15.8,-17.1,143.2,-10.0411,22.4158,10.1629,-14.2245,-8.1603,-0.749466,-14.9824,-12.3459,136.999,-0.249646,0.179833,0.676413,261.1,7.0,52.1701,4.427230000000001,11.5,0.5319189999999999,310.755,4.52141,121.122,39.1427,203.042,1.01082,-0.121596,239.643,4.27907,3.89083,-18.3410110473633,22.0009689331055,-17.2791404724121,22.0,-819989.0,707.5830000000001,pp-riro,4,0,-1,-1
1570536701.4,2019-10-08,14:11:41.400,15.0,11.0,20.0300006866455,-13.7,21.6,9.9,-17.4,-15.7,146.6,-11.2567,21.6612,10.0143,-13.8401,-6.9516100000000005,2.23387,-17.0255,-10.845,140.655,0.0297185,0.164419,0.698858,261.1,7.0,52.1701,4.427230000000001,11.5,0.562394,324.7,4.5214300000000005,123.342,37.6227,201.842,1.0022799999999998,-0.105095,239.518,4.32639,3.92786,-17.8204498291016,22.0009689331055,-16.8791484832764,22.0,-819808.0,1353.64,pp-riro,4,0,-1,-1
1570536701.5,2019-10-08,14:11:41.500,15.0,12.0,20.2399997711182,-14.3,21.2,9.7,-18.0,-14.8,148.0,-12.67,20.8075,9.86975,-10.5893,-7.405489999999999,-2.78713,-18.7962,-9.86014,144.174,-0.2264389999999999,-0.0892495,0.850042,261.1,7.0,52.1701,4.427230000000001,11.5,0.56738,325.834,4.52145,124.452,36.8627,201.242,0.99796,-0.0970258,239.469,4.34778,3.94782,-17.421066284179698,22.0009689331055,-16.6685180664062,22.0,-819721.0,1630.52,pp-riro,4,0,-1,-1
1570536701.6,2019-10-08,14:11:41.600,15.0,10.0,20.3700008392334,-15.7,19.7,9.1,-19.2,-12.6,152.5,-14.1105,19.3394,9.23381,-10.4957,-9.71777,0.2463739999999999,-20.8968,-7.80024,148.904,-0.162752,0.0746775,0.405026,261.1,7.0,52.1701,4.427230000000001,11.5,0.566272,326.205,4.52147,127.548,34.9627,199.542,0.985487,-0.0766188999999999,239.391,4.4153400000000005,4.00484,-17.151390075683597,22.0009689331055,-16.1572685241699,22.0,-819540.0,1815.1,pp-riro,4,0,-1,-1
1570536701.7,2019-10-08,14:11:41.700,15.0,10.0,20.5400009155273,-16.5,18.5,8.6,-19.9,-11.2,155.3,-14.1105,19.3394,9.23381,-10.4957,-9.71777,0.2463739999999999,-20.8968,-7.80024,148.904,-0.162752,0.0746775,0.405026,261.1,7.0,52.1701,4.427230000000001,11.5,0.565718,325.235,4.52148,129.476,33.0627,198.542,0.978381,-0.0591099,239.324,4.45401,4.042590000000001,-16.7383499145508,22.0009689331055,-15.722954750061,22.0,-819374.0,1692.05,pp-riro,4,0,-1,-1
1570536701.8,2019-10-08,14:11:41.800,15.0,10.0,20.6299991607666,-16.8,18.1,8.4,-20.1,-10.4,156.5,-14.989,18.2346,8.84569,-4.6448,-7.35868,0.392205,-21.7739,-6.56543,151.85,-0.0984605,0.000999295,0.675953,261.1,7.0,52.1701,4.427230000000001,11.5,0.565718,327.944,4.5215,131.257,31.5427,198.042,0.972495,-0.0449519,239.675,4.46696,4.05028,-16.3218994140625,22.0009689331055,-15.8659334182739,22.0,-819194.0,1722.81,pp-riro,4,0,-1,-1
1570536701.9,2019-10-08,14:11:41.900,15.0,10.0,20.75,-17.3,17.0,7.9,-20.7,-8.8,160.8,-15.9685,16.6319,8.14126,-5.57695,-11.2791,-4.54066,-22.795,-5.09437,156.196,-0.143559,-0.049467,0.553654,261.1,7.0,52.1701,4.427230000000001,11.5,0.572367,326.166,4.52152,132.922,29.6427,196.642,0.965077,-0.0285384999999999,239.196,4.53017,4.08132,-15.8952026367188,22.0009689331055,-15.6711006164551,22.0,-818938.0,2091.99,pp-riro,4,0,-1,-1
1570536702.0,2019-10-08,14:11:42.000,15.0,10.0,20.7999992370605,-17.9,15.5,7.2,-21.2,-7.7,163.4,-15.9685,16.6319,8.14126,-5.57695,-11.2791,-4.54066,-22.795,-5.09437,156.196,-0.143559,-0.049467,0.553654,261.1,7.0,52.1701,4.427230000000001,11.5,0.557407,319.947,4.52154,134.499,28.1227,195.742,0.958738,-0.0152697,239.156,4.56688,4.13244,-15.4616851806641,22.0009689331055,-15.0524711608887,22.0,-818731.0,2030.46,pp-riro,4,0,-1,-1
1570536702.1,2019-10-08,14:11:42.100,15.0,10.0,20.9200000762939,-18.2,14.5,6.7,-21.1,-6.0,165.7,-15.9685,16.6319,8.14126,-5.57695,-11.2791,-4.54066,-22.795,-5.09437,156.196,-0.143559,-0.049467,0.553654,265.1,6.4,52.1701,4.427230000000001,11.5,0.553528,318.408,4.52155,135.96,26.2227,194.941,0.953196,0.000303427,239.113,4.60365,4.16108,-15.3404998779297,22.0009689331055,35.0,22.0,-818638.0,1815.1,pp-riro,4,0,-1,-1
1570536702.2,2019-10-08,14:11:42.200,15.0,10.0,21.0100002288818,-18.6,13.6,6.4,-21.3,-5.5,167.0,-17.2707,13.1197,6.4785,-0.320141,-7.692489999999999,-3.3432699999999995,-23.8164,-1.09805,165.671,-0.403823,-0.00762485,0.588908,265.1,6.4,52.1701,4.427230000000001,11.5,0.554082,321.10200000000003,4.52158,136.632,25.4626,194.641,0.950702,0.00655814,239.169,4.6219,4.19491,-15.0998458862305,22.0009689331055,35.0,22.0,-818476.0,1507.46,pp-riro,4,0,-1,-1
1570536702.3,2019-10-08,14:11:42.300,15.0,10.0,21.0499992370605,-18.8,13.1,6.1,-21.3,-4.5,169.9,-17.2707,13.1197,6.4785,-0.320141,-7.692489999999999,-3.3432699999999995,-23.8164,-1.09805,165.671,-0.403823,-0.00762485,0.588908,265.1,6.4,52.1701,4.427230000000001,11.5,0.945819,328.835,4.52161,138.004,23.1826,193.841,0.94551,0.0243437,239.076,4.65839,4.20477,-14.7448348999023,22.0009689331055,35.0,22.0,-820246.0,-22242.7,pp-riro,4,0,-1,-1
1570536702.4,2019-10-08,14:11:42.400,15.0,9.0,21.1299991607666,-18.8,12.3,5.5,-21.5,-3.1,172.5,-17.543,12.285,6.033980000000001,-2.983,-3.4813300000000003,-7.473730000000001,-23.8802,0.169898,168.467,-0.00073004,-0.00986422,0.577553,265.1,6.4,52.1701,4.427230000000001,11.5,1.20125,322.633,4.52165,139.231,21.6626,193.141,0.940512,0.0363941,239.078,4.699409999999999,4.22972,-14.048469543457,22.0009689331055,35.0,22.0,-821756.0,-28149.5,pp-riro,4,0,-1,-1
1570536702.5,2019-10-08,14:11:42.500,15.0,9.0,21.1299991607666,-18.4,11.7,4.7,-21.5,-1.3,174.9,-17.543,12.285,6.033980000000001,-2.983,-3.4813300000000003,-7.473730000000001,-23.8802,0.169898,168.467,-0.00073004,-0.00986422,0.577553,265.1,6.4,52.1701,4.427230000000001,11.5,1.20568,284.129,4.521669999999999,140.37,19.3826,192.541,0.936343,0.0535003,239.064,4.737769999999999,4.24152,-12.997100830078098,22.0009689331055,35.0,22.0,-819870.0,27349.6,pp-riro,4,0,-1,-1
1570536702.6,2019-10-08,14:11:42.600,15.0,8.0,21.1700000762939,-18.1,10.8,4.3,-21.8,0.2,176.8,-17.629,11.812,5.82523,-4.52201,-13.116,-8.07975,-23.8761,0.8677969999999999,169.733,-0.12435,-0.0733429999999999,0.339941,265.1,6.4,52.1701,4.427230000000001,11.5,1.07769,284.751,4.52171,141.509,17.8625,192.041,0.931972,0.0651192,239.215,4.77047,4.26162,-11.5941314697266,22.0009689331055,35.0,22.0,-819665.0,-10613.7,pp-riro,4,0,-1,-1
1570536702.7,2019-10-08,14:11:42.700,15.0,9.0,20.9599990844727,-18.1,9.9,4.3,-22.0,1.3,178.5,-17.1012,10.0091,4.3562,-1.5012,-10.9285,1.7032,-24.5078,3.72292,175.668,-0.0606593,0.0604329,0.323813,265.1,6.4,52.1701,4.427230000000001,11.6,1.1331,290.835,4.52174,142.444,15.9625,191.441,0.928115,0.0790577,239.154,4.7944,4.27875,-9.83444213867188,22.0009689331055,35.0,22.0,-819171.0,10275.3,pp-riro,4,0,-1,-1
1570536702.8,2019-10-08,14:11:42.800,15.0,9.0,20.7900009155273,-17.6,9.4,3.9,-22.1,2.1,-179.8,-17.1012,10.0091,4.3562,-1.5012,-10.9285,1.7032,-24.5078,3.72292,175.668,-0.0606593,0.0604329,0.323813,265.1,6.4,52.1701,4.427230000000001,11.6,1.07991,277.154,4.52177,143.379,14.0625,190.941,0.924416,0.0928571,239.194,4.81533,4.282769999999999,-7.76412200927734,22.0009689331055,35.0,22.0,-818771.0,7229.65,pp-riro,4,0,-1,-1
1570536702.9,2019-10-08,14:11:42.900,15.0,9.0,20.4899997711182,-17.6,9.2,3.7,-22.5,3.1,-178.9,-16.8181,8.7918,3.61,-1.04235,1.01694,-0.320961,-25.1591,5.33526,179.97099999999998,-0.162634,0.0958011,0.334837,265.1,6.4,52.1701,4.427230000000001,11.6,1.06051,265.789,4.5218,144.255,12.1625,190.541,0.921073,0.1064799999999999,239.297,4.827380000000001,4.28406,-5.65625762939453,22.0009689331055,35.0,22.0,-818592.0,1138.29,pp-riro,4,0,-1,-1
1570536703.0,2019-10-08,14:11:43.000,15.0,9.0,20.1900005340576,-17.8,8.9,4.0,-23.1,3.7,-178.2,-16.8181,8.7918,3.61,-1.04235,1.01694,-0.320961,-25.1591,5.33526,179.97099999999998,-0.162634,0.0958011,0.334837,265.1,6.4,52.1701,4.427230000000001,11.6,1.07935,282.503,4.5218300000000005,145.131,10.6424,190.041,0.917301,0.117365,239.357,4.83467,4.28214,-3.55521392822266,22.0009689331055,35.0,22.0,-818291.0,1076.76,pp-riro,4,0,-1,-1
1570536703.1,2019-10-08,14:11:43.100,15.0,10.0,19.9200000762939,-17.4,8.6,4.1,-23.8,3.6,-177.5,-17.0346,8.20386,3.95687,2.1137200000000003,-2.9951,1.50284,-26.3756,5.25758,-178.049,-0.313121,-0.0860476999999999,0.117997,264.0,6.5,52.1701,4.427230000000001,11.6,1.09542,282.611,4.52186,145.92,9.12241,189.541,0.913763,0.128098,239.377,4.83472,4.271809999999999,-1.4456405639648402,22.0009689331055,35.0,22.0,-818232.0,1138.29,pp-riro,4,0,-1,-1
1570536703.2,2019-10-08,14:11:43.200,15.0,9.0,19.7900009155273,-17.3,8.8,4.2,-24.8,3.6,-177.8,-17.0346,8.20386,3.95687,2.1137200000000003,-2.9951,1.50284,-26.3756,5.25758,-178.049,-0.313121,-0.0860476999999999,0.117997,264.0,6.5,52.1701,4.427230000000001,11.6,1.08656,277.183,4.52186,146.738,7.22238,189.041,0.910137,0.141353,239.417,4.82005,4.2492,0.664230346679688,22.0009689331055,35.0,22.0,-817828.0,4645.44,pp-riro,4,0,-1,-1
1570536703.3,2019-10-08,14:11:43.300,15.0,10.0,19.6100006103516,-17.5,8.9,4.8,-26.1,3.6,-178.6,-16.9304,8.28508,4.00378,-2.6011,5.97398,0.17192,-26.9154,4.84229,-177.748,-0.214071,-0.257332,0.0653538999999999,264.0,6.5,52.1701,4.427230000000001,11.6,1.06661,271.747,4.52186,147.556,5.70236,188.541,0.906381,0.1519059999999999,239.484,4.80074,4.22595,2.76419830322266,22.0009689331055,35.0,22.0,-817499.0,2676.51,pp-riro,4,0,-1,-1
1570536703.4,2019-10-08,14:11:43.400,15.0,10.0,19.5599994659424,-17.5,9.2,5.4,-27.3,2.1,-178.9,-17.4837,8.7282,4.814830000000001,-0.931197,3.88898,7.53597,-29.4421,3.30921,-178.36900000000003,0.0761507,-0.266713,-0.00747183,264.0,6.5,52.1701,4.427230000000001,11.6,1.07824,274.95,4.52186,148.344,3.80233,187.941,0.902445,0.164906,239.462,4.77027,4.1898,4.86247253417969,22.0009689331055,35.0,22.0,-817175.0,2522.69,pp-riro,4,0,-1,-1
1570536703.5,2019-10-08,14:11:43.500,15.0,10.0,19.6499996185303,-17.2,9.8,5.9,-28.4,0.3,179.9,-17.5716,8.84758,5.154719999999999,2.42072,5.42528,6.29212,-30.1169,2.24118,-178.399,-0.24888,-0.323271,-0.211432,264.0,6.5,52.1701,4.427230000000001,11.6,1.07824,277.15,4.52186,149.25,2.28231,187.241,0.897768,0.175241,239.457,4.72624,4.141780000000001,6.97437286376953,22.0009689331055,35.0,22.0,-817028.0,2922.63,pp-riro,4,0,-1,-1
1570536703.6,2019-10-08,14:11:43.600,15.0,10.0,19.7000007629395,-17.0,10.0,6.8,-29.4,-1.8,177.8,-17.566,9.45909,5.58465,2.893,0.7362810000000001,3.47551,-31.1339,-0.010333,-179.114,-0.183859,-0.4457279999999999,-0.292635,264.0,6.5,52.1701,4.427230000000001,11.6,1.10429,293.937,4.52186,150.184,0.382283,186.54,0.89295,0.1879849999999999,239.484,4.66477,4.09765,8.56169128417969,22.0009689331055,35.0,22.0,-816799.0,861.4060000000001,pp-riro,4,0,-1,-1
1570536703.7,2019-10-08,14:11:43.700,15.0,10.0,19.7000007629395,-16.6,10.7,7.8,-30.9,-4.1,175.3,-17.566,9.45909,5.58465,2.893,0.7362810000000001,3.47551,-31.1339,-0.010333,-179.114,-0.183859,-0.4457279999999999,-0.292635,264.0,6.5,52.1701,4.427230000000001,11.6,1.11481,288.10900000000004,4.52186,151.09,-1.13773,185.74,0.8878959999999999,0.1980599999999999,239.435,4.59781,4.03381,10.6701812744141,22.0009689331055,35.0,22.0,-816453.0,4891.55,pp-riro,4,0,-1,-1
1570536703.8,2019-10-08,14:11:43.800,15.0,10.0,19.5599994659424,-15.8,11.7,8.9,-31.7,-7.1,172.9,-17.1264,11.1541,8.23039,6.1361,13.0429,11.9039,-34.1889,-7.25512,175.74,-0.2328489999999999,-0.270165,-0.6557609999999999,264.0,6.5,52.1701,4.427230000000001,11.6,1.09154,278.79900000000004,4.52186,152.141,-3.03776,184.84,0.8820319999999999,0.2104929999999999,239.42,4.52284,3.94772,12.768463134765598,22.0009689331055,35.0,22.0,-816174.0,5168.43,pp-riro,4,0,-1,-1
1570536703.9,2019-10-08,14:11:43.900,15.0,10.0,19.5599994659424,-15.0,12.7,9.9,-32.5,-10.1,169.8,-16.8266,11.7297,8.8483,6.6423,10.2541,9.87762,-34.7957,-9.01294,174.519,-0.022478,-0.336734,-0.656764,264.0,6.5,52.1701,4.427230000000001,11.6,1.05885,264.465,4.52186,153.251,-4.55776,183.94,0.8759440000000001,0.2202599999999999,239.459,4.44079,3.86855,14.876953125,22.0009689331055,35.0,22.0,-815835.0,3045.68,pp-riro,4,0,-1,-1
1570536704.0,2019-10-08,14:11:44.000,15.0,9.0,19.520000457763697,-14.0,13.5,11.0,-32.8,-13.5,166.0,-16.1913,12.8978,9.94437,4.06873,11.3734,10.4712,-35.6606,-12.6156,171.739,-0.346391,-0.174347,-0.686549,264.0,6.5,52.1701,4.427230000000001,11.6,1.05941,268.41700000000003,4.52186,154.536,-6.07777,182.94,0.868984,0.2298369999999999,239.553,4.34569,3.78836,16.9922561645508,22.0009689331055,35.0,22.0,-815600.0,2215.04,pp-riro,4,0,-1,-1
1570536704.1,2019-10-08,14:11:44.100,14.0,9.0,19.4699993133545,-12.8,14.4,12.1,-33.0,-17.4,161.2,-15.2658,13.8861,11.2889,14.4974,12.4458,14.4154,-36.2937,-17.1038,168.733,-0.208551,-0.3599699999999999,-0.8953260000000001,264.0,6.5,52.1701,4.427230000000001,11.6,1.0760299999999998,270.853,4.52186,155.821,-7.21776,181.84,0.861772,0.236815,239.579,4.23486,3.7036,19.1177749633789,22.0009689331055,35.0,22.0,-815306.0,2430.39,pp-riro,4,0,-1,-1
1570536704.2,2019-10-08,14:11:44.200,15.0,10.0,19.3299999237061,-11.4,15.5,13.2,-32.7,-21.3,156.0,-13.4968,15.6742,13.2122,9.39791,17.6628,12.4028,-36.4151,-24.1286,162.859,0.000494294,-0.167124,-1.19986,254.1,4.3,52.1701,4.427230000000001,11.6,1.0716,266.06,4.52184,157.311,-8.35774,180.54,0.853347,0.2436289999999999,239.607,4.120430000000001,3.6115,21.2228546142578,22.0009689331055,35.0,22.0,-815106.0,3568.68,pp-riro,4,0,-1,-1
1570536704.3,2019-10-08,14:11:44.300,15.0,10.0,19.2399997711182,-9.8,16.5,14.3,-31.5,-24.9,150.7,-12.8149,16.3348,13.8205,12.0442,11.2843,10.912,-36.0877,-26.2005,160.431,-0.0121375,-0.00578873,-1.07433,254.1,4.3,52.1701,4.427230000000001,11.6,1.04389,262.983,4.52179,158.77100000000002,-9.49772,179.34,0.8452700000000001,0.250351,239.711,4.00973,3.51813,23.3313446044922,22.0009689331055,35.0,22.0,-814675.0,1445.93,pp-riro,4,0,-1,-1
1570536704.4,2019-10-08,14:11:44.400,15.0,11.0,19.0499992370605,-8.1,17.4,15.5,-29.9,-29.1,144.5,-11.1847,17.4448,15.1882,21.4872,15.7711,17.5697,-35.4241,-30.6822,155.281,-0.4699149999999999,-0.0511458,-0.914191,254.1,4.3,52.1701,4.427230000000001,11.6,1.05664,268.203,4.521730000000001,160.407,-10.6377,177.94,0.8360790000000001,0.256848,239.804,3.88425,3.4264300000000003,25.4364318847656,22.0009689331055,35.0,22.0,-814632.0,799.877,pp-riro,4,0,-1,-1
1570536704.5,2019-10-08,14:11:44.500,15.0,11.0,18.9599990844727,-6.0,18.3,16.7,-27.4,-32.9,137.2,-9.26011,18.6989,16.6064,18.195,1.21436,12.9741,-34.0547,-34.8675,149.486,0.0388141,-0.0452274,-1.1126,254.1,4.3,52.1701,4.427230000000001,11.6,1.08268,276.84,4.52168,162.13,-11.0177,176.44,0.8264889999999999,0.258531,239.872,3.75544,3.32887,27.5415115356445,22.0009689331055,35.0,22.0,-814441.0,2368.87,pp-riro,4,0,-1,-1
1570536704.6,2019-10-08,14:11:44.600,15.0,12.0,18.909999847412102,-3.7,18.9,17.5,-23.2,-36.7,129.1,-7.05732,19.7364,17.9378,28.0645,12.7796,9.53862,-31.9767,-39.2685,142.649,-0.326745,-0.0742208,-1.29693,254.1,4.3,52.1701,4.427230000000001,11.6,1.07935,280.953,4.52163,163.912,-11.3976,174.94,0.816728,0.260182,240.002,3.62108,3.23319,29.622741699218803,22.0009689331055,35.0,22.0,-814146.0,2491.92,pp-riro,4,0,-1,-1
1570536704.7,2019-10-08,14:11:44.700,15.0,13.0,18.909999847412102,-1.2,19.2,18.3,-17.7,-40.1,119.2,-5.80746,20.1792,18.4355,27.614,13.7701,11.2676,-30.7099,-42.0312,138.642,-0.637803,-0.286145,-1.37878,254.1,4.3,52.1701,4.427230000000001,11.6,1.10096,291.965,4.52158,165.752,-11.7775,173.33900000000003,0.806513,0.261747,240.123,3.47254,3.13542,31.3906097412109,22.0009689331055,35.0,22.0,-814012.0,1045.99,pp-riro,4,0,-1,-1
1570536704.8,2019-10-08,14:11:44.800,15.0,13.0,18.9599990844727,1.3,19.3,18.8,-10.5,-42.8,107.9,-4.6476,20.6016,19.0464,28.3358,10.1896,12.1602,-28.3524,-44.5569,134.173,-0.640265,-0.289921,-1.4983,254.1,4.3,52.1701,4.427230000000001,11.6,1.11814,299.636,4.52153,167.68,-11.7775,171.639,0.795837,0.2609849999999999,240.24,3.31857,3.04323,32.814453125,22.0009689331055,35.0,22.0,-813755.0,3045.68,pp-riro,4,0,-1,-1
1570536704.9,2019-10-08,14:11:44.900,15.0,13.0,19.0,3.9,19.2,19.0,-2.3,-44.5,95.8,-1.80309,21.2219,20.0042,26.3292,5.88469,8.52609,-22.6953,-49.8218,124.008,0.0203518,-0.187526,-1.65162,254.1,4.3,52.1701,4.427230000000001,11.6,1.12534,301.277,4.52147,169.52,-11.7774,169.93900000000002,0.785431,0.260278,240.323,3.16432,2.94909,33.877197265625,22.0009689331055,23.0044822692871,22.0,-813352.0,2830.33,pp-riro,4,0,-1,-1
1570536705.0,2019-10-08,14:11:45.000,15.0,13.0,19.0400009155273,6.7,18.9,19.0,6.0,-45.0,83.3,2.83005,21.4499,20.7416,37.9496,-2.92285,6.582039999999999,-10.0749,-55.0571,104.246,-0.184052,-0.230002,-1.45573,254.1,4.3,52.1701,4.427230000000001,11.6,1.12534,303.307,4.52142,171.418,-11.0173,168.239,0.7750090000000001,0.25515,240.437,3.0138700000000003,2.85162,34.578887939453104,22.0009689331055,23.0044822692871,22.0,-813177.0,3507.15,pp-ro,1,1,-1,-1
1570536705.1,2019-10-08,14:11:45.100,15.0,13.0,19.1299991607666,9.5,18.4,18.8,14.0,-44.1,71.1,2.83005,21.4499,20.7416,37.9496,-2.92285,6.582039999999999,-10.0749,-55.0571,104.246,-0.184052,-0.230002,-1.45573,254.1,4.3,52.1701,4.427230000000001,11.6,1.12811,310.483,4.52137,173.25799999999998,-10.6372,166.53900000000002,0.764688,0.252311,240.555,2.86424,2.7525,34.9263305664062,22.0009689331055,23.0044822692871,22.0,-812915.0,2061.22,pp-ro,1,1,-1,-1
1570536705.2,2019-10-08,14:11:45.200,15.0,13.0,19.3099994659424,12.2,17.6,18.3,21.4,-42.2,59.7,10.7478,20.6513,20.5083,33.8566,-9.75852,-9.59473,16.8185,-55.4059,65.1648,-0.493321,-0.1627829999999999,-1.29104,243.7,5.4,52.1701,4.427230000000001,11.6,1.15471,322.247,4.52126,175.04,-9.49716,164.739,0.754358,0.245261,240.558,2.72146,2.65646,34.938262939453104,22.0009689331055,23.0044822692871,22.0,-812724.0,1968.93,pp-ro,1,1,-1,-1
1570536705.3,2019-10-08,14:11:45.300,15.0,13.0,19.5799999237061,14.7,16.5,17.4,28.3,-39.3,48.7,10.7478,20.6513,20.5083,33.8566,-9.75852,-9.59473,16.8185,-55.4059,65.1648,-0.493321,-0.1627829999999999,-1.29104,243.7,5.4,52.1701,4.427230000000001,11.6,1.17133,333.31300000000005,4.5211,176.821,-7.97705,163.039,0.7443609999999999,0.236368,240.647,2.5752900000000003,2.56096,34.532913208007805,22.0009689331055,23.0044822692871,22.0,-812435.0,3045.68,pp-ro,1,1,-1,-1
1570536705.4,2019-10-08,14:11:45.400,15.0,13.0,19.7600002288818,16.9,15.4,16.4,34.0,-35.6,39.2,13.9405,19.6227,19.7173,24.9091,-13.6728,-8.40754,26.1189,-52.3574,51.4719,-0.601174,0.0379599,-1.6971,243.7,5.4,52.1701,4.427230000000001,11.6,1.18961,343.478,4.52099,178.42700000000002,-6.83696,161.439,0.735089,0.229629,240.719,2.43458,2.4714,33.759689331054695,22.0019989013672,22.9462776184082,22.0,-812179.0,2584.22,pp-ro,1,1,-1,-1
1570536705.5,2019-10-08,14:11:45.500,15.0,14.0,20.020000457763697,18.9,14.0,15.2,38.4,-30.9,30.7,18.0634,17.7238,17.976,27.6427,-6.830989999999999,-4.025919999999999,36.7695,-45.5935,33.8014,0.0928331,0.173308,-1.5732,243.7,5.4,52.1701,4.427230000000001,11.6,1.20956,351.85400000000004,4.52083,179.946,-4.93686,159.939,0.726414,0.218987,240.801,2.29375,2.38238,32.6356201171875,22.0019989013672,21.4512042999268,22.0,-811855.0,3630.21,pp-ro,1,1,-1,-1
1570536705.6,2019-10-08,14:11:45.600,15.0,13.0,20.2399997711182,20.6,12.3,13.5,42.1,-25.9,22.8,19.2959,17.0397,17.4004,28.1835,-18.5366,-19.3579,38.848,-42.8627,28.9688,-0.4994909999999999,0.114578,-1.34152,243.7,5.4,52.1701,4.427230000000001,11.6,1.21455,353.023,4.52072,181.348,-3.03676,158.539,0.71832,0.208416,240.896,2.15252,2.28494,31.1470642089844,22.0025119781494,19.7757472991943,22.0,-811301.0,3691.74,pp-ro,1,1,-1,-1
1570536705.7,2019-10-08,14:11:45.700,15.0,14.0,20.4899997711182,22.1,10.9,11.9,44.4,-20.9,16.9,22.4256,14.3407,14.8268,11.5414,-20.4932,-15.7677,44.1779,-34.3357,16.9554,0.147115,-0.1179549999999999,-1.21164,243.7,5.4,52.1701,4.427230000000001,11.5,1.2151,354.4,4.520580000000001,182.575,-0.75666,157.438,0.711601,0.195953,241.083,2.0323,2.19856,30.2750549316406,22.0025119781494,18.2690448760986,22.0,-811057.0,4583.91,pp-ro,1,1,-1,-1
1570536705.8,2019-10-08,14:11:45.800,15.0,13.0,20.7099990844727,23.1,9.3,10.4,46.5,-16.2,11.3,22.4256,14.3407,14.8268,11.5414,-20.4932,-15.7677,44.1779,-34.3357,16.9554,0.147115,-0.1179549999999999,-1.21164,243.7,5.4,52.1701,4.427230000000001,11.5,1.2151,360.07,4.52044,183.655,1.14343,156.438,0.7055319999999999,0.18572,241.254,1.916,2.11807,28.272155761718803,22.0025119781494,16.873174667358402,22.0,-810717.0,2799.57,pp-ro,1,1,-1,-1
1570536705.9,2019-10-08,14:11:45.900,15.0,12.0,20.8700008392334,23.8,7.9,8.9,47.9,-11.0,6.2,25.4331,10.6789,11.1673,12.677,-31.1078,-19.636,46.7465,-22.5397,5.04725,-0.263943,0.286576,-1.2145,243.7,5.4,52.1701,4.427230000000001,11.5,1.23893,364.686,4.52031,184.648,3.42352,155.53799999999998,0.699952,0.173543,241.451,1.79873,2.04638,26.1687850952148,22.0025119781494,15.6367034912109,22.0,-810430.0,3507.15,pp-ro,1,1,-1,-1
1570536706.0,2019-10-08,14:11:46.000,15.0,13.0,20.909999847412102,24.1,6.4,7.1,49.0,-6.5,1.6,25.4331,10.6789,11.1673,12.677,-31.1078,-19.636,46.7465,-22.5397,5.04725,-0.263943,0.286576,-1.2145,243.7,5.4,52.1701,4.427230000000001,11.5,1.22341,358.10900000000004,4.520169999999999,185.495,6.08361,154.838,0.695298,0.159434,241.703,1.69671,1.96939,24.0705108642578,22.0025119781494,14.2623376846313,22.0,-809906.0,5168.43,pp-ro,1,1,-1,-1
1570536706.1,2019-10-08,14:11:46.100,15.0,12.0,20.8700008392334,24.5,5.2,5.6,49.7,-2.2,-2.0,26.3375,7.26761,7.31922,3.05491,-17.4854,-23.7677,48.0471,-11.3163,-4.11218,-0.131185,0.20709,-1.04793,243.7,5.4,52.1701,4.427230000000001,11.5,1.21289,352.478,4.52004,186.196,7.98368,154.138,0.69103,0.149499,241.85,1.60545,1.90033,21.4323425292969,22.0009689331055,13.049092292785598,22.0,-809441.0,4460.85,pp-ro,1,1,-1,-1
1570536706.2,2019-10-08,14:11:46.200,15.0,11.0,20.7900009155273,24.8,3.9,4.2,50.5,1.8,-5.8,26.5965,6.51047,6.4727,-1.37286,-7.19413,-13.2115,47.8979,-8.536669999999999,-5.8336,-0.382714,0.2467889999999999,-1.25178,254.6,5.5,52.1701,4.427230000000001,11.5,1.21122,359.865,4.51998,186.80900000000003,10.6438,153.53799999999998,0.687157,0.135489,242.043,1.5184,1.83399,19.3545074462891,22.0009689331055,11.8773260116577,22.0,-809075.0,3199.51,pp-ro,1,1,-1,-1
1570536706.3,2019-10-08,14:11:46.300,15.0,12.0,20.7000007629395,24.7,3.0,2.9,51.4,5.6,-9.2,26.7327,4.96128,4.91146,10.1359,-15.796,-10.4802,48.3944,-3.5257,-9.36282,-0.0328496999999999,0.111377,-1.05128,254.6,5.5,52.1701,4.427230000000001,11.5,1.24391,371.972,4.51997,187.305,13.3038,153.03799999999998,0.683819,0.121512,242.242,1.43847,1.78228,17.4027099609375,22.0009689331055,10.987096786499,22.0,-808891.0,1876.63,pp-ro,1,1,-1,-1
1570536706.4,2019-10-08,14:11:46.400,15.0,12.0,20.8299999237061,24.8,1.8,1.8,51.9,8.9,-12.8,26.8079,3.6358,3.39601,-0.952861,-10.1279,-9.32564,48.8747,1.01007,-12.5053,0.374799,0.214296,-1.00443,254.6,5.5,52.1701,4.427230000000001,11.5,1.2533299999999998,385.589,4.51996,187.71400000000003,15.5839,152.638,0.681022,0.1096029999999999,242.441,1.36192,1.72505,15.5939712524414,22.0019989013672,9.97303295135498,22.0,-808241.0,3660.97,pp-ro,1,1,-1,-1
1570536706.5,2019-10-08,14:11:46.500,15.0,12.0,21.0799999237061,24.7,0.9,0.8,52.4,12.2,-16.2,26.8079,3.6358,3.39601,-0.952861,-10.1279,-9.32564,48.8747,1.01007,-12.5053,0.374799,0.214296,-1.00443,254.6,5.5,52.1701,4.427230000000001,11.5,1.29267,400.87,4.51994,187.86,17.104,152.438,0.679661,0.101658,242.531,1.28535,1.67618,13.977691650390598,22.0025119781494,9.06436920166016,22.0,-808028.0,2245.81,pp-ro,1,1,-1,-1
1570536706.6,2019-10-08,14:11:46.600,15.0,13.0,21.2000007629395,24.7,0.2,0.3,52.9,13.6,-17.8,26.4405,0.64447,0.272155,-9.73245,-14.4445,-15.4869,50.0284,10.8508,-20.8514,0.301539,-0.15958,-0.8942190000000001,254.6,5.5,52.1701,4.427230000000001,11.5,1.30542,407.92800000000005,4.51992,188.123,20.9041,152.03799999999998,0.676713,0.0818054,242.781,1.26164,1.6548599999999998,12.446563720703098,22.0025119781494,8.80479907989502,22.0,-807802.0,4368.56,pp-ro,1,1,-1,-1
1570536706.7,2019-10-08,14:11:46.700,15.0,14.0,21.2000007629395,24.4,-1.4,-1.1,54.0,17.0,-21.9,26.4405,0.64447,0.272155,-9.73245,-14.4445,-15.4869,50.0284,10.8508,-20.8514,0.301539,-0.15958,-0.8942190000000001,254.6,5.5,52.1701,4.42724,11.3,1.31982,421.611,4.5199,188.152,23.1841,151.838,0.675312,0.0698847,242.886,1.17918,1.57646,11.0908660888672,22.0025119781494,7.330492973327639,22.0,-807412.0,3076.45,pp-ro,1,1,-1,-1
1570536706.8,2019-10-08,14:11:46.800,15.0,13.0,21.1200008392334,24.1,-2.6,-2.0,54.2,18.3,-24.2,25.7046,-1.8615,-1.88699,-6.28845,-10.9169,-12.3667,50.639,16.3434,-26.152,0.0932262,-0.1617019999999999,-0.555036,254.6,5.5,52.1701,4.42724,11.3,1.3503,431.91,4.51989,188.064,25.4642,151.738,0.674462,0.0579206,242.983,1.1444299999999998,1.5233,9.91569519042969,22.003026962280305,6.341407299041751,22.0,-807030.0,4737.73,pp-ro,1,1,-1,-1
1570536706.9,2019-10-08,14:11:46.900,14.0,13.0,21.159999847412102,23.7,-3.5,-2.9,54.4,19.5,-26.0,25.7046,-1.8615,-1.88699,-6.28845,-10.9169,-12.3667,50.639,16.3434,-26.152,0.0932262,-0.1617019999999999,-0.555036,254.6,5.5,52.1701,4.42724,11.3,1.35307,439.801,4.51987,187.977,26.6042,151.738,0.674284,0.0519247,243.038,1.1128,1.47279,8.70645904541016,22.0035419464111,5.358432292938231,22.0,-806464.0,4983.85,pp-ro,1,1,-1,-1
1570536707.0,2019-10-08,14:11:47.000,15.0,12.0,21.3700008392334,23.5,-4.0,-3.2,54.8,19.8,-27.1,25.3284,-2.3762,-2.4041,-5.21725,-12.68,-6.99406,50.7737,17.3637,-27.3214,0.30696,-0.0577909999999999,-0.328421,254.6,5.5,52.1701,4.42724,11.3,1.3885299999999998,455.603,4.51985,187.71400000000003,29.2642,151.838,0.674268,0.037883,243.203,1.1056700000000002,1.4577,7.54832458496094,22.003026962280305,5.10587453842163,22.0,-805858.0,4830.02,pp-ro,1,1,-1,-1
1570536707.1,2019-10-08,14:11:47.100,15.0,12.0,21.530000686645497,23.0,-5.0,-4.1,54.7,21.3,-29.9,25.3284,-2.3762,-2.4041,-5.21725,-12.68,-6.99406,50.7737,17.3637,-27.3214,0.30696,-0.0577909999999999,-0.328421,254.5,4.8,52.1701,4.42724,11.3,1.39518,455.704,4.51984,187.159,33.0643,152.03799999999998,0.674716,0.0176927,243.387,1.0682200000000002,1.41153,6.466827392578121,22.003026962280305,4.24288463592529,22.0,-805276.0,6183.66,pp-ro,1,1,-1,-1
1570536707.2,2019-10-08,14:11:47.200,15.0,11.0,21.8600006103516,22.8,-5.3,-4.2,54.4,21.8,-30.7,24.2197,-4.7305,-4.41598,-2.1320900000000003,-4.03768,-5.805630000000001,50.7558,20.775,-31.7873,0.197077,-0.223725,-0.397816,254.5,4.8,52.1701,4.42724,11.3,1.39296,455.33,4.51985,186.896,33.8243,152.138,0.675357,0.0134976,243.351,1.05562,1.40134,5.62036895751953,22.003026962280305,4.02272319793701,22.0,-804889.0,7198.89,pp-ro,1,1,-1,-1
1570536707.3,2019-10-08,14:11:47.300,15.0,10.0,22.1299991607666,22.5,-6.0,-4.7,53.9,22.3,-32.6,23.6089,-5.68325,-5.12726,-4.26219,-7.79698,-8.52133,50.2876,22.4485,-34.2528,0.259162,-0.0635597,0.0705386,254.5,4.8,52.1701,4.42724,11.3,1.38798,458.437,4.51986,186.399,36.4844,152.437,0.676307,-0.000756745,243.542,1.03723,1.37344,5.010643005371089,22.003026962280305,3.4828004837036097,22.0,-804340.0,4645.44,pp-ro,1,1,-1,-1
1570536707.4,2019-10-08,14:11:47.400,15.0,11.0,22.4899997711182,22.0,-6.6,-5.1,53.7,23.0,-34.0,23.6089,-5.68325,-5.12726,-4.26219,-7.79698,-8.52133,50.2876,22.4485,-34.2528,0.259162,-0.0635597,0.0705386,254.5,4.8,52.1701,4.42724,11.3,1.40515,461.763,4.519880000000001,185.786,38.7644,152.737,0.677651,-0.0131888,243.614,1.0207,1.34709,4.261260986328121,22.003026962280305,2.9465153217315696,22.0,-803825.0,5968.31,pp-ro,1,1,-1,-1
1570536707.5,2019-10-08,14:11:47.500,15.0,11.0,22.760000228881804,21.5,-7.0,-5.2,53.2,23.7,-35.1,22.7042,-6.85509,-5.660019999999999,1.6843099999999998,-4.02226,-0.6403409999999999,49.3676,24.188,-37.1479,0.0399118,-0.0651611,-0.361953,254.5,4.8,52.1701,4.42724,11.3,1.39019,448.074,4.51989,185.143,41.0444,153.137,0.679312,-0.0256657,243.749,1.00757,1.33465,3.61746978759766,22.0035419464111,2.67296075820923,22.0,-802812.0,7198.89,pp-ro,1,1,-1,-1
1570536707.6,2019-10-08,14:11:47.600,15.0,10.0,22.9899997711182,21.2,-7.2,-5.4,53.0,24.4,-36.2,22.5087,-7.03795,-5.73705,-8.06426,-2.01263,-3.34777,49.11,24.667,-37.7015,-0.0642679,-0.0257384999999999,-0.259106,254.5,4.8,52.1701,4.42724,11.3,1.35584,434.629,4.519909999999999,184.471,43.3245,153.437,0.68065,-0.0381944,243.823,0.994535,1.3264,3.0912017822265603,22.003026962280305,2.50832748413086,22.0,-802008.0,7875.71,pp-ro,1,1,-1,-1
1570536707.7,2019-10-08,14:11:47.700,15.0,10.0,23.0699996948242,20.8,-7.4,-5.4,52.7,24.8,-37.5,22.1504,-7.31928,-5.85171,-3.96301,-3.59495,-3.11533,48.7881,25.3338,-38.7288,0.0409308,0.00300226,-0.238451,254.5,4.8,52.1701,4.42724,11.4,1.34199,431.684,4.51992,183.712,45.6045,153.83700000000002,0.682447,-0.0508527,243.917,0.983128,1.32295,2.88512420654297,22.003026962280305,2.41445899009705,22.0,-801727.0,5660.67,pp-ro,1,1,-1,-1
1570536707.8,2019-10-08,14:11:47.800,15.0,10.0,23.0699996948242,20.4,-7.6,-5.4,52.4,24.9,-38.4,21.6474,-7.58327,-5.74647,-10.0269,-4.07454,3.77486,48.5071,25.6778,-39.8697,0.0879231999999999,-0.0545229,-0.151361,254.5,4.8,52.1701,4.42724,11.4,1.35196,431.143,4.51993,182.982,47.5045,154.237,0.68434,-0.0615446,243.984,0.978651,1.31801,2.5342788696289102,22.003026962280305,2.27119541168213,22.0,-801239.0,5383.79,pp-ro,1,1,-1,-1
1570536707.9,2019-10-08,14:11:47.900,15.0,11.0,23.030000686645497,20.0,-7.7,-5.5,52.3,25.1,-38.9,21.6474,-7.58327,-5.74647,-10.0269,-4.07454,3.77486,48.5071,25.6778,-39.8697,0.0879231999999999,-0.0545229,-0.151361,254.5,4.8,52.1701,4.42724,11.4,1.34254,429.783,4.51995,182.193,49.7845,154.637,0.686063,-0.0743002,244.101,0.978717,1.31302,2.4269790649414102,22.0025119781494,2.15929317474365,22.0,-800639.0,5506.84,pp-ro,1,1,-1,-1
1570536708.0,2019-10-08,14:11:48.000,15.0,10.0,22.9599990844727,19.8,-7.9,-5.4,52.4,25.1,-39.9,20.8989,-8.0197,-5.69837,-7.328060000000001,2.56026,-3.48919,48.3821,26.1861,-41.0294,-0.0224757999999999,-0.0896373999999999,0.00886406,254.5,4.8,52.1701,4.42724,11.4,1.3408799999999998,432.12,4.51996,181.375,51.6846,155.137,0.688366,-0.085176,244.204,0.974471,1.31484,2.30945587158203,22.003026962280305,2.12541770935059,22.0,-799821.0,5968.31,pp-ro,1,1,-1,-1
1570536708.1,2019-10-08,14:11:48.100,15.0,11.0,22.8400001525879,19.4,-7.8,-5.3,52.4,25.8,-41.1,20.8989,-8.0197,-5.69837,-7.328060000000001,2.56026,-3.48919,48.3821,26.1861,-41.0294,-0.0224757999999999,-0.0896373999999999,0.00886406,249.3,4.6,52.1701,4.42724,11.4,1.34531,436.783,4.51998,180.557,53.9646,155.637,0.690326,-0.0980153,244.409,0.960644,1.32119,2.24134063720703,22.003026962280305,2.2293469905853303,22.0,-799631.0,3784.03,pp-ro,1,1,-1,-1
1570536708.2,2019-10-08,14:11:48.200,15.0,11.0,22.649999618530305,19.4,-8.2,-5.3,52.1,26.6,-42.6,20.525,-8.70913,-5.49597,-9.82022,-1.92791,-6.14895,47.7899,27.2523,-44.199,0.131593,-0.209112,-0.140965,249.3,4.6,52.1701,4.42724,11.4,1.37025,440.419,4.51993,179.71,55.4846,156.037,0.6925479999999999,-0.107027,244.381,0.939862,1.3173700000000002,2.13914489746094,22.003026962280305,2.06921052932739,22.0,-798868.0,7321.95,pp-ro,1,1,-1,-1
1570536708.3,2019-10-08,14:11:48.300,14.0,9.0,22.4899997711182,18.3,-8.9,-5.4,51.1,26.6,-44.3,20.525,-8.70913,-5.49597,-9.82022,-1.92791,-6.14895,47.7899,27.2523,-44.199,0.131593,-0.209112,-0.140965,249.3,4.6,52.1701,4.42724,11.4,1.3575,437.055,4.51989,178.834,57.7646,156.537,0.6945100000000001,-0.119931,244.586,0.929053,1.28277,2.20897674560547,22.003026962280305,1.35989665985107,22.0,-798299.0,4460.85,pp-ro,1,1,-1,-1
1570536708.4,2019-10-08,14:11:48.400,15.0,11.0,22.3400001525879,17.2,-9.4,-5.6,50.7,26.5,-44.7,18.9046,-9.48837,-5.54678,-14.6242,-3.48463,1.04176,46.7302,27.2175,-46.4036,-0.0836443,-0.0712447,0.0009734289999999,249.3,4.6,52.1701,4.42724,11.4,1.35695,425.396,4.51985,177.87,59.2846,157.037,0.697237,-0.129183,244.567,0.931717,1.24453,2.08464813232422,22.0025119781494,0.466290205717087,22.0,-798005.0,5599.14,pp-ro,1,1,-1,-1
1570536708.5,2019-10-08,14:11:48.500,15.0,11.0,22.219999313354503,16.7,-9.0,-5.8,50.2,26.1,-45.3,18.337,-9.63319,-5.64095,-7.06985,-1.54621,-1.62752,46.7923,27.0366,-46.6162,0.0731978,-0.0453264,-0.0936545,249.3,4.6,52.1701,4.42724,11.4,1.28215,369.445,4.5198,176.935,61.1846,157.537,0.699523,-0.140346,244.678,0.936958,1.24143,1.6486434936523402,22.0025119781494,0.336419492959976,22.0,-796967.0,12705.7,pp-ro,1,1,-1,-1
1570536708.6,2019-10-08,14:11:48.600,15.0,10.0,22.1100006103516,16.6,-9.1,-6.0,50.0,25.8,-45.9,18.337,-9.63319,-5.64095,-7.06985,-1.54621,-1.62752,46.7923,27.0366,-46.6162,0.0731978,-0.0453264,-0.0936545,249.3,4.6,52.1701,4.42724,11.4,1.16191,344.735,4.51976,176.03,62.7047,158.137,0.702321,-0.149575,244.797,0.939713,1.2352,0.967384338378906,22.0014839172363,0.065227918326855,22.0,-795889.0,2584.22,pp-ro,1,1,-1,-1
1570536708.7,2019-10-08,14:11:48.700,15.0,12.0,21.8700008392334,16.7,-9.4,-5.6,49.5,25.3,-47.3,17.6933,-9.70729,-5.88825,8.84883,-3.76702,3.0585400000000003,46.1066,26.681,-47.685,0.00986025,-0.116698,-0.0341246999999999,249.3,4.6,52.1701,4.42724,11.3,1.24447,376.869,4.51972,175.00799999999998,64.6047,158.637,0.704706,-0.160966,244.882,0.937023,1.25262,0.432601928710938,22.0009689331055,0.333334267139435,22.0,-796040.0,-1045.99,pp-ro,1,1,-1,-1
1570536708.8,2019-10-08,14:11:48.800,14.0,10.0,21.780000686645497,16.8,-9.4,-5.5,49.1,25.2,-48.4,17.6933,-9.70729,-5.88825,8.84883,-3.76702,3.0585400000000003,46.1066,26.681,-47.685,0.00986025,-0.116698,-0.0341246999999999,249.3,4.6,52.1701,4.42724,11.3,1.2755,384.685,4.51968,174.07299999999998,66.1247,159.237,0.707476,-0.170319,245.011,0.931584,1.26491,0.23162841796875,22.0009689331055,0.422873556613922,22.0,-795882.0,2984.16,pp-ro,1,1,-1,-1
1570536708.9,2019-10-08,14:11:48.900,15.0,10.0,21.7900009155273,17.0,-9.6,-5.5,49.4,25.1,-49.4,17.9063,-10.16,-5.50346,-4.93452,-5.97742,-4.29465,45.4586,26.384,-50.0294,0.301674,-0.0345408,0.0615853,249.3,4.6,52.1701,4.42724,11.3,1.2622,383.804,4.51963,173.109,68.0247,159.737,0.709594,-0.181666,245.173,0.928619,1.27257,0.090263366699219,22.0019989013672,0.51746791601181,22.0,-795267.0,6675.89,pp-ro,1,1,-1,-1
1570536709.0,2019-10-08,14:11:49.000,15.0,9.0,21.9099998474121,17.1,-9.7,-5.2,49.6,24.8,-50.8,18.0598,-10.3897,-5.24106,-2.57954,-4.87426,-0.864202,45.4466,25.9551,-51.4164,0.147915,-0.187824,-0.0456385,249.3,4.6,52.1701,4.42724,11.3,1.26885,388.669,4.51959,172.116,69.5447,160.237,0.712097,-0.191201,245.227,0.921975,1.28971,0.26739501953125,22.0019989013672,-35.0,22.0,-794934.0,2799.57,pp-ro,1,1,-1,-1
1570536709.1,2019-10-08,14:11:49.100,15.0,8.0,22.0699996948242,16.8,-9.4,-4.8,50.0,24.9,-51.4,18.0598,-10.3897,-5.24106,-2.57954,-4.87426,-0.864202,45.4466,25.9551,-51.4164,0.147915,-0.187824,-0.0456385,249.3,4.6,52.1701,4.42724,11.3,1.28215,391.963,4.51955,171.123,71.4447,160.737,0.714163,-0.202664,245.405,0.921426,1.31169,0.512649536132812,22.0019989013672,-35.0,22.0,-794530.0,4522.38,pp-ro,1,1,-1,-1
1570536709.2,2019-10-08,14:11:49.200,15.0,9.0,22.2299995422363,16.4,-9.4,-4.8,50.2,24.8,-51.7,18.0598,-10.3897,-5.24106,-2.57954,-4.87426,-0.864202,45.4466,25.9551,-51.4164,0.147915,-0.187824,-0.0456385,257.4,5.4,52.1701,4.42724,11.3,1.27106,379.233,4.51951,170.188,72.9647,161.237,0.716418,-0.212148,245.53,0.925403,1.30808,0.37469482421875,22.0014839172363,-35.0,22.0,-793968.0,5752.96,pp-ro,1,1,-1,-1
1570536709.3,2019-10-08,14:11:49.300,15.0,9.0,22.3899993896484,16.0,-9.4,-5.0,50.4,24.2,-51.7,18.0598,-10.3897,-5.24106,-2.57954,-4.87426,-0.864202,45.4466,25.9551,-51.4164,0.147915,-0.187824,-0.0456385,257.4,5.4,52.1701,4.42724,11.3,1.22785,358.422,4.5195,169.166,74.8648,161.637,0.718123,-0.223753,245.659,0.940212,1.29785,-0.13995361328125,22.0009689331055,-35.0,22.0,-793286.0,7014.3,pp-ro,1,1,-1,-1
1570536709.4,2019-10-08,14:11:49.400,15.0,10.0,22.190000534057603,15.6,-9.2,-5.2,50.6,23.1,-51.0,18.0598,-10.3897,-5.24106,-2.57954,-4.87426,-0.864202,45.4466,25.9551,-51.4164,0.147915,-0.187824,-0.0456385,257.4,5.4,52.1701,4.42724,11.3,1.20513,349.564,4.51949,168.231,76.3848,162.137,0.7202729999999999,-0.233311,245.814,0.967838,1.29072,-1.00699615478516,22.0009689331055,-35.0,22.0,-792814.0,4368.56,pp-ro,1,1,-1,-1
1570536709.5,2019-10-08,14:11:49.500,15.0,10.0,22.0699996948242,15.7,-9.7,-5.1,51.2,21.9,-49.9,nan,nan,nan,nan,nan,nan,nan,nan,nan,nan,nan,nan,257.4,5.4,52.1701,4.42724,11.3,1.22452,379.08,4.51947,167.267,77.5248,162.737,0.7231810000000001,-0.2410909999999999,245.91,1.00029,1.29031,-2.23587799072266,22.0025119781494,-35.0,22.0,-792561.0,1138.29,pp-ro,1,1,-1,-1
1570536709.6,2019-10-08,14:11:49.600,15.0,11.0,21.9099998474121,16.2,-10.0,-4.8,51.6,21.1,-49.3,16.621,-10.0609,-4.77941,2.48116,-4.39537,-4.06064,47.8011,22.8084,-50.9892,-0.0033253,0.113004,0.285035,257.4,5.4,52.1701,4.42724,11.3,1.33755,420.766,4.51946,166.245,79.4248,163.236,0.725016,-0.252768,246.154,1.02484,1.31525,-3.8095245361328094,22.0019989013672,-35.0,22.0,-792490.0,3168.74,pp-ro,1,1,-1,-1
1570536709.7,2019-10-08,14:11:49.700,15.0,12.0,21.7900009155273,16.8,-9.8,-4.3,52.1,20.2,-49.5,17.0349,-10.4894,-4.37678,3.43986,4.40764,6.27568,48.5275,21.924,-50.1915,0.0896212,-0.271857,0.20104,257.4,5.4,52.1701,4.427230000000001,11.4,1.34254,420.936,4.51945,165.22299999999998,80.9448,163.636,0.726927,-0.262606,246.227,1.03989,1.36005,-5.74159240722656,22.003026962280305,-35.0,22.0,-792133.0,6706.66,pp-ro,1,1,-1,-1
1570536709.8,2019-10-08,14:11:49.800,15.0,11.0,21.7900009155273,17.6,-10.0,-3.7,52.7,18.7,-49.7,17.7204,-10.3372,-3.84961,7.67865,-1.0851,7.65689,48.8627,20.5798,-50.7384,0.0544251999999999,-0.0352054,0.0369963,257.4,5.4,52.1701,4.427230000000001,11.4,1.32149,425.413,4.51944,164.201,82.8448,164.03599999999997,0.7283270000000001,-0.274316,246.441,1.0635,1.40289,-7.854583740234379,22.003026962280305,-35.0,22.0,-791537.0,4614.67,pp-ro,1,1,-1,-1
1570536709.9,2019-10-08,14:11:49.900,15.0,11.0,22.1599998474121,18.5,-9.9,-2.9,53.4,16.7,-49.0,17.7204,-10.3372,-3.84961,7.67865,-1.0851,7.65689,48.8627,20.5798,-50.7384,0.0544251999999999,-0.0352054,0.0369963,257.4,5.4,52.1701,4.427230000000001,11.4,1.36914,450.564,4.519419999999999,163.178,84.3648,164.33599999999998,0.729827,-0.284205,246.477,1.10285,1.45878,-9.95732879638672,22.0035419464111,-35.0,22.0,-791313.0,2030.46,pp-ro,1,1,-1,-1
1570536710.0,2019-10-08,14:11:50.000,15.0,11.0,22.1599998474121,19.0,-10.1,-1.7,54.2,13.6,-47.7,17.7204,-10.3372,-3.84961,7.67865,-1.0851,7.65689,48.8627,20.5798,-50.7384,0.0544251999999999,-0.0352054,0.0369963,257.4,5.4,52.1701,4.427230000000001,11.4,1.40903,470.44,4.51941,162.156,86.6449,164.53599999999997,0.730009,-0.297755,246.727,1.16589,1.51342,-12.07373046875,22.0035419464111,-35.0,22.0,-790969.0,3476.39,pp-ro,1,1,-1,-1
1570536710.1,2019-10-08,14:11:50.100,14.0,13.0,23.2000007629395,19.5,-9.5,-0.5,55.5,9.4,-45.8,18.9999,-10.2981,-2.08235,6.89637,-1.04551,12.3365,51.1397,17.331,-49.0138,0.439986,-0.0975369,0.469047,254.6,4.2,52.1701,4.427230000000001,11.4,1.42067,460.287,4.5194,161.10399999999998,88.1649,164.636,0.730857,-0.307742,246.643,1.24803,1.5852700000000002,-14.176483154296902,22.0035419464111,-35.0,22.0,-790345.0,8183.35,pp-ro,1,1,-1,-1
1570536710.2,2019-10-08,14:11:50.200,15.0,11.0,23.4300003051758,20.3,-8.6,0.6,57.5,6.2,-41.7,18.9999,-10.2981,-2.08235,6.89637,-1.04551,12.3365,51.1397,17.331,-49.0138,0.439986,-0.0975369,0.469047,254.6,4.2,52.1701,4.427230000000001,11.4,1.3575,424.049,4.519369999999999,160.19899999999998,90.4449,164.53599999999997,0.7297,-0.320946,246.812,1.3469799999999998,1.66674,-16.287765502929698,22.003026962280305,-35.0,22.0,-789310.0,9752.34,pp-ro,1,1,-1,-1
1570536710.3,2019-10-08,14:11:50.300,15.0,9.0,23.3899993896484,21.0,-7.4,2.6,59.6,1.3,-39.4,20.0228,-8.62314,0.920144,7.64303,8.72715,12.1675,55.7968,9.11784,-41.2239,0.525126,0.391096,0.716114,254.6,4.2,52.1701,4.427230000000001,11.4,1.26829,387.654,4.519340000000001,159.352,92.7249,164.33599999999998,0.728019,-0.333959,246.976,1.44645,1.78302,-18.402458190918,22.003026962280305,-35.0,22.0,-788170.0,5568.37,pp-ro,1,1,-1,-1
1570536710.4,2019-10-08,14:11:50.400,15.0,12.0,23.2000007629395,21.8,-5.9,4.6,61.1,-3.5,-37.1,20.0228,-8.62314,0.920144,7.64303,8.72715,12.1675,55.7968,9.11784,-41.2239,0.525126,0.391096,0.716114,254.6,4.2,52.1701,4.427230000000001,11.4,1.26774,389.262,4.51931,158.651,94.2449,164.03599999999997,0.7266640000000001,-0.342957,246.901,1.54242,1.9013400000000005,-20.5137405395508,22.003026962280305,-35.0,22.0,-787965.0,3907.09,pp-ro,1,1,-1,-1
1570536710.5,2019-10-08,14:11:50.500,15.0,11.0,23.0499992370605,22.1,-4.6,7.1,62.8,-9.2,-34.0,21.1147,-6.10444,4.80031,7.7192,18.2528,24.3188,59.4507,-0.26637,-34.507,0.526533,0.189625,1.07669,254.6,4.2,52.1701,4.427230000000001,11.4,1.30431,408.921,4.51926,158.096,96.525,163.436,0.722964,-0.355011,247.028,1.6621400000000002,2.0237,-22.638671875,22.003026962280305,-35.0,22.0,-787478.0,3784.03,pp-ro,1,1,-1,-1
1570536710.6,2019-10-08,14:11:50.600,15.0,10.0,22.899999618530305,22.1,-2.5,9.4,64.3,-15.6,-30.2,21.3883,-5.50197,6.03635,3.92241,13.5386,22.5374,60.2138,-3.0329900000000003,-32.1109,0.191807,0.27976,1.22891,254.6,4.2,52.1701,4.427230000000001,11.4,1.31207,409.93,4.51924,157.716,98.805,162.636,0.71819,-0.366512,247.158,1.79857,2.15998,-24.7550811767578,22.003026962280305,-35.0,22.0,-787269.0,4060.91,pp-ro,1,1,-1,-1
1570536710.7,2019-10-08,14:11:50.700,15.0,12.0,22.8199996948242,22.2,-0.8,11.5,65.5,-22.6,-26.5,21.3883,-5.50197,6.03635,3.92241,13.5386,22.5374,60.2138,-3.0329900000000003,-32.1109,0.191807,0.27976,1.22891,254.6,4.2,52.1701,4.427230000000001,11.5,1.30819,403.30300000000005,4.51921,157.482,101.085,161.636,0.712421,-0.377484,247.275,1.94077,2.27085,-26.868064880371104,22.003026962280305,-35.0,22.0,-786668.0,6614.37,pp-ro,1,1,-1,-1
1570536710.8,2019-10-08,14:11:50.800,14.0,10.0,22.6599998474121,21.2,1.0,13.8,65.2,-30.0,-21.7,21.3883,-5.50197,6.03635,3.92241,13.5386,22.5374,60.2138,-3.0329900000000003,-32.1109,0.191807,0.27976,1.22891,254.6,4.2,52.1701,4.427230000000001,11.5,1.28713,404.837,4.51918,157.453,102.985,160.536,0.706389,-0.386021,247.324,2.0964400000000003,2.39472,-28.9708099365234,22.0035419464111,-35.0,22.0,-786129.0,4245.5,pp-ro,1,1,-1,-1
1570536710.9,2019-10-08,14:11:50.900,15.0,11.0,22.6299991607666,19.6,3.5,15.7,64.3,-38.0,-15.9,21.3883,-5.50197,6.03635,3.92241,13.5386,22.5374,60.2138,-3.0329900000000003,-32.1109,0.191807,0.27976,1.22891,254.6,4.2,52.1701,4.427230000000001,11.5,1.3165,401.956,4.51915,157.657,105.265,159.236,0.698651,-0.395465,247.573,2.2667,2.53955,-30.8499755859375,22.0035419464111,-35.0,22.0,-785842.0,3322.56,pp-ro,1,1,-1,-1
1570536711.0,2019-10-08,14:11:51.000,15.0,12.0,22.7399997711182,17.9,6.0,17.2,62.4,-45.0,-8.8,19.6875,0.8746280000000001,13.3125,-11.4488,20.0649,19.8521,61.4602,-25.448,-14.3492,0.227568,0.2466719999999999,1.52039,254.6,4.2,52.1701,4.427230000000001,11.5,1.26054,365.221,4.51911,158.066,107.165,157.736,0.690379,-0.402536,247.689,2.42782,2.67659,-32.3877868652344,22.003026962280305,-35.0,22.0,-784927.0,10275.3,pp-ro,1,1,-1,-1
1570536711.1,2019-10-08,14:11:51.100,15.0,12.0,22.8199996948242,15.9,8.3,18.5,58.9,-51.5,0.0,17.4973,4.43616,15.7885,-14.6419,24.9072,16.6265,57.8121,-35.9933,-2.90862,0.0971127,0.678822,1.53293,254.6,4.2,52.1701,4.427230000000001,11.5,1.1813,338.774,4.51909,158.767,108.685,156.235,0.682025,-0.406983,247.849,2.58697,2.80812,-33.5756988525391,22.0035419464111,-35.0,22.0,-784222.0,5660.67,pp-ro,1,1,-1,-1
1570536711.2,2019-10-08,14:11:51.200,15.0,13.0,22.7700004577637,14.0,10.5,19.7,52.5,-56.7,11.4,16.5064,5.49651,16.3764,-12.0759,21.5328,14.0663,55.4393,-39.1038,1.99459,0.2323199999999999,0.248578,1.31236,261.7,5.5,52.1701,4.427230000000001,11.5,1.17964,328.89,4.51909,159.672,109.825,154.635,0.673477,-0.409204,247.929,2.73998,2.92797,-34.398361206054695,22.003026962280305,-35.0,22.0,-783917.0,3599.45,pp-ro,1,1,-1,-1
