time,date,time_of_day,airspeed_temperature,airspeed_angle_of_attack,airspeed_apparent_windspeed,kite_0_vx,kite_0_vy,kite_0_vz,kite_0_roll,kite_0_pitch,kite_0_yaw,kite_1_vx,kite_1_vy,kite_1_vz,kite_1_ax,kite_1_ay,kite_1_az,kite_1_roll,kite_1_pitch,kite_1_yaw,kite_1_roll_rate,kite_1_pitch_rate,kite_1_yaw_rate,ground_upwind_direction,ground_wind_velocity,ground_pos_latitude,ground_pos_longitude,ground_pos_altitude,ground_tether_reelout_speed,ground_tether_force,est_upwind_direction,kite_pos_east,kite_pos_north,kite_height,kite_elevation,kite_azimuth,kite_distance,kite_heading,kite_course,kite_actual_steering,kite_actual_depower,kite_set_steering,kite_set_depower,ground_mech_energy,ground_mech_power,flight_phase,flight_phase_index,phase,pattern,pattern_section
1570533517.7,2019-10-08,13:18:37.700,14.0,7.0,15.0100002288818,11.5,-1.0,2.3,19.6,-3.4,-53.1,9.30997,-1.19896,2.53086,7.984560000000001,8.81307,2.5207900000000003,22.2027,11.7228,-57.5941,0.0864118999999999,0.115844,0.944237,269.8,7.6,52.1701,4.42724,6.6,-2.21855,103.356,4.61815,61.6864,1.14042,234.887,1.3139299999999998,0.0757572,242.855,0.688542,1.55542,-34.7704467773438,22.011266708374,-35.0,22.0,-905492.0,-1568.99,pp-riro,4,0,-1,-1
1570533517.8,2019-10-08,13:18:37.800,14.0,8.0,14.8299999237061,12.3,0.0,2.7,21.3,-4.7,-48.1,10.4652,0.265164,3.01508,7.406739999999999,11.6343,3.51567,25.189,9.98322,-49.2848,-0.0249340999999999,0.219303,0.947852,269.8,7.6,52.1701,4.42724,6.6,-2.20525,100.473,4.61814,61.5696,2.66048,234.687,1.314,0.0510595,242.644,0.806475,1.66809,-34.971832275390604,22.0019989013672,-35.0,22.0,-905925.0,-3999.38,pp-riro,4,0,-1,-1
1570533517.9,2019-10-08,13:18:37.900,14.0,8.0,14.5799999237061,13.0,1.0,3.0,22.9,-6.8,-43.2,11.4721,1.77856,3.58466,5.18124,8.86843,5.74645,27.8202,7.647310000000001,-40.6188,0.201867,0.165602,0.991369,263.7,8.0,52.1701,4.42724,6.6,-2.21467,97.9274,4.61814,61.5696,3.42051,234.487,1.31364,0.0387469,242.46,0.913057,1.7563400000000002,-34.970123291015604,21.9994239807129,-35.0,22.0,-906694.0,-5045.38,pp-riro,4,0,-1,-1
1570533518.0,2019-10-08,13:18:38.000,14.0,8.0,14.3999996185303,13.7,2.2,3.4,24.5,-8.3,-38.3,11.7894,2.32728,3.8132,6.44615,8.866760000000001,4.328469999999999,28.5918,6.681039999999999,-37.9712,0.062903,0.180283,0.915993,263.7,8.0,52.1701,4.42724,6.6,-2.22242,97.5224,4.61819,61.7156,4.94056,234.287,1.31244,0.0143414999999999,242.33,1.02999,1.86236,-34.973541259765604,21.9994239807129,-35.0,22.0,-907037.0,-6552.84,pp-riro,4,0,-1,-1
1570533518.1,2019-10-08,13:18:38.100,14.0,8.0,14.2799997329712,14.2,3.3,3.8,25.6,-10.1,-33.3,12.3559,3.41964,4.19604,4.85882,9.12768,2.06706,30.0634,4.70089,-32.2882,0.0664705,0.182781,0.946993,263.7,8.0,52.1701,4.42724,6.6,-2.24182,95.2296,4.6182300000000005,61.92,6.46062,234.087,1.31086,-0.0097795,242.224,1.14945,1.95507,-34.9923248291016,21.9994239807129,-35.0,22.0,-907735.0,-6522.07,pp-riro,4,0,-1,-1
1570533518.2,2019-10-08,13:18:38.200,14.0,8.0,14.2200002670288,14.7,4.5,4.1,26.8,-11.6,-28.2,12.9397,5.118609999999999,4.75447,3.77386,11.1387,3.81865,31.9068,1.74068,-24.1166,0.240909,0.23825,0.907018,263.7,8.0,52.1701,4.42724,6.6,-2.27008,93.2184,4.61827,62.2705,7.60067,233.787,1.30864,-0.0273171,242.058,1.2626,2.03864,-34.9906158447266,21.9994239807129,-35.0,22.0,-908553.0,-8675.59,pp-riro,4,0,-1,-1
1570533518.3,2019-10-08,13:18:38.300,14.0,8.0,14.1499996185303,15.0,5.7,4.7,27.9,-13.7,-22.9,12.9397,5.118609999999999,4.75447,3.77386,11.1387,3.81865,31.9068,1.74068,-24.1166,0.240909,0.23825,0.907018,263.7,8.0,52.1701,4.42724,6.6,-2.32382,92.456,4.61831,62.7086,9.50074,233.487,1.30556,-0.0562631999999999,241.948,1.39293,2.1347,-34.9923248291016,21.9994239807129,-35.0,22.0,-909923.0,-8614.06,pp-riro,4,0,-1,-1
1570533518.4,2019-10-08,13:18:38.400,14.0,8.0,14.0299997329712,15.2,6.9,5.1,28.2,-15.8,-17.9,13.2718,6.22596,5.17046,2.14778,11.8507,5.17522,32.7961,-0.353134,-18.6972,0.127235,0.225692,0.972841,263.7,8.0,52.1701,4.42724,6.6,-2.34044,92.5591,4.61835,63.2635,10.6408,233.087,1.3022200000000002,-0.0725806,241.754,1.5052299999999998,2.2124900000000003,-34.9957275390625,21.9994239807129,-35.0,22.0,-910380.0,-8675.59,pp-riro,4,0,-1,-1
1570533518.5,2019-10-08,13:18:38.500,14.0,8.0,13.960000038147,15.3,8.2,5.5,28.8,-17.8,-12.5,13.4785,7.361510000000001,5.653169999999999,-0.295715,10.8651,6.34283,33.3897,-2.52258,-13.0758,0.0795625,0.2171679999999999,1.05624,263.7,8.0,52.1701,4.427230000000001,6.5,-2.37812,92.4377,4.61839,63.9645,12.1609,232.587,1.29784,-0.0938606,241.529,1.62815,2.29714,-34.9974365234375,21.9994239807129,-35.0,22.0,-911246.0,-8890.94,pp-riro,4,0,-1,-1
1570533518.6,2019-10-08,13:18:38.600,14.0,9.0,14.0900001525879,15.4,9.5,5.8,29.0,-19.9,-7.0,13.5808,9.13684,6.23027,-0.209455,8.198189999999999,2.02465,33.5199,-5.96379,-4.61454,0.118968,0.2001369999999999,1.05932,263.7,8.0,52.1701,4.427230000000001,6.5,-2.43741,94.5717,4.6184400000000005,64.8115,13.6809,232.187,1.29289,-0.114059,241.451,1.7512599999999998,2.37427,-35.0042724609375,21.9994239807129,-35.0,22.0,-912628.0,-9506.23,pp-riro,4,0,-1,-1
1570533518.7,2019-10-08,13:18:38.700,14.0,9.0,14.210000038147,15.3,10.7,6.3,29.4,-21.8,-0.9,13.5808,9.13684,6.23027,-0.209455,8.198189999999999,2.02465,33.5199,-5.96379,-4.61454,0.118968,0.2001369999999999,1.05932,263.7,8.0,52.1701,4.427230000000001,6.5,-2.45237,96.3969,4.61848,65.7461,15.201,231.587,1.28726,-0.1332829999999999,241.218,1.88103,2.44961,-35.0042724609375,21.9994239807129,-35.0,22.0,-913061.0,-8091.06,pp-riro,4,0,-1,-1
1570533518.8,2019-10-08,13:18:38.800,14.0,8.0,14.3999996185303,15.1,12.1,6.8,28.8,-23.7,4.9,13.5008,10.8666,6.7825,-0.6787810000000001,12.9724,5.35577,33.3202,-9.16495,4.12261,0.0609716,0.298068,1.02151,263.7,8.0,52.1701,4.427230000000001,6.5,-2.47065,102.281,4.618519999999999,66.8559,17.1011,231.087,1.2806,-0.15653,241.171,2.00821,2.53505,-35.0042724609375,21.9994239807129,-35.0,22.0,-913802.0,-7260.42,pp-riro,4,0,-1,-1
1570533518.9,2019-10-08,13:18:38.900,14.0,10.0,14.5200004577637,14.8,13.4,7.3,28.2,-25.6,10.8,13.2256,12.6142,7.46168,-4.69725,13.5948,6.02851,32.3351,-12.0523,13.3449,0.00997484,0.312311,1.05069,263.7,6.9,52.1701,4.427230000000001,6.5,-2.4629,106.057,4.61856,68.0826,18.2411,230.387,1.2739,-0.167929,240.928,2.12429,2.60431,-35.0042724609375,21.9994239807129,-35.0,22.0,-914160.0,-2307.34,pp-riro,4,0,-1,-1
1570533519.0,2019-10-08,13:18:39.000,14.0,10.0,14.6999998092651,14.2,14.8,7.8,27.6,-27.4,17.3,13.2256,12.6142,7.46168,-4.69725,13.5948,6.02851,32.3351,-12.0523,13.3449,0.00997484,0.312311,1.05069,263.7,6.9,52.1701,4.427230000000001,6.5,-2.43298,110.297,4.618530000000001,69.5138,20.1412,229.687,1.26555,-0.1881779999999999,240.819,2.25583,2.69086,-35.0042724609375,21.9994239807129,-35.0,22.0,-914208.0,92.2935,pp-riro,4,0,-1,-1
1570533519.1,2019-10-08,13:18:39.100,14.0,10.0,14.880000114440902,14.0,15.4,8.0,27.1,-28.1,20.4,12.6411,14.4035,8.09769,-7.15912,12.8292,5.5862300000000005,30.5997,-14.5893,22.7122,-0.0301647,0.281253,0.955367,263.7,6.9,52.1701,4.427230000000001,6.5,-2.38311,117.191,4.6185,70.1855,20.9012,229.287,1.26165,-0.195564,240.698,2.31497,2.72337,-35.0042724609375,21.9994239807129,-35.0,22.0,-914103.0,1968.93,pp-riro,4,0,-1,-1
1570533519.2,2019-10-08,13:18:39.200,14.0,10.0,15.1800003051758,13.4,16.9,8.5,26.2,-29.6,26.9,12.1469,15.5919,8.586030000000001,-7.11667,11.7161,4.73654,29.4447,-16.1962,29.1449,0.131666,0.2264469999999999,1.05936,263.7,6.9,52.1701,4.427230000000001,6.5,-2.29279,126.529,4.618469999999999,71.7919,22.0413,228.487,1.25324,-0.203978,240.512,2.43133,2.79506,-35.0059814453125,21.9994239807129,-23.0,22.0,-913580.0,5445.31,pp-riro,4,0,-1,-1
1570533519.3,2019-10-08,13:18:39.300,14.0,10.0,15.5200004577637,12.7,18.1,9.1,25.2,-30.6,33.6,11.5694,16.8186,9.08784,-7.58825,9.11219,4.53599,27.9983,-17.4634,35.58,-0.131303,0.273482,1.05484,263.7,6.9,52.1701,4.427230000000001,6.5,-2.16923,136.209,4.6184400000000005,73.4859,23.1814,227.687,1.24447,-0.211637,240.372,2.54619,2.85815,-35.0042724609375,21.9994239807129,-23.0,22.0,-912651.0,11505.9,pp-riro,4,0,-1,-1
1570533519.4,2019-10-08,13:18:39.400,14.0,9.0,15.8000001907349,11.7,19.5,9.6,24.1,-32.0,40.4,10.8604,17.9798,9.5737,-8.0102,11.6911,5.06726,26.5276,-18.6026,42.3222,0.093423,0.301044,1.08479,263.7,6.9,52.1701,4.427230000000001,6.5,-1.88887,148.909,4.61841,75.4136,24.7014,226.687,1.23406,-0.22257,240.176,2.66522,2.93508,-34.8233489990234,21.9994239807129,-23.0,22.0,-910576.0,15105.4,pp-riro,4,0,-1,-1
1570533519.5,2019-10-08,13:18:39.500,14.0,10.0,16.0799999237061,10.6,20.8,10.1,22.7,-32.9,47.3,9.48849,19.6859,10.2742,-11.9413,12.1508,4.640969999999999,23.9317,-20.3444,52.3492,-0.00936815,0.353149,1.08851,263.7,6.9,52.1701,4.427230000000001,6.5,-1.7847,152.532,4.61838,77.3704,25.8415,225.787,1.22411,-0.228354,240.07,2.77765,3.00467,-34.2601165771484,21.9994239807129,-23.0,22.0,-909792.0,15843.7,pp-riro,4,0,-1,-1
1570533519.6,2019-10-08,13:18:39.600,14.0,10.0,16.4599990844727,9.3,21.9,10.5,21.2,-33.8,54.8,8.93061,20.2072,10.4492,-11.3946,11.4556,3.1038,23.037,-20.9079,55.7751,0.0880219,0.268676,1.05336,263.7,6.9,52.1701,4.427230000000001,6.5,-1.5204,160.273,4.61835,79.5317,27.3616,224.687,1.21261,-0.237327,239.913,2.90014,3.07724,-33.338455200195305,21.9994239807129,-23.0,22.0,-908156.0,15874.5,pp-riro,4,0,-1,-1
1570533519.7,2019-10-08,13:18:39.700,14.0,10.0,16.729999542236303,7.9,22.9,10.9,19.1,-34.2,61.8,7.15354,21.563,10.9859,-14.1123,6.29696,5.2430900000000005,20.0834,-22.2212,65.9702,0.146016,0.252637,0.960048,263.7,6.9,52.1701,4.427230000000001,6.5,-1.09487,168.05200000000002,4.61832,81.7223,28.1217,223.687,1.2021,-0.237366,239.802,3.00513,3.14089,-32.0652008056641,21.9994239807129,-23.0,22.0,-905901.0,14182.4,pp-riro,4,0,-1,-1
1570533519.8,2019-10-08,13:18:39.800,14.0,10.0,17.0400009155273,6.4,23.7,11.2,17.2,-34.8,68.8,7.15354,21.563,10.9859,-14.1123,6.29696,5.2430900000000005,20.0834,-22.2212,65.9702,0.146016,0.252637,0.960048,263.7,6.9,52.1701,4.427230000000001,6.5,-0.915898,168.308,4.61829,84.0004,28.8817,222.587,1.19109,-0.237082,239.656,3.10885,3.20299,-30.430114746093803,21.9994239807129,-22.9996223449707,22.0,-905249.0,12121.2,pp-riro,4,0,-1,-1
1570533519.9,2019-10-08,13:18:39.900,14.0,10.0,17.1399993896484,5.0,24.3,11.2,15.0,-34.9,75.8,7.15354,21.563,10.9859,-14.1123,6.29696,5.2430900000000005,20.0834,-22.2212,65.9702,0.146016,0.252637,0.960048,262.1,8.0,52.1701,4.427230000000001,6.5,-0.607274,167.601,4.61826,86.4538,29.2618,221.487,1.17991,-0.23225,239.556,3.20756,3.25412,-28.4758453369141,21.9994239807129,-22.4027614593506,22.0,-904357.0,7937.24,pp-riro,4,0,-1,-1
1570533520.0,2019-10-08,13:18:40.000,14.0,9.0,17.3400001525879,3.4,24.7,11.3,13.2,-34.7,82.2,5.80947,22.3176,11.1996,-16.213,7.131819999999999,3.294,18.2132,-23.1608,72.6809,0.1180619999999999,0.221676,1.00937,262.1,8.0,52.1701,4.427230000000001,6.5,-0.278149,166.045,4.61819,88.8196,29.6418,220.387,1.16904,-0.227942,239.453,3.2976400000000003,3.31029,-26.647888183593803,21.9994239807129,-21.7168846130371,22.0,-903918.0,3476.39,pp-riro,4,0,-1,-1
1570533520.1,2019-10-08,13:18:40.100,14.0,9.0,17.5,2.0,25.0,11.2,11.0,-34.5,88.4,3.08086,23.3221,11.2355,-14.9109,2.9752,1.19074,14.0809,-24.3851,85.3586,-0.169314,0.257842,0.804678,262.1,8.0,52.1701,4.427230000000001,6.5,0.0171766,163.642,4.61811,91.273,30.0219,219.287,1.15783,-0.223538,239.413,3.38447,3.35855,-25.09130859375,21.9994239807129,-21.2177753448486,22.0,-903855.0,-307.645,pp-riro,4,0,-1,-1
1570533520.2,2019-10-08,13:18:40.200,14.0,8.0,17.6000003814697,0.4,24.9,11.0,8.9,-34.1,94.4,1.77607,23.5432,11.103,-13.1215,2.2460400000000003,0.4981279999999999,12.1065,-24.5142,91.2126,0.0697016999999999,0.276433,0.927442,262.1,8.0,52.1701,4.427230000000001,6.5,0.348518,156.994,4.618040000000001,93.8724,30.4019,218.186,1.14608,-0.218892,239.461,3.46837,3.4127300000000003,-23.7327194213867,21.9994239807129,-20.637020111084,22.0,-904064.0,2061.22,pp-riro,4,0,-1,-1
1570533520.3,2019-10-08,13:18:40.300,14.0,8.0,17.5900001525879,-0.8,25.0,10.8,6.8,-33.1,99.9,-0.256131,23.6678,10.7253,-7.83873,-2.3801400000000004,-2.73986,9.31227,-24.1785,99.2059,-0.233593,0.325563,0.760191,262.1,8.0,52.1701,4.427230000000001,6.5,0.272609,156.287,4.61797,96.355,30.402,217.186,1.13537,-0.211248,239.538,3.5445900000000004,3.4506,-22.5704040527344,21.9994239807129,-20.2710857391357,22.0,-903896.0,3168.74,pp-riro,4,0,-1,-1
1570533520.4,2019-10-08,13:18:40.400,14.0,8.0,17.7399997711182,-2.0,24.8,10.9,5.2,-32.4,105.3,-0.878424,23.6017,10.5055,-11.0248,2.42593,-5.01262,8.4159,-24.0372,101.683,0.019091,0.152152,0.68555,262.1,8.0,52.1701,4.427230000000001,6.5,0.261527,170.52200000000002,4.61789,98.8668,30.402,216.086,1.12435,-0.203868,239.567,3.61897,3.48716,-21.5890045166016,21.9994239807129,-19.9699459075928,22.0,-903962.0,-1753.58,pp-riro,4,0,-1,-1
1570533520.5,2019-10-08,13:18:40.500,14.0,9.0,17.840000152587898,-3.3,24.8,11.0,3.2,-31.4,110.2,-1.43882,23.5423,10.5423,-11.8721,0.5310229999999999,1.50917,7.5124,-23.5917,104.316,0.142241,0.135932,0.756897,262.1,8.0,52.1701,4.427219999999999,6.7,0.340761,192.698,4.61782,101.349,30.022,214.986,1.11383,-0.193456,239.567,3.68523,3.5243900000000004,-20.7697601318359,21.9994239807129,-19.5737285614014,22.0,-903987.0,553.761,pp-riro,4,0,-1,-1
1570533520.6,2019-10-08,13:18:40.600,14.0,10.0,17.9899997711182,-4.5,24.4,10.8,1.1,-30.3,115.2,-1.43882,23.5423,10.5423,-11.8721,0.5310229999999999,1.50917,7.5124,-23.5917,104.316,0.142241,0.135932,0.756897,262.1,8.0,52.1701,4.427219999999999,6.7,0.330233,189.855,4.61775,103.803,29.6421,213.986,1.1035700000000002,-0.183552,239.674,3.75442,3.56135,-19.9948806762695,21.9994239807129,-19.1984081268311,22.0,-903897.0,430.703,pp-riro,4,0,-1,-1
1570533520.7,2019-10-08,13:18:40.700,14.0,10.0,18.0400009155273,-5.7,24.2,10.6,-1.1,-29.0,119.9,-4.43321,23.1164,10.3294,-13.4155,1.50084,-4.67039,1.96098,-21.1715,116.849,-0.115139,0.20773,0.62675,262.1,8.0,52.1701,4.427219999999999,6.7,0.331341,197.585,4.61767,106.285,29.2621,212.886,1.0929799999999998,-0.173981,239.736,3.8212,3.5984300000000005,-19.5425872802734,21.9994239807129,-18.8656978607178,22.0,-903847.0,399.9380000000001,pp-riro,4,0,-1,-1
1570533520.8,2019-10-08,13:18:40.800,14.0,10.0,18.1800003051758,-6.9,23.9,10.6,-3.3,-27.7,124.3,-5.5604,22.8839,10.1878,-11.5582,-3.15585,3.4974800000000004,-0.153491,-20.0487,121.241,0.0257891999999999,0.209692,0.610122,262.1,8.0,52.1701,4.427219999999999,6.7,0.344639,204.032,4.6176,108.68,28.8821,211.786,1.08268,-0.164996,239.79,3.88479,3.63514,-19.1244201660156,21.9994239807129,-18.556087493896506,22.0,-903842.0,92.2935,pp-riro,4,0,-1,-1
1570533520.9,2019-10-08,13:18:40.900,14.0,10.0,18.229999542236303,-8.2,23.6,10.5,-4.8,-26.3,128.2,-6.75511,22.6501,10.1281,-9.38481,-2.60359,-0.4405739999999999,-2.61789,-19.154,125.496,-0.129682,0.2927329999999999,0.617049,262.7,7.7,52.1701,4.427219999999999,6.7,0.370127,217.016,4.61753,111.105,28.1222,210.686,1.07259,-0.153081,239.841,3.93993,3.67352,-18.957160949707,21.9994239807129,-18.1561088562012,22.0,-903818.0,307.645,pp-riro,4,0,-1,-1
1570533521.0,2019-10-08,13:18:41.000,14.0,10.0,18.4200000762939,-9.3,23.0,10.3,-7.1,-25.0,132.2,-7.356210000000001,22.4663,10.018,-8.48873,-0.286796,-2.1139900000000003,-3.685680000000001,-18.6701,127.569,-0.155389,0.255361,0.707839,262.7,7.7,52.1701,4.427219999999999,6.7,0.397831,233.206,4.61756,113.558,27.3622,209.586,1.06234,-0.141599,239.938,3.99671,3.70895,-18.6635894775391,21.9994239807129,-17.8572044372559,22.0,-903747.0,584.525,pp-riro,4,0,-1,-1
1570533521.1,2019-10-08,13:18:41.100,14.0,12.0,18.5599994659424,-10.6,22.6,10.2,-9.0,-23.7,136.0,-8.521189999999999,22.0208,9.86228,-7.803089999999999,-6.29874,-1.50862,-5.705419999999999,-17.0422,131.365,-0.272632,0.26027,0.782876,262.7,7.7,52.1701,4.427219999999999,6.7,0.406142,238.65,4.61759,115.865,26.2222,208.486,1.05288,-0.127752,239.956,4.0491,3.74652,-18.2215423583984,21.9994239807129,-17.4398994445801,22.0,-903723.0,461.467,pp-riro,4,0,-1,-1
1570533521.2,2019-10-08,13:18:41.200,14.0,11.0,18.7000007629395,-11.9,22.1,10.2,-10.6,-22.0,139.0,-10.9952,21.1788,9.63289,-10.1712,-0.654401,-4.50068,-10.2773,-14.992,138.05,-0.198171,0.2468139999999999,0.693375,262.7,7.7,52.1701,4.427219999999999,6.7,0.431076,252.291,4.61762,118.114,25.0822,207.386,1.04354,-0.114465,239.977,4.09385,3.78428,-17.9023742675781,21.9994239807129,-17.0471038818359,22.0,-903673.0,522.996,pp-riro,4,0,-1,-1
1570533521.3,2019-10-08,13:18:41.300,14.0,12.0,18.840000152587898,-13.0,21.6,10.1,-12.4,-20.5,142.5,-10.9952,21.1788,9.63289,-10.1712,-0.654401,-4.50068,-10.2773,-14.992,138.05,-0.198171,0.2468139999999999,0.693375,262.7,7.7,52.1701,4.427219999999999,6.7,0.454902,268.923,4.61766,120.393,23.9422,206.186,1.03381,-0.101557,239.959,4.14518,3.81663,-17.54736328125,21.9994239807129,-16.8241138458252,22.0,-903621.0,430.703,pp-riro,4,0,-1,-1
1570533521.4,2019-10-08,13:18:41.400,14.0,12.0,18.9300003051758,-14.2,20.8,10.0,-14.1,-19.5,146.0,-12.0209,20.576,9.54641,-11.5718,-7.98416,-2.02162,-12.2778,-13.5338,141.45600000000002,-0.0796501,0.0193728,0.499655,262.7,7.7,52.1701,4.427219999999999,6.7,0.496458,290.23400000000004,4.6176900000000005,122.554,22.4222,205.086,1.02489,-0.0862391,239.963,4.19082,3.85428,-17.0643463134766,21.9994239807129,-16.4224643707275,22.0,-903508.0,1107.52,pp-riro,4,0,-1,-1
1570533521.5,2019-10-08,13:18:41.500,14.0,11.0,19.1200008392334,-15.3,20.2,9.8,-15.5,-18.0,148.6,-12.0209,20.576,9.54641,-11.5718,-7.98416,-2.02162,-12.2778,-13.5338,141.45600000000002,-0.0796501,0.0193728,0.499655,262.7,7.7,52.1701,4.427219999999999,6.8,0.519729,304.363,4.617719999999999,124.598,21.2822,203.986,1.01604,-0.0744888999999999,239.975,4.23083,3.89014,-16.8953704833984,21.9994239807129,-16.1460494995117,22.0,-903435.0,615.29,pp-riro,4,0,-1,-1
1570533521.6,2019-10-08,13:18:41.600,14.0,11.0,19.3899993896484,-16.5,19.4,9.7,-16.8,-16.8,151.3,-12.0209,20.576,9.54641,-11.5718,-7.98416,-2.02162,-12.2778,-13.5338,141.45600000000002,-0.0796501,0.0193728,0.499655,262.7,7.7,52.1701,4.427219999999999,6.8,0.536352,309.085,4.61775,126.614,19.3822,202.886,1.00765,-0.0572491,239.936,4.2655,3.92603,-16.5403671264648,21.9994239807129,-15.770283699035598,22.0,-903386.0,922.935,pp-riro,4,0,-1,-1
1570533521.7,2019-10-08,13:18:41.700,14.0,11.0,19.6200008392334,-17.4,18.5,9.4,-18.0,-16.0,154.4,-14.4448,19.2663,9.31947,-8.94317,-12.3606,-0.2271,-16.4404,-11.6807,147.433,-0.224417,0.0909243999999999,0.450655,262.7,7.7,52.1701,4.427219999999999,6.8,0.543555,316.893,4.617780000000001,128.454,17.8622,201.786,0.999562,-0.043565,239.86900000000003,4.30551,3.96099,-16.229736328125,21.9994239807129,-15.4853849411011,22.0,-903232.0,1568.99,pp-riro,4,0,-1,-1
1570533521.8,2019-10-08,13:18:41.800,14.0,11.0,19.8899993896484,-18.2,17.7,9.1,-18.9,-14.3,156.8,-16.8293,17.1777,8.69841,-5.20729,-8.74779,-3.0718,-20.4074,-9.45418,154.524,-0.189997,0.148806,0.653935,262.7,7.7,52.1701,4.427219999999999,6.8,0.571813,330.93699999999995,4.61782,130.352,15.9622,200.586,0.991115,-0.0272599,239.752,4.3416,3.98956,-15.8440017700195,21.9994239807129,-15.3530540466309,22.0,-903051.0,1476.7,pp-riro,4,0,-1,-1
1570533521.9,2019-10-08,13:18:41.900,14.0,10.0,20.1499996185303,-19.0,16.6,8.9,-19.6,-13.4,159.6,-17.261,16.7141,8.62678,-5.67791,-5.50369,0.677277,-21.046,-8.91514,155.816,-0.0852235,0.0147732,0.479487,262.8,7.5,52.1701,4.427219999999999,6.8,0.577354,334.358,4.61785,132.076,14.4422,199.586,0.983467,-0.0143594,239.764,4.3791400000000005,4.0261,-15.587982177734402,21.9994239807129,-15.0843448638916,22.0,-902969.0,1568.99,pp-riro,4,0,-1,-1
1570533522.0,2019-10-08,13:18:42.000,14.0,11.0,20.409999847412102,-19.6,15.5,8.5,-20.3,-12.2,162.2,-17.615,16.1773,8.59282,-6.38399,-16.0211,-6.69659,-21.4176,-8.58463,157.05100000000002,0.111204,-0.179153,0.264888,262.8,7.5,52.1701,4.427219999999999,6.8,0.5862189999999999,337.396,4.61781,133.68200000000002,12.1622,198.586,0.976393,0.00382872,239.698,4.41244,4.05722,-15.3490371704102,21.9994239807129,35.0,22.0,-902812.0,1599.75,pp-riro,4,0,-1,-1
1570533522.1,2019-10-08,13:18:42.100,14.0,10.0,20.6700000762939,-20.1,14.5,8.0,-20.6,-10.9,164.8,-17.615,16.1773,8.59282,-6.38399,-16.0211,-6.69659,-21.4176,-8.58463,157.05100000000002,0.111204,-0.179153,0.264888,262.8,7.5,52.1701,4.427219999999999,6.8,0.583449,335.783,4.617780000000001,135.201,10.2622,197.586,0.969369,0.0188339,239.634,4.4495,4.08921,-15.096435546875,21.9994239807129,35.0,22.0,-902518.0,1999.69,pp-riro,4,0,-1,-1
1570533522.2,2019-10-08,13:18:42.200,14.0,10.0,20.9200000762939,-20.6,13.5,7.6,-20.8,-9.9,167.3,-18.9571,13.6161,7.55336,-0.449359,-5.20691,-2.65537,-23.1984,-6.118580000000001,163.724,-0.0547659999999999,0.0779051,0.576835,262.8,7.5,52.1701,4.427219999999999,6.8,0.759093,335.835,4.61774,136.60299999999998,8.36213,196.685,0.962878,0.0334878,239.615,4.48263,4.12081,-14.8199310302734,21.9994239807129,35.0,22.0,-903453.0,-17874.2,pp-riro,4,0,-1,-1
1570533522.3,2019-10-08,13:18:42.300,14.0,10.0,21.1299991607666,-20.7,12.7,6.9,-21.0,-8.6,169.9,-18.9571,13.6161,7.55336,-0.449359,-5.20691,-2.65537,-23.1984,-6.118580000000001,163.724,-0.0547659999999999,0.0779051,0.576835,262.8,7.5,52.1701,4.427219999999999,6.8,1.255,327.057,4.61771,137.946,6.46211,195.785,0.956487,0.0478508,239.58900000000003,4.52048,4.14513,-14.1901321411133,21.9994239807129,35.0,22.0,-906006.0,-26395.9,pp-riro,4,0,-1,-1
1570533522.4,2019-10-08,13:18:42.400,14.0,9.0,21.2600002288818,-20.5,12.0,6.1,-21.1,-7.0,171.8,-19.4189,12.2395,6.90774,0.889656,-4.75338,-8.32451,-23.413,-4.46194,167.78099999999998,0.0508084,-0.124857,0.431531,262.8,7.5,52.1701,4.427219999999999,6.8,1.00788,281.28,4.61768,139.173,4.18208,194.985,0.95068,0.0646609,239.595,4.54961,4.16165,-13.1950836181641,21.9994239807129,35.0,22.0,-903710.0,2368.87,pp-riro,4,0,-1,-1
1570533522.5,2019-10-08,13:18:42.500,14.0,8.0,21.2900009155273,-20.5,11.1,6.1,-21.1,-5.5,173.8,-19.3261,11.5768,6.05002,-2.29178,-8.37177,-9.50558,-23.6034,-3.81973,170.00799999999998,-0.1277039999999999,-0.0132423,0.3750739999999999,262.8,7.5,52.1701,4.427219999999999,6.9,1.06938,287.246,4.61764,140.283,2.28205,194.285,0.945364,0.0784648,239.648,4.58177,4.17582,-11.8501434326172,21.9994239807129,35.0,22.0,-904208.0,-9137.05,pp-riro,4,0,-1,-1
1570533522.6,2019-10-08,13:18:42.600,14.0,9.0,21.25,-20.5,10.3,6.0,-21.5,-4.8,175.9,-19.2374,11.1893,5.8349400000000005,-2.5996200000000003,-3.83009,-2.56045,-23.7656,-3.10063,171.11700000000002,-0.1592589999999999,0.0712841999999999,0.402315,262.8,7.5,52.1701,4.427219999999999,6.9,1.12867,311.616,4.61761,141.335,0.00201234,193.585,0.94016,0.0947508999999999,239.689,4.6052800000000005,4.18803,-10.1519012451172,21.9994239807129,35.0,22.0,-903738.0,3907.09,pp-riro,4,0,-1,-1
1570533522.7,2019-10-08,13:18:42.700,14.0,10.0,21.1700000762939,-20.5,10.0,5.6,-21.8,-3.5,177.3,-19.3438,9.98603,5.79833,-1.53583,-3.84224,2.1584,-23.9003,-1.64968,174.507,-0.2513829999999999,-0.0902231,0.441474,262.8,7.5,52.1701,4.427219999999999,6.9,1.13531,307.5,4.61757,142.328,-1.518,192.985,0.935312,0.105466,239.797,4.62965,4.19715,-8.10889434814453,21.9994239807129,35.0,22.0,-903659.0,1384.4,pp-riro,4,0,-1,-1
1570533522.8,2019-10-08,13:18:42.800,14.0,9.0,21.0799999237061,-20.6,9.6,5.7,-22.2,-2.7,178.3,-19.3438,9.98603,5.79833,-1.53583,-3.84224,2.1584,-23.9003,-1.64968,174.507,-0.2513829999999999,-0.0902231,0.441474,262.8,7.5,52.1701,4.427219999999999,6.9,1.12811,303.635,4.61754,143.262,-3.79805,192.385,0.93055,0.12134,239.897,4.63921,4.19632,-6.00273132324219,21.9994239807129,35.0,22.0,-903230.0,5476.08,pp-riro,4,0,-1,-1
1570533522.9,2019-10-08,13:18:42.900,14.0,9.0,21.0,-20.6,9.4,6.0,-22.8,-2.8,179.6,-19.7209,9.27065,5.60925,-1.84302,-4.1458,3.13831,-24.9034,-0.690391,178.44099999999997,-0.0246446,-0.106269,0.220531,261.4,7.9,52.1701,4.427219999999999,6.9,1.13809,310.92,4.6175,144.168,-6.07809,191.685,0.925521,0.137004,239.926,4.64377,4.1832,-3.89656829833984,21.9994239807129,35.0,22.0,-902929.0,1445.93,pp-riro,4,0,-1,-1
1570533523.0,2019-10-08,13:18:43.000,14.0,10.0,20.8700008392334,-20.4,9.4,6.1,-23.8,-2.6,179.7,-19.7209,9.27065,5.60925,-1.84302,-4.1458,3.13831,-24.9034,-0.690391,178.44099999999997,-0.0246446,-0.106269,0.220531,261.4,7.9,52.1701,4.427219999999999,6.9,1.14086,307.656,4.61746,145.04399999999998,-7.97812,191.085,0.920797,0.149856,240.031,4.63703,4.16666,-1.7938232421875,21.9994239807129,35.0,22.0,-902575.0,4245.5,pp-riro,4,0,-1,-1
1570533523.1,2019-10-08,13:18:43.100,14.0,10.0,20.7399997711182,-20.3,9.5,6.6,-24.7,-2.7,179.4,-19.8429,9.16494,5.701630000000001,-0.155686,1.76932,2.004,-25.3595,-0.782762,178.96900000000002,-0.299427,-0.0226938,0.1134059999999999,261.4,7.9,52.1701,4.427219999999999,6.9,1.12922,303.608,4.61742,145.891,-9.87815,190.385,0.915843,0.162551,240.05900000000003,4.62178,4.14043,0.313377380371094,21.9994239807129,35.0,22.0,-902340.0,4337.79,pp-riro,4,0,-1,-1
1570533523.2,2019-10-08,13:18:43.200,14.0,10.0,20.6100006103516,-20.2,9.7,7.2,-25.9,-3.8,178.9,-19.8615,9.38508,5.95445,-0.562411,6.15815,6.54183,-26.7854,-1.50978,179.511,-0.185783,-0.0947406,-0.00567767,261.4,7.9,52.1701,4.427219999999999,6.9,1.11814,300.397,4.61739,146.797,-11.7782,189.685,0.910622,0.175046,240.143,4.59336,4.109430000000001,2.4167633056640603,21.9994239807129,35.0,22.0,-902034.0,2799.57,pp-riro,4,0,-1,-1
1570533523.3,2019-10-08,13:18:43.300,14.0,10.0,20.5699996948242,-19.9,10.2,7.8,-27.1,-5.0,178.0,-20.0821,9.75646,6.84307,-0.543353,1.35704,6.9009,-28.597,-3.3986300000000003,179.136,-0.331552,-0.089382,-0.227347,261.4,7.9,52.1701,4.427219999999999,6.9,1.12368,300.935,4.61735,147.673,-14.0582,188.885,0.905053,0.189934,240.172,4.55649,4.06369,4.51673126220703,21.9994239807129,35.0,22.0,-901742.0,3137.98,pp-riro,4,0,-1,-1
1570533523.4,2019-10-08,13:18:43.400,14.0,10.0,20.4400005340576,-19.6,10.6,8.6,-28.3,-6.6,176.3,-20.0246,10.278,7.5461,0.911442,1.85933,8.952010000000001,-29.8146,-4.7096800000000005,178.067,-0.282889,-0.0958203,-0.231625,261.4,7.9,52.1701,4.427219999999999,6.9,1.11481,297.783,4.61731,148.637,-15.5782,187.985,0.8991020000000001,0.199486,240.154,4.50865,4.02153,6.628631591796879,21.9994239807129,35.0,22.0,-901399.0,3476.39,pp-riro,4,0,-1,-1
1570533523.5,2019-10-08,13:18:43.500,14.0,10.0,20.3500003814697,-19.2,11.2,9.5,-29.5,-8.7,174.2,-19.8999,10.5964,8.01779,2.29955,10.7657,10.7722,-30.5795,-5.84135,177.497,-0.167461,-0.329881,-0.283062,261.4,7.9,52.1701,4.427219999999999,6.9,1.11537,297.215,4.61727,149.63,-17.8583,187.085,0.892727,0.2138949999999999,240.227,4.44632,3.966380000000001,8.74223327636719,21.9994239807129,35.0,22.0,-901112.0,2738.04,pp-riro,4,0,-1,-1
1570533523.6,2019-10-08,13:18:43.600,14.0,11.0,20.3099994659424,-18.7,11.9,10.4,-30.5,-11.4,171.8,-19.7865,11.2444,8.938830000000001,1.23566,5.16351,6.36707,-31.8331,-8.732439999999999,175.958,-0.171503,-0.286579,-0.699004,261.4,7.9,52.1701,4.427219999999999,6.9,1.11814,302.127,4.61723,150.711,-19.3783,186.085,0.886033,0.223014,240.243,4.37789,3.91146,10.8473129272461,21.9994239807129,35.0,22.0,-900703.0,2338.1,pp-riro,4,0,-1,-1
1570533523.7,2019-10-08,13:18:43.700,14.0,10.0,20.2199993133545,-17.9,12.7,11.4,-30.9,-14.4,168.6,-19.7865,11.2444,8.938830000000001,1.23566,5.16351,6.36707,-31.8331,-8.732439999999999,175.958,-0.171503,-0.286579,-0.699004,261.4,7.9,52.1701,4.427219999999999,6.9,1.12312,303.286,4.61719,151.821,-21.2783,184.985,0.878775,0.234421,240.253,4.29413,3.84373,12.9524002075195,21.9994239807129,35.0,22.0,-900594.0,2091.99,pp-riro,4,0,-1,-1
1570533523.8,2019-10-08,13:18:43.800,14.0,10.0,20.1299991607666,-16.8,13.7,12.5,-30.9,-17.8,164.7,-18.5668,13.4348,11.8569,8.91494,12.1365,14.3044,-34.1917,-17.5976,169.98,-0.172152,-0.347117,-0.6224149999999999,261.4,7.9,52.1701,4.427219999999999,6.9,1.12867,303.329,4.61716,153.106,-22.7983,183.785,0.870815,0.243042,240.287,4.199730000000001,3.76485,15.0659942626953,21.9994239807129,35.0,22.0,-900266.0,3599.45,pp-riro,4,0,-1,-1
1570533523.9,2019-10-08,13:18:43.900,14.0,10.0,20.0400009155273,-15.5,14.8,13.6,-30.7,-21.6,160.4,-17.5264,14.5268,13.0738,10.3976,12.0937,12.8467,-34.3739,-22.0761,166.68,-0.303764,-0.381972,-1.0248700000000002,260.9,7.8,52.1701,4.427219999999999,6.9,1.1198,302.318,4.61712,154.44899999999998,-24.6983,182.585,0.862453,0.253821,240.42,4.09555,3.67814,17.1727828979492,21.9994239807129,35.0,22.0,-899944.0,2922.63,pp-riro,4,0,-1,-1
1570533524.0,2019-10-08,13:18:44.000,14.0,10.0,20.0400009155273,-14.1,15.7,14.6,-29.6,-25.1,155.1,-17.5264,14.5268,13.0738,10.3976,12.0937,12.8467,-34.3739,-22.0761,166.68,-0.303764,-0.381972,-1.0248700000000002,260.9,7.8,52.1701,4.427219999999999,6.9,1.12922,305.842,4.61709,155.91,-26.2183,181.185,0.8533360000000001,0.261889,240.46400000000003,3.98498,3.59784,19.2948989868164,21.9994239807129,35.0,22.0,-899534.0,3353.33,pp-riro,4,0,-1,-1
1570533524.1,2019-10-08,13:18:44.100,14.0,10.0,20.090000152587898,-13.3,16.2,15.2,-28.6,-27.1,152.3,-16.9643,15.175,13.6891,9.70014,11.2339,8.90137,-34.3844,-24.2443,164.644,-0.148872,-0.470006,-0.987711,260.9,7.8,52.1701,4.427219999999999,6.9,1.12756,307.91700000000003,4.61706,156.66899999999998,-26.5983,180.485,0.848878,0.2634829999999999,240.473,3.92809,3.5551,21.4033889770508,21.9994239807129,35.0,22.0,-899381.0,2984.16,pp-riro,4,0,-1,-1
1570533524.2,2019-10-08,13:18:44.200,14.0,10.0,20.1299991607666,-11.6,17.3,16.2,-26.3,-31.1,146.0,-13.1884,18.295,16.9763,17.2114,9.8287,9.68157,-31.4565,-35.3557,152.279,-0.439192,-0.110197,-1.35076,260.9,7.8,52.1701,4.427219999999999,6.9,1.13919,310.636,4.617030000000001,158.276,-28.1183,179.085,0.8392860000000001,0.271161,240.651,3.80428,3.4654800000000003,23.5118789672852,21.9994239807129,35.0,22.0,-899171.0,2030.46,pp-riro,4,0,-1,-1
1570533524.3,2019-10-08,13:18:44.300,14.0,11.0,20.2099990844727,-9.4,18.3,17.2,-23.0,-34.6,138.8,-13.1884,18.295,16.9763,17.2114,9.8287,9.68157,-31.4565,-35.3557,152.279,-0.439192,-0.110197,-1.35076,260.9,7.8,52.1701,4.427219999999999,6.9,1.14307,316.743,4.61701,159.94,-29.2582,177.484,0.8291540000000001,0.276301,240.703,3.6788,3.36554,25.6169586181641,21.9994239807129,35.0,22.0,-898838.0,3507.15,pp-riro,4,0,-1,-1
1570533524.4,2019-10-08,13:18:44.400,14.0,11.0,20.2999992370605,-6.8,19.1,18.0,-19.0,-38.0,130.3,-9.85556,20.098,18.6537,6.90258,7.99418,7.337789999999999,-26.8404,-42.4417,141.11700000000002,-0.319256,-0.32578,-1.29869,260.9,7.8,52.1701,4.427219999999999,6.9,1.15859,328.277,4.61698,161.81,-30.0182,175.884,0.8186180000000001,0.278828,240.871,3.5439199999999995,3.26,27.7186431884766,21.9994239807129,35.0,22.0,-898652.0,1384.4,pp-riro,4,0,-1,-1
1570533524.5,2019-10-08,13:18:44.500,14.0,11.0,20.340000152587898,-4.1,19.7,18.7,-13.4,-40.6,120.5,-8.384260000000001,20.6496,19.1902,33.8766,13.214,14.76,-25.158,-44.5346,137.334,-0.259878,-0.239371,-1.17698,260.9,7.8,52.1701,4.427219999999999,6.8,1.1874,340.733,4.61695,163.65,-30.3981,174.18400000000003,0.808103,0.279084,240.926,3.40406,3.15737,29.7794494628906,21.9994239807129,35.0,22.0,-898421.0,2676.51,pp-riro,4,0,-1,-1
1570533524.6,2019-10-08,13:18:44.600,14.0,11.0,20.3799991607666,-1.3,20.1,19.0,-6.0,-42.7,109.1,-3.96908,21.9794,20.4408,21.5248,1.89406,7.16184,-16.0526,-50.1073,120.877,-0.559763,0.0174055999999999,-1.62708,260.9,7.8,52.1701,4.427219999999999,6.8,1.19959,351.254,4.61692,165.577,-30.7781,172.584,0.797628,0.27924,241.14,3.25135,3.05497,31.5200500488281,21.9994239807129,23.0,22.0,-898110.0,3199.51,pp-riro,4,0,-1,-1
1570533524.7,2019-10-08,13:18:44.700,14.0,10.0,20.4699993133545,1.8,19.8,19.0,2.0,-43.7,96.5,1.2583799999999998,22.2602,20.8554,34.04,-3.66002,7.88585,-2.4166,-53.9985,99.6387,-0.355611,0.151828,-1.50211,260.9,7.8,52.1701,4.427219999999999,6.8,1.22341,361.697,4.61689,167.622,-30.778,170.78400000000002,0.786454,0.277075,241.271,3.09233,2.94594,32.9149322509766,21.9994239807129,23.0,22.0,-897893.0,2184.28,pp-ro,1,1,-1,-1
1570533524.8,2019-10-08,13:18:44.800,14.0,10.0,20.5100002288818,4.8,19.1,18.3,9.7,-43.5,84.1,1.2583799999999998,22.2602,20.8554,34.04,-3.66002,7.88585,-2.4166,-53.9985,99.6387,-0.355611,0.151828,-1.50211,260.9,7.8,52.1701,4.427219999999999,6.8,1.22674,354.021,4.61686,169.491,-30.3979,169.18400000000003,0.776578,0.272972,241.401,2.93943,2.83568,33.941925048828104,21.9994239807129,23.0,22.0,-897441.0,5322.26,pp-ro,1,1,-1,-1
1570533524.9,2019-10-08,13:18:44.900,14.0,12.0,20.3299999237061,7.6,18.3,17.4,17.8,-41.5,71.6,2.94428,21.8389,20.4986,42.7712,-3.3468,-6.72348,2.85032,-54.8141,92.0919,0.00624962,0.00213568,-1.10752,264.1,7.5,52.1701,4.427219999999999,6.8,1.18795,333.48,4.61684,171.331,-30.0178,167.584,0.766788,0.268982,241.536,2.7781,2.72611,34.6248779296875,21.9994239807129,23.0,22.0,-896847.0,5599.14,pp-ro,1,1,-1,-1
1570533525.0,2019-10-08,13:18:45.000,14.0,13.0,20.2399997711182,10.0,17.5,16.7,24.5,-38.2,60.3,6.47445,21.2396,19.6216,33.2859,-5.03176,-11.4684,13.358,-53.6679,76.4283,-0.311641,-0.111524,-1.7275900000000002,264.1,7.5,52.1701,4.427219999999999,6.8,1.15249,323.996,4.61683,173.171,-29.2577,165.984,0.7571829999999999,0.262927,241.65,2.62063,2.6316900000000003,34.951873779296896,21.9994239807129,23.0,22.0,-896223.0,2707.28,pp-ro,1,1,-1,-1
1570533525.1,2019-10-08,13:18:45.100,14.0,15.0,19.979999542236303,12.3,16.5,15.6,30.4,-34.1,49.8,10.8779,19.9808,18.1896,22.7719,-4.92097,-14.4384,26.6548,-49.0965,55.0536,-0.8301430000000001,0.134517,-1.59005,264.1,7.5,52.1701,4.427219999999999,6.8,1.16025,328.50300000000004,4.61683,174.865,-28.4976,164.384,0.747975,0.257105,241.686,2.46093,2.53159,34.955291748046896,21.9994239807129,23.0,22.0,-896110.0,2153.51,pp-ro,1,1,-1,-1
1570533525.2,2019-10-08,13:18:45.200,14.0,14.0,19.979999542236303,14.6,15.3,14.7,34.8,-29.4,40.4,10.8779,19.9808,18.1896,22.7719,-4.92097,-14.4384,26.6548,-49.0965,55.0536,-0.8301430000000001,0.134517,-1.59005,264.1,7.5,52.1701,4.427219999999999,6.8,1.17964,332.135,4.61683,176.47099999999998,-26.9775,162.984,0.7399319999999999,0.247255,241.731,2.30675,2.43374,34.5601654052734,21.9994239807129,22.1136302947998,22.0,-895660.0,4153.21,pp-ro,1,1,-1,-1
1570533525.3,2019-10-08,13:18:45.300,14.0,15.0,19.9300003051758,16.2,14.0,13.1,38.9,-24.9,31.4,10.8779,19.9808,18.1896,22.7719,-4.92097,-14.4384,26.6548,-49.0965,55.0536,-0.8301430000000001,0.134517,-1.59005,264.1,7.5,52.1701,4.427219999999999,6.8,1.16967,326.337,4.61683,178.048,-25.4574,161.584,0.731925,0.237577,241.782,2.15637,2.34087,33.797149658203104,21.9994239807129,20.5068492889404,22.0,-895443.0,4091.68,pp-ro,1,1,-1,-1
1570533525.4,2019-10-08,13:18:45.400,14.0,12.0,19.840000152587898,17.2,12.7,11.3,41.1,-20.1,24.8,16.389,17.4363,15.8684,31.6148,-21.6179,-12.9586,37.2903,-39.2004,33.0141,0.265872,0.0339366,-1.20515,264.1,7.5,52.1701,4.427219999999999,6.8,1.13975,309.847,4.61683,179.421,-23.9374,160.484,0.7253609999999999,0.228192,241.909,2.02803,2.25571,33.2810974121094,21.9994239807129,19.0080547332764,22.0,-894816.0,4276.26,pp-ro,1,1,-1,-1
1570533525.5,2019-10-08,13:18:45.500,14.0,12.0,19.7099990844727,18.2,11.3,9.9,43.2,-15.1,18.8,19.5662,14.2113,11.8991,19.1784,-18.4976,-13.6853,42.4811,-27.7998,17.3305,0.0725092,0.0983518999999999,-1.36141,264.1,7.5,52.1701,4.427219999999999,6.6,1.13088,303.642,4.61683,180.706,-22.0373,159.484,0.719435,0.216915,242.024,1.90355,2.17397,31.5966949462891,21.9994239807129,17.5512790679932,22.0,-894636.0,3568.68,pp-ro,1,1,-1,-1
1570533525.6,2019-10-08,13:18:45.600,14.0,12.0,19.659999847412102,18.6,10.0,8.1,44.5,-10.3,13.3,20.0384,13.3132,10.9889,18.7277,-18.0888,-20.247,43.2108,-24.91,14.1449,-0.0546927,-0.0066577,-1.17087,264.1,7.5,52.1701,4.427219999999999,6.6,1.10706,288.438,4.61682,181.904,-20.5172,158.584,0.713886,0.207882,242.195,1.78465,2.09231,30.3193359375,21.9994239807129,16.0998020172119,22.0,-894236.0,4214.73,pp-ro,1,1,-1,-1
1570533525.7,2019-10-08,13:18:45.700,14.0,12.0,19.659999847412102,19.0,8.8,6.5,45.4,-5.5,8.5,20.9073,10.9413,8.01153,2.76838,-16.8368,-21.9123,44.0857,-16.1385,6.648289999999999,0.14165,0.190876,-0.863093,264.1,7.5,52.1701,4.427219999999999,6.6,1.08489,277.754,4.61682,182.984,-18.6171,157.884,0.709348,0.196959,242.399,1.67418,2.01342,27.7952880859375,21.9994239807129,14.662560462951696,22.0,-893837.0,3845.56,pp-ro,1,1,-1,-1
1570533525.8,2019-10-08,13:18:45.800,14.0,13.0,19.5699996948242,19.2,7.6,4.9,46.3,-1.1,4.3,20.9073,10.9413,8.01153,2.76838,-16.8368,-21.9123,44.0857,-16.1385,6.648289999999999,0.14165,0.190876,-0.863093,264.1,7.5,52.1701,4.427219999999999,6.6,1.07547,280.582,4.61682,183.889,-16.717,157.384,0.705854,0.186227,242.62,1.57528,1.93323,25.693603515625,21.9994239807129,13.1646022796631,22.0,-893584.0,1907.4,pp-ro,1,1,-1,-1
1570533525.9,2019-10-08,13:18:45.900,14.0,11.0,19.520000457763697,19.6,6.6,3.5,47.1,3.4,0.4,20.862,10.1858,7.055060000000001,2.51507,-10.3738,-17.1766,44.3263,-13.5551,4.19691,-0.127124,0.0432991,-0.953526,267.2,6.9,52.1701,4.427219999999999,6.6,1.10207,293.092,4.61682,184.766,-14.8169,156.884,0.702388,0.175592,242.838,1.47832,1.85722,23.060546875,21.9994239807129,11.7563858032227,22.0,-893461.0,1415.17,pp-ro,1,1,-1,-1
1570533526.0,2019-10-08,13:18:46.000,14.0,14.0,19.4300003051758,19.9,5.4,2.3,47.2,7.0,-3.0,20.862,10.1858,7.055060000000001,2.51507,-10.3738,-17.1766,44.3263,-13.5551,4.19691,-0.127124,0.0432991,-0.953526,267.2,6.9,52.1701,4.427219999999999,6.6,1.1297700000000002,312.007,4.61684,185.525,-12.5368,156.584,0.6998800000000001,0.1630319999999999,243.095,1.40031,1.78344,20.9486465454102,21.9994239807129,10.353889465332,22.0,-893160.0,1784.34,pp-ro,1,1,-1,-1
1570533526.1,2019-10-08,13:18:46.100,14.0,14.0,19.25,19.8,4.5,1.0,48.0,10.1,-6.3,21.4389,7.45263,3.58345,8.34282,-15.1812,-18.7659,44.7011,-2.8184,-4.08721,0.0543831,0.19973,-1.05139,267.2,6.9,52.1701,4.427219999999999,6.6,1.14363,317.136,4.61687,186.138,-10.6368,156.284,0.6976289999999999,0.152619,243.28,1.3288799999999998,1.71593,18.8435668945312,21.9994239807129,9.07751941680908,22.0,-893082.0,1445.93,pp-ro,1,1,-1,-1
1570533526.2,2019-10-08,13:18:46.200,14.0,13.0,19.0699996948242,19.9,3.4,0.0,48.4,12.8,-9.1,21.5211,5.5365400000000005,1.3119,3.76406,-13.4259,-16.3388,44.9982,3.5749800000000005,-9.16103,0.518302,0.184156,-0.636103,267.2,6.9,52.1701,4.427219999999999,6.6,1.15526,322.313,4.61689,186.664,-8.7367,156.084,0.695874,0.142284,243.478,1.26854,1.64953,16.731666564941403,21.9994239807129,7.80706357955933,22.0,-892635.0,3660.97,pp-ro,1,1,-1,-1
1570533526.3,2019-10-08,13:18:46.300,14.0,11.0,19.020000457763697,20.0,2.6,-0.8,49.1,14.7,-12.0,21.3539,4.3749400000000005,0.1213,5.25612,-11.4627,-16.5983,44.9597,7.36441,-12.2339,0.0145616,0.113842,-0.7068989999999999,267.2,6.9,52.1701,4.427219999999999,6.6,1.15526,323.41,4.61691,187.131,-6.836639999999999,155.88299999999998,0.694224,0.132008,243.648,1.21774,1.59969,15.6757202148438,21.9994239807129,6.868456363677981,22.0,-892488.0,2768.8,pp-ro,1,1,-1,-1
1570533526.4,2019-10-08,13:18:46.400,14.0,12.0,19.1100006103516,20.0,2.0,-1.7,49.8,16.9,-14.7,21.1737,2.9332,-1.46672,-6.606089999999999,-7.654039999999999,-11.0031,45.7857,12.1802,-15.5546,0.14558,0.216995,-0.5921569999999999,267.2,6.9,52.1701,4.427219999999999,6.6,1.16801,327.03,4.61693,187.452,-4.55657,155.88299999999998,0.6935640000000001,0.119771,243.842,1.16674,1.55385,13.5757446289062,21.9994239807129,5.966881275176999,22.0,-892204.0,3445.62,pp-ro,1,1,-1,-1
1570533526.5,2019-10-08,13:18:46.500,14.0,11.0,19.25,20.0,1.0,-2.4,50.3,18.9,-17.2,21.1737,2.9332,-1.46672,-6.606089999999999,-7.654039999999999,-11.0031,45.7857,12.1802,-15.5546,0.14558,0.216995,-0.5921569999999999,267.2,6.9,52.1701,4.427219999999999,6.4,1.16967,336.216,4.61696,187.74400000000003,-2.65651,155.88299999999998,0.692894,0.109593,244.038,1.11948,1.50152,11.6188354492188,21.9994239807129,4.94249582290649,22.0,-891887.0,2799.57,pp-ro,1,1,-1,-1
1570533526.6,2019-10-08,13:18:46.600,14.0,11.0,19.25,19.7,0.0,-3.0,50.4,19.9,-19.8,21.168000000000003,2.52264,-1.99521,-0.113448,-17.5678,-16.0314,45.881,13.6771,-16.7968,0.1489359999999999,0.275796,-0.526184,267.2,6.9,52.1701,4.427219999999999,6.4,1.20513,350.316,4.61698,187.861,-0.376454,155.983,0.692952,0.0974256999999999,244.178,1.0852700000000002,1.4529,9.43540954589844,21.9994239807129,3.95978689193726,22.0,-891728.0,1384.4,pp-ro,1,1,-1,-1
1570533526.7,2019-10-08,13:18:46.700,14.0,11.0,19.2900009155273,19.7,-0.6,-3.8,51.1,21.3,-21.7,21.168000000000003,2.52264,-1.99521,-0.113448,-17.5678,-16.0314,45.881,13.6771,-16.7968,0.1489359999999999,0.275796,-0.526184,267.2,6.9,52.1701,4.427219999999999,6.4,1.21455,355.465,4.617,187.89,1.1435799999999998,156.183,0.693497,0.0893125,244.33,1.05137,1.40835,7.85829925537109,21.9994239807129,3.0385978221893297,22.0,-891332.0,4183.97,pp-ro,1,1,-1,-1
1570533526.8,2019-10-08,13:18:46.800,14.0,12.0,19.479999542236303,19.7,-1.4,-4.4,51.2,21.9,-23.9,20.8568,0.610345,-3.40486,-2.43589,-9.51037,-10.9667,46.734,18.6221,-21.6074,0.1053559999999999,-0.120335,-0.639054,267.2,6.9,52.1701,4.427219999999999,6.4,1.22064,361.677,4.61702,187.861,3.42364,156.483,0.694445,0.0771536999999999,244.521,1.02673,1.3684,6.379974365234379,21.9994239807129,2.18916749954224,22.0,-891010.0,2984.16,pp-ro,1,1,-1,-1
1570533526.9,2019-10-08,13:18:46.900,14.0,11.0,19.75,19.5,-2.1,-4.9,51.2,22.5,-25.5,20.5433,-0.695816,-4.601459999999999,-12.6445,-9.13619,-7.48603,47.4391,21.2954,-23.9861,0.301102,-0.0487524,-0.258309,258.3,6.4,52.1701,4.427219999999999,6.4,1.26275,391.463,4.61705,187.74400000000003,5.70369,156.783,0.6955479999999999,0.0649814,244.666,1.00894,1.3336,4.95954895019531,21.9994239807129,1.43587231636047,22.0,-890652.0,1692.05,pp-ro,1,1,-1,-1
1570533527.0,2019-10-08,13:18:47.000,14.0,11.0,20.1000003814697,19.3,-2.8,-5.1,51.2,23.2,-26.8,20.3991,-1.84111,-5.40272,0.402495,-5.58366,-11.2229,47.432,22.7134,-26.8246,0.0919594,0.0505694999999999,-0.160108,258.3,6.4,52.1701,4.427219999999999,6.4,1.2888,398.516,4.617030000000001,187.539,7.22372,157.183,0.6972,0.0568514,244.806,0.990738,1.30741,3.69241333007812,21.9994239807129,0.82519656419754,22.0,-890568.0,1599.75,pp-ro,1,1,-1,-1
1570533527.1,2019-10-08,13:18:47.100,14.0,11.0,20.3999996185303,19.3,-3.1,-5.3,50.8,23.5,-27.7,20.2853,-2.22855,-5.598319999999999,-1.4528,-7.504189999999999,0.222046,47.5946,23.4307,-27.3408,0.268031,0.187321,-0.092636,258.3,6.4,52.1701,4.427219999999999,6.4,1.28603,394.245,4.61701,187.277,9.50377,157.683,0.699187,0.0446661,245.004,0.984713,1.29882,2.32989501953125,21.9994239807129,0.54714435338974,22.0,-889776.0,5629.9,pp-ro,1,1,-1,-1
1570533527.2,2019-10-08,13:18:47.200,14.0,11.0,20.7399997711182,19.0,-3.8,-5.7,50.7,23.6,-29.2,19.974,-3.4374,-5.99787,-6.01668,-1.78042,-3.72596,46.927,24.5247,-30.1893,0.05207,-0.0447496,-0.0457031,258.3,6.4,52.1701,4.427219999999999,6.4,1.27716,388.92800000000005,4.616969999999999,186.926,11.4038,158.083,0.7010770000000001,0.0344583,245.075,0.972877,1.2652,1.423828125,21.9994239807129,-0.228604897856712,22.0,-889484.0,5383.79,pp-ro,1,1,-1,-1
1570533527.3,2019-10-08,13:18:47.300,14.0,11.0,21.0400009155273,18.8,-3.9,-5.8,50.5,23.2,-30.2,19.8937,-3.65014,-6.099080000000001,-6.04446,-3.72124,1.48665,46.8545,24.5013,-30.5366,0.166176,-0.130402,-0.198964,258.3,6.4,52.1701,4.427219999999999,6.4,1.26663,380.924,4.616969999999999,186.575,13.3038,158.483,0.702914,0.024224,245.162,0.972804,1.26176,0.6795501708984379,21.9994239807129,-0.40001317858696,22.0,-888911.0,5537.61,pp-ro,1,1,-1,-1
1570533527.4,2019-10-08,13:18:47.400,14.0,10.0,21.3299999237061,18.9,-4.1,-5.7,50.5,23.9,-30.4,19.8937,-3.65014,-6.099080000000001,-6.04446,-3.72124,1.48665,46.8545,24.5013,-30.5366,0.166176,-0.130402,-0.198964,258.3,6.4,52.1701,4.427219999999999,6.4,1.2533299999999998,377.936,4.61695,186.166,15.2039,158.983,0.705162,0.0139412,245.285,0.96887,1.26786,0.327003479003906,21.9994239807129,-0.4079073071479799,22.0,-888307.0,3291.8,pp-ro,1,1,-1,-1
1570533527.5,2019-10-08,13:18:47.500,14.0,10.0,21.4899997711182,18.9,-4.3,-5.6,50.4,23.9,-31.0,19.8477,-4.23378,-5.910419999999999,-2.55625,-3.11498,-0.751379,46.6938,25.1799,-31.6769,0.213916,0.0896061,0.0840332,258.3,6.4,52.1701,4.427219999999999,6.3,1.25888,378.121,4.61693,185.728,17.4839,159.483,0.707339,0.00158712,245.429,0.970066,1.27355,-0.1757965087890619,21.9994239807129,-0.4221993088722229,22.0,-888098.0,3968.62,pp-ro,1,1,-1,-1
1570533527.6,2019-10-08,13:18:47.600,14.0,10.0,21.6200008392334,18.9,-4.3,-5.5,50.3,23.8,-31.6,19.9054,-4.40987,-5.76806,-1.71379,-6.84398,4.42994,46.6835,25.3026,-31.9387,0.0761052,-0.111493,-0.00861657,258.3,6.4,52.1701,4.427219999999999,6.3,1.25001,378.206,4.61691,185.29,19.0039,159.88299999999998,0.709338,-0.00673863,245.472,0.969781,1.28261,-0.3857345581054689,21.9994239807129,-0.363959789276123,22.0,-887647.0,4245.5,pp-ro,1,1,-1,-1
1570533527.7,2019-10-08,13:18:47.700,14.0,10.0,21.6599998474121,18.9,-4.4,-5.5,50.5,23.7,-31.9,19.9158,-4.57036,-5.625769999999999,-0.431596,2.25771,2.49198,46.738,25.1734,-32.4264,0.2577,-0.0859239,0.0554929999999999,258.3,6.4,52.1701,4.427219999999999,6.3,1.26109,380.941,4.6169,184.794,20.904,160.083,0.710726,-0.0171637,245.382,0.974407,1.28638,-0.3618392944335939,21.9994239807129,-0.373077392578125,22.0,-887291.0,3999.38,pp-ro,1,1,-1,-1
1570533527.8,2019-10-08,13:18:47.800,14.0,10.0,21.7000007629395,19.0,-4.7,-5.4,50.9,23.7,-32.0,19.9511,-4.7405800000000005,-5.46689,3.66878,0.346432,0.39182,46.8973,25.0691,-32.8029,0.0624853,-0.0194634999999999,0.0252875,258.3,6.4,52.1701,4.427219999999999,6.3,1.26165,385.369,4.61687,184.531,22.044,160.583,0.712613,-0.0233905999999999,245.61,0.977364,1.2870700000000002,-0.348182678222656,21.9994239807129,-0.482332170009613,22.0,-886878.0,3691.74,pp-ro,1,1,-1,-1
1570533527.9,2019-10-08,13:18:47.900,14.0,11.0,21.780000686645497,19.0,-4.9,-5.3,51.0,23.2,-32.5,19.9511,-4.7405800000000005,-5.46689,3.66878,0.346432,0.39182,46.8973,25.0691,-32.8029,0.0624853,-0.0194634999999999,0.0252875,261.8,7.1,52.1701,4.427219999999999,6.3,1.27439,387.899,4.61685,184.005,23.944000000000003,160.983,0.714607,-0.0338746999999999,245.656,0.984475,1.29169,-0.3840255737304689,21.9994239807129,-0.5215660929679871,22.0,-886497.0,3814.8,pp-ro,1,1,-1,-1
1570533528.0,2019-10-08,13:18:48.000,14.0,10.0,21.8199996948242,19.0,-5.0,-4.9,51.4,23.0,-33.0,20.0666,-5.22104,-5.084230000000001,2.4436,0.754901,-0.8649620000000001,47.0676,24.1275,-33.7247,-0.0172307,-0.13149,0.0432308,261.8,7.1,52.1701,4.427219999999999,6.3,1.26663,385.593,4.61687,183.216,26.604,161.583,0.717568,-0.0486794,245.734,0.990854,1.31286,-0.433517456054688,21.9994239807129,-0.302146583795547,22.0,-885798.0,4183.97,pp-ro,1,1,-1,-1
1570533528.1,2019-10-08,13:18:48.100,14.0,10.0,21.899999618530305,19.0,-5.0,-4.8,51.6,22.9,-33.1,20.0666,-5.22104,-5.084230000000001,2.4436,0.754901,-0.8649620000000001,47.0676,24.1275,-33.7247,-0.0172307,-0.13149,0.0432308,261.8,7.1,52.1701,4.427219999999999,6.3,1.27051,384.328,4.61689,182.953,27.7441,161.783,0.718429,-0.0549889999999999,245.796,0.995084,1.32059,-0.494964599609375,21.9994239807129,-0.207518592476845,22.0,-885579.0,4276.26,pp-ro,1,1,-1,-1
1570533528.2,2019-10-08,13:18:48.200,14.0,10.0,21.8700008392334,18.9,-5.1,-4.5,51.5,22.1,-33.8,19.9762,-5.33563,-4.621569999999999,-0.729561,-2.59527,1.22075,47.2789,23.1547,-34.5308,0.146572,-0.269092,0.044555,261.8,7.1,52.1701,4.427219999999999,6.3,1.26054,383.501,4.6169,182.398,29.6441,162.183,0.720332,-0.065621,245.86900000000003,1.00352,1.33384,-0.4045028686523439,21.9994239807129,-0.080854259431362,22.0,-885062.0,5137.67,pp-ro,1,1,-1,-1
1570533528.3,2019-10-08,13:18:48.300,14.0,10.0,21.8700008392334,18.9,-5.0,-4.2,51.2,21.6,-34.2,19.9762,-5.33563,-4.621569999999999,-0.729561,-2.59527,1.22075,47.2789,23.1547,-34.5308,0.146572,-0.269092,0.044555,261.8,7.1,52.1701,4.427219999999999,6.3,1.26774,386.301,4.61692,181.873,31.5441,162.483,0.721795,-0.0762549,245.914,1.0119,1.35479,-0.138252258300781,21.9994239807129,0.230405509471893,22.0,-884715.0,3168.74,pp-ro,1,1,-1,-1
1570533528.4,2019-10-08,13:18:48.400,14.0,11.0,21.7900009155273,18.7,-5.0,-3.9,51.5,21.1,-34.1,20.0237,-5.474880000000001,-4.1092900000000006,-2.30194,-0.359909,3.78405,47.2445,21.154,-36.146,0.121206,-0.294621,0.0987418,261.8,7.1,52.1701,4.427219999999999,6.3,1.26054,380.823,4.6169400000000005,181.318,33.4442,162.88299999999998,0.723584,-0.0869398,246.019,1.02625,1.36976,0.005111694335938,21.9994239807129,0.39145490527153,22.0,-883989.0,5014.61,pp-ro,1,1,-1,-1
1570533528.5,2019-10-08,13:18:48.500,14.0,11.0,21.7099990844727,18.5,-4.8,-3.5,51.1,20.2,-34.8,19.6642,-5.29237,-3.23029,-5.04862,-7.020589999999999,8.08991,48.1624,18.879,-36.7863,-0.0466954,0.047721,0.167051,261.8,7.1,52.1701,4.427219999999999,6.1,1.2561,375.662,4.61695,180.792,35.3442,163.183,0.724934,-0.0976171,246.097,1.03593,1.39494,0.1072998046875,21.9994239807129,0.7897668480873109,22.0,-883516.0,4860.79,pp-ro,1,1,-1,-1
1570533528.6,2019-10-08,13:18:48.600,14.0,11.0,21.5400009155273,18.4,-4.9,-3.3,50.7,19.3,-35.3,19.523,-5.2976,-3.11974,-0.380588,2.13381,-3.97954,48.1481,18.2587,-37.0651,-0.120179,-0.395974,0.00986612,261.8,7.1,52.1701,4.427219999999999,6.1,1.25001,377.162,4.61696,180.237,37.2442,163.483,0.7263029999999999,-0.108344,246.169,1.0480200000000002,1.405,0.398536682128906,21.9994239807129,0.8811045289039608,22.0,-883247.0,5260.73,pp-ro,1,1,-1,-1
1570533528.7,2019-10-08,13:18:48.700,14.0,11.0,21.340000152587898,18.1,-4.9,-2.9,50.4,18.7,-35.3,19.523,-5.2976,-3.11974,-0.380588,2.13381,-3.97954,48.1481,18.2587,-37.0651,-0.120179,-0.395974,0.00986612,261.8,7.1,52.1701,4.427219999999999,6.1,1.2594299999999998,385.348,4.617,179.74,39.1442,163.683,0.727156,-0.119023,246.234,1.06252,1.42297,0.7681198120117191,21.9994239807129,1.17613351345062,22.0,-882936.0,2430.39,pp-ro,1,1,-1,-1
1570533528.8,2019-10-08,13:18:48.800,14.0,12.0,21.090000152587898,17.8,-4.8,-2.7,51.1,18.6,-34.4,19.523,-5.2976,-3.11974,-0.380588,2.13381,-3.97954,48.1481,18.2587,-37.0651,-0.120179,-0.395974,0.00986612,261.8,7.1,52.1701,4.427219999999999,6.1,1.27605,380.69,4.617,179.21400000000003,40.6643,163.983,0.728561,-0.127746,246.296,1.08038,1.43544,1.01336669921875,21.9994239807129,1.3035777807235702,22.0,-882545.0,5168.43,pp-ro,1,1,-1,-1
1570533528.9,2019-10-08,13:18:48.900,14.0,13.0,20.8799991607666,17.8,-5.0,-2.5,51.1,18.2,-34.5,19.0159,-5.390630000000001,-2.2928,-0.8409139999999999,-1.55419,2.80795,48.7979,17.6097,-36.6994,0.061685,-0.0148471,0.0210696,266.2,6.3,52.1701,4.427219999999999,6.1,1.20513,345.344,4.61702,178.65900000000002,42.5643,164.183,0.729464,-0.138504,246.347,1.09136,1.44395,1.24159240722656,21.9994239807129,1.4020283222198502,22.0,-881536.0,5937.55,pp-ro,1,1,-1,-1
1570533529.0,2019-10-08,13:18:49.000,14.0,13.0,20.6299991607666,17.7,-5.0,-2.4,51.0,17.5,-35.3,19.1085,-5.43319,-2.21756,1.5019999999999998,0.742206,2.16746,48.8244,16.9096,-37.484,-0.139643,-0.224582,-0.00942994,266.2,6.3,52.1701,4.427219999999999,6.1,1.18851,345.60400000000004,4.61712,178.134,44.4643,164.38299999999998,0.730233,-0.149292,246.436,1.09762,1.45359,1.28927612304688,21.9994239807129,1.53755962848663,22.0,-881128.0,3168.74,pp-ro,1,1,-1,-1
1570533529.1,2019-10-08,13:18:49.100,14.0,12.0,20.3700008392334,17.5,-5.0,-2.1,50.4,17.4,-36.0,18.806,-5.5347800000000005,-2.0237700000000003,2.95772,4.11102,2.46929,48.7159,16.3072,-38.149,-0.0462973,-0.332034,-0.225356,266.2,6.3,52.1701,4.427219999999999,6.1,1.19793,349.798,4.61721,177.637,46.3644,164.583,0.7308680000000001,-0.1600869999999999,246.561,1.09776,1.46986,1.51068878173828,21.9994239807129,1.82187938690186,22.0,-880991.0,2430.39,pp-ro,1,1,-1,-1
1570533529.2,2019-10-08,13:18:49.200,14.0,13.0,20.2000007629395,17.2,-4.9,-2.0,50.3,17.0,-36.5,18.806,-5.5347800000000005,-2.0237700000000003,2.95772,4.11102,2.46929,48.7159,16.3072,-38.149,-0.0462973,-0.332034,-0.225356,266.2,6.3,52.1701,4.427219999999999,6.1,1.21233,347.552,4.61731,177.082,47.8844,164.683,0.7315649999999999,-0.168966,246.519,1.1026200000000002,1.47885,1.54645538330078,21.9994239807129,1.94974780082703,22.0,-880684.0,3753.27,pp-ro,1,1,-1,-1
1570533529.3,2019-10-08,13:18:49.300,14.0,13.0,19.979999542236303,17.2,-5.0,-1.9,50.5,17.0,-37.2,18.806,-5.5347800000000005,-2.0237700000000003,2.95772,4.11102,2.46929,48.7159,16.3072,-38.149,-0.0462973,-0.332034,-0.225356,266.2,6.3,52.1701,4.427219999999999,6.1,1.18684,338.939,4.61741,176.55599999999998,49.7844,164.88299999999998,0.732171,-0.179812,246.652,1.1015700000000002,1.48671,1.58221435546875,21.9994239807129,2.0742654800415,22.0,-880135.0,5722.19,pp-ro,1,1,-1,-1
1570533529.4,2019-10-08,13:18:49.400,14.0,13.0,19.8899993896484,16.7,-5.2,-1.7,49.8,16.8,-37.8,18.2635,-5.52432,-1.73787,-1.76184,-1.80667,1.67375,47.9775,15.8302,-39.5741,-0.1360849999999999,-0.0902873,0.169919,266.2,6.3,52.1701,4.427219999999999,6.1,1.20014,341.29400000000004,4.61751,176.00099999999998,51.3044,165.083,0.7330840000000001,-0.188716,246.7,1.10279,1.48656,1.85472106933594,21.9994239807129,-35.0,22.0,-879766.0,2091.99,pp-ro,1,1,-1,-1
1570533529.5,2019-10-08,13:18:49.500,14.0,13.0,19.7999992370605,16.3,-5.1,-1.6,49.1,16.2,-38.8,18.2635,-5.52432,-1.73787,-1.76184,-1.80667,1.67375,47.9775,15.8302,-39.5741,-0.1360849999999999,-0.0902873,0.169919,266.2,6.3,52.1701,4.427230000000001,5.9,1.19349,333.451,4.61761,175.446,53.2045,165.283,0.733661,-0.199606,246.841,1.10539,1.49547,2.09316253662109,21.9994239807129,-35.0,22.0,-879486.0,5260.73,pp-ro,1,1,-1,-1
1570533529.6,2019-10-08,13:18:49.600,14.0,13.0,19.6299991607666,15.9,-5.0,-1.6,49.0,15.9,-39.1,17.3703,-5.71488,-1.48064,-6.67334,1.08064,3.053,47.6175,15.0416,-41.2044,0.1610059999999999,-0.214021,-0.147891,266.2,6.3,52.1701,4.427230000000001,5.9,1.14806,317.082,4.6177,174.921,54.3445,165.483,0.734718,-0.206494,246.851,1.11003,1.49739,1.9228439331054696,21.9994239807129,-35.0,22.0,-878947.0,4953.08,pp-ro,1,1,-1,-1
1570533529.7,2019-10-08,13:18:49.700,14.0,13.0,19.4899997711182,15.9,-5.1,-1.4,48.9,16.3,-39.5,17.3703,-5.71488,-1.48064,-6.67334,1.08064,3.053,47.6175,15.0416,-41.2044,0.1610059999999999,-0.214021,-0.147891,266.2,6.3,52.1701,4.427230000000001,5.9,1.14252,309.506,4.6178,174.395,55.8645,165.683,0.7354390000000001,-0.2153699999999999,246.952,1.10639,1.50845,1.37273406982422,21.9994239807129,-35.0,22.0,-878617.0,3445.62,pp-ro,1,1,-1,-1
1570533529.8,2019-10-08,13:18:49.800,14.0,13.0,19.3600006103516,15.7,-5.2,-1.3,48.7,15.9,-40.0,17.1093,-5.484,-1.5774,-1.94602,-3.42125,-3.3644800000000004,47.3537,15.5181,-41.6056,-0.0886353999999999,0.0263050999999999,-0.278624,266.2,6.3,52.1701,4.427230000000001,5.9,1.11426,296.568,4.6179,173.84,57.7645,165.88299999999998,0.735871,-0.2262699999999999,247.132,1.11265,1.51325,0.459846496582031,21.9994239807129,-35.0,22.0,-878056.0,2984.16,pp-ro,1,1,-1,-1
1570533529.9,2019-10-08,13:18:49.900,14.0,13.0,19.270000457763697,15.7,-5.0,-1.3,48.4,15.7,-40.6,17.1093,-5.484,-1.5774,-1.94602,-3.42125,-3.3644800000000004,47.3537,15.5181,-41.6056,-0.0886353999999999,0.0263050999999999,-0.278624,271.3,6.5,52.1701,4.427230000000001,5.9,1.11315,293.54400000000004,4.618,173.285,59.2845,166.083,0.73658,-0.2352,247.237,1.11387,1.52669,-0.7987747192382809,21.9994239807129,-35.0,22.0,-877892.0,3230.27,pp-ro,1,1,-1,-1
1570533530.0,2019-10-08,13:18:50.000,14.0,13.0,19.1700000762939,15.7,-5.1,-1.0,48.6,14.7,-41.0,17.1261,-5.56636,-1.52634,-1.8431,2.99899,0.15194,47.3351,15.7048,-41.5891,0.0695159,-0.124492,-0.0814723,271.3,6.5,52.1701,4.427230000000001,5.9,1.1031799999999998,294.521,4.618130000000001,172.759,60.8046,166.283,0.737174,-0.244096,247.372,1.12719,1.5423,-2.43045043945312,21.9994239807129,-35.0,22.0,-877531.0,3445.62,pp-ro,1,1,-1,-1
1570533530.1,2019-10-08,13:18:50.100,14.0,13.0,19.1299991607666,15.8,-4.9,-0.7,49.0,13.5,-41.0,16.7114,-5.2966,-0.605273,-0.934058,3.67511,3.34961,48.3036,15.1983,-41.2076,0.2274699999999999,0.0976199,0.150989,271.3,6.5,52.1701,4.427230000000001,5.9,1.11315,296.89,4.6183,172.204,62.3246,166.38299999999998,0.737505,-0.253169,247.431,1.14795,1.57076,-4.42054748535156,21.9994239807129,-35.0,22.0,-877380.0,1445.93,pp-ro,1,1,-1,-1
1570533530.2,2019-10-08,13:18:50.200,14.0,13.0,18.9899997711182,16.1,-4.6,-0.3,49.7,12.7,-40.8,16.7114,-5.2966,-0.605273,-0.934058,3.67511,3.34961,48.3036,15.1983,-41.2076,0.2274699999999999,0.0976199,0.150989,271.3,6.5,52.1701,4.427230000000001,5.9,1.09597,287.517,4.61839,171.678,64.2246,166.483,0.737362,-0.263913,247.618,1.16773,1.61116,-6.530120849609379,21.9994239807129,-35.0,22.0,-876814.0,3968.62,pp-ro,1,1,-1,-1
1570533530.3,2019-10-08,13:18:50.300,14.0,13.0,18.9400005340576,16.5,-4.4,0.1,50.5,11.5,-39.8,16.7966,-5.1398,-0.335003,2.78764,0.8974340000000001,1.89261,48.415,14.8528,-41.3567,0.0930179999999999,0.00872019,0.0885647,271.3,6.5,52.1701,4.427230000000001,5.9,1.09597,288.914,4.618519999999999,171.21099999999998,65.7447,166.583,0.7373850000000001,-0.272698,247.761,1.20078,1.64657,-8.64140319824219,21.9994239807129,-35.0,22.0,-876621.0,1415.17,pp-ro,1,1,-1,-1
1570533530.4,2019-10-08,13:18:50.400,14.0,13.0,18.8999996185303,16.9,-4.2,0.8,51.7,9.3,-38.6,17.1864,-4.42606,0.801959,6.27697,5.61372,7.85298,50.4388,12.6515,-38.2407,0.214935,0.0613585,0.393248,271.3,6.5,52.1701,4.427230000000001,5.9,1.10595,289.041,4.61864,170.743,67.2647,166.583,0.7370720000000001,-0.281472,247.846,1.2488,1.69352,-10.7595138549805,21.9994239807129,-35.0,22.0,-876512.0,2061.22,pp-ro,1,1,-1,-1
1570533530.5,2019-10-08,13:18:50.500,14.0,12.0,18.9400005340576,17.4,-3.7,1.7,52.8,6.2,-37.6,17.3802,-4.32298,1.23555,8.5596,-0.4268479999999999,8.23746,51.0576,11.6272,-37.3449,0.173946,0.134998,0.531846,271.3,6.5,52.1701,4.427230000000001,5.6,1.09542,287.003,4.61877,170.27599999999998,68.7847,166.483,0.7364229999999999,-0.2902349999999999,247.875,1.30603,1.7587700000000002,-12.8622665405273,21.9994239807129,-35.0,22.0,-876137.0,3722.5,pp-ro,1,1,-1,-1
1570533530.6,2019-10-08,13:18:50.600,14.0,12.0,18.9400005340576,18.0,-3.0,2.7,54.5,3.8,-35.1,17.8812,-3.36838,2.68485,1.33134,10.3737,9.56531,53.2503,8.17445,-33.9824,-0.00924663,0.00500184,0.7368399999999999,271.3,6.5,52.1701,4.427230000000001,5.6,1.09542,286.10900000000004,4.6189,169.896,71.0647,166.283,0.73443,-0.302616,248.123,1.37548,1.83493,-14.9684219360352,21.9994239807129,-35.0,22.0,-875922.0,1815.1,pp-ro,1,1,-1,-1
1570533530.7,2019-10-08,13:18:50.700,14.0,12.0,19.1700000762939,18.5,-2.3,4.1,56.1,0.7,-32.7,18.0845,-2.94603,3.24775,2.31797,5.065930000000001,10.9781,53.9688,6.7801100000000005,-32.8371,0.210205,0.0489803,0.680342,271.3,6.5,52.1701,4.427230000000001,5.6,1.09265,280.872,4.61903,169.575,72.5848,165.983,0.7327319999999999,-0.3110199999999999,248.142,1.44992,1.91904,-17.067756652832,21.9994239807129,-35.0,22.0,-875584.0,3845.56,pp-ro,1,1,-1,-1
1570533530.8,2019-10-08,13:18:50.800,14.0,11.0,19.2199993133545,19.0,-1.3,5.5,57.6,-3.8,-30.8,18.0845,-2.94603,3.24775,2.31797,5.065930000000001,10.9781,53.9688,6.7801100000000005,-32.8371,0.210205,0.0489803,0.680342,271.3,6.5,52.1701,4.427230000000001,5.6,1.07769,281.248,4.61921,169.37099999999998,74.4848,165.483,0.7297020000000001,-0.321025,248.232,1.5381200000000002,2.00946,-19.1807479858398,21.9994239807129,-35.0,22.0,-875299.0,2307.34,pp-ro,1,1,-1,-1
1570533530.9,2019-10-08,13:18:50.900,14.0,11.0,19.3600006103516,19.1,-0.1,7.2,59.2,-9.9,-28.7,18.5585,-1.54074,5.31035,1.83893,11.795,13.6618,56.5076,1.16668,-28.3527,0.331944,0.130924,1.00455,273.4,5.8,52.1701,4.427230000000001,5.6,1.09653,286.246,4.61929,169.22400000000002,76.3848,164.88299999999998,0.726183,-0.330884,248.31,1.65034,2.1142,-21.3073883056641,21.9994239807129,-35.0,22.0,-875126.0,2030.46,pp-ro,1,1,-1,-1
1570533531.0,2019-10-08,13:18:51.000,14.0,11.0,19.3600006103516,19.0,1.2,8.9,60.5,-15.0,-24.9,18.4541,0.277227,7.65,-5.58475,14.6389,11.421,58.9696,-6.59992,-22.5451,0.0405325999999999,0.153622,1.14499,273.4,5.8,52.1701,4.427230000000001,5.6,1.09597,288.119,4.61943,169.22400000000002,78.2849,164.083,0.721663,-0.340261,248.372,1.7684799999999998,2.2187,-23.4272079467773,21.9994239807129,-35.0,22.0,-874824.0,3045.68,pp-ro,1,1,-1,-1
1570533531.1,2019-10-08,13:18:51.100,14.0,12.0,19.5799999237061,18.7,2.7,10.7,62.5,-20.4,-20.7,18.4541,0.277227,7.65,-5.58475,14.6389,11.421,58.9696,-6.59992,-22.5451,0.0405325999999999,0.153622,1.14499,273.4,5.8,52.1701,4.427230000000001,5.6,1.086,273.942,4.61957,169.37,80.1849,163.283,0.716755,-0.349276,248.55,1.89365,2.3294900000000003,-25.5436096191406,21.9994239807129,-35.0,22.0,-874376.0,3845.56,pp-ro,1,1,-1,-1
