time,date,time_of_day,airspeed_temperature,airspeed_angle_of_attack,airspeed_apparent_windspeed,kite_0_vx,kite_0_vy,kite_0_vz,kite_0_roll,kite_0_pitch,kite_0_yaw,kite_1_vx,kite_1_vy,kite_1_vz,kite_1_ax,kite_1_ay,kite_1_az,kite_1_roll,kite_1_pitch,kite_1_yaw,kite_1_roll_rate,kite_1_pitch_rate,kite_1_yaw_rate,ground_upwind_direction,ground_wind_velocity,ground_pos_latitude,ground_pos_longitude,ground_pos_altitude,ground_tether_reelout_speed,ground_tether_force,est_upwind_direction,kite_pos_east,kite_pos_north,kite_height,kite_elevation,kite_azimuth,kite_distance,kite_heading,kite_course,kite_actual_steering,kite_actual_depower,kite_set_steering,kite_set_depower,ground_mech_energy,ground_mech_power,flight_phase,flight_phase_index,phase,pattern,pattern_section
1570541340.3,2019-10-08,15:29:00.300,14.0,9.0,15.7600002288818,9.0,-5.5,0.6,12.2,3.8,-86.4,8.41517,-4.7381,1.07055,10.5567,2.3318,1.61745,13.1375,16.2871,-90.02799999999999,0.1908619999999999,0.103638,0.852173,253.6,7.0,52.17,4.4272,-0.7,-1.88499,132.76,4.22871,77.4585,7.9809,240.741,1.25796,0.381009,253.021,0.170149,1.16017,-32.5465087890625,22.1430931091309,-35.0,22.0,1415700.0,9352.4,pp-riro,4,0,-1,-1
1570541340.4,2019-10-08,15:29:00.400,14.0,9.0,15.5900001525879,10.3,-5.1,0.7,14.4,3.1,-81.5,9.6668,-4.32643,1.30472,12.0305,4.9183,2.82696,15.5631,16.0689,-84.5246,0.157441,0.184273,0.885676,253.6,7.0,52.17,4.4272,-0.7,-1.74868,125.475,4.22871,76.9035,9.12094,240.641,1.25945,0.365627,252.795,0.274479,1.26222,-33.6815185546875,22.0900535583496,-35.0,22.0,1416530.0,8706.35,pp-riro,4,0,-1,-1
1570541340.5,2019-10-08,15:29:00.500,14.0,8.0,15.5299997329712,12.2,-4.1,0.9,17.9,1.9,-73.5,9.6668,-4.32643,1.30472,12.0305,4.9183,2.82696,15.5631,16.0689,-84.5246,0.157441,0.184273,0.885676,248.8,6.8,52.17,4.4272,-0.7,-1.60241,112.153,4.22872,76.2025,10.640999999999998,240.541,1.26121,0.344929,252.547,0.440878,1.41504,-34.4632263183594,22.049373626709,-35.0,22.0,1417060.0,1630.52,pp-riro,4,0,-1,-1
1570541340.6,2019-10-08,15:29:00.600,14.0,7.0,15.4799995422363,12.8,-3.7,1.1,19.2,1.4,-70.8,12.5986,-2.58913,1.7796299999999998,12.3455,5.4173,1.6597,21.9654,14.4073,-69.7167,0.187815,0.250749,0.967556,248.8,6.8,52.17,4.4272,-0.7,-1.54921,114.88,4.22871,76.0273,11.021,240.541,1.26166,0.339719,252.51,0.495529,1.4648,-34.883087158203104,22.0215663909912,-35.0,22.0,1417120.0,430.703,pp-riro,4,0,-1,-1
1570541340.7,2019-10-08,15:29:00.700,14.0,7.0,15.4200000762939,13.9,-3.0,1.5,21.5,-0.3,-65.7,13.1622,-2.22673,2.02966,11.8498,6.25897,4.851,23.2257,13.81,-66.6893,0.0130668999999999,0.131726,0.976381,248.8,6.8,52.17,4.4272,-0.7,-1.51929,117.586,4.2287,75.6476,12.161,240.441,1.26231,0.324295,252.354,0.6068859999999999,1.55216,-34.970123291015604,22.0050868988037,-35.0,22.0,1417190.0,1445.93,pp-riro,4,0,-1,-1
1570541340.8,2019-10-08,15:29:00.800,14.0,7.0,15.1899995803833,15.0,-2.1,2.0,23.7,-2.0,-60.6,14.1804,-1.46067,2.51503,8.881730000000001,8.219339999999999,5.53361,25.7013,12.234000000000002,-60.4649,0.214517,0.190623,1.03671,248.8,6.8,52.17,4.4272,-0.7,-1.44505,117.852,4.22869,75.3847,14.0611,240.341,1.26194,0.299294,252.278,0.728757,1.65398,-34.970123291015604,22.0009689331055,-35.0,22.0,1417480.0,3168.74,pp-riro,4,0,-1,-1
1570541340.9,2019-10-08,15:29:00.900,14.0,8.0,14.9499998092651,16.0,-1.0,2.4,25.7,-3.4,-55.4,15.1301,-0.4287399999999999,2.91016,9.54108,10.454,2.83798,28.0682,10.4325,-54.4429,0.232763,0.135157,0.989329,248.8,6.8,52.17,4.4272,-0.7,-1.35085,104.576,4.228680000000001,75.2094,15.2011,240.241,1.26165,0.284277,252.197,0.84134,1.74629,-34.971832275390604,22.0009689331055,-35.0,22.0,1417700.0,61.529,pp-riro,4,0,-1,-1
1570541341.0,2019-10-08,15:29:01.000,14.0,8.0,14.7700004577637,16.8,0.0,2.8,28.0,-5.1,-50.0,15.5196,0.1337829999999999,3.12655,8.2147,10.7931,3.25774,29.1153,9.55394,-51.5814,0.101832,0.184543,0.936293,248.8,6.8,52.1701,4.4272,-0.1,-1.33977,99.2131,4.22867,75.1217,17.1012,240.041,1.26022,0.259885,252.102,0.96827,1.83357,-34.973541259765604,22.0009689331055,-35.0,22.0,1417480.0,-2799.57,pp-riro,4,0,-1,-1
1570541341.1,2019-10-08,15:29:01.100,14.0,8.0,14.6499996185303,17.5,1.0,3.3,29.6,-7.4,-45.2,16.3101,1.16406,3.57291,8.19854,8.9378,4.5229,31.1819,7.53438,-45.9359,0.162099,0.200652,0.982204,248.8,6.8,52.1701,4.4272,-0.1,-1.35141,100.419,4.22866,75.1509,18.6213,239.841,1.25854,0.240833,252.028,1.08223,1.91182,-35.0076751708984,22.0009689331055,-35.0,22.0,1417150.0,-3384.09,pp-riro,4,0,-1,-1
1570541341.2,2019-10-08,15:29:01.200,14.0,8.0,14.5299997329712,18.2,2.1,3.8,31.3,-9.6,-40.0,17.1994,2.69237,4.270580000000001,4.27035,7.700839999999999,5.40257,33.5908,4.21016,-37.3122,0.0615572999999999,0.261316,0.986734,248.8,6.8,52.1701,4.4272,-0.1,-1.35362,101.479,4.22863,75.2969,20.5213,239.641,1.25596,0.2176809999999999,252.029,1.20698,1.99367,-35.0076751708984,22.0009689331055,-35.0,22.0,1416990.0,-2953.39,pp-riro,4,0,-1,-1
1570541341.3,2019-10-08,15:29:01.300,14.0,8.0,14.3500003814697,18.8,3.3,4.4,32.3,-11.9,-34.6,17.659000000000002,3.75483,4.74334,5.2564,12.6422,2.83839,34.9328,1.79695,-31.4498,0.157808,0.144614,1.10314,248.8,6.8,52.1701,4.4272,-0.1,-1.36083,100.013,4.22865,75.5598,22.4214,239.341,1.25268,0.195301,251.984,1.33467,2.07653,-35.0076751708984,22.0009689331055,-35.0,22.0,1416720.0,-2922.63,pp-riro,4,0,-1,-1
1570541341.4,2019-10-08,15:29:01.400,14.0,9.0,14.2200002670288,19.1,4.4,4.9,33.2,-14.5,-29.4,17.659000000000002,3.75483,4.74334,5.2564,12.6422,2.83839,34.9328,1.79695,-31.4498,0.157808,0.144614,1.10314,248.8,6.8,52.1701,4.4272,-0.1,-1.38354,93.3615,4.22864,75.881,24.3215,239.041,1.24903,0.173576,251.972,1.45953,2.15157,-35.0093841552734,22.0009689331055,-35.0,22.0,1416140.0,-4830.02,pp-riro,4,0,-1,-1
1570541341.5,2019-10-08,15:29:01.500,14.0,9.0,14.2799997329712,19.4,5.6,5.3,33.8,-16.8,-24.0,18.0349,4.81935,5.2916300000000005,3.5731300000000004,13.3933,6.36534,35.9227,-0.746943,-25.5892,0.0723678,0.1532859999999999,1.01452,249.0,6.0,52.1701,4.4272,-0.1,-1.4251,94.0196,4.22866,76.3775,25.8415,238.641,1.24496,0.1574809999999999,251.895,1.57985,2.22106,-35.0093841552734,22.0009689331055,-35.0,22.0,1415600.0,-5506.84,pp-riro,4,0,-1,-1
1570541341.6,2019-10-08,15:29:01.600,14.0,9.0,14.3400001525879,19.7,6.9,5.8,34.3,-19.1,-18.3,18.4319,7.097580000000001,6.14397,3.56426,8.73845,2.37781,36.4846,-5.90626,-14.244000000000002,0.142522,0.263794,1.05736,249.0,6.0,52.1701,4.4272,-0.1,-1.44228,95.8432,4.228680000000001,76.9908,28.1216,238.141,1.23931,0.133515,251.852,1.71175,2.29961,-35.0093841552734,22.0009689331055,-35.0,22.0,1415330.0,-5168.43,pp-riro,4,0,-1,-1
1570541341.7,2019-10-08,15:29:01.700,14.0,8.0,14.4700002670288,20.0,8.1,6.5,34.5,-21.5,-12.7,18.4319,7.097580000000001,6.14397,3.56426,8.73845,2.37781,36.4846,-5.90626,-14.244000000000002,0.142522,0.263794,1.05736,249.0,6.0,52.1701,4.4272,-0.1,-1.4722,100.732,4.2287,77.6918,30.0217,237.641,1.23369,0.11494,251.815,1.83594,2.36711,-35.0093841552734,22.0009689331055,-35.0,22.0,1414900.0,-4183.97,pp-riro,4,0,-1,-1
1570541341.8,2019-10-08,15:29:01.800,14.0,8.0,14.4099998474121,20.0,9.4,7.1,34.4,-23.9,-7.1,18.4319,7.097580000000001,6.14397,3.56426,8.73845,2.37781,36.4846,-5.90626,-14.244000000000002,0.142522,0.263794,1.05736,249.0,6.0,52.1701,4.4272,-0.1,-1.47331,104.398,4.2287300000000005,78.5388,31.9218,237.041,1.22732,0.0976123,251.746,1.95745,2.43843,-35.0093841552734,22.0009689331055,-35.0,22.0,1414600.0,-2461.16,pp-riro,4,0,-1,-1
1570541341.9,2019-10-08,15:29:01.900,14.0,9.0,14.4099998474121,19.8,10.7,7.7,33.7,-26.1,-1.4,18.6939,9.97218,7.60568,-0.146945,10.2205,6.32335,35.5194,-11.8017,1.14478,0.100489,0.355487,0.996371,249.0,6.0,52.1701,4.4272,-0.1,-1.4528,106.853,4.22875,79.5026,33.8219,236.341,1.22032,0.0814159,251.638,2.07647,2.50978,-35.0093841552734,22.0009689331055,-35.0,22.0,1414390.0,-1261.34,pp-riro,4,0,-1,-1
1570541342.0,2019-10-08,15:29:02.000,14.0,8.0,14.4700002670288,19.7,12.0,8.2,32.8,-28.1,4.9,18.4094,11.1909,8.071860000000001,-1.6889299999999998,12.0844,3.1123,34.4038,-14.0321,7.1715800000000005,-0.124677,0.228328,0.982539,249.0,6.0,52.1701,4.4272,0.1,-1.42732,116.109,4.22877,80.6124,36.102,235.641,1.21217,0.0625572,251.651,2.20392,2.57765,-35.0093841552734,22.0009689331055,-35.0,22.0,1414360.0,399.9380000000001,pp-riro,4,0,-1,-1
1570541342.1,2019-10-08,15:29:02.100,14.0,11.0,14.710000038147,19.5,13.4,8.8,31.8,-29.5,11.3,18.2274,12.3663,8.5179,-3.62691,12.7275,7.91379,33.3144,-16.0961,13.4735,0.18047,0.3547369999999999,1.00565,249.0,6.0,52.1701,4.4272,0.1,-1.34587,129.016,4.22879,81.8099,37.622,234.941,1.20479,0.0525639,251.606,2.3191900000000003,2.64052,-35.0093841552734,22.0009689331055,-35.0,22.0,1414640.0,3845.56,pp-riro,4,0,-1,-1
1570541342.2,2019-10-08,15:29:02.200,14.0,9.0,15.1800003051758,19.1,14.7,9.5,30.7,-31.6,17.8,17.9864,13.5649,9.23042,-3.97117,10.7207,10.5384,31.782,-17.7806,19.9793,0.0557764,0.324392,1.00634,249.0,6.0,52.1701,4.4272,0.1,-1.28935,133.256,4.22881,83.1534,39.9021,234.041,1.1954,0.036167,251.55900000000003,2.44335,2.7087,-35.0076751708984,22.0009689331055,35.0,22.0,1414940.0,5506.84,pp-riro,4,0,-1,-1
1570541342.3,2019-10-08,15:29:02.300,14.0,9.0,15.5799999237061,18.5,16.0,10.2,28.9,-33.3,24.3,17.5284,14.8262,9.86373,-5.72074,11.7202,2.47648,29.69,-19.3412,27.0014,-0.215751,0.154912,1.04776,249.0,6.0,52.1701,4.4272,0.1,-1.13365,137.029,4.22884,84.6721,41.8022,233.141,1.18596,0.0249611,251.538,2.55838,2.77446,-34.9940185546875,22.0009689331055,35.0,22.0,1415580.0,6552.84,pp-riro,4,0,-1,-1
1570541342.4,2019-10-08,15:29:02.400,14.0,11.0,16.0300006866455,17.8,17.4,10.6,27.2,-34.7,31.3,16.9016,16.0497,10.3637,-7.048260000000001,14.5503,2.34716,27.6217,-21.0091,33.7087,0.123792,0.2120429999999999,1.02125,249.0,6.0,52.1701,4.4272,0.1,-0.8782209999999999,147.168,4.22886,86.2492,43.7023,232.141,1.17614,0.0145493,251.472,2.67634,2.84078,-34.693634033203104,22.0009689331055,35.0,22.0,1416520.0,6214.43,pp-riro,4,0,-1,-1
1570541342.5,2019-10-08,15:29:02.500,14.0,10.0,16.4699993133545,17.0,18.9,11.2,25.3,-35.7,38.4,16.5403,16.6628,10.5501,-3.49255,11.6269,2.834,26.5478,-21.8526,37.0589,0.0472167,0.17601,1.0924200000000002,242.3,4.8,52.1701,4.4272,0.1,-0.7596470000000001,153.999,4.22887,88.0308,45.6024,231.141,1.16561,0.00554877,251.506,2.79096,2.90901,-34.038238525390604,22.0009689331055,35.0,22.0,1416870.0,6429.78,pp-riro,4,0,-1,-1
1570541342.6,2019-10-08,15:29:02.600,14.0,10.0,16.8400001525879,15.9,20.2,12.0,23.1,-36.8,45.5,15.8501,17.9487,11.112,-7.024710000000001,12.8323,8.89678,24.2414,-22.8965,43.7915,0.053574,0.349697,1.062,242.3,4.8,52.1701,4.4272,0.1,-0.51031,168.774,4.22887,90.0169,47.1225,229.941,1.15472,0.00125998,251.389,2.90001,2.97444,-33.0244140625,22.0009689331055,10.4017391204834,22.0,1417470.0,5783.72,pp-ro,1,1,-1,-1
1570541342.7,2019-10-08,15:29:02.700,14.0,11.0,17.0499992370605,14.6,21.3,12.4,20.8,-37.6,52.6,14.9131,19.1569,11.7628,-9.72266,10.907,3.24799,22.0256,-23.96,50.7223,0.00236318,0.144457,1.02837,242.3,4.8,52.1701,4.4272,0.1,-0.172874,178.59900000000002,4.22887,92.0029,49.0226,228.741,1.14317,-0.00604811,251.377,3.00891,3.04126,-31.6572723388672,22.0009689331055,11.8114366531372,22.0,1417810.0,2338.1,pp-ro,1,1,-1,-1
1570541342.8,2019-10-08,15:29:02.800,14.0,10.0,17.25,13.3,22.5,12.6,17.9,-37.8,59.6,13.7444,20.2454,12.2073,-9.92704,12.3361,1.37922,19.3678,-25.1335,57.4533,0.209707,0.114325,0.970477,242.3,4.8,52.1701,4.4272,0.1,0.342977,176.298,4.22886,94.1642,50.1627,227.541,1.13234,-0.00594829,251.313,3.1083,3.10161,-29.9300231933594,22.0009689331055,13.3148803710938,22.0,1417330.0,-6091.37,pp-ro,1,1,-1,-1
1570541342.9,2019-10-08,15:29:02.900,14.0,10.0,17.4599990844727,12.0,23.5,12.8,15.5,-37.9,66.7,11.8294,21.7359,12.3632,-14.5988,9.51457,3.70092,15.955,-26.3056,66.8588,0.104779,0.135458,0.888069,242.3,4.8,52.1701,4.4272,0.1,0.53746,173.549,4.22886,96.4132,51.3027,226.241,1.12106,-0.0054761,251.222,3.20805,3.15678,-27.8870086669922,22.0009689331055,14.7513599395752,22.0,1416900.0,-8398.71,pp-ro,1,1,-1,-1
1570541343.0,2019-10-08,15:29:03.000,14.0,10.0,17.7099990844727,10.6,24.2,12.9,12.5,-37.9,73.0,11.8294,21.7359,12.3632,-14.5988,9.51457,3.70092,15.955,-26.3056,66.8588,0.104779,0.135458,0.888069,242.3,4.8,52.1701,4.4272,0.3,0.949697,175.074,4.22885,98.7497,52.8228,225.041,1.10904,-0.0076536999999999,251.367,3.2980400000000003,3.21198,-25.7774353027344,22.0009689331055,16.137809753418,22.0,1415540.0,-4953.08,pp-ro,1,1,-1,-1
1570541343.1,2019-10-08,15:29:03.100,14.0,10.0,17.8500003814697,9.2,24.6,12.9,10.0,-37.1,79.4,10.6145,22.5917,12.5561,-9.57416,8.08957,-0.994596,13.2407,-26.9997,73.0381,-0.0799375,0.117254,0.757866,242.3,4.8,52.1701,4.4272,0.3,0.888748,181.334,4.22885,101.145,53.5829,223.741,1.09793,-0.00363596,251.319,3.3857800000000005,3.25759,-23.6695709228516,22.0009689331055,17.5219650268555,22.0,1416260.0,6768.19,pp-ro,1,1,-1,-1
1570541343.2,2019-10-08,15:29:03.200,14.0,8.0,18.0,7.9,25.0,13.0,7.6,-36.8,85.3,10.6145,22.5917,12.5561,-9.57416,8.08957,-0.994596,13.2407,-26.9997,73.0381,-0.0799375,0.117254,0.757866,242.3,4.8,52.1701,4.4272,0.3,0.885978,188.66,4.22885,103.569,54.343,222.541,1.08691,0.0003285759999999,251.404,3.46556,3.30016,-21.5616989135742,22.0009689331055,18.8565006256104,22.0,1416160.0,-1722.81,pp-ro,1,1,-1,-1
1570541343.3,2019-10-08,15:29:03.300,14.0,10.0,18.2900009155273,6.6,25.4,13.3,4.9,-36.1,91.2,7.486389999999999,23.6677,12.7172,-13.9411,4.659680000000001,2.9271,6.92473,-27.2456,87.5763,-0.177465,0.174718,0.80078,242.3,4.8,52.1701,4.4272,0.3,0.974077,218.067,4.22884,106.139,55.103,221.141,1.07505,0.0046906,251.406,3.5462800000000003,3.34164,-19.4418869018555,22.0009689331055,20.2266483306885,22.0,1416120.0,3168.74,pp-ro,1,1,-1,-1
1570541343.4,2019-10-08,15:29:03.400,14.0,13.0,18.479999542236303,5.3,25.7,13.4,2.7,-35.0,95.6,6.30037,24.174,12.9263,-19.6894,7.73893,1.02199,4.29466,-27.3383,92.7269,-0.0132112,0.129399,0.692025,242.3,4.8,52.1701,4.4272,0.3,0.970752,220.863,4.22884,108.651,55.8631,219.841,1.06357,0.00864406,251.507,3.60856,3.38283,-18.3871002197266,22.0009689331055,21.582633972168,22.0,1416190.0,1476.7,pp-ro,1,1,-1,-1
1570541343.5,2019-10-08,15:29:03.500,14.0,11.0,18.6200008392334,4.2,26.2,13.5,0.1,-33.5,100.3,5.18963,24.5355,12.8647,-9.65494,1.14408,0.516755,1.51816,-27.1027,97.3286,0.0604197,0.0247899,0.6008479999999999,249.9,5.1,52.1701,4.4272,0.3,0.992916,226.12,4.22887,111.221,56.6232,218.541,1.05191,0.0126188,251.667,3.67783,3.4187800000000004,-15.748420715332,22.0009689331055,22.8580856323242,22.0,1416310.0,2215.04,pp-ro,1,1,-1,-1
1570541343.6,2019-10-08,15:29:03.600,14.0,10.0,18.8099994659424,3.2,26.4,13.6,-2.5,-32.0,104.2,4.10173,25.0183,13.0471,-13.6901,1.26565,0.656327,-1.11723,-26.8154,101.403,-0.234616,0.141174,0.46247,249.9,5.1,52.1701,4.4272,0.3,1.01397,245.226,4.22891,113.966,57.0032,217.141,1.04011,0.0196862,251.769,3.73443,3.44599,-13.6388473510742,22.0009689331055,23.0044822692871,22.0,1416450.0,-276.88,pp-ro,1,1,-1,-1
1570541343.7,2019-10-08,15:29:03.700,14.0,11.0,19.0,2.3,26.5,13.8,-4.7,-30.6,107.7,3.1869,25.2297,13.1295,-12.4173,6.0469800000000005,-2.00738,-4.2279800000000005,-26.2507,105.258,-0.444106,0.136764,0.390339,249.9,5.1,52.1701,4.4272,0.3,1.04334,255.133,4.22896,116.566,57.3833,215.741,1.02874,0.0259702999999999,251.842,3.78637,3.46931,-11.532684326171902,22.0009689331055,23.0044822692871,22.0,1416620.0,2830.33,pp-ro,1,1,-1,-1
1570541343.8,2019-10-08,15:29:03.800,14.0,10.0,19.270000457763697,1.5,26.8,13.8,-6.8,-29.2,110.4,2.3423,25.5695,13.2792,-2.20717,6.57615,-2.1678,-6.83834,-25.7363,108.661,-0.196907,-0.0118599,0.485321,249.9,5.1,52.1701,4.4272,0.3,1.04057,259.839,4.22904,119.194,57.3833,214.341,1.01784,0.0346741999999999,251.877,3.8258,3.48925,-9.41287231445312,22.0009689331055,23.0044822692871,22.0,1416760.0,2553.45,pp-ro,1,1,-1,-1
1570541343.9,2019-10-08,15:29:03.900,14.0,10.0,19.5499992370605,0.5,26.8,14.2,-8.6,-27.6,112.1,1.51297,25.8735,13.438,-1.96393,0.903516,0.921814,-9.66019,-25.1675,111.112,-0.3068619999999999,-0.155176,0.411134,249.9,5.1,52.1701,4.4272,0.3,1.0699299999999998,278.384,4.22906,121.969,57.3834,212.741,1.00603,0.0435753,251.849,3.8529,3.51141,-7.29817199707031,22.0009689331055,23.0044822692871,22.0,1416800.0,-153.822,pp-ro,1,1,-1,-1
1570541344.0,2019-10-08,15:29:04.000,14.0,11.0,19.8099994659424,-0.2,27.1,14.6,-10.6,-26.8,113.6,1.04272,25.9733,13.573,-6.05321,1.28384,2.59894,-10.9765,-24.9051,112.057,-0.300102,-0.010836,0.509478,249.9,5.1,52.1701,4.4272,0.5,1.13254,315.71,4.22911,124.656,57.3834,211.241,0.994676,0.0518611,251.902,3.87261,3.52521,-5.18347930908203,22.0009689331055,23.0044822692871,22.0,1416970.0,1199.82,pp-ro,1,1,-1,-1
1570541344.1,2019-10-08,15:29:04.100,14.0,11.0,20.0300006866455,-0.9,27.4,15.2,-12.4,-26.7,114.3,0.615887,26.169,13.8691,-6.61164,1.9938,4.50818,-12.2174,-24.6126,112.788,-0.412034,0.0680832,0.265275,249.9,5.1,52.1701,4.4272,0.5,1.17632,341.111,4.22916,127.489,57.3835,209.541,0.982415,0.0602841999999999,251.9,3.87597,3.53697,-3.0756072998046897,22.0009689331055,23.0044822692871,22.0,1417100.0,1692.05,pp-ro,1,1,-1,-1
1570541344.2,2019-10-08,15:29:04.200,14.0,12.0,20.3799991607666,-1.5,27.8,15.9,-13.3,-26.6,113.6,-0.263696,26.5995,14.4353,-1.04731,12.112,4.165830000000001,-14.4049,-24.5,114.266,-0.178245,-0.0268216999999999,0.2334909999999999,249.9,5.1,52.1701,4.4272,0.5,1.23117,377.449,4.22921,130.235,57.3836,207.841,0.970387,0.0681523,251.896,3.86003,3.54505,-0.969451904296875,22.0025119781494,23.0116176605225,22.0,1417180.0,369.174,pp-ro,1,1,-1,-1
1570541344.3,2019-10-08,15:29:04.300,14.0,11.0,20.770000457763697,-1.7,28.1,17.1,-14.4,-27.3,112.7,-0.263696,26.5995,14.4353,-1.04731,12.112,4.165830000000001,-14.4049,-24.5,114.266,-0.178245,-0.0268216999999999,0.2334909999999999,249.9,5.1,52.1701,4.4272,0.5,1.27217,396.809,4.22926,133.06799999999998,57.0036,205.941,0.958102,0.0783957,251.73,3.83368,3.5350900000000003,1.13599395751953,22.003026962280305,23.0139999389648,22.0,1417190.0,123.058,pp-ro,1,1,-1,-1
1570541344.4,2019-10-08,15:29:04.400,14.0,11.0,21.1399993896484,-1.4,28.2,18.1,-15.3,-28.6,111.4,-0.263696,26.5995,14.4353,-1.04731,12.112,4.165830000000001,-14.4049,-24.5,114.266,-0.178245,-0.0268216999999999,0.2334909999999999,249.9,5.1,52.1701,4.4272,0.5,1.32481,424.085,4.22931,135.872,57.0037,203.941,0.945136,0.0858385,251.599,3.79989,3.51393,3.22405242919922,22.0025119781494,23.0116176605225,22.0,1417390.0,2276.57,pp-ro,1,1,-1,-1
1570541344.5,2019-10-08,15:29:04.500,14.0,11.0,21.600000381469695,-0.9,28.3,19.1,-15.7,-30.4,110.0,-1.57499,27.8652,16.7439,0.919187,4.618609999999999,10.4413,-18.6566,-26.9025,113.618,-0.391619,-0.276838,-0.284866,251.7,7.4,52.1701,4.4272,0.5,1.35695,434.436,4.22936,138.675,57.0037,201.941,0.932134,0.0930242,251.516,3.76178,3.48787,5.33594512939453,22.0025119781494,23.0116176605225,22.0,1417840.0,5783.72,pp-ro,1,1,-1,-1
1570541344.6,2019-10-08,15:29:04.600,14.0,11.0,22.2000007629395,-0.1,28.2,20.0,-16.1,-32.8,107.6,-0.5226609999999999,28.469,19.6221,-2.17497,7.08338,7.244689999999999,-19.7634,-33.1588,109.519,-0.22574,-0.502158,-0.572597,251.7,7.4,52.1701,4.4272,0.5,1.35418,438.763,4.22941,141.625,56.6238,199.641,0.918395,0.102628,251.238,3.70467,3.45206,7.44783782958984,22.0025119781494,23.0116176605225,22.0,1418370.0,4583.91,pp-ro,1,1,-1,-1
1570541344.7,2019-10-08,15:29:04.700,14.0,11.0,22.75,1.0,27.8,20.6,-15.1,-35.1,104.3,-0.5226609999999999,28.469,19.6221,-2.17497,7.08338,7.244689999999999,-19.7634,-33.1588,109.519,-0.22574,-0.502158,-0.572597,251.7,7.4,52.1701,4.4272,0.5,1.37246,442.731,4.22947,144.4,56.6238,197.44,0.904911,0.109215,251.078,3.63994,3.41114,9.55973815917969,22.003026962280305,23.0139999389648,22.0,1418860.0,5752.96,pp-ro,1,1,-1,-1
1570541344.8,2019-10-08,15:29:04.800,14.0,11.0,23.3199996948242,2.5,27.4,21.2,-14.0,-37.2,100.4,-0.5226609999999999,28.469,19.6221,-2.17497,7.08338,7.244689999999999,-19.7634,-33.1588,109.519,-0.22574,-0.502158,-0.572597,251.7,7.4,52.1701,4.4272,0.5,1.36969,445.555,4.22952,147.145,57.0039,195.14,0.8908010000000001,0.11327,250.96,3.57227,3.3612,11.6614151000977,22.003026962280305,23.0139999389648,22.0,1419430.0,4645.44,pp-ro,1,1,-1,-1
1570541344.9,2019-10-08,15:29:04.900,14.0,10.0,23.690000534057603,4.5,26.7,21.7,-11.7,-39.1,95.2,3.12127,27.8382,21.6429,23.4224,-0.0257058,9.97578,-16.9463,-40.4196,100.555,-0.2892,-0.244588,-0.5327930000000001,251.7,7.4,52.1701,4.4272,0.5,1.37856,447.267,4.22958,149.92,57.004,192.84,0.8770040000000001,0.119465,250.824,3.4892300000000005,3.29445,13.7613906860352,22.003026962280305,23.0139999389648,22.0,1420010.0,6645.13,pp-ro,1,1,-1,-1
1570541345.0,2019-10-08,15:29:05.000,14.0,10.0,23.9500007629395,6.5,25.8,22.2,-7.9,-40.8,88.2,5.25091,27.3398,22.3134,20.6799,-5.6029,8.45854,-14.2939,-43.0377,95.3437,-0.0478766,-0.233199,-0.8218780000000001,251.7,7.4,52.1701,4.4272,0.7,1.38077,459.383,4.22963,152.519,57.38399999999999,190.64,0.8635290000000001,0.1229,250.796,3.38839,3.22833,15.8817977905273,22.003026962280305,23.0139999389648,22.0,1420540.0,4091.68,pp-ro,1,1,-1,-1
1570541345.1,2019-10-08,15:29:05.100,14.0,11.0,23.9799995422363,9.0,25.1,22.7,-3.4,-42.5,80.8,5.25091,27.3398,22.3134,20.6799,-5.6029,8.45854,-14.2939,-43.0377,95.3437,-0.0478766,-0.233199,-0.8218780000000001,251.7,7.4,52.1701,4.4272,0.7,1.44671,495.18,4.22968,155.031,58.1441,188.44,0.8498950000000001,0.123892,250.849,3.28738,3.15266,17.9170532226562,22.004571914672898,23.0211448669434,22.0,1421100.0,4953.08,pp-ro,1,1,-1,-1
1570541345.2,2019-10-08,15:29:05.200,14.0,12.0,23.940000534057603,11.4,23.8,23.2,2.4,-43.8,71.6,7.52503,26.6359,23.1233,22.735,-7.706119999999999,4.3226,-10.0976,-46.2472,88.249,-0.259316,-0.470734,-0.986003,251.7,7.4,52.1701,4.4272,0.7,1.49602,530.847,4.2297400000000005,157.543,58.9042,186.14,0.836001,0.124851,250.874,3.16806,3.07486,19.6389312744141,22.004056930542003,23.018762588501,22.0,1421510.0,3445.62,pp-ro,1,1,-1,-1
1570541345.3,2019-10-08,15:29:05.300,14.0,12.0,24.010000228881804,12.6,23.1,23.5,5.9,-43.9,66.8,13.0989,24.8168,24.6572,28.8368,-16.0059,7.47249,2.61852,-49.5053,68.4023,-0.1020399999999999,-0.196885,-1.1781700000000002,251.7,7.4,52.1701,4.4272,0.7,1.53702,553.255,4.22979,159.85,60.4243,185.04,0.8251350000000001,0.121194,251.879,3.11024,3.03885,21.0082626342773,22.0056018829346,23.0259094238281,22.0,1421640.0,2553.45,pp-ro,1,1,-1,-1
1570541345.4,2019-10-08,15:29:05.400,14.0,15.0,24.2999992370605,15.0,21.3,23.6,12.5,-43.6,56.0,13.0989,24.8168,24.6572,28.8368,-16.0059,7.47249,2.61852,-49.5053,68.4023,-0.1020399999999999,-0.196885,-1.1781700000000002,251.7,7.4,52.1701,4.4272,0.7,1.61238,590.802,4.22985,160.901,61.1843,182.74,0.815254,0.11917,251.051,2.97568,2.95706,22.030143737793,22.0050868988037,23.0235271453857,22.0,1422000.0,4245.5,pp-ro,1,1,-1,-1
1570541345.5,2019-10-08,15:29:05.500,14.0,10.0,24.4099998474121,18.1,18.3,22.9,22.3,-41.8,41.8,17.0347,21.7329,24.614,22.275,-25.7406,-6.72825,13.9767,-49.7112,51.4624,-0.412838,-0.253384,-1.05737,247.4,7.0,52.1701,4.4272,0.7,1.77417,606.645,4.22992,163.93900000000002,63.0845,179.34,0.795771,0.11513,251.035,2.79442,2.83736,22.6943740844727,22.0056018829346,23.0259094238281,22.0,1422060.0,-1876.63,pp-ro,1,1,-1,-1
1570541345.6,2019-10-08,15:29:05.600,14.0,11.0,24.5499992370605,18.9,17.2,22.8,25.2,-40.9,37.4,19.5073,19.9018,24.3044,25.1001,-17.6892,-4.016,21.763,-48.3146,39.8796,-0.32529,-0.183908,-0.830134,247.4,7.0,52.1701,4.4272,0.7,1.84842,606.5830000000001,4.23,164.873,64.2245,178.14,0.788776,0.110937,251.081,2.73782,2.80324,22.9907150268555,22.0056018829346,23.0259094238281,22.0,1422010.0,-984.464,pp-ro,1,1,-1,-1
1570541345.7,2019-10-08,15:29:05.700,14.0,12.0,24.469999313354503,20.6,15.0,21.7,30.2,-38.9,28.9,20.6451,18.7237,24.0797,25.5125,-29.4482,-15.0373,24.8317,-47.3403,35.0874,0.042261,-0.0758491999999999,-0.990624,247.4,7.0,52.1701,4.4272,0.7,2.0007900000000003,601.242,4.23004,166.53799999999998,66.1246,175.94,0.7762600000000001,0.1044119999999999,251.122,2.62437,2.7228,23.006042480468803,22.0056018829346,23.0259094238281,22.0,1421750.0,-3384.09,pp-ro,1,1,-1,-1
1570541345.8,2019-10-08,15:29:05.800,14.0,13.0,24.510000228881804,22.0,13.0,20.3,35.3,-36.1,21.2,23.7182,15.212,22.4105,27.2697,-19.3805,-14.7573,33.6356,-43.1878,21.165,-0.303105,-0.160865,-1.45362,247.4,7.0,52.1701,4.4272,0.7,2.10385,582.227,4.23011,167.96900000000002,68.0247,173.74,0.7643270000000001,0.0974875,251.051,2.51231,2.6462,23.0350036621094,22.0061168670654,23.0282897949219,22.0,1421880.0,2738.04,pp-ro,1,1,-1,-1
1570541345.9,2019-10-08,15:29:05.900,14.0,13.0,24.4300003051758,23.2,10.7,19.2,39.0,-33.1,14.7,25.9575,11.7177,20.2735,16.684,-25.0163,-15.5761,40.0108,-38.1876,9.83248,-0.0264704,-0.167906,-0.85541,247.4,7.0,52.1701,4.4272,0.7,2.14762,583.62,4.230180000000001,169.25400000000002,69.9247,171.64,0.753024,0.0904263,250.991,2.41042,2.56738,23.0418167114258,22.0056018829346,23.0259094238281,22.0,1422790.0,9721.58,pp-ro,1,1,-1,-1
1570541346.0,2019-10-08,15:29:06.000,14.0,13.0,24.25,23.9,8.3,17.8,44.0,-27.3,5.1,27.0553,8.9724,18.6675,8.161,-22.6715,-28.7166,43.2717,-34.4823,3.03676,-0.15078,-0.0127861,-1.18946,247.4,7.0,52.1701,4.4272,0.8,2.22242,587.8290000000001,4.230230000000001,170.685,73.7249,168.74,0.736977,0.0744279,251.081,2.24496,2.4943,23.0401077270508,22.0056018829346,22.4361534118652,22.0,1423620.0,4737.73,pp-ro,1,1,-1,-1
1570541346.1,2019-10-08,15:29:06.100,14.0,14.0,23.9500007629395,24.9,5.1,15.4,46.9,-23.9,-0.3,27.8979,6.57182,16.9177,4.38502,-28.4662,-14.058,46.0395,-30.0182,-2.97837,0.00139754,-0.0509564,-0.772745,247.4,7.0,52.1701,4.4272,0.8,2.26453,577.177,4.23029,171.415,76.0049,167.04,0.7277279999999999,0.0647467,251.122,2.14851,2.37091,22.9873123168945,22.0050868988037,20.435146331787102,22.0,1423910.0,5660.67,pp-ro,1,1,-1,-1
1570541346.2,2019-10-08,15:29:06.200,14.0,13.0,23.760000228881804,25.1,4.0,14.6,48.4,-21.9,-3.3,27.8979,6.57182,16.9177,4.38502,-28.4662,-14.058,46.0395,-30.0182,-2.97837,0.00139754,-0.0509564,-0.772745,247.4,7.0,52.1701,4.4272,0.8,2.23461,560.2869999999999,4.23035,171.707,77.145,166.24,0.7234119999999999,0.059777,251.138,2.09279,2.32993,22.556419372558604,22.0050868988037,19.8381500244141,22.0,1426330.0,20458.4,pp-ro,1,1,-1,-1
1570541346.3,2019-10-08,15:29:06.300,14.0,13.0,23.5400009155273,25.1,2.2,12.8,50.4,-17.9,-8.3,28.0996,5.30596,15.9928,0.0444019,-24.8274,-29.166,46.8967,-28.3046,-5.51057,0.377946,-0.204656,-0.519742,247.4,7.0,52.1701,4.4272,0.8,2.19029,563.354,4.23042,172.116,79.805,164.74,0.7150479999999999,0.0478390999999999,251.261,1.99333,2.25713,21.7900009155273,22.0056018829346,18.8226566314697,22.0,1427400.0,20704.5,pp-ro,1,1,-1,-1
1570541346.4,2019-10-08,15:29:06.400,14.0,13.0,23.3899993896484,25.1,0.3,11.6,52.3,-14.2,-13.0,28.5364,3.14282,14.2616,2.97748,-18.2861,-16.1145,48.8418,-23.6904,-10.9083,-0.597705,-0.136548,-1.06629,247.4,7.0,52.1701,4.4272,0.8,2.13931,574.5459999999999,4.23048,172.32,82.4651,163.44,0.707705,0.0355626999999999,251.411,1.90033,2.1897,21.2926864624023,22.0056018829346,17.879674911499,22.0,1429100.0,16120.6,pp-ro,1,1,-1,-1
1570541346.5,2019-10-08,15:29:06.500,14.0,14.0,23.350000381469695,24.8,-1.0,10.2,53.9,-10.5,-17.4,28.2552,-0.7212310000000001,11.0648,-9.28996,-8.237219999999999,-9.30007,52.1594,-14.8575,-20.6878,-0.481439,-0.112856,-1.07241,249.2,6.6,52.1701,4.4272,0.8,2.13931,585.238,4.23064,172.437,84.7451,162.14,0.7009310000000001,0.0249636,251.407,1.80902,2.13207,20.0255432128906,22.0056018829346,17.1223964691162,22.0,1430140.0,8767.88,pp-ro,1,1,-1,-1
1570541346.6,2019-10-08,15:29:06.600,14.0,14.0,23.3099994659424,24.5,-2.2,8.8,55.4,-7.1,-21.1,27.7947,-2.46599,9.35576,8.14452,-14.5632,-17.8364,53.2816,-11.1096,-24.9258,-0.0710768999999999,-0.122522,-1.00112,249.2,6.6,52.1701,4.4272,0.8,2.19749,580.5509999999999,4.2308,172.437,87.4052,161.04,0.694545,0.0124525,251.611,1.7304,2.07461,19.036018371582,22.0061168670654,16.3693447113037,22.0,1431190.0,7783.42,pp-ro,1,1,-1,-1
1570541346.7,2019-10-08,15:29:06.700,14.0,13.0,23.2299995422363,24.3,-3.7,7.5,56.4,-4.4,-24.3,27.3575,-3.09022,8.439630000000001,-10.9015,-12.6933,-19.7086,53.4587,-9.0619,-26.7211,0.261754,-0.102386,-0.850108,249.2,6.6,52.1701,4.4272,0.8,2.2263,579.754,4.23096,172.32,90.0652,160.04,0.688664,-0.000184518,251.83,1.6665900000000002,2.00778,18.0907821655273,22.0056018829346,15.4241771697998,22.0,1432250.0,11352.1,pp-ro,1,1,-1,-1
1570541346.8,2019-10-08,15:29:06.800,14.0,13.0,23.2299995422363,24.0,-5.2,5.9,57.4,-1.8,-27.8,27.2707,-4.043080000000001,7.84002,-2.82687,-17.4567,-4.8168,53.8183,-7.557519999999999,-28.6185,-0.312154,-0.232422,-0.8857649999999999,249.2,6.6,52.1701,4.4272,0.8,2.23129,577.068,4.23112,171.998,92.7253,159.14,0.683477,-0.0131735999999999,252.006,1.60099,1.93064,17.1881103515625,22.0056018829346,14.2575330734253,22.0,1432750.0,9629.29,pp-ro,1,1,-1,-1
1570541346.9,2019-10-08,15:29:06.900,14.0,13.0,23.3799991607666,23.6,-5.9,4.5,58.0,0.8,-30.9,26.8573,-5.89275,6.13612,0.91532,-17.0891,-29.5993,53.9769,-4.77648,-31.8166,0.229129,-0.334919,-0.905341,249.2,6.6,52.1701,4.4272,0.8,2.23129,568.165,4.23128,171.58900000000003,95.0053,158.54,0.679794,-0.0245576,252.198,1.53878,1.8774,16.3075866699219,22.0056018829346,13.490140914917,22.0,1434010.0,14336.3,pp-ro,1,1,-1,-1
1570541347.0,2019-10-08,15:29:07.000,14.0,13.0,23.5699996948242,23.0,-7.1,3.5,58.0,3.5,-33.7,26.8573,-5.89275,6.13612,0.91532,-17.0891,-29.5993,53.9769,-4.77648,-31.8166,0.229129,-0.334919,-0.905341,249.2,6.6,52.1701,4.4272,0.8,2.21023,582.509,4.23145,171.122,97.6653,157.94,0.675715,-0.0376803,252.52,1.47964,1.82102,15.2499389648438,22.0061168670654,12.7195587158203,22.0,1435550.0,13721.0,pp-ro,1,1,-1,-1
1570541347.1,2019-10-08,15:29:07.100,14.0,12.0,23.8600006103516,22.1,-8.6,2.3,57.7,6.0,-37.3,24.8783,-8.9039,2.52678,5.4496,-23.8159,-16.6164,53.926,3.2646,-40.4485,-0.3169929999999999,-0.256476,-0.901878,249.2,6.6,52.1701,4.4272,0.8,2.2601,605.034,4.23161,170.392,100.325,157.54,0.672743,-0.0513571,252.819,1.41486,1.74702,14.2450790405273,22.0056018829346,11.5565004348755,22.0,1436070.0,1322.87,pp-ro,1,1,-1,-1
1570541347.2,2019-10-08,15:29:07.200,14.0,13.0,24.149999618530305,20.9,-8.9,1.0,57.5,8.2,-40.3,23.6264,-10.3235,1.08054,-16.4963,0.50503,-30.578000000000003,53.446000000000005,5.62515,-43.7011,0.1031789999999999,-0.24888,-0.543608,249.2,6.6,52.1701,4.4272,0.8,2.37978,587.849,4.23177,169.60299999999998,102.225,157.24,0.671088,-0.061808,252.863,1.35875,1.6925400000000002,13.2947235107422,22.0050868988037,10.6863803863525,22.0,1435760.0,-3076.45,pp-ro,1,1,-1,-1
1570541347.3,2019-10-08,15:29:07.300,14.0,12.0,24.4099998474121,19.8,-8.4,0.0,57.2,10.8,-42.5,22.1542,-10.1702,-0.151827,-14.6301,12.0033,-10.8771,53.2712,8.72691,-45.8995,-0.261219,-0.0145774,-0.774353,249.2,6.6,52.1701,4.4272,0.8,2.40749,531.759,4.23193,168.873,104.885,157.04,0.6685909999999999,-0.0753265,253.33900000000003,1.30806,1.66707,12.4499664306641,22.0050868988037,10.510027885437,22.0,1437150.0,22365.8,pp-ro,1,1,-1,-1
1570541347.4,2019-10-08,15:29:07.400,14.0,11.0,24.3299999237061,18.7,-8.6,-0.7,56.2,12.6,-44.9,21.0652,-10.1136,-1.1000299999999998,-16.9514,-11.5213,-16.335,52.4774,11.4404,-47.8509,-0.0333093,0.0133477,-0.193909,249.2,6.6,52.1701,4.4272,0.8,2.03958,509.893,4.23209,168.113,107.165,156.94,0.666886,-0.0872138999999999,253.725,1.26506,1.62869,11.3395233154297,22.004571914672898,10.0254850387573,22.0,1443360.0,44177.8,pp-ro,1,1,-1,-1
1570541347.5,2019-10-08,15:29:07.500,14.0,11.0,24.0400009155273,17.5,-9.3,-1.4,55.3,14.6,-47.1,19.7804,-10.5027,-2.02897,-15.1175,1.36507,-6.63909,51.6801,13.5145,-50.0168,-0.299547,-0.0229632,-0.896544,247.7,6.6,52.1701,4.4272,0.8,1.72652,540.765,4.23224,167.237,108.685,156.94,0.666676,-0.0961473,253.793,1.21981,1.56951,10.6991424560547,22.0056018829346,8.99166202545166,22.0,1446810.0,30118.4,pp-ro,1,1,-1,-1
1570541347.6,2019-10-08,15:29:07.600,14.0,11.0,23.530000686645497,16.3,-10.0,-2.0,55.0,17.0,-49.1,18.1084,-11.1863,-2.76852,-19.7981,-16.557000000000002,-3.4681900000000003,51.2059,15.9031,-51.2425,0.4780859999999999,0.0400778,-0.236563,247.7,6.6,52.1701,4.4272,0.8,1.63621,556.422,4.23238,166.273,110.965,157.04,0.6658930000000001,-0.10848,254.208,1.17376,1.51217,10.4130172729492,22.0050868988037,8.10779857635498,22.0,1448020.0,22365.8,pp-ro,1,1,-1,-1
1570541347.7,2019-10-08,15:29:07.700,14.0,13.0,23.149999618530305,15.8,-10.6,-3.0,54.2,18.8,-52.0,17.7527,-11.6364,-3.13364,-0.862031,-9.54548,-9.77083,50.5745,17.2767,-52.8763,-0.239983,-0.169023,-0.855367,247.7,6.6,52.1701,4.4272,0.8,1.55476,566.585,4.23252,165.28,112.485,157.24,0.6664479999999999,-0.117702,254.352,1.12409,1.45154,9.73857116699219,22.0050868988037,7.0197615623474094,22.0,1449060.0,5568.37,pp-ro,1,1,-1,-1
1570541347.8,2019-10-08,15:29:07.800,14.0,15.0,22.9599990844727,15.1,-11.1,-3.6,53.2,19.7,-55.6,17.0855,-12.3196,-4.04261,-1.75655,-8.574489999999999,-9.01405,49.6722,19.5981,-55.5849,0.2707699999999999,-0.12827,-0.729372,247.7,6.6,52.1701,4.4272,0.8,1.60241,556.309,4.23266,164.199,114.385,157.44,0.666611,-0.1287309999999999,254.623,1.07953,1.40556,8.73711395263672,22.0050868988037,6.30461883544922,22.0,1449680.0,11475.2,pp-ro,1,1,-1,-1
1570541347.9,2019-10-08,15:29:07.900,14.0,14.0,22.7700004577637,14.0,-11.2,-4.2,52.3,21.4,-58.2,16.2067,-12.7805,-4.74178,-11.0985,-2.92296,-13.5493,48.626000000000005,21.1181,-58.7228,-0.106917,-0.268422,-0.6130770000000001,247.7,6.6,52.1701,4.4272,0.8,1.53647,550.8009999999999,4.2328,163.089,115.906,157.74,0.667616,-0.138277,254.783,1.03474,1.35471,7.86851501464844,22.0056018829346,5.40905046463013,22.0,1450960.0,9167.82,pp-ro,1,1,-1,-1
1570541348.0,2019-10-08,15:29:08.000,14.0,13.0,22.649999618530305,13.0,-11.3,-4.9,51.9,22.6,-60.7,14.8817,-12.8776,-5.41034,-10.1607,1.5510700000000002,-7.132219999999999,48.0731,22.7029,-61.4914,0.484396,-0.119831,-0.538405,247.7,6.6,52.1701,4.42721,0.7,1.54534,532.178,4.23294,161.95,117.046,158.14,0.669485,-0.146371,254.825,0.996524,1.29796,6.877288818359379,22.0056018829346,4.300024509429931,22.0,1452130.0,12182.7,pp-ro,1,1,-1,-1
1570541348.1,2019-10-08,15:29:08.100,14.0,13.0,22.5400009155273,11.9,-11.0,-5.2,50.9,24.3,-63.3,13.268,-12.8083,-6.18023,-7.463719999999999,-3.28237,2.68201,47.0429,24.8592,-65.4525,-0.186638,-0.1063829999999999,-0.6099760000000001,247.7,6.6,52.1701,4.42721,0.7,1.49159,509.703,4.23309,160.811,118.946,158.64,0.6705300000000001,-0.157547,255.294,0.953114,1.26011,5.916717529296879,22.0050868988037,3.72310161590576,22.0,1453210.0,9352.4,pp-ro,1,1,-1,-1
1570541348.2,2019-10-08,15:29:08.200,14.0,13.0,22.5799999237061,10.9,-11.0,-5.8,50.3,24.9,-64.8,12.0377,-12.4694,-6.5925,-13.4571,0.544899,-7.46639,46.423,26.2752,-66.6462,-0.0490773,0.0751343999999999,-0.1975839999999999,247.7,6.6,52.1701,4.42721,0.7,1.45003,471.615,4.233230000000001,159.701,119.706,159.14,0.673127,-0.164056,255.264,0.932705,1.20053,4.95274353027344,22.004571914672898,2.4644808769226096,22.0,1454120.0,10244.6,pp-ro,1,1,-1,-1
1570541348.3,2019-10-08,15:29:08.300,14.0,16.0,22.5799999237061,10.5,-10.9,-6.3,49.4,25.7,-67.1,11.5782,-12.4978,-6.79264,-12.0755,-4.86451,-3.64485,46.499,26.74,-66.947,0.229356,-0.0701532,-0.112827,247.7,6.6,52.1701,4.42721,0.7,1.40959,451.111,4.23337,158.562,120.846,159.74,0.675503,-0.172199,255.465,0.90176,1.16891,4.09776306152344,22.004571914672898,1.82818806171417,22.0,1454750.0,12644.2,pp-ro,1,1,-1,-1
1570541348.4,2019-10-08,15:29:08.400,14.0,14.0,22.5,10.2,-10.9,-6.4,48.3,26.3,-69.5,11.4901,-12.4943,-7.086639999999999,-8.94788,3.80337,-8.24954,46.1831,26.7154,-68.2554,0.157908,-0.1991349999999999,-0.0869865,247.7,6.6,52.1701,4.42721,0.7,1.3503,441.605,4.23351,157.394,122.366,160.44,0.677635,-0.181886,255.905,0.873016,1.15804,3.14910888671875,22.004571914672898,1.67902266979218,22.0,1455630.0,6183.66,pp-ro,1,1,-1,-1
1570541348.5,2019-10-08,15:29:08.500,14.0,13.0,22.2299995422363,9.7,-10.9,-6.4,47.3,27.0,-72.0,11.2288,-12.6378,-7.378539999999999,-3.5550300000000004,-1.10605,-3.34467,45.3919,28.2543,-70.6642,0.0824268999999999,0.0862512,-0.3304,250.1,6.7,52.1701,4.42721,0.7,1.39352,463.091,4.2336,156.255,123.126,161.14,0.680815,-0.188579,256.011,0.839628,1.14108,2.5410919189453103,22.004571914672898,-35.0,22.0,1455950.0,3691.74,pp-ro,1,1,-1,-1
1570541348.6,2019-10-08,15:29:08.600,14.0,12.0,22.0699996948242,8.9,-11.0,-6.7,45.9,27.7,-74.3,10.9426,-12.4959,-7.337389999999999,-5.602069999999999,0.0265185999999999,-1.63232,45.22,28.6806,-71.7759,0.0804416999999999,-0.237153,-0.425517,250.1,6.7,52.1701,4.42721,0.7,1.43784,477.432,4.2337,155.145,124.266,161.84,0.683329,-0.196638,256.328,0.809517,1.0961,1.96202087402344,22.004571914672898,-35.0,22.0,1456620.0,4953.08,pp-ro,1,1,-1,-1
1570541348.7,2019-10-08,15:29:08.700,14.0,16.0,21.8299999237061,8.1,-10.8,-7.2,44.3,28.3,-76.6,9.77755,-12.7155,-7.714919999999999,-9.67065,1.74911,-2.81658,43.4898,30.0709,-75.4737,0.0640125,-0.166632,-0.318938,250.1,6.7,52.1701,4.42721,0.7,1.4323,471.259,4.2338,153.977,125.406,162.64,0.6862199999999999,-0.204896,256.685,0.78054,1.04312,1.32505035400391,22.004571914672898,-35.0,22.0,1457060.0,8183.35,pp-ro,1,1,-1,-1
1570541348.8,2019-10-08,15:29:08.800,14.0,16.0,21.8299999237061,7.3,-10.6,-7.2,43.5,29.2,-78.2,9.77755,-12.7155,-7.714919999999999,-9.67065,1.74911,-2.81658,43.4898,30.0709,-75.4737,0.0640125,-0.166632,-0.318938,250.1,6.7,52.1701,4.42721,0.7,1.38742,449.835,4.2339,152.89600000000002,126.166,163.44,0.6895020000000001,-0.21141,256.92,0.755599,1.00843,0.323600769042969,22.004571914672898,-35.0,22.0,1458190.0,6337.48,pp-ro,1,1,-1,-1
1570541348.9,2019-10-08,15:29:08.900,14.0,16.0,21.7900009155273,7.0,-10.2,-7.4,42.4,29.9,-79.9,8.85625,-12.4226,-7.93588,-13.072,4.60676,-7.23665,42.5041,30.9164,-77.5635,-0.0407757,-0.110649,-0.339769,250.1,6.7,52.1701,4.42721,0.7,1.37911,442.8,4.234,151.816,126.926,164.34,0.693056,-0.217946,257.22700000000003,0.731688,0.989685,-1.0377197265625,22.004571914672898,-35.0,22.0,1458570.0,6983.54,pp-ro,1,1,-1,-1
1570541349.0,2019-10-08,15:29:09.000,14.0,16.0,21.6700000762939,6.7,-10.5,-7.8,41.8,30.3,-81.4,8.12025,-12.0846,-7.933910000000001,-4.55572,4.7806,-1.52063,41.6351,31.6852,-79.3695,0.107054,0.0455198,-0.193977,250.1,6.7,52.1701,4.42721,0.6,1.32426,410.897,4.23409,150.70600000000002,127.306,165.24,0.697249,-0.223131,257.339,0.712386,0.95849,-2.74108123779297,22.004571914672898,-35.0,22.0,1459680.0,7629.59,pp-ro,1,1,-1,-1
1570541349.1,2019-10-08,15:29:09.100,14.0,16.0,21.5499992370605,6.8,-10.6,-7.8,41.9,30.9,-81.7,7.64127,-12.2596,-8.22783,-1.5759999999999998,1.95724,0.265886,40.5063,33.7255,-81.1844,-0.186474,0.196106,-0.190041,250.1,6.7,52.1701,4.42721,0.6,1.30265,412.972,4.23419,149.625,128.066,166.14,0.700752,-0.229719,257.665,0.706923,0.967775,-4.782386779785161,22.004056930542003,-35.0,22.0,1460270.0,4768.5,pp-ro,1,1,-1,-1
1570541349.2,2019-10-08,15:29:09.200,14.0,15.0,21.510000228881804,6.8,-10.8,-7.6,42.4,29.8,-82.2,7.65433,-12.2452,-8.10619,-2.09484,-5.15521,-0.164984,40.4555,34.4342,-80.9401,0.020356,0.292773,0.0266958,250.1,6.7,52.1701,4.42721,0.6,1.31318,416.002,4.2342900000000006,148.54399999999998,128.826,167.04,0.704225,-0.236328,258.0,0.7162609999999999,0.98008,-6.89196014404297,22.004571914672898,-35.0,22.0,1460420.0,2676.51,pp-ro,1,1,-1,-1
1570541349.3,2019-10-08,15:29:09.300,14.0,13.0,21.3500003814697,7.2,-11.1,-7.5,42.8,28.4,-82.4,7.65433,-12.2452,-8.10619,-2.09484,-5.15521,-0.164984,40.4555,34.4342,-80.9401,0.020356,0.292773,0.0266958,250.1,6.7,52.1701,4.42721,0.6,1.33312,418.759,4.23439,147.405,129.586,167.84,0.707484,-0.243155,258.246,0.732533,1.00835,-9.01177978515625,22.004056930542003,-35.0,22.0,1460940.0,6706.66,pp-ro,1,1,-1,-1
1570541349.4,2019-10-08,15:29:09.400,14.0,15.0,21.4300003051758,7.5,-11.2,-7.0,43.8,27.1,-81.8,7.787730000000001,-12.4747,-7.2473,1.92705,0.627224,3.22895,41.6222,32.8632,-80.4853,0.128447,-0.271095,0.338838,250.1,6.7,52.1701,4.42721,0.6,1.3298,414.594,4.23451,146.237,130.346,168.64,0.710769,-0.250127,258.486,0.758131,1.04898,-11.1281814575195,22.0035419464111,-35.0,22.0,1461650.0,4245.5,pp-ro,1,1,-1,-1
1570541349.5,2019-10-08,15:29:09.500,14.0,15.0,21.510000228881804,8.5,-11.0,-6.3,45.7,24.6,-79.9,7.787730000000001,-12.4747,-7.2473,1.92705,0.627224,3.22895,41.6222,32.8632,-80.4853,0.128447,-0.271095,0.338838,257.9,7.4,52.1701,4.42721,0.6,1.29766,394.674,4.23471,145.069,131.106,169.34,0.7137319999999999,-0.257205,258.66900000000004,0.813314,1.1348200000000002,-13.21044921875,22.004056930542003,-35.0,22.0,1462420.0,8644.82,pp-ro,1,1,-1,-1
1570541349.6,2019-10-08,15:29:09.600,14.0,14.0,21.5499992370605,9.6,-11.3,-5.7,48.3,22.4,-77.7,8.5406,-12.3224,-6.06351,8.23175,4.90975,9.5735,43.9064,30.3998,-78.7215,0.0850881999999999,0.0465750999999999,0.3959,257.9,7.4,52.1701,4.42721,0.6,1.27273,385.322,4.23496,143.93,131.866,169.94,0.716322,-0.264252,258.813,0.8699549999999999,1.21234,-15.3268432617188,22.0035419464111,-35.0,22.0,1462810.0,7014.3,pp-ro,1,1,-1,-1
1570541349.7,2019-10-08,15:29:09.700,14.0,14.0,21.4699993133545,10.8,-11.5,-4.6,51.1,20.1,-75.3,10.0213,-12.3652,-4.75748,8.694230000000001,-5.89242,12.3236,48.1587,27.5096,-73.9538,0.18765,-0.0333281,0.561227,257.9,7.4,52.1701,4.42721,0.6,1.2622,386.252,4.2352,142.761,133.006,170.44,0.717992,-0.27285,259.078,0.932136,1.31263,-17.4295959472656,22.0035419464111,-35.0,22.0,1463240.0,3937.85,pp-ro,1,1,-1,-1
1570541349.8,2019-10-08,15:29:09.800,14.0,14.0,21.3500003814697,12.6,-12.2,-2.8,53.7,16.0,-73.1,11.2669,-12.577,-3.3793,9.87552,-0.313427,18.2266,51.0798,24.177,-70.9688,0.4732439999999999,-0.102323,0.71034,257.9,7.4,52.1701,4.42721,0.6,1.28215,398.62,4.23545,141.476,134.14600000000002,170.94,0.719839,-0.281867,259.29,1.01371,1.44453,-19.535758972168,22.0035419464111,-35.0,22.0,1463550.0,3107.21,pp-ro,1,1,-1,-1
1570541349.9,2019-10-08,15:29:09.900,14.0,15.0,21.1000003814697,13.4,-11.9,-2.2,56.8,12.5,-69.1,12.1345,-12.7456,-2.58692,14.547,-3.19436,17.2181,52.3691,22.5211,-69.6215,0.291779,-0.0776429999999999,0.777891,257.9,7.4,52.1701,4.42721,0.6,1.30985,406.81,4.23569,140.279,134.906,171.14,0.721287,-0.28918,259.165,1.11114,1.50486,-21.6521606445312,22.003026962280305,-35.0,22.0,1463920.0,3968.62,pp-ro,1,1,-1,-1
1570541350.0,2019-10-08,15:29:10.000,14.0,11.0,21.4300003051758,15.7,-11.5,0.5,60.1,7.5,-64.8,13.5846,-12.4521,-0.903732,15.117,6.1674,17.7291,55.1055,18.0921,-65.9429,0.536117,0.0458934,0.995352,257.9,7.4,52.1701,4.42721,0.5,1.30985,410.174,4.23594,139.08100000000002,136.806,171.24,0.720391,-0.3007,259.582,1.23489,1.68609,-23.7651519775391,22.0035419464111,-35.0,22.0,1464620.0,3876.33,pp-ro,1,1,-1,-1
1570541350.1,2019-10-08,15:29:10.100,14.0,11.0,21.719999313354503,17.3,-10.6,3.0,62.5,1.5,-60.6,14.8356,-11.7158,1.02488,10.0868,-0.0816313999999999,14.8319,57.2885,12.9883,-61.3937,-0.0537974,0.305417,1.27533,257.9,7.4,52.1701,4.42721,0.5,1.31096,403.763,4.236190000000001,137.91299999999998,137.946,171.14,0.720169,-0.309313,259.496,1.36909,1.83709,-25.8849639892578,22.003026962280305,-35.0,22.0,1465170.0,6491.31,pp-ro,1,1,-1,-1
1570541350.2,2019-10-08,15:29:10.200,14.0,11.0,22.1599998474121,17.8,-9.8,4.5,63.7,-1.6,-58.6,14.8356,-11.7158,1.02488,10.0868,-0.0816313999999999,14.8319,57.2885,12.9883,-61.3937,-0.0537974,0.305417,1.27533,257.9,7.4,52.1701,4.42721,0.5,1.29378,397.867,4.23643,137.417,138.70600000000002,170.94,0.719111,-0.314029,259.506,1.43709,1.92341,-27.9945373535156,22.0035419464111,-35.0,22.0,1465520.0,6952.77,pp-ro,1,1,-1,-1
1570541350.3,2019-10-08,15:29:10.300,14.0,11.0,22.2000007629395,18.8,-7.9,7.3,66.0,-9.5,-55.2,16.2011,-11.056,3.31007,17.2861,11.4737,25.1562,59.7558,6.8455,-56.3254,0.441297,0.120392,1.48252,257.9,7.4,52.1701,4.42721,0.5,1.27938,388.958,4.236680000000001,136.453,140.986,170.44,0.7152430000000001,-0.326023,259.897,1.59183,2.0920400000000003,-30.0256042480469,22.004056930542003,-35.0,22.0,1466060.0,5353.02,pp-ro,1,1,-1,-1
1570541350.4,2019-10-08,15:29:10.400,14.0,10.0,22.0400009155273,19.1,-5.9,9.7,66.9,-18.0,-50.8,17.8521,-7.52232,8.351569999999999,0.4331069999999999,20.0561,30.5587,63.3411,-7.46778,-46.3546,0.122225,0.2437889999999999,1.52715,257.9,7.4,52.1701,4.42721,0.5,1.25056,370.284,4.23692,135.752,142.506,169.84,0.71196,-0.334076,259.966,1.7646700000000002,2.23721,-31.7323760986328,22.004056930542003,-35.0,22.0,1466880.0,5568.37,pp-ro,1,1,-1,-1
1570541350.5,2019-10-08,15:29:10.500,14.0,12.0,21.7999992370605,19.6,-3.7,12.0,68.9,-25.1,-44.6,17.8521,-7.52232,8.351569999999999,0.4331069999999999,20.0561,30.5587,63.3411,-7.46778,-46.3546,0.122225,0.2437889999999999,1.52715,249.7,7.6,52.1701,4.42721,0.5,1.23727,359.256,4.23707,135.226,144.406,168.94,0.706779,-0.342894,260.154,1.93601,2.37675,-33.073898315429695,22.0035419464111,-35.0,22.0,1467180.0,5876.02,pp-ro,1,1,-1,-1
1570541350.6,2019-10-08,15:29:10.600,14.0,9.0,21.8400001525879,19.7,-1.3,14.6,69.4,-32.0,-39.0,18.2278,-3.20977,12.7317,6.98467,19.8024,27.1518,63.7143,-22.0037,-32.4939,0.320829,0.7017899999999999,1.43256,249.7,7.6,52.1701,4.42721,0.5,1.19626,338.092,4.23719,134.934,145.92600000000002,167.94,0.701576,-0.349317,260.203,2.0932,2.51795,-34.0604248046875,22.0035419464111,-35.0,22.0,1467830.0,6399.01,pp-ro,1,1,-1,-1
1570541350.7,2019-10-08,15:29:10.700,14.0,11.0,21.9599990844727,18.9,1.0,16.8,69.2,-39.2,-33.1,18.2278,-3.20977,12.7317,6.98467,19.8024,27.1518,63.7143,-22.0037,-32.4939,0.320829,0.7017899999999999,1.43256,249.7,7.6,52.1701,4.42721,0.5,1.18518,342.456,4.23731,134.875,148.20600000000002,166.54,0.693407,-0.357379,260.561,2.25438,2.6482900000000003,-34.691925048828104,22.003026962280305,-35.0,22.0,1468350.0,1261.34,pp-ro,1,1,-1,-1
1570541350.8,2019-10-08,15:29:10.800,14.0,11.0,22.280000686645497,18.0,3.5,18.6,66.9,-45.3,-24.9,17.1496,1.39228,17.078,-12.890999999999998,19.7466,17.2471,60.0159,-35.767,-17.88,0.444197,0.537469,1.47359,249.7,7.6,52.1701,4.42721,0.5,1.1990299999999998,338.64300000000003,4.23744,135.02100000000002,149.726,165.04,0.685976,-0.362041,260.551,2.41249,2.77113,-34.9564819335938,22.0025119781494,-35.0,22.0,1468470.0,2307.34,pp-ro,1,1,-1,-1
1570541350.9,2019-10-08,15:29:10.900,14.0,13.0,22.3199996948242,16.8,5.9,19.8,63.7,-51.7,-17.3,16.1392,3.69081,18.4743,-6.67426,25.23,10.6032,55.9693,-41.4763,-9.05049,-0.0187838,0.344783,1.54969,249.7,7.6,52.1701,4.42721,0.5,1.14695,297.193,4.23756,135.372,151.626,163.44,0.677226,-0.367144,260.823,2.56154,2.88382,-34.968414306640604,22.0025119781494,-35.0,22.0,1469200.0,8829.41,pp-ro,1,1,-1,-1
1570541351.0,2019-10-08,15:29:11.000,14.0,10.0,22.469999313354503,15.6,8.3,20.4,58.6,-58.9,-8.8,15.2409,6.0513,19.1179,-8.24382,17.8445,6.42969,50.6948,-47.8568,-0.320732,0.191896,0.284543,1.56923,249.7,7.6,52.1701,4.42721,0.6,1.06439,271.757,4.23768,136.043,153.14600000000002,161.64,0.6680510000000001,-0.369762,260.939,2.71509,2.98694,-34.968414306640604,22.0025119781494,-35.0,22.0,1469860.0,5353.02,pp-ro,1,1,-1,-1
1570541351.1,2019-10-08,15:29:11.100,14.0,12.0,22.469999313354503,13.7,10.2,20.9,47.8,-64.5,6.6,15.2409,6.0513,19.1179,-8.24382,17.8445,6.42969,50.6948,-47.8568,-0.320732,0.191896,0.284543,1.56923,249.7,7.6,52.1701,4.42721,0.6,1.13144,311.668,4.23781,136.89,154.666,159.94,0.658913,-0.371707,261.23,2.88256,3.08813,-34.970123291015604,22.0025119781494,-35.0,22.0,1469780.0,-1384.4,pp-ro,1,1,-1,-1
1570541351.2,2019-10-08,15:29:11.200,14.0,10.0,22.4200000762939,11.7,12.3,21.0,30.2,-66.6,29.1,14.5469,7.05618,19.259,-15.213,17.164,0.391753,46.7197,-50.6342,5.83649,0.0730793,0.483469,1.72908,249.7,7.6,52.1701,4.42721,0.6,1.15415,311.806,4.23793,137.912,155.806,158.14,0.64988,-0.371782,261.35,3.05338,3.1955400000000003,-34.970123291015604,22.0025119781494,-23.0116176605225,22.0,1469880.0,1876.63,pp-ro,1,1,-1,-1
1570541351.3,2019-10-08,15:29:11.300,14.0,12.0,22.5799999237061,8.7,15.4,21.0,3.6,-66.2,61.7,9.77717,11.5811,19.8148,-19.1306,15.2304,2.57309,15.8658,-55.557,46.0833,0.383356,0.695563,1.64116,249.7,7.6,52.1701,4.42721,0.6,1.11371,286.732,4.23805,139.869,157.326,155.44,0.636033,-0.369731,261.68,3.28462,3.35192,-35.0059814453125,22.0019989013672,-23.0092449188232,22.0,1470520.0,7537.3,pp-ro,1,1,-1,-1
1570541351.4,2019-10-08,15:29:11.400,14.0,11.0,22.4599990844727,7.5,16.2,20.8,-3.7,-64.8,70.6,8.81546,12.6099,19.9315,-16.7242,22.4801,5.08146,9.97802,-54.9001,53.9048,-0.325827,0.595777,1.36203,249.7,7.6,52.1701,4.42721,0.6,1.08434,294.143,4.238169999999999,140.57,158.086,154.64,0.631234,-0.369765,262.039,3.3552,3.40461,-34.9598999023438,22.0025119781494,-23.0116176605225,22.0,1470970.0,676.819,pp-ro,1,1,-1,-1
1570541351.5,2019-10-08,15:29:11.500,14.0,11.0,22.260000228881804,5.1,18.0,20.5,-15.7,-60.1,86.0,6.622660000000001,14.4465,19.7757,-18.7476,14.1415,-1.0596,-1.38805,-52.8581,68.1073,-0.157666,0.511785,1.42856,245.2,8.6,52.1701,4.42721,0.6,1.12368,310.322,4.2382800000000005,142.205,158.466,152.74,0.6222880000000001,-0.3653119999999999,262.03700000000003,3.50465,3.5100300000000004,-34.499053955078104,22.0035419464111,-23.0163822174072,22.0,1470920.0,-830.6410000000001,pp-ro,1,1,-1,-1
1570541351.6,2019-10-08,15:29:11.600,14.0,13.0,22.0200004577637,2.6,19.0,19.8,-26.0,-56.1,99.9,4.3469,15.7611,19.3648,-17.8199,11.9678,-2.81747,-11.1903,-49.1154,81.3914,-0.0877486,0.526547,1.42444,245.2,8.6,52.1701,4.42721,0.6,1.16745,332.72,4.23836,143.958,158.846,150.94,0.6134729999999999,-0.3605,262.181,3.64797,3.60558,-33.6763916015625,22.003026962280305,-23.0139999389648,22.0,1471080.0,2091.99,pp-ro,1,1,-1,-1
1570541351.7,2019-10-08,15:29:11.700,14.0,14.0,21.8899993896484,0.4,20.4,18.5,-31.3,-50.2,108.6,1.06725,17.3339,18.1216,-10.8832,14.7896,-3.99095,-22.7643,-43.0289,97.8535,0.0181660999999999,0.215493,1.47431,245.2,8.6,52.1701,4.42721,0.6,1.19626,341.68300000000005,4.23845,145.827,159.226,149.24,0.604799,-0.355355,262.471,3.78572,3.70824,-32.4953002929688,22.0035419464111,-23.0163822174072,22.0,1471540.0,4399.32,pp-ro,1,1,-1,-1
1570541351.8,2019-10-08,15:29:11.800,14.0,14.0,21.8099994659424,-1.8,21.3,17.2,-34.3,-43.8,114.9,1.06725,17.3339,18.1216,-10.8832,14.7896,-3.99095,-22.7643,-43.0289,97.8535,0.0181660999999999,0.215493,1.47431,245.2,8.6,52.1701,4.42721,0.6,1.1901700000000002,341.716,4.23854,147.784,159.226,147.54,0.5966020000000001,-0.3488,262.60400000000004,3.91898,3.80305,-30.9626159667969,22.0035419464111,-23.0163822174072,22.0,1471770.0,4307.03,pp-ro,1,1,-1,-1
1570541351.9,2019-10-08,15:29:11.900,14.0,14.0,21.6100006103516,-3.9,21.5,15.8,-37.1,-38.3,120.8,-1.1948299999999998,18.4703,17.169,-22.3653,9.801,-10.0524,-27.4811,-37.8135,105.567,0.0537415,0.224321,1.2509,245.2,8.6,52.1701,4.42721,0.6,1.19571,344.925,4.238630000000001,149.799,158.846,146.04,0.589526,-0.34094,262.677,4.04015,3.88921,-29.0800476074219,22.004056930542003,-23.018762588501,22.0,1472080.0,2830.33,pp-ro,1,1,-1,-1
1570541352.0,2019-10-08,15:29:12.000,14.0,15.0,21.4400005340576,-5.7,22.1,14.0,-39.3,-32.5,125.8,-4.37016,19.2138,15.1379,-22.3675,12.1067,-13.6625,-33.247,-30.6929,115.76,-0.00975315,0.33584,1.08604,245.2,8.6,52.1701,4.42721,0.6,1.20568,352.405,4.23871,151.931,158.466,144.64,0.582575,-0.3327739999999999,262.898,4.1614,3.9814,-27.6275787353516,22.004056930542003,-23.018762588501,22.0,1472620.0,3722.5,pp-ro,1,1,-1,-1
1570541352.1,2019-10-08,15:29:12.100,14.0,16.0,21.3600006103516,-7.5,22.2,12.5,-41.1,-26.8,130.7,-5.13327,19.3827,14.2332,-12.2559,5.69913,-17.0063,-34.7858,-27.8022,118.769,0.0137167,0.337327,1.23521,245.2,8.6,52.1701,4.42721,0.6,1.21067,354.05400000000003,4.2388,154.121,158.086,143.24,0.575521,-0.324509,263.177,4.282430000000001,4.064369999999999,-26.0163879394531,22.004056930542003,-23.018762588501,22.0,1472780.0,3168.74,pp-ro,1,1,-1,-1
1570541352.2,2019-10-08,15:29:12.200,14.0,16.0,21.3600006103516,-9.2,22.5,10.9,-41.3,-21.4,133.0,-7.02007,19.6425,13.0151,-28.1865,2.57758,-12.6239,-36.5183,-21.9639,123.356,-0.0193886,0.216955,0.77558,245.2,8.6,52.1701,4.42721,0.6,1.21843,354.793,4.2388900000000005,156.312,156.946,142.14,0.570515,-0.313923,263.19,4.3777,4.14719,-24.7431335449219,22.004056930542003,-21.7582454681396,22.0,1473200.0,4491.62,pp-ro,1,1,-1,-1
1570541352.3,2019-10-08,15:29:12.300,14.0,16.0,21.4799995422363,-10.5,22.3,9.4,-42.0,-16.8,136.1,-9.56964,19.9345,10.7478,-13.7973,-6.81792,-9.219,-39.0452,-15.0043,128.94899999999998,-0.162727,0.4361859999999999,0.762848,245.2,8.6,52.1701,4.42721,0.6,1.20901,350.975,4.23902,158.415,156.186,141.14,0.5653630000000001,-0.3049469999999999,263.457,4.46885,4.21715,-23.7532043457031,22.0035419464111,-20.5156002044678,22.0,1473630.0,3999.38,pp-ro,1,1,-1,-1
1570541352.4,2019-10-08,15:29:12.400,14.0,14.0,21.4799995422363,-11.8,21.9,7.6,-42.6,-12.2,138.8,-10.8652,19.6668,9.28034,-12.8195,-4.41145,-15.2175,-40.4437,-11.0333,132.205,-0.389293,-0.0513427,0.777729,245.2,8.6,52.1701,4.42721,0.6,1.20735,353.525,4.23907,160.634,155.046,140.14,0.5605479999999999,-0.294375,263.594,4.5562,4.29683,-22.6711044311523,22.004056930542003,-19.0785121917725,22.0,1474250.0,4183.97,pp-ro,1,1,-1,-1
1570541352.5,2019-10-08,15:29:12.500,14.0,16.0,21.6399993896484,-12.8,21.3,6.0,-43.1,-8.4,141.8,-12.0308,19.466,7.613760000000001,-14.8921,-2.89098,-18.0587,-41.4657,-7.55888,136.039,0.0189826999999999,0.183383,0.957805,241.1,7.2,52.1701,4.42721,0.6,1.21012,359.543,4.23911,162.737,153.526,139.44,0.557347,-0.283006,263.623,4.6342300000000005,4.365819999999999,-21.408088684082,22.004056930542003,-17.819959640502898,22.0,1474400.0,2922.63,pp-ro,1,1,-1,-1
1570541352.6,2019-10-08,15:29:12.600,14.0,15.0,21.6800003051758,-13.7,20.4,4.6,-43.5,-4.5,145.0,-13.0594,18.5716,6.07533,-9.69134,-4.71446,-15.0555,-41.9879,-3.44193,139.119,-0.1494579999999999,0.0755042,0.8651989999999999,241.1,7.2,52.1701,4.42721,0.6,1.25666,379.593,4.23915,164.782,152.386,138.84,0.553983,-0.273096,263.915,4.71655,4.43151,-20.3021011352539,22.004056930542003,-16.6323776245117,22.0,1474820.0,3937.85,pp-ro,1,1,-1,-1
1570541352.7,2019-10-08,15:29:12.700,14.0,15.0,21.8799991607666,-14.3,20.0,3.1,-43.8,-0.6,147.3,-13.4483,18.1901,5.43278,-6.01854,-11.8242,-14.8337,-42.1714,-1.28325,140.658,-0.0155911,0.109633,1.00023,241.1,7.2,52.1701,4.42721,0.6,1.26109,380.893,4.23919,166.68,151.246,138.24,0.550797,-0.263686,264.136,4.79095,4.49277,-19.679122924804695,22.004056930542003,-15.5312309265137,22.0,1475020.0,3937.85,pp-ro,1,1,-1,-1
1570541352.8,2019-10-08,15:29:12.800,14.0,16.0,21.9200000762939,-15.1,19.4,1.8,-43.2,3.8,148.9,-14.3595,17.6904,3.29687,-8.95498,-13.3367,-13.3787,-43.5805,4.31894,144.592,-0.158657,0.151338,0.5511229999999999,241.1,7.2,52.1701,4.42721,0.6,1.25888,378.66,4.23922,168.666,149.346,137.84,0.549089,-0.251552,264.107,4.864809999999999,4.55273,-18.4451293945312,22.004056930542003,-14.4316596984863,22.0,1475490.0,4768.5,pp-ro,1,1,-1,-1
1570541352.9,2019-10-08,15:29:12.900,14.0,16.0,21.9099998474121,-16.1,18.5,0.8,-43.3,6.7,151.7,-14.3595,17.6904,3.29687,-8.95498,-13.3367,-13.3787,-43.5805,4.31894,144.592,-0.158657,0.151338,0.5511229999999999,241.1,7.2,52.1701,4.42721,0.6,1.26442,391.339,4.23926,170.477,148.20600000000002,137.44,0.546596,-0.242495,264.41900000000004,4.92897,4.61186,-17.270866394043,22.004056930542003,-13.3615465164185,22.0,1475930.0,4060.91,pp-ro,1,1,-1,-1
1570541353.0,2019-10-08,15:29:13.000,14.0,15.0,21.9500007629395,-16.4,17.8,-0.2,-43.3,9.3,153.7,-14.3595,17.6904,3.29687,-8.95498,-13.3367,-13.3787,-43.5805,4.31894,144.592,-0.158657,0.151338,0.5511229999999999,241.1,7.2,52.1701,4.427219999999999,0.5,1.30819,417.231,4.23929,172.259,146.306,137.24,0.5457270000000001,-0.231014,264.411,4.97992,4.655819999999999,-15.8644866943359,22.004571914672898,-12.565505027771,22.0,1476090.0,984.464,pp-ro,1,1,-1,-1
1570541353.1,2019-10-08,15:29:13.100,14.0,14.0,21.8700008392334,-16.9,17.0,-1.3,-43.2,11.5,155.8,-15.4781,17.1145,2.07551,-3.28211,-5.66047,-11.1304,-44.0058,7.737080000000001,147.105,-0.203037,-0.151139,0.62168,241.1,7.2,52.1701,4.427219999999999,0.5,1.34476,431.347,4.239330000000001,174.011,144.406,136.94,0.544521,-0.219628,264.35900000000004,5.02583,4.70929,-14.6492538452148,22.004571914672898,-11.5936613082886,22.0,1476830.0,7414.24,pp-ro,1,1,-1,-1
1570541353.2,2019-10-08,15:29:13.200,14.0,16.0,21.9099998474121,-17.4,16.5,-2.4,-43.4,13.8,157.5,-16.3717,16.2237,0.510024,-4.69617,-13.3059,-13.6871,-44.0993,11.3508,151.15200000000002,0.194075,-0.11607,0.6844640000000001,241.1,7.2,52.1701,4.427219999999999,0.5,1.36138,447.334,4.23936,175.64700000000002,142.506,136.84,0.544081,-0.208581,264.358,5.06949,4.75818,-13.5040130615234,22.0050868988037,-10.6941156387329,22.0,1477210.0,2799.57,pp-ro,1,1,-1,-1
1570541353.3,2019-10-08,15:29:13.300,14.0,16.0,21.9500007629395,-17.8,15.5,-3.1,-43.2,15.2,159.6,-17.3597,14.84,-1.61197,-6.96787,-6.54315,-13.3949,-44.2444,15.6064,155.718,0.115447,0.11404,0.466526,241.1,7.2,52.1701,4.427219999999999,0.5,1.3885299999999998,455.377,4.2394,177.136,140.986,136.74,0.543349,-0.199257,264.485,5.10478,4.801819999999999,-12.4594650268555,22.0050868988037,-9.901780128479,22.0,1477360.0,2891.86,pp-ro,1,1,-1,-1
1570541353.4,2019-10-08,15:29:13.400,14.0,15.0,22.030000686645497,-18.0,14.7,-3.8,-43.0,16.8,160.6,-17.908,13.8597,-2.41148,2.65334,-9.90062,-6.3374,-44.2323,17.1713,157.494,-0.0633011,-0.24713,0.210351,241.1,7.2,52.1701,4.427219999999999,0.5,1.40017,462.973,4.2394300000000005,178.655,138.70600000000002,136.74,0.54377,-0.1872059999999999,264.301,5.13082,4.83893,-11.530975341796902,22.0050868988037,-9.22791957855225,22.0,1477950.0,6245.19,pp-ro,1,1,-1,-1
1570541353.5,2019-10-08,15:29:13.500,14.0,15.0,22.3099994659424,-18.1,14.1,-4.3,-43.6,18.6,161.5,-17.9949,13.4905,-2.80718,0.366596,-7.868180000000001,-4.51158,-44.1429,17.6287,158.441,-0.0174094,-0.138321,0.386868,236.0,7.1,52.1701,4.427219999999999,0.5,1.40515,457.649,4.23951,179.96900000000002,137.186,136.84,0.543868,-0.178427,264.451,5.16037,4.86612,-10.663932800293,22.0050868988037,-8.74341869354248,22.0,1478600.0,6829.72,pp-ro,1,1,-1,1
1570541353.6,2019-10-08,15:29:13.600,14.0,14.0,22.469999313354503,-18.0,13.4,-4.3,-43.3,19.6,164.1,-17.9949,13.4905,-2.80718,0.366596,-7.868180000000001,-4.51158,-44.1429,17.6287,158.441,-0.0174094,-0.138321,0.386868,236.0,7.1,52.1701,4.427219999999999,0.5,1.36526,441.835,4.23956,181.313,135.286,136.84,0.544008,-0.168204,264.39,5.19417,4.87545,-9.80201721191406,22.0056018829346,-8.62866306304932,22.0,1479730.0,6891.25,pp-ro,1,2,-1,1
1570541353.7,2019-10-08,15:29:13.700,14.0,16.0,22.5799999237061,-17.4,12.7,-4.2,-42.7,21.1,165.6,-17.9949,13.4905,-2.80718,0.366596,-7.868180000000001,-4.51158,-44.1429,17.6287,158.441,-0.0174094,-0.138321,0.386868,236.0,7.1,52.1701,4.427219999999999,0.5,1.36249,443.141,4.23962,182.54,133.386,136.94,0.54461,-0.158279,264.32,5.22449,4.87791,-9.10565185546875,22.0050868988037,-8.63871574401855,22.0,1480000.0,5629.9,pp-ro,1,2,-1,1
1570541353.8,2019-10-08,15:29:13.800,14.0,12.0,22.3899993896484,-17.4,12.4,-4.9,-42.9,23.6,165.7,-17.6527,11.9431,-3.4322699999999995,9.73601,-13.8841,-6.04736,-43.567,20.5898,163.287,-0.0337006,-0.366955,0.134172,236.0,7.1,52.1701,4.427219999999999,0.5,1.34697,416.175,4.239669999999999,183.767,131.486,137.14,0.545491,-0.148343,264.322,5.25497,4.90693,-8.71820831298828,22.004571914672898,-8.11209392547607,22.0,1481020.0,9352.4,pp-ro,1,2,-1,1
1570541353.9,2019-10-08,15:29:13.900,14.0,12.0,22.1100006103516,-17.6,12.1,-5.5,-42.4,23.9,166.4,-17.4072,11.4446,-4.26971,-4.08084,-6.777410000000001,-5.49958,-43.7606,23.7023,164.21900000000002,0.0744187,0.3941449999999999,0.311835,236.0,7.1,52.1701,4.427219999999999,0.5,1.30043,418.929,4.239730000000001,184.876,129.966,137.34,0.546086,-0.140071,264.448,5.26135,4.9341800000000005,-8.54924011230469,22.004571914672898,-7.61919927597046,22.0,1481730.0,4522.38,pp-ro,1,2,-1,1
1570541354.0,2019-10-08,15:29:14.000,14.0,16.0,21.7999992370605,-18.0,11.5,-5.6,-42.5,24.0,167.7,-17.6957,10.7971,-5.00367,-3.4125,-3.2579700000000003,-1.11097,-43.6036,23.9982,165.822,-0.152644,-0.208317,0.165575,236.0,7.1,52.1701,4.427219999999999,0.4,1.37579,460.617,4.23979,185.986,127.686,137.64,0.547821,-0.12903,264.272,5.2693,4.94905,-8.12937164306641,22.004571914672898,-7.36403656005859,22.0,1481730.0,-123.058,pp-ro,1,2,-1,1
