time,date,time_of_day,airspeed_temperature,airspeed_angle_of_attack,airspeed_apparent_windspeed,kite_0_vx,kite_0_vy,kite_0_vz,kite_0_roll,kite_0_pitch,kite_0_yaw,kite_1_vx,kite_1_vy,kite_1_vz,kite_1_ax,kite_1_ay,kite_1_az,kite_1_roll,kite_1_pitch,kite_1_yaw,kite_1_roll_rate,kite_1_pitch_rate,kite_1_yaw_rate,ground_upwind_direction,ground_wind_velocity,ground_pos_latitude,ground_pos_longitude,ground_pos_altitude,ground_tether_reelout_speed,ground_tether_force,est_upwind_direction,kite_pos_east,kite_pos_north,kite_height,kite_elevation,kite_azimuth,kite_distance,kite_heading,kite_course,kite_actual_steering,kite_actual_depower,kite_set_steering,kite_set_depower,ground_mech_energy,ground_mech_power,flight_phase,flight_phase_index,phase,pattern,pattern_section
1570533252.5,2019-10-08,13:14:12.500,14.0,9.0,15.6999998092651,13.0,-0.9,2.3,20.6,-3.2,-46.8,11.8442,-0.634265,2.9031,6.7011,9.25666,5.3486400000000005,24.3281,10.8988,-47.3757,0.200155,0.162723,0.8337629999999999,268.7,4.5,52.1701,4.42718,6.4,-2.56429,99.4404,4.616569999999999,56.0203,-9.50003,235.399,1.33395,0.263849,242.16,0.606743,1.3808200000000002,-34.970123291015604,22.0050868988037,-35.0,22.0,-908055.0,-5783.72,pp-riro,4,0,-1,-1
1570533252.6,2019-10-08,13:14:12.600,14.0,9.0,15.3000001907349,13.6,0.0,2.8,22.4,-4.4,-42.2,12.4461,0.355386,3.41914,4.31732,9.57978,6.12987,26.7264,9.65228,-42.0967,0.196443,0.1723859999999999,0.8660909999999999,268.7,4.5,52.1701,4.42718,6.4,-2.5742700000000003,90.8925,4.61667,55.9327,-7.97998,235.199,1.33505,0.237479,241.89,0.718396,1.48089,-34.973541259765604,22.0009689331055,-35.0,22.0,-908774.0,-8829.41,pp-riro,4,0,-1,-1
1570533252.7,2019-10-08,13:14:12.700,14.0,8.0,14.7700004577637,14.2,1.1,3.2,23.9,-6.4,-37.5,12.9329,1.39645,3.72575,7.65103,11.9913,2.69376,28.9157,8.00737,-36.6967,0.270971,0.1767099999999999,0.955218,268.7,4.5,52.1701,4.42718,6.4,-2.58812,85.8341,4.61678,55.9326,-6.839930000000001,234.999,1.33545,0.217349,241.661,0.8281120000000001,1.58006,-34.9854888916016,21.9994239807129,-35.0,22.0,-909376.0,-11475.2,pp-riro,4,0,-1,-1
1570533252.8,2019-10-08,13:14:12.800,14.0,8.0,14.2799997329712,14.6,2.2,3.5,25.4,-8.1,-32.8,13.1703,1.92336,3.85297,4.32805,10.0539,3.5692,29.6849,7.07114,-33.9306,0.135351,0.205141,0.981559,268.7,4.5,52.1701,4.42718,6.4,-2.6596,79.8249,4.61688,56.0494,-5.31988,234.799,1.33545,0.190194,241.455,0.944412,1.6792,-34.9923248291016,21.9994239807129,-35.0,22.0,-910928.0,-17689.6,pp-riro,4,0,-1,-1
1570533252.9,2019-10-08,13:14:12.900,14.0,9.0,13.9700002670288,14.9,3.3,3.9,26.8,-10.0,-28.0,13.5514,2.98585,4.323580000000001,3.16173,12.0571,5.48891,31.2494,5.13177,-28.6348,0.1325579999999999,0.165984,0.910659,260.4,5.0,52.1701,4.42718,6.4,-2.7549,77.768,4.61698,56.2539,-3.79982,234.599,1.33494,0.162858,241.279,1.06347,1.77574,-34.9906158447266,21.9994239807129,-35.0,22.0,-912949.0,-20335.3,pp-riro,4,0,-1,-1
1570533253.0,2019-10-08,13:14:13.000,14.0,9.0,13.8400001525879,15.1,4.5,4.3,28.0,-12.1,-22.7,13.5514,2.98585,4.323580000000001,3.16173,12.0571,5.48891,31.2494,5.13177,-28.6348,0.1325579999999999,0.165984,0.910659,260.4,5.0,52.1701,4.42718,6.4,-2.92278,76.9236,4.61701,56.5752,-2.65977,234.299,1.33361,0.142372,241.047,1.18546,1.86835,-34.9906158447266,21.9994239807129,-35.0,22.0,-916156.0,-23288.7,pp-riro,4,0,-1,-1
1570533253.1,2019-10-08,13:14:13.100,14.0,8.0,13.710000038147,15.2,5.1,4.5,28.7,-13.9,-17.1,13.7989,5.19134,4.97674,1.3792,11.2754,4.03874,33.3182,0.841916,-17.6418,0.109671,0.23444,0.954803,260.4,5.0,52.1701,4.42718,6.4,-2.97044,77.2889,4.61705,57.0424,-0.7597,233.999,1.33167,0.108672,240.853,1.32438,1.93522,-34.9923248291016,21.9994239807129,-35.0,22.0,-917378.0,-22858.0,pp-riro,4,0,-1,-1
1570533253.2,2019-10-08,13:14:13.200,14.0,8.0,13.5799999237061,15.5,6.3,4.9,29.1,-16.0,-12.1,13.947,6.33717,5.31465,1.24021,10.7379,5.63074,34.0101,-1.38991,-11.9183,0.1769109999999999,0.215182,0.970015,260.4,5.0,52.1701,4.42718,6.4,-3.08014,79.2768,4.61709,57.6266,0.760362,233.599,1.32891,0.0821211,240.603,1.44671,2.02299,-34.9923248291016,21.9994239807129,-35.0,22.0,-919574.0,-21750.5,pp-riro,4,0,-1,-1
1570533253.3,2019-10-08,13:14:13.300,14.0,8.0,13.380000114440902,15.5,7.7,5.4,29.3,-18.1,-7.2,14.066,6.95339,5.53071,3.63394,9.53116,2.40488,34.0744,-2.4868,-9.16035,0.0466294,0.242603,1.00689,260.4,5.0,52.1701,4.42718,6.4,-3.22808,81.3428,4.61713,58.3275,2.28043,233.199,1.32553,0.0561989,240.394,1.56625,2.12324,-34.9974365234375,21.9994239807129,-35.0,22.0,-922831.0,-22704.2,pp-riro,4,0,-1,-1
1570533253.4,2019-10-08,13:14:13.400,14.0,9.0,13.380000114440902,15.5,9.0,5.8,29.2,-20.2,-2.1,14.1986,8.82367,6.174169999999999,-0.623262,10.9684,4.59846,33.988,-5.57139,-0.8398260000000001,0.150202,0.200167,0.936533,260.4,5.0,52.1701,4.42718,6.4,-3.2757400000000003,82.3832,4.61717,59.2037,3.80049,232.699,1.3211700000000002,0.0311312999999999,240.142,1.6878,2.21126,-34.9991455078125,21.9994239807129,-35.0,22.0,-923989.0,-21135.2,pp-riro,4,0,-1,-1
1570533253.5,2019-10-08,13:14:13.500,14.0,10.0,13.640000343322802,15.5,10.3,6.4,29.1,-21.7,3.1,14.0373,10.0321,6.5079400000000005,-2.1126,12.2136,3.54086,33.6965,-7.73942,4.29257,0.0932338,0.178517,0.896199,260.4,5.0,52.1701,4.42718,6.5,-3.35331,87.8496,4.61721,60.1384,5.70057,232.099,1.31618,0.000688664,239.831,1.81223,2.30124,-34.9974365234375,21.9994239807129,-35.0,22.0,-925983.0,-20458.4,pp-riro,4,0,-1,-1
1570533253.6,2019-10-08,13:14:13.600,14.0,9.0,13.960000038147,15.4,11.5,6.6,28.6,-23.2,8.8,13.9911,10.6504,6.632810000000001,-2.09298,10.9694,4.69475,33.4856,-8.66792,6.95918,0.0250829,0.272633,0.913858,260.4,5.0,52.1701,4.42718,6.5,-3.40262,95.3973,4.61725,61.2482,7.220639999999999,231.899,1.31087,-0.0221912,239.96,1.93636,2.37478,-35.0059814453125,21.9994239807129,-35.0,22.0,-927531.0,-13751.7,pp-riro,4,0,-1,-1
1570533253.7,2019-10-08,13:14:13.700,14.0,10.0,14.3400001525879,15.1,12.6,7.1,28.2,-24.1,11.4,13.8029,11.7373,6.98718,-3.29971,11.6129,1.77226,32.8445,-10.3794,12.6757,0.122322,0.331399,1.01132,260.4,5.0,52.1701,4.42718,6.5,-3.42257,96.994,4.617290000000001,61.8032,7.60066,231.299,1.30782,-0.0272359,239.534,1.98864,2.4333,-35.0042724609375,21.9994239807129,-35.0,22.0,-928516.0,-9321.64,pp-riro,4,0,-1,-1
1570533253.8,2019-10-08,13:14:13.800,14.0,9.0,14.640000343322802,14.7,13.8,7.4,27.2,-25.7,17.7,13.4806,12.7616,7.399360000000001,-2.3062400000000003,10.8771,2.3845,31.8108,-11.8247,18.5949,-0.0116628,0.287124,0.977253,260.4,5.0,52.1701,4.42718,6.5,-3.44251,98.1652,4.61733,63.1175,9.50074,230.599,1.30076,-0.0543236999999999,239.27,2.12481,2.51478,-35.0042724609375,21.9994239807129,-35.0,22.0,-929562.0,-9813.87,pp-riro,4,0,-1,-1
1570533253.9,2019-10-08,13:14:13.900,14.0,10.0,15.0,14.5,15.2,7.7,26.4,-27.0,24.1,13.0385,14.4249,7.780410000000001,-3.4063,16.0961,3.29836,29.6393,-13.8916,27.8685,-0.0162028,0.344978,0.987794,261.7,5.0,52.1701,4.42718,6.5,-3.44362,108.112,4.617369999999999,64.5194,11.0208,229.899,1.29343,-0.0741403,239.035,2.25256,2.58521,-35.0042724609375,21.9994239807129,-35.0,22.0,-930415.0,-7844.94,pp-riro,4,0,-1,-1
1570533254.0,2019-10-08,13:14:14.000,14.0,9.0,15.2399997711182,13.9,16.6,8.3,25.9,-28.1,30.4,13.0385,14.4249,7.780410000000001,-3.4063,16.0961,3.29836,29.6393,-13.8916,27.8685,-0.0162028,0.344978,0.987794,261.7,5.0,52.1701,4.42718,6.5,-3.38156,130.416,4.6174,66.0382,12.1609,229.199,1.2858,-0.0871039,238.833,2.3698900000000003,2.66025,-35.0042724609375,21.9994239807129,-23.0,22.0,-930115.0,7229.65,pp-riro,4,0,-1,-1
1570533254.1,2019-10-08,13:14:14.100,14.0,11.0,15.5299997329712,13.0,18.0,9.2,24.6,-29.3,36.6,11.8772,16.9967,9.11979,-7.307580000000001,11.8707,7.34377,26.5637,-15.7626,41.0125,0.138902,0.271443,1.00387,261.7,5.0,52.1701,4.42718,6.5,-3.1145,155.606,4.617430000000001,67.703,14.061,228.299,1.2767,-0.109802,238.541,2.4933,2.75165,-35.0042724609375,21.9994239807129,-23.0,22.0,-926799.0,28826.3,pp-riro,4,0,-1,-1
1570533254.2,2019-10-08,13:14:14.200,14.0,11.0,15.859999656677198,12.1,19.6,9.7,23.5,-30.1,43.1,10.9945,18.4413,9.63758,-10.5493,12.2312,4.69617,25.0923,-16.6695,47.4091,-0.0857768999999999,0.324125,1.02667,261.7,5.0,52.1701,4.42718,6.5,-2.8551900000000003,161.767,4.61747,69.6306,15.201,227.299,1.26695,-0.119997,238.21,2.60716,2.82892,-34.775558471679695,21.9994239807129,-23.0,22.0,-923633.0,31810.5,pp-riro,4,0,-1,-1
1570533254.3,2019-10-08,13:14:14.300,14.0,11.0,16.3600006103516,11.0,20.9,10.0,22.4,-30.6,49.5,10.9945,18.4413,9.63758,-10.5493,12.2312,4.69617,25.0923,-16.6695,47.4091,-0.0857768999999999,0.324125,1.02667,261.7,5.0,52.1701,4.42718,6.5,-2.71556,164.84799999999998,4.61752,71.5583,16.7211,226.399,1.25694,-0.134644,238.026,2.72113,2.90614,-34.1645355224609,21.9994239807129,-23.0,22.0,-921949.0,32456.5,pp-riro,4,0,-1,-1
1570533254.4,2019-10-08,13:14:14.400,14.0,9.0,16.7800006866455,9.9,22.2,10.5,21.6,-31.0,56.0,9.99841,19.6278,10.0329,-8.03318,9.74752,4.15271,23.5364,-17.5977,53.4219,0.0898166,0.247098,0.934846,261.7,5.0,52.1701,4.42718,6.5,-2.38643,175.37099999999998,4.61753,73.6904,17.4812,225.399,1.24664,-0.138068,237.782,2.82546,2.96981,-33.1985015869141,21.9994239807129,-22.4181957244873,22.0,-918664.0,32364.2,pp-riro,4,0,-1,-1
1570533254.5,2019-10-08,13:14:14.500,14.0,11.0,17.2000007629395,8.5,23.3,11.1,20.4,-31.7,63.2,8.336969999999999,21.3258,10.6084,-12.1399,9.38389,3.3274,21.0701,-18.6423,63.1407,0.157957,0.293163,1.05977,261.7,5.0,52.1701,4.42718,6.5,-2.03293,191.03,4.61756,75.9686,18.6212,224.299,1.23526,-0.145535,237.546,2.94355,3.04137,-31.8774566650391,21.9994239807129,-21.693786621093803,22.0,-915429.0,34210.1,pp-riro,4,0,-1,-1
1570533254.6,2019-10-08,13:14:14.600,14.0,12.0,17.5,7.0,24.2,11.4,18.3,-32.2,70.2,7.00778,22.1721,11.0699,-13.9234,5.70394,1.90697,19.3239,-19.6228,69.87100000000001,0.175612,0.185678,1.11611,261.7,5.0,52.1701,4.42718,6.5,-1.3525200000000002,200.484,4.61759,78.2759,19.3813,223.299,1.22424,-0.1479089999999999,237.413,3.05251,3.10609,-30.1979827880859,21.9994239807129,-20.9621620178223,22.0,-910794.0,27934.2,pp-riro,4,0,-1,-1
1570533254.7,2019-10-08,13:14:14.700,14.0,8.0,17.7999992370605,5.4,24.9,11.4,16.5,-32.6,77.3,6.28801,22.4842,11.1411,-14.6824,5.79015,2.78171,18.2882,-20.1935,73.3525,0.123495,0.124859,1.11397,261.7,5.0,52.1701,4.42718,6.5,-1.12257,197.28,4.61763,80.6709,20.1414,222.199,1.21272,-0.149892,237.246,3.16142,3.17005,-28.1839904785156,21.9994239807129,-20.2749652862549,22.0,-909596.0,22150.4,pp-riro,4,0,-1,-1
1570533254.8,2019-10-08,13:14:14.800,14.0,9.0,18.0499992370605,3.7,25.1,11.4,14.1,-32.9,84.6,3.99006,23.3108,11.2312,-17.258,1.83021,3.11718,15.5161,-21.5722,83.5688,-0.258839,0.262486,1.20921,261.7,5.0,52.1701,4.42718,6.5,-0.647722,183.985,4.61768,83.1535,20.5214,221.099,1.2012200000000002,-0.147233,237.108,3.26822,3.2289,-26.1222076416016,21.9994239807129,-19.5758476257324,22.0,-908215.0,11813.6,pp-riro,4,0,-1,-1
1570533254.9,2019-10-08,13:14:14.900,14.0,9.0,18.2399997711182,2.0,25.1,11.2,12.3,-33.1,90.6,2.52888,23.5616,11.1038,-19.3508,1.46582,1.91532,13.7433,-22.4934,89.9056,-0.144786,0.267858,0.8451190000000001,263.9,5.5,52.1701,4.42718,6.5,-0.26873,168.15200000000002,4.6176900000000005,85.5777,20.9015,220.098,1.19008,-0.144835,237.073,3.355,3.28784,-24.227684020996104,21.9994239807129,-18.8829174041748,22.0,-907651.0,3445.62,pp-riro,4,0,-1,-1
1570533255.0,2019-10-08,13:14:15.000,14.0,8.0,18.2900009155273,0.7,24.8,10.8,10.6,-32.6,96.7,1.2716,23.3622,10.7254,-13.0746,-5.60672,-3.71192,12.0663,-23.0137,95.8095,0.3507699999999999,0.1456599999999999,0.86598,263.9,5.5,52.1701,4.42718,6.5,0.0565164,152.386,4.61776,88.0603,21.2815,218.998,1.17855,-0.142492,236.998,3.44403,3.3329800000000005,-22.5345611572266,21.9994239807129,-18.5060577392578,22.0,-907646.0,-738.3480000000001,pp-riro,4,0,-1,-1
1570533255.1,2019-10-08,13:14:15.100,14.0,8.0,18.2399997711182,-0.7,24.4,10.4,8.6,-31.9,102.2,0.573823,23.1622,10.4707,-7.952310000000001,-0.338066,-4.04361,11.2946,-23.2922,98.393,-0.123488,0.0981491,0.8226969999999999,263.9,5.5,52.1701,4.42718,6.5,0.298096,134.77100000000002,4.6178300000000005,90.5722,21.2815,217.998,1.16741,-0.136185,237.022,3.5215300000000003,3.37989,-21.0940399169922,21.9994239807129,-17.9809799194336,22.0,-907758.0,1661.28,pp-riro,4,0,-1,-1
1570533255.2,2019-10-08,13:14:15.200,14.0,6.0,18.1900005340576,-1.7,24.3,10.1,7.1,-30.7,106.8,-0.675354,23.0089,10.0486,-10.8985,1.84254,-5.6807300000000005,10.2458,-22.8247,103.369,0.0812736,0.194002,0.708342,263.9,5.5,52.1701,4.42718,6.5,0.224957,134.026,4.61789,92.9964,21.2816,217.098,1.15676,-0.13044,237.135,3.5882400000000003,3.41333,-19.9163665771484,21.9994239807129,-17.7337951660156,22.0,-907644.0,2153.51,pp-riro,4,0,-1,-1
1570533255.3,2019-10-08,13:14:15.300,14.0,6.0,17.9899997711182,-2.7,23.8,10.2,6.3,-30.2,111.0,-1.77242,22.8999,9.80645,-8.83106,-3.877580000000001,1.2753,9.05462,-22.0491,107.9,0.135975,0.369092,0.634521,263.9,5.5,52.1701,4.42718,6.5,0.219417,151.778,4.61796,95.4206,20.9016,216.198,1.1464299999999998,-0.121179,237.242,3.64396,3.44306,-18.8905944824219,21.9994239807129,-17.4633693695068,22.0,-907732.0,-1599.75,pp-riro,4,0,-1,-1
1570533255.4,2019-10-08,13:14:15.400,14.0,9.0,17.840000152587898,-3.8,23.2,10.2,4.6,-30.0,115.0,-2.64937,22.3168,9.82838,-11.3167,-3.22601,-0.2370679999999999,7.67306,-21.8243,112.258,0.159902,0.0476346,0.6007319999999999,263.9,5.5,52.1701,4.42718,6.5,0.314165,172.794,4.61803,97.7571,20.9017,215.298,1.1361,-0.116246,237.375,3.69907,3.48245,-17.980880737304698,21.9994239807129,-17.139928817749,22.0,-907746.0,1076.76,pp-riro,4,0,-1,-1
1570533255.5,2019-10-08,13:14:15.500,14.0,9.0,17.7399997711182,-4.6,22.9,9.9,2.7,-28.7,119.0,-3.99001,21.8328,9.58818,-3.06103,-3.3047800000000005,-2.98726,5.597119999999999,-21.1138,117.953,0.0759446,0.189216,0.542146,263.9,5.5,52.1701,4.42718,6.5,0.281474,155.421,4.6180900000000005,100.065,20.5217,214.398,1.12618,-0.1079519999999999,237.488,3.75661,3.5088,-17.7214508056641,21.9994239807129,-16.978765487670902,22.0,-907668.0,307.645,pp-riro,4,0,-1,-1
1570533255.6,2019-10-08,13:14:15.600,14.0,9.0,17.6900005340576,-5.5,22.8,9.6,1.3,-27.3,122.7,-3.99001,21.8328,9.58818,-3.06103,-3.3047800000000005,-2.98726,5.597119999999999,-21.1138,117.953,0.0759446,0.189216,0.542146,263.9,5.5,52.1701,4.42718,6.5,0.2715,155.363,4.61816,102.343,20.1417,213.498,1.11635,-0.100063,237.616,3.8113,3.5387800000000005,-17.2913436889648,21.9994239807129,-16.770149230957,22.0,-907627.0,799.877,pp-riro,4,0,-1,-1
1570533255.7,2019-10-08,13:14:15.700,14.0,10.0,17.6900005340576,-6.4,22.4,9.8,-0.1,-26.5,125.9,-4.81855,21.6623,9.16259,-6.30095,4.13654,-1.97013,3.83277,-20.2374,121.429,0.0681148,0.152428,0.478554,263.9,5.5,52.1701,4.42718,6.5,0.273163,171.297,4.6182300000000005,104.65,19.0017,212.598,1.10691,-0.0854241,237.72,3.85008,3.56142,-17.0626373291016,21.9994239807129,-16.5172481536865,22.0,-907612.0,-184.587,pp-riro,4,0,-1,-1
1570533255.8,2019-10-08,13:14:15.800,14.0,10.0,17.5900001525879,-7.4,22.1,9.8,-2.3,-26.0,129.3,-5.31217,21.6234,9.12074,-12.5186,-0.994624,2.3881900000000003,2.91149,-19.8368,123.181,-0.157353,0.27785,0.4718479999999999,263.9,5.5,52.1701,4.42718,6.5,0.329125,187.198,4.6183,106.928,18.6218,211.498,1.09666,-0.0782975,237.722,3.89656,3.59548,-16.830520629882802,21.9994239807129,-16.3207225799561,22.0,-907626.0,246.116,pp-riro,4,0,-1,-1
1570533255.9,2019-10-08,13:14:15.900,14.0,11.0,17.5900001525879,-8.4,21.7,9.7,-4.5,-24.7,132.5,-6.68165,21.1449,9.34207,-11.2811,-3.00664,-3.02857,0.0779656,-18.9711,128.17700000000002,-0.203843,-0.0349624,0.265575,254.6,4.3,52.1701,4.42718,6.5,0.3341119999999999,195.629,4.61836,109.119,17.8618,210.498,1.08713,-0.0681942,237.772,3.94277,3.62871,-16.5233001708984,21.9994239807129,-16.0345726013184,22.0,-907555.0,153.822,pp-riro,4,0,-1,-1
1570533256.0,2019-10-08,13:14:16.000,14.0,11.0,17.7399997711182,-9.4,21.5,9.7,-6.5,-23.4,135.8,-7.564430000000001,20.8532,9.02496,-4.59201,-4.567069999999999,-2.31328,-2.22772,-18.1541,131.38,-0.00202771,0.166736,0.413308,254.6,4.3,52.1701,4.42718,6.5,0.344085,200.0,4.61832,111.368,17.1018,209.398,1.07715,-0.0583266,237.787,3.99118,3.65911,-16.3014221191406,21.9994239807129,-15.8688726425171,22.0,-907535.0,369.174,pp-riro,4,0,-1,-1
1570533256.1,2019-10-08,13:14:16.100,14.0,12.0,17.7900009155273,-10.4,21.2,9.9,-8.7,-22.6,138.8,-7.564430000000001,20.8532,9.02496,-4.59201,-4.567069999999999,-2.31328,-2.22772,-18.1541,131.38,-0.00202771,0.166736,0.413308,254.6,4.3,52.1701,4.42718,6.5,0.356829,212.833,4.61828,113.529,15.9618,208.298,1.06765,-0.0455954,237.764,4.029730000000001,3.68577,-16.0607604980469,21.9994239807129,-15.6958770751953,22.0,-907494.0,276.88,pp-riro,4,0,-1,-1
1570533256.2,2019-10-08,13:14:16.200,14.0,11.0,17.8899993896484,-11.5,20.7,9.9,-10.3,-21.9,141.4,-9.61735,20.3337,9.21806,-9.43273,-4.88284,-0.425272,-6.572210000000001,-16.0126,137.125,-0.160001,-0.0462957,0.43667,254.6,4.3,52.1701,4.42718,6.5,0.388412,226.102,4.61824,115.632,14.8218,207.198,1.0583,-0.0333591,237.742,4.062209999999999,3.72059,-15.8849639892578,21.9994239807129,-15.3928165435791,22.0,-907471.0,399.9380000000001,pp-riro,4,0,-1,-1
1570533256.3,2019-10-08,13:14:16.300,14.0,12.0,17.9300003051758,-12.6,20.1,9.9,-12.0,-21.4,144.0,-11.2645,19.6137,9.18078,-11.6619,-6.17432,-2.86333,-10.0548,-15.7905,141.126,-0.219685,-0.137932,0.501834,254.6,4.3,52.1701,4.42718,6.5,0.419994,247.315,4.6182,117.735,13.6818,205.998,1.0486799999999998,-0.0215221,237.663,4.09359,3.75705,-15.5777435302734,21.9994239807129,-15.122206687927198,22.0,-907402.0,276.88,pp-riro,4,0,-1,-1
1570533256.4,2019-10-08,13:14:16.400,14.0,12.0,18.229999542236303,-13.6,19.6,10.0,-13.7,-20.4,146.4,-12.2987,19.0702,9.22248,-17.0777,-4.53595,-2.79316,-12.2974,-15.2872,143.381,-0.352001,0.0425404,0.13615,254.6,4.3,52.1701,4.42718,6.5,0.4482529999999999,262.372,4.61816,119.721,12.1618,204.798,1.03955,-0.00702869,237.536,4.12377,3.78483,-15.3422088623047,21.9994239807129,-14.9547548294067,22.0,-907356.0,553.761,pp-riro,4,0,-1,-1
1570533256.5,2019-10-08,13:14:16.500,14.0,12.0,18.4200000762939,-14.5,19.0,10.2,-15.3,-19.5,149.0,-12.7283,18.8053,9.33209,-8.80569,-4.3171800000000005,3.54421,-13.3042,-14.7103,144.626,-0.0787238999999999,0.195851,0.410876,254.6,4.3,52.1701,4.42718,6.4,0.45878,264.61400000000003,4.618119999999999,121.649,11.0218,203.598,1.03042,0.00389266,237.428,4.15931,3.81254,-15.1800689697266,21.9994239807129,35.0,22.0,-907321.0,707.5830000000001,pp-riro,4,0,-1,-1
1570533256.6,2019-10-08,13:14:16.600,14.0,12.0,18.6499996185303,-15.3,18.4,9.9,-16.7,-19.1,151.6,-12.7283,18.8053,9.33209,-8.80569,-4.3171800000000005,3.54421,-13.3042,-14.7103,144.626,-0.0787238999999999,0.195851,0.410876,254.6,4.3,52.1701,4.42718,6.4,0.457672,260.91700000000003,4.6180900000000005,123.606,9.50184,202.398,1.02123,0.0175699,237.347,4.1885,3.84085,-14.9547729492188,21.9994239807129,35.0,22.0,-907188.0,1538.22,pp-riro,4,0,-1,-1
1570533256.7,2019-10-08,13:14:16.700,14.0,11.0,18.8899993896484,-16.2,17.7,9.7,-17.5,-18.0,153.6,-14.538,17.4862,9.27315,-6.2721800000000005,-7.71773,-2.29848,-16.8627,-13.99,149.601,-0.222557,-0.0901203999999999,0.521417,254.6,4.3,52.1701,4.42718,6.4,0.851625,262.684,4.618040000000001,125.387,7.98183,201.298,1.0128,0.0307514999999999,237.29,4.215380000000001,3.87351,-14.4888229370117,21.9994239807129,35.0,22.0,-908912.0,-20089.2,pp-riro,4,0,-1,-1
1570533256.8,2019-10-08,13:14:16.800,14.0,11.0,19.020000457763697,-16.5,16.9,9.1,-18.3,-17.2,155.6,-15.3439,16.8287,9.06286,-4.37062,-5.14509,-4.14578,-18.1156,-13.5684,151.756,-0.0165044,0.0219367,0.349026,254.6,4.3,52.1701,4.42718,6.4,1.21455,246.908,4.618,127.111,6.46183,200.198,1.00451,0.0435806999999999,237.23,4.24019,3.89674,-13.9085159301758,21.9994239807129,35.0,22.0,-909560.0,18304.9,pp-riro,4,0,-1,-1
1570533256.9,2019-10-08,13:14:16.900,14.0,8.0,19.159999847412102,-16.7,16.2,8.6,-18.8,-16.2,157.1,-15.5421,16.410999999999998,8.85171,-4.06444,-5.07383,-8.08018,-18.6486,-13.2719,152.888,-0.10993,-0.0784131,0.392468,260.4,4.2,52.1701,4.42718,6.4,0.902046,220.861,4.61795,128.746,4.56181,199.198,0.996723,0.0589965,237.226,4.257569999999999,3.91257,-12.829833984375,21.9994239807129,35.0,22.0,-907922.0,7075.83,pp-riro,4,0,-1,-1
1570533257.0,2019-10-08,13:14:17.000,14.0,8.0,19.2099990844727,-17.0,15.4,8.8,-19.0,-15.8,158.6,-15.9023,15.4038,8.26946,-1.67196,-4.682,-0.226937,-19.4277,-12.9619,155.649,0.09404,-0.0290924,0.323166,260.4,4.2,52.1701,4.42718,6.4,1.0184,233.17,4.61803,130.32399999999998,3.0418,198.197,0.989011,0.0710618,237.225,4.272480000000001,3.92663,-11.389312744140598,21.9994239807129,35.0,22.0,-908588.0,-5168.43,pp-riro,4,0,-1,-1
1570533257.1,2019-10-08,13:14:17.100,14.0,9.0,19.2099990844727,-17.0,14.8,8.8,-19.4,-15.6,160.2,-16.2154,14.6591,8.456710000000001,-6.745369999999999,-3.79109,2.65275,-19.7057,-12.8836,157.605,-0.0268873,-0.117267,0.246044,260.4,4.2,52.1701,4.42718,6.4,1.01231,242.076,4.6181,131.842,1.14179,197.197,0.981453,0.0856765,237.21400000000003,4.28488,3.92862,-9.59719848632812,21.9994239807129,35.0,22.0,-908149.0,4522.38,pp-riro,4,0,-1,-1
1570533257.2,2019-10-08,13:14:17.200,14.0,10.0,19.25,-17.0,14.8,8.6,-19.5,-14.7,161.1,-16.2704,14.2065,8.33281,0.767624,0.832986,-3.1401,-19.874,-12.7403,159.718,0.0545376999999999,-0.1226309999999999,0.0949345,260.4,4.2,52.1701,4.42718,6.4,1.00898,228.241,4.618180000000001,133.273,-0.378222,196.297,0.974345,0.0970886,237.265,4.29638,3.92238,-7.51493072509766,21.9994239807129,35.0,22.0,-908028.0,1076.76,pp-riro,4,0,-1,-1
1570533257.3,2019-10-08,13:14:17.300,14.0,11.0,19.159999847412102,-17.2,14.5,8.9,-19.5,-14.3,161.8,-16.2704,14.2065,8.33281,0.767624,0.832986,-3.1401,-19.874,-12.7403,159.718,0.0545376999999999,-0.1226309999999999,0.0949345,260.4,4.2,52.1701,4.42718,6.4,0.984604,226.916,4.61825,134.734,-2.2782400000000003,195.397,0.96706,0.1110849999999999,237.357,4.2984,3.91895,-5.41218566894531,21.9994239807129,35.0,22.0,-907618.0,4183.97,pp-riro,4,0,-1,-1
1570533257.4,2019-10-08,13:14:17.400,14.0,12.0,19.020000457763697,-17.3,14.3,9.3,-19.7,-14.1,162.1,-16.2704,14.2065,8.33281,0.767624,0.832986,-3.1401,-19.874,-12.7403,159.718,0.0545376999999999,-0.1226309999999999,0.0949345,260.4,4.2,52.1701,4.42718,6.4,0.996794,237.585,4.61832,136.194,-3.79825,194.397,0.959487,0.121985,237.389,4.29547,3.91116,-3.3026123046875,21.9994239807129,35.0,22.0,-907629.0,-1076.76,pp-riro,4,0,-1,-1
1570533257.5,2019-10-08,13:14:17.500,14.0,9.0,18.8299999237061,-17.2,14.4,9.5,-20.2,-14.3,162.5,-16.8499,13.9724,8.99395,-2.77989,0.487868,4.08052,-20.6283,-13.5864,161.726,-0.0849331,-0.028962,0.0658979,260.4,4.2,52.1701,4.42718,6.4,1.03004,239.535,4.6184,137.53799999999998,-5.31825,193.397,0.952262,0.132678,237.376,4.29041,3.89379,-1.19303894042969,21.9994239807129,35.0,22.0,-907469.0,3168.74,pp-riro,4,0,-1,-1
1570533257.6,2019-10-08,13:14:17.600,14.0,11.0,18.7800006866455,-17.0,14.6,9.9,-20.7,-14.9,162.3,-16.8461,14.0289,9.14176,3.37388,2.14032,4.92061,-20.6733,-13.6755,161.86700000000002,-0.0117352999999999,-0.08012,-0.0363235,260.4,4.2,52.1701,4.42718,6.4,0.997902,232.128,4.618469999999999,138.969,-7.218269999999999,192.297,0.944372,0.145851,237.366,4.27105,3.86598,0.911178588867188,21.9994239807129,35.0,22.0,-907082.0,922.935,pp-riro,4,0,-1,-1
1570533257.7,2019-10-08,13:14:17.700,14.0,10.0,18.8299999237061,-16.9,14.8,10.6,-21.7,-15.5,161.8,-16.8353,14.3063,9.53015,-2.7162900000000003,-0.730563,5.49317,-21.332,-14.8181,161.903,-0.0859402,-0.158964,-0.145346,260.4,4.2,52.1701,4.42718,6.4,1.01065,237.63,4.61854,140.371,-8.73827,191.197,0.936581,0.156054,237.354,4.24993,3.83921,3.00945281982422,21.9994239807129,35.0,22.0,-906917.0,1815.1,pp-riro,4,0,-1,-1
1570533257.8,2019-10-08,13:14:17.800,14.0,10.0,18.729999542236303,-16.5,15.1,11.1,-22.2,-16.6,160.5,-16.8353,14.3063,9.53015,-2.7162900000000003,-0.730563,5.49317,-21.332,-14.8181,161.903,-0.0859402,-0.158964,-0.145346,260.4,4.2,52.1701,4.42718,6.4,1.0112,237.756,4.61862,141.80200000000002,-10.6383,190.097,0.928549,0.168691,237.398,4.21096,3.80282,5.11964416503906,21.9994239807129,35.0,22.0,-906807.0,2030.46,pp-riro,4,0,-1,-1
1570533257.9,2019-10-08,13:14:17.900,14.0,10.0,18.590000152587898,-15.8,15.6,11.7,-22.9,-17.8,158.8,-16.8383,14.7191,10.2124,4.7429,8.500010000000001,8.40734,-22.117,-16.1723,161.74,0.0238109,-0.016735,-0.0950608999999999,269.8,4.8,52.1701,4.42718,6.4,1.00566,231.929,4.61869,143.321,-12.1583,188.897,0.920007,0.178366,237.425,4.168019999999999,3.75436,7.22643280029297,21.9994239807129,35.0,22.0,-906587.0,2368.87,pp-riro,4,0,-1,-1
1570533258.0,2019-10-08,13:14:18.000,14.0,9.0,18.5,-15.3,16.0,12.4,-23.6,-19.2,156.8,-15.9468,15.8917,11.8431,9.46892,13.4367,6.876589999999999,-24.1493,-19.9371,158.356,-0.29829,-0.242677,-0.337965,269.8,4.8,52.1701,4.42718,6.4,0.992362,226.918,4.61889,144.869,-13.6783,187.597,0.911068,0.187738,237.417,4.11948,3.71361,9.33492279052734,21.9994239807129,35.0,22.0,-906243.0,2184.28,pp-riro,4,0,-1,-1
1570533258.1,2019-10-08,13:14:18.100,14.0,9.0,18.3999996185303,-14.4,16.6,13.1,-24.3,-21.3,154.3,-15.9468,15.8917,11.8431,9.46892,13.4367,6.876589999999999,-24.1493,-19.9371,158.356,-0.29829,-0.242677,-0.337965,269.8,4.8,52.1701,4.42718,6.4,0.991253,228.731,4.61909,146.388,-15.1983,186.297,0.902183,0.19685,237.417,4.0580300000000005,3.65728,11.4434127807617,21.9994239807129,35.0,22.0,-906145.0,1938.16,pp-riro,4,0,-1,-1
1570533258.2,2019-10-08,13:14:18.200,14.0,10.0,18.2999992370605,-13.9,16.8,13.5,-24.5,-22.3,152.8,-15.3817,16.5082,12.6769,9.3848,1.63542,8.457889999999999,-24.8613,-22.5547,156.39700000000002,-0.391363,-0.33892,-0.5672050000000001,269.8,4.8,52.1701,4.42718,6.4,1.01452,242.603,4.61929,147.264,-15.9583,185.597,0.8972110000000001,0.201143,237.461,4.0247,3.62919,13.5467910766602,21.9994239807129,35.0,22.0,-905983.0,1015.23,pp-riro,4,0,-1,-1
1570533258.3,2019-10-08,13:14:18.300,14.0,10.0,18.3999996185303,-12.8,17.4,14.3,-24.3,-24.8,149.3,-14.0546,17.5828,13.9978,9.84803,5.77176,7.80443,-25.9409,-27.1574,152.748,-0.318973,-0.231475,-0.6868609999999999,269.8,4.8,52.1701,4.42718,6.4,1.03336,252.109,4.61949,148.841,-17.4783,184.297,0.8880790000000001,0.209893,237.539,3.94735,3.56687,15.6552886962891,21.9994239807129,35.0,22.0,-905832.0,1722.81,pp-riro,4,0,-1,-1
1570533258.4,2019-10-08,13:14:18.400,14.0,11.0,18.770000457763697,-11.5,18.0,15.1,-23.5,-27.2,144.7,-13.0537,18.46,14.9721,6.95579,4.30544,6.672339999999999,-25.7609,-29.9327,148.767,-0.325228,-0.166025,-0.827417,269.8,4.8,52.1701,4.42718,6.4,1.03724,256.28,4.61969,151.47,-18.6182,182.797,0.875157,0.215104,238.127,3.85991,3.5018800000000003,17.7654800415039,21.9994239807129,35.0,22.0,-905734.0,1845.87,pp-riro,4,0,-1,-1
1570533258.5,2019-10-08,13:14:18.500,14.0,10.0,18.8199996948242,-9.8,18.4,16.0,-22.3,-30.1,139.7,-11.5842,19.0442,16.0625,10.5503,3.70783,9.67539,-25.5331,-33.7742,144.614,-0.706921,-0.285506,-0.8494879999999999,269.8,4.8,52.1701,4.42718,6.6,1.05386,266.284,4.61989,152.346,-19.3782,181.297,0.8679969999999999,0.2191199999999999,237.599,3.76549,3.42707,19.8807754516602,21.9994239807129,35.0,22.0,-905624.0,830.6410000000001,pp-riro,4,0,-1,-1
1570533258.6,2019-10-08,13:14:18.600,14.0,9.0,19.0,-8.0,18.8,16.5,-20.4,-33.4,133.7,-10.6334,19.414,16.5201,18.7861,9.66048,4.6669,-25.1364,-35.6929,142.15200000000002,-0.498378,-0.353463,-1.04915,269.8,4.8,52.1701,4.42718,6.6,1.0610700000000002,264.439,4.62009,154.128,-20.5182,179.797,0.857775,0.224733,237.704,3.65626,3.35063,21.9977874755859,21.9994239807129,35.0,22.0,-905244.0,3384.09,pp-riro,4,0,-1,-1
1570533258.7,2019-10-08,13:14:18.700,14.0,11.0,18.8700008392334,-6.1,19.1,17.1,-17.1,-36.1,126.6,-9.71074,19.6641,16.9989,13.351,8.88211,4.76434,-24.2642,-37.6214,139.296,-0.464616,-0.414633,-1.05529,269.8,4.8,52.1701,4.42718,6.6,1.04777,259.532,4.62029,155.968,-21.2781,178.197,0.847248,0.227791,237.766,3.54199,3.27336,24.1079788208008,21.9994239807129,35.0,22.0,-904969.0,2491.92,pp-riro,4,0,-1,-1
1570533258.8,2019-10-08,13:14:18.800,14.0,13.0,18.770000457763697,-3.8,19.2,17.3,-12.8,-38.4,117.4,-6.58215,20.6144,18.1259,20.5063,6.08296,5.91665,-19.9448,-43.2332,129.063,-0.247503,-0.0803363,-1.28826,269.8,4.8,52.1701,4.42718,6.6,1.04943,259.886,4.62049,157.89600000000002,-21.6581,176.597,0.836615,0.228318,237.879,3.40763,3.18585,26.2181701660156,21.9994239807129,35.0,22.0,-904865.0,2091.99,pp-riro,4,0,-1,-1
1570533258.9,2019-10-08,13:14:18.900,14.0,13.0,18.5300006866455,-1.6,19.3,17.5,-7.4,-40.5,108.1,-4.18614,20.8686,18.4603,28.9289,4.08723,4.4303300000000005,-15.1678,-46.5541,119.894,-0.284777,-0.149835,-1.06125,270.9,4.8,52.1701,4.42718,6.6,1.04555,258.115,4.62069,159.736,-22.038,175.097,0.8265459999999999,0.228902,238.033,3.27731,3.10125,28.3198547363281,21.9994239807129,23.0,22.0,-904509.0,2368.87,pp-riro,4,0,-1,-1
1570533259.0,2019-10-08,13:14:19.000,14.0,13.0,18.340000152587898,0.6,19.4,17.6,-1.3,-41.7,97.5,-1.64627,21.1637,18.8566,23.5428,-0.928475,1.22077,-9.37088,-49.3032,109.431,-0.545752,-0.399084,-1.22487,270.9,4.8,52.1701,4.42718,6.6,1.04555,260.676,4.62082,161.634,-22.038,173.49599999999998,0.816185,0.227144,238.143,3.13815,3.01856,30.3074188232422,21.9994239807129,23.0,22.0,-904389.0,2153.51,pp-ro,1,1,-1,-1
1570533259.1,2019-10-08,13:14:19.100,14.0,12.0,18.4300003051758,3.3,19.1,17.4,5.7,-41.8,86.2,-1.64627,21.1637,18.8566,23.5428,-0.928475,1.22077,-9.37088,-49.3032,109.431,-0.545752,-0.399084,-1.22487,270.9,4.8,52.1701,4.42718,6.6,1.06384,273.927,4.62095,163.562,-22.0379,171.896,0.805746,0.225432,238.299,2.99271,2.9162,31.9560546875,21.9994239807129,23.0,22.0,-904261.0,1107.52,pp-ro,1,1,-1,-1
1570533259.2,2019-10-08,13:14:19.200,14.0,13.0,18.8600006103516,5.6,18.6,17.1,12.7,-40.8,75.2,4.04441,21.0154,18.8187,30.3866,-3.70687,0.662086,6.38754,-52.2075,84.3445,-0.0258392999999999,-0.00493815,-1.23936,270.9,4.8,52.1701,4.42718,6.6,1.08545,279.648,4.6211400000000005,165.40200000000002,-21.6578,170.296,0.795729,0.221567,238.385,2.85067,2.82863,33.243621826171896,21.9994239807129,23.0,22.0,-904100.0,2030.46,pp-ro,1,1,-1,-1
1570533259.3,2019-10-08,13:14:19.300,14.0,12.0,19.270000457763697,7.6,17.5,16.3,19.1,-39.0,64.8,6.803660000000001,20.4216,18.325,21.795,-5.85754,-6.33465,14.3247,-51.2903,71.6364,-0.7401979999999999,0.0964653999999999,-1.78042,270.9,4.8,52.1701,4.42718,6.6,1.06827,267.164,4.62122,167.183,-20.8977,168.796,0.786323,0.215538,238.493,2.71296,2.74419,34.176956176757805,21.9994239807129,23.0,22.0,-903613.0,3568.68,pp-ro,1,1,-1,-1
1570533259.4,2019-10-08,13:14:19.400,14.0,12.0,19.3600006103516,9.7,16.7,15.2,25.2,-36.4,54.6,10.4938,19.0049,16.7718,21.2639,2.3490900000000003,-14.7875,26.2124,-47.7647,52.6287,-0.325321,-0.0497195999999999,-1.60879,270.9,4.8,52.1701,4.42718,6.6,1.05664,262.256,4.62136,168.93599999999998,-20.5177,167.396,0.7771600000000001,0.211959,238.708,2.5688,2.64803,34.7526245117188,21.9994239807129,23.0,22.0,-903441.0,3322.56,pp-ro,1,1,-1,-1
1570533259.5,2019-10-08,13:14:19.500,14.0,12.0,19.3199996948242,11.7,15.9,14.3,30.0,-32.3,45.8,10.4938,19.0049,16.7718,21.2639,2.3490900000000003,-14.7875,26.2124,-47.7647,52.6287,-0.325321,-0.0497195999999999,-1.60879,270.9,4.8,52.1701,4.42718,6.8,1.0610700000000002,271.825,4.6214900000000005,170.571,-18.9976,166.09599999999998,0.769026,0.2018829999999999,238.838,2.43031,2.56002,34.968917846679695,21.9994239807129,23.0,22.0,-903156.0,892.17,pp-ro,1,1,-1,-1
1570533259.6,2019-10-08,13:14:19.600,14.0,13.0,19.0300006866455,13.6,14.6,13.3,33.7,-28.4,37.6,12.8687,17.9955,15.6812,21.6665,-10.2776,-7.3072,32.0401,-43.9512,41.5052,0.0944476,-0.244415,-1.3312700000000002,270.9,4.8,52.1701,4.42718,6.8,1.07658,278.235,4.621630000000001,172.09,-17.8575,164.896,0.761379,0.1942279999999999,239.007,2.29561,2.46387,34.883758544921896,21.9994239807129,21.454761505127,22.0,-903095.0,1169.05,pp-ro,1,1,-1,-1
1570533259.7,2019-10-08,13:14:19.700,14.0,14.0,18.8500003814697,15.2,13.2,11.9,36.9,-24.0,30.1,15.1137,16.7691,14.5283,28.1466,-17.8675,-9.9294,36.2239,-39.6162,32.4523,0.172014,0.0603281999999999,-1.1875,270.9,4.8,52.1701,4.42718,6.8,1.09154,286.907,4.62176,173.55,-16.7174,163.796,0.7541869999999999,0.186725,239.224,2.16133,2.3645400000000003,34.384735107421896,21.9994239807129,19.7245922088623,22.0,-902895.0,2215.04,pp-ro,1,1,-1,-1
1570533259.8,2019-10-08,13:14:19.800,14.0,13.0,18.7000007629395,16.6,11.9,10.5,39.3,-19.5,23.6,16.9932,15.1185,12.9489,14.5074,-12.5091,-10.9788,39.2722,-34.6103,24.5757,-0.340276,0.0544899,-1.31019,270.9,4.8,52.1701,4.42718,6.8,1.0993,285.29200000000003,4.6218900000000005,174.835,-14.8173,162.796,0.747971,0.175109,239.352,2.03852,2.2718,33.52294921875,21.9994239807129,18.0619869232178,22.0,-902671.0,2461.16,pp-ro,1,1,-1,-1
1570533259.9,2019-10-08,13:14:19.900,14.0,11.0,18.659999847412102,17.6,10.5,9.0,41.2,-14.7,17.8,19.3218,12.6588,10.4708,10.0449,-18.8307,-12.7669,41.4404,-26.3224,14.8181,-0.469056,0.147352,-1.39727,264.1,4.6,52.1701,4.42718,6.8,1.07824,281.817,4.6220300000000005,176.033,-13.6772,161.89600000000002,0.7420899999999999,0.167968,239.551,1.91565,2.17913,32.305206298828104,21.9994239807129,16.425287246704098,22.0,-902159.0,2799.57,pp-ro,1,1,-1,-1
1570533260.0,2019-10-08,13:14:20.000,14.0,11.0,18.7000007629395,18.2,9.0,7.4,42.8,-10.3,12.2,20.1926,10.9618,8.66916,7.63496,-5.193219999999999,-10.3736,42.8056,-21.1667,8.47458,-0.571743,0.188572,-1.31075,264.1,4.6,52.1701,4.42718,6.8,1.08434,283.333,4.621980000000001,177.055,-11.3971,161.196,0.737518,0.154665,239.713,1.80323,2.09081,30.2852783203125,21.9994239807129,14.7861881256104,22.0,-902103.0,1076.76,pp-ro,1,1,-1,-1
1570533260.1,2019-10-08,13:14:20.100,14.0,12.0,18.75,18.7,7.8,6.0,43.2,-5.7,7.2,20.8784,9.41301,6.866810000000001,10.1266,-14.4875,-13.2986,43.2924,-15.9377,3.37646,-0.327454,0.0463825999999999,-1.09573,264.1,4.6,52.1701,4.42718,6.8,1.0993,283.374,4.62194,177.989,-9.87705,160.596,0.7333069999999999,0.145864,239.935,1.69163,2.01009,28.2857971191406,21.9994239807129,13.3178024291992,22.0,-901852.0,3261.04,pp-ro,1,1,-1,-1
1570533260.2,2019-10-08,13:14:20.200,14.0,12.0,18.6499996185303,19.2,6.4,4.5,43.6,-1.1,2.4,21.4206,7.8175,5.16218,15.0824,-13.7328,-16.8772,42.8877,-10.6051,-1.59365,-0.224959,-0.0415785,-1.34727,264.1,4.6,52.1701,4.42718,6.8,1.07991,279.378,4.6218900000000005,178.778,-7.97698,160.096,0.72983,0.135064,240.116,1.5833,1.91809,26.7018661499023,21.9994239807129,11.5860052108765,22.0,-901505.0,2738.04,pp-ro,1,1,-1,-1
1570533260.3,2019-10-08,13:14:20.300,14.0,12.0,18.6000003814697,19.3,5.4,3.1,44.1,2.7,-1.6,21.3983,7.05975,4.43411,-2.96733,-14.6873,-10.7598,42.9529,-8.084389999999999,-3.53979,-0.228685,0.0904253999999999,-1.06042,264.1,4.6,52.1701,4.42718,6.8,1.08545,281.786,4.62185,179.45,-6.07691,159.696,0.7269329999999999,0.124372,240.295,1.49453,1.84461,24.596778869628896,21.9994239807129,10.2047367095947,22.0,-901287.0,2061.22,pp-ro,1,1,-1,-1
1570533260.4,2019-10-08,13:14:20.400,14.0,12.0,18.4599990844727,19.4,4.3,1.9,44.2,6.6,-5.9,21.5036,5.74239,2.77126,-9.58069,-18.9283,-9.66859,43.0732,-3.04215,-7.30452,0.0236329,0.195285,-1.10334,264.1,4.6,52.1701,4.42718,6.8,1.09043,282.969,4.6218,180.00400000000002,-4.17684,159.39600000000002,0.724618,0.113767,240.471,1.40104,1.77188,22.4882888793945,21.9994239807129,8.81735610961914,22.0,-901031.0,2861.1,pp-ro,1,1,-1,-1
1570533260.5,2019-10-08,13:14:20.500,14.0,12.0,18.409999847412102,19.4,3.3,0.8,44.4,10.4,-9.9,21.4722,4.35154,1.3225,-6.803889999999999,-10.2405,-14.5655,42.4853,1.69064,-11.3687,0.1648599999999999,0.0420458,-0.933805,264.1,4.6,52.1701,4.42718,6.9,1.09099,284.249,4.62175,180.501,-2.27677,159.196,0.722722,0.103225,240.685,1.31259,1.7048,20.3832092285156,21.9994239807129,7.52807283401489,22.0,-900663.0,2153.51,pp-ro,1,1,-1,-1
1570533260.6,2019-10-08,13:14:20.600,14.0,13.0,18.4599990844727,19.2,2.4,-0.2,44.3,13.5,-13.7,21.2607,3.31449,0.099399,-5.41187,-7.98003,-11.6677,42.3055,5.81833,-15.3983,-0.0734315,0.0337277,-0.8707590000000001,264.1,4.6,52.1701,4.42718,6.9,1.09542,287.218,4.62171,180.851,0.00329495,159.096,0.721488,0.0906628,240.871,1.23721,1.6454099999999998,18.2713088989258,21.9994239807129,6.35714197158813,22.0,-900387.0,2891.86,pp-ro,1,1,-1,-1
1570533260.7,2019-10-08,13:14:20.700,14.0,11.0,18.6499996185303,19.1,1.5,-1.1,44.5,16.3,-17.5,20.8226,2.21957,-1.08105,0.452762,-8.86712,-10.1056,42.2696,9.79324,-19.1837,0.16294,0.0617256,-1.01258,264.1,4.6,52.1701,4.42718,6.9,1.10096,292.131,4.621659999999999,181.114,1.90335,158.996,0.720429,0.0801952,241.01,1.1646299999999998,1.58627,16.156005859375,21.9994239807129,5.19431495666504,22.0,-900175.0,1784.34,pp-ro,1,1,-1,-1
1570533260.8,2019-10-08,13:14:20.800,14.0,11.0,18.6499996185303,18.9,0.6,-1.9,44.8,19.1,-21.2,20.5156,1.2605,-2.18245,-1.51209,-2.67719,-14.3437,42.1707,13.6818,-22.6673,0.135971,0.0372586,-0.7515229999999999,264.1,4.6,52.1701,4.42718,6.9,1.10927,294.653,4.62162,181.289,3.8034,158.996,0.7198680000000001,0.0697735,241.164,1.09363,1.52995,14.0577392578125,21.9994239807129,4.06549596786499,22.0,-900059.0,2153.51,pp-ro,1,1,-1,-1
1570533260.9,2019-10-08,13:14:20.900,14.0,12.0,18.840000152587898,18.7,-0.1,-2.6,44.8,21.3,-24.6,19.9213,-0.0832069,-3.36177,-7.811089999999999,-12.2423,-7.5809,41.8802,18.6631,-27.6634,0.3583159999999999,0.00373347,-0.6370439999999999,266.5,4.7,52.1701,4.42718,6.9,1.11648,301.583,4.621569999999999,181.377,5.70345,159.096,0.719804,0.059361,241.333,1.03398,1.48364,11.9594650268555,21.9994239807129,3.11247444152832,22.0,-899790.0,2707.28,pp-ro,1,1,-1,-1
1570533261.0,2019-10-08,13:14:21.000,14.0,12.0,18.7900009155273,18.5,-1.0,-3.3,44.8,23.3,-27.5,19.9213,-0.0832069,-3.36177,-7.811089999999999,-12.2423,-7.5809,41.8802,18.6631,-27.6634,0.3583159999999999,0.00373347,-0.6370439999999999,266.5,4.7,52.1701,4.42718,6.9,1.13199,311.575,4.62154,181.348,7.6035,159.196,0.720005,0.0489323,241.429,0.982975,1.42984,9.83394622802734,21.9994239807129,1.9967266321182295,22.0,-899597.0,1784.34,pp-ro,1,1,-1,-1
1570533261.1,2019-10-08,13:14:21.100,14.0,10.0,18.840000152587898,18.4,-1.9,-3.8,44.8,24.3,-30.1,19.6271,-0.88456,-4.10186,-5.51408,-11.788,-1.97439,41.7988,21.7163,-30.329,0.0275754,0.106797,-0.57953,266.5,4.7,52.1701,4.42718,6.9,1.15415,319.78,4.6215,181.231,9.50354,159.39600000000002,0.7207020000000001,0.0384775,241.541,0.947601,1.38506,7.31669616699219,21.9994239807129,1.0337461233139,22.0,-899362.0,2553.45,pp-ro,1,1,-1,-1
1570533261.2,2019-10-08,13:14:21.200,14.0,10.0,18.840000152587898,17.8,-2.6,-4.0,45.0,25.2,-32.5,19.5194,-1.40709,-4.4201,-1.51007,-6.06717,-3.3409800000000005,41.8547,22.7245,-31.531,0.232821,-0.0593588,-0.459605,266.5,4.7,52.1701,4.42718,6.9,1.15471,322.509,4.62147,181.026,11.4036,159.596,0.721583,0.0279909,241.601,0.915807,1.35245,6.38337707519531,21.9994239807129,0.303183764219284,22.0,-899038.0,3014.92,pp-ro,1,1,-1,-1
1570533261.3,2019-10-08,13:14:21.300,14.0,12.0,19.25,17.5,-3.0,-4.4,45.4,26.1,-34.0,18.7949,-2.56985,-4.925,-9.42445,-5.57972,0.789135,42.0364,25.5271,-34.4202,0.0114378999999999,0.103585,-0.4446,266.5,4.7,52.1701,4.42718,6.9,1.13753,302.342,4.62144,180.763,13.3036,159.89600000000002,0.722878,0.017486,241.7,0.894808,1.32524,4.652984619140621,21.9994239807129,-0.34587836265564,22.0,-898435.0,5752.96,pp-ro,1,1,-1,-1
1570533261.4,2019-10-08,13:14:21.400,14.0,13.0,19.6200008392334,17.2,-3.5,-4.7,45.4,26.3,-35.1,18.2121,-2.94898,-5.17946,-5.22242,-1.82016,-4.62873,42.1773,26.8001,-35.9515,0.00810354,0.1094349999999999,-0.334271,266.5,4.7,52.1701,4.42718,6.9,1.11315,294.195,4.62141,180.442,15.2037,160.196,0.724276,0.00690781,241.771,0.8866149999999999,1.29816,3.1099395751953103,21.9994239807129,-1.00099873542786,22.0,-898158.0,5137.67,pp-ro,1,1,-1,-1
1570533261.5,2019-10-08,13:14:21.500,14.0,12.0,19.9300003051758,16.9,-4.0,-4.7,45.6,26.0,-36.4,17.6726,-3.66329,-5.53716,-0.73661,-1.62396,-2.5150900000000003,42.8338,27.7193,-37.2032,0.42416,-0.0987005,0.0379618,266.5,4.7,52.1701,4.42718,7.2,1.09597,290.115,4.62138,180.062,17.1037,160.496,0.725776,-0.00370826,241.813,0.881663,1.2827,1.75764465332031,21.9994239807129,-1.43339908123016,22.0,-897889.0,1938.16,pp-ro,1,1,-1,-1
1570533261.6,2019-10-08,13:14:21.600,14.0,12.0,19.9300003051758,16.7,-4.3,-4.9,45.5,25.6,-37.2,17.2285,-3.99384,-5.44526,-6.38479,-1.00163,-3.81915,43.0322,27.4056,-38.0282,0.00405671,-0.159853,0.107842,266.5,4.7,52.1701,4.42718,7.2,1.11038,295.087,4.62134,179.653,18.6237,160.89600000000002,0.727718,-0.0122624,241.887,0.882339,1.26637,0.333816528320312,21.9994239807129,-1.91116940975189,22.0,-897673.0,2553.45,pp-ro,1,1,-1,-1
1570533261.7,2019-10-08,13:14:21.700,14.0,10.0,20.1900005340576,16.5,-4.5,-5.0,46.3,25.6,-36.8,17.2285,-3.99384,-5.44526,-6.38479,-1.00163,-3.81915,43.0322,27.4056,-38.0282,0.00405671,-0.159853,0.107842,266.5,4.7,52.1701,4.42718,7.2,1.10706,292.722,4.62131,179.18599999999998,20.5237,161.296,0.7296630000000001,-0.0229756,241.961,0.8945299999999999,1.25862,-0.634918212890625,21.9994239807129,-2.22838020324707,22.0,-897400.0,2584.22,pp-ro,1,1,-1,-1
1570533261.8,2019-10-08,13:14:21.800,14.0,10.0,20.1900005340576,16.4,-4.8,-4.5,46.3,24.4,-37.4,17.2285,-3.99384,-5.44526,-6.38479,-1.00163,-3.81915,43.0322,27.4056,-38.0282,0.00405671,-0.159853,0.107842,266.5,4.7,52.1701,4.42718,7.2,1.10429,289.896,4.62127,178.718,22.0438,161.696,0.731679,-0.0316249,242.016,0.906705,1.27226,-1.46782684326172,21.9994239807129,-2.12317538261414,22.0,-896973.0,2768.8,pp-ro,1,1,-1,-1
1570533261.9,2019-10-08,13:14:21.900,14.0,10.0,20.0599994659424,16.3,-4.7,-4.4,46.7,23.5,-37.1,17.1603,-4.10958,-5.6201,-4.99246,-4.71039,-3.64951,42.9857,27.3135,-38.2601,0.150827,0.110752,-0.0872671,266.8,5.3,52.1701,4.42718,7.2,1.08489,274.422,4.62124,178.222,23.9438,161.995,0.73329,-0.0424169,242.031,0.928019,1.28482,-2.01058197021484,21.9994239807129,-2.02216267585754,22.0,-896619.0,3845.56,pp-ro,1,1,-1,-1
1570533262.0,2019-10-08,13:14:22.000,14.0,9.0,19.9300003051758,16.2,-4.4,-4.1,47.1,23.1,-36.6,16.9143,-4.49339,-5.31809,-8.49843,-5.2439,-0.623318,43.8935,27.1847,-37.5734,0.1695839999999999,-0.137392,0.428228,266.8,5.3,52.1701,4.42718,7.2,1.06882,264.654,4.62122,177.725,25.4638,162.395,0.7353,-0.0511508,242.08900000000003,0.944685,1.3114,-2.17784881591797,21.9994239807129,-1.66991531848907,22.0,-896397.0,4122.44,pp-ro,1,1,-1,-1
1570533262.1,2019-10-08,13:14:22.100,14.0,8.0,19.840000152587898,16.3,-4.2,-3.9,48.2,23.2,-35.3,16.6442,-4.11882,-4.5,0.361334,4.116619999999999,1.78296,44.6396,25.5767,-36.8487,-0.151292,0.0447727,0.0617992,266.8,5.3,52.1701,4.42718,7.2,1.04001,255.596,4.62121,177.287,27.3639,162.695,0.736644,-0.061966,242.176,0.966708,1.33598,-2.12834930419922,21.9994239807129,-1.31955254077911,22.0,-896020.0,3445.62,pp-ro,1,1,-1,-1
1570533262.2,2019-10-08,13:14:22.200,14.0,8.0,19.7600002288818,16.5,-4.4,-3.7,48.4,22.4,-35.5,16.7908,-4.28619,-4.12151,2.34172,-2.54082,6.80302,45.09,25.442,-35.893,-0.0295024,0.0355994,0.0540554999999999,266.8,5.3,52.1701,4.42718,7.2,1.04334,262.176,4.62119,176.84900000000002,28.8839,162.995,0.7381,-0.0707058,242.234,0.979568,1.34691,-1.78358459472656,21.9994239807129,-1.24896836280823,22.0,-895924.0,92.2935,pp-ro,1,1,-1,-1
1570533262.3,2019-10-08,13:14:22.300,14.0,9.0,19.6700000762939,16.3,-4.3,-3.4,48.2,21.0,-35.6,16.915,-4.53891,-3.71462,1.12225,2.30461,7.90113,45.6146,24.0814,-35.775,0.142486,-0.272092,0.256863,266.8,5.3,52.1701,4.42718,7.2,1.0655,261.858,4.621169999999999,176.352,30.4039,163.195,0.739373,-0.0795193999999999,242.193,1.00071,1.36524,-1.3859024047851598,21.9994239807129,-1.02060675621033,22.0,-895705.0,3230.27,pp-ro,1,1,-1,-1
1570533262.4,2019-10-08,13:14:22.400,14.0,12.0,19.4899997711182,16.3,-4.2,-3.5,48.5,20.5,-35.2,16.7751,-4.4106,-3.55813,-1.6402900000000002,6.1260900000000005,0.4111359999999999,45.5903,23.0703,-36.1951,0.2329679999999999,-0.327547,0.2243659999999999,266.8,5.3,52.1701,4.42718,7.2,1.04001,262.113,4.62116,175.885,31.9239,163.495,0.740831,-0.088327,242.251,1.0175,1.37057,-1.2237548828125,21.9994239807129,-1.07324397563934,22.0,-895377.0,2461.16,pp-ro,1,1,-1,-1
1570533262.5,2019-10-08,13:14:22.500,14.0,10.0,19.2600002288818,16.3,-4.8,-3.2,49.3,19.7,-34.2,16.7751,-4.4106,-3.55813,-1.6402900000000002,6.1260900000000005,0.4111359999999999,45.5903,23.0703,-36.1951,0.2329679999999999,-0.327547,0.2243659999999999,266.8,5.3,52.1701,4.42719,7.4,1.08101,276.742,4.6211400000000005,175.389,33.4439,163.795,0.74233,-0.0971754,242.299,1.04514,1.36776,-1.04283905029297,21.9994239807129,-1.2989330291748,22.0,-895236.0,1845.87,pp-ro,1,1,-1,-1
1570533262.6,2019-10-08,13:14:22.600,14.0,10.0,19.1200008392334,16.3,-4.6,-2.9,49.6,18.6,-33.7,16.6669,-4.87974,-3.28197,-0.0207613,-0.7829119999999999,-1.2304,46.4277,21.0061,-34.704,0.1055369999999999,0.0435564,0.223458,266.8,5.3,52.1701,4.42719,7.4,1.07658,274.143,4.62113,174.921,35.344,164.095,0.7435,-0.108117,242.433,1.07181,1.39491,-1.10769653320312,21.9994239807129,-0.9114710688591,22.0,-894947.0,2861.1,pp-ro,1,1,-1,-1
1570533262.7,2019-10-08,13:14:22.700,14.0,11.0,19.0300006866455,16.4,-4.5,-2.8,49.7,18.0,-33.7,16.7321,-4.84868,-3.17771,5.59469,3.4962699999999995,1.91433,46.7113,20.6701,-34.3258,0.144889,-0.0322295,0.171122,266.8,5.3,52.1701,4.42719,7.4,1.07049,269.124,4.62111,174.687,36.104,164.195,0.7440180000000001,-0.1125359999999999,242.444,1.08202,1.4074799999999998,-1.27666473388672,21.9994239807129,-0.729024350643158,22.0,-894795.0,2830.33,pp-ro,1,1,-1,-1
1570533262.8,2019-10-08,13:14:22.800,14.0,10.0,19.0799999237061,17.0,-4.4,-2.6,50.1,17.5,-33.4,16.7321,-4.84868,-3.17771,5.59469,3.4962699999999995,1.91433,46.7113,20.6701,-34.3258,0.144889,-0.0322295,0.171122,266.8,5.3,52.1701,4.42719,7.4,1.05885,266.543,4.621090000000001,174.19099999999997,37.624,164.495,0.7454069999999999,-0.1214369999999999,242.522,1.09778,1.43523,-1.131591796875,21.9994239807129,-0.351202636957169,22.0,-894502.0,2799.57,pp-ro,1,1,-1,-1
1570533262.9,2019-10-08,13:14:22.900,14.0,10.0,19.3099994659424,17.4,-4.6,-2.1,50.6,17.0,-33.5,17.8487,-4.809,-2.3711900000000004,6.88064,-1.50859,4.7889800000000005,47.4228,18.8855,-34.0264,0.0912082,-0.108142,0.0618315,261.5,4.9,52.1701,4.42719,7.4,1.06772,277.266,4.62107,173.753,39.5241,164.595,0.7457560000000001,-0.1323619999999999,242.577,1.11016,1.46185,-0.7253799438476559,21.9994239807129,0.091863080859184,22.0,-894325.0,1384.4,pp-ro,1,1,-1,-1
1570533263.0,2019-10-08,13:14:23.000,14.0,11.0,19.4500007629395,17.5,-4.5,-1.6,50.9,16.4,-34.0,17.9563,-4.8247800000000005,-1.7505700000000002,-7.518660000000001,3.0009900000000003,0.8399979999999999,47.5875,18.0076,-34.5478,0.0181275,-0.202918,0.150113,261.5,4.9,52.1701,4.42719,7.4,1.0993,283.605,4.62105,173.25599999999997,41.0441,164.795,0.746753,-0.141283,242.61,1.11747,1.49299,-0.445465087890625,21.9994239807129,0.564755737781525,22.0,-894060.0,2891.86,pp-ro,1,1,-1,-1
1570533263.1,2019-10-08,13:14:23.100,14.0,11.0,19.5799999237061,17.6,-4.2,-1.5,50.9,15.7,-34.2,17.9563,-4.8247800000000005,-1.7505700000000002,-7.518660000000001,3.0009900000000003,0.8399979999999999,47.5875,18.0076,-34.5478,0.0181275,-0.202918,0.150113,261.5,4.9,52.1701,4.42719,7.4,1.09376,279.28,4.62102,172.78900000000002,42.9441,164.895,0.7470720000000001,-0.152246,242.674,1.13112,1.5163799999999998,-0.066566467285156,21.9994239807129,0.940062701702118,22.0,-893862.0,3907.09,pp-ro,1,1,-1,-1
1570533263.2,2019-10-08,13:14:23.200,14.0,9.0,19.7199993133545,17.9,-4.3,-1.6,51.4,15.9,-33.6,17.9563,-4.8247800000000005,-1.7505700000000002,-7.518660000000001,3.0009900000000003,0.8399979999999999,47.5875,18.0076,-34.5478,0.0181275,-0.202918,0.150113,261.5,4.9,52.1701,4.42719,7.4,1.0716,278.113,4.62099,172.321,44.4641,164.995,0.747598,-0.161141,242.683,1.14218,1.5185,0.364471435546875,21.9994239807129,0.8753740191459659,22.0,-893540.0,2184.28,pp-ro,1,1,-1,-1
1570533263.3,2019-10-08,13:14:23.300,14.0,9.0,19.9400005340576,17.9,-4.9,-1.3,51.8,14.7,-33.5,18.2702,-4.63474,-1.65047,-0.7981550000000001,-7.67267,-2.95978,48.0939,17.1429,-34.7382,0.1250099999999999,-0.00676773,0.180321,261.5,4.9,52.1701,4.42719,7.4,1.09764,294.291,4.62097,171.854,46.3642,165.095,0.747807,-0.1721059999999999,242.775,1.1655799999999998,1.51699,0.8873367309570309,21.9994239807129,0.7613365054130551,22.0,-893431.0,861.4060000000001,pp-ro,1,1,-1,-1
1570533263.4,2019-10-08,13:14:23.400,14.0,9.0,20.159999847412102,17.8,-4.8,-1.2,51.7,13.6,-33.6,18.2702,-4.63474,-1.65047,-0.7981550000000001,-7.67267,-2.95978,48.0939,17.1429,-34.7382,0.1250099999999999,-0.00676773,0.180321,261.5,4.9,52.1701,4.42719,7.4,1.12368,297.588,4.62094,171.065,49.4042,165.195,0.747947,-0.189718,242.886,1.19005,1.53516,0.967384338378906,21.9994239807129,-35.0,22.0,-893072.0,3568.68,pp-ro,1,1,-1,-1
1570533263.5,2019-10-08,13:14:23.500,14.0,9.0,20.2399997711182,17.7,-4.6,-1.1,51.9,13.2,-33.3,18.0752,-4.93135,-1.38408,1.71885,3.25991,-3.76908,48.6475,14.908,-34.1378,0.11076,-0.0211062999999999,-0.002816,261.5,4.9,52.1701,4.42719,7.4,1.1026200000000002,292.187,4.62091,170.80200000000002,50.1642,165.195,0.748058,-0.1942019999999999,242.857,1.20172,1.54806,0.9060745239257808,21.9994239807129,-35.0,22.0,-892664.0,3722.5,pp-ro,1,1,-1,-1
1570533263.6,2019-10-08,13:14:23.600,14.0,10.0,20.2900009155273,17.8,-4.9,-1.0,51.8,13.1,-33.2,18.0752,-4.93135,-1.38408,1.71885,3.25991,-3.76908,48.6475,14.908,-34.1378,0.11076,-0.0211062999999999,-0.002816,261.5,4.9,52.1701,4.42719,7.4,1.1031799999999998,295.205,4.62089,170.30599999999998,51.6842,165.295,0.748475,-0.203156,242.895,1.21036,1.54881,0.7187271118164059,21.9994239807129,-35.0,22.0,-892546.0,2368.87,pp-ro,1,1,-1,-1
1570533263.7,2019-10-08,13:14:23.700,14.0,10.0,20.159999847412102,17.7,-4.9,-0.8,51.5,12.4,-33.4,18.1946,-5.120769999999999,-1.15343,-3.20788,-3.59993,-1.92361,48.3262,14.7632,-33.9906,-0.26719,-0.0216898,0.101448,261.5,4.9,52.1701,4.42719,7.4,1.12202,306.443,4.62086,169.78,53.5843,165.395,0.748609,-0.2141989999999999,243.006,1.22423,1.56313,0.281021118164062,21.9994239807129,-35.0,22.0,-892390.0,1538.22,pp-ro,1,1,-1,-1
1570533263.8,2019-10-08,13:14:23.800,14.0,9.0,20.2000007629395,17.8,-5.0,-0.7,51.7,11.9,-33.1,18.1285,-5.19988,-1.07455,0.6620699999999999,0.355328,5.22109,48.4598,14.3223,-34.0728,-0.0469805,0.0218319,0.180577,261.5,4.9,52.1701,4.42719,7.4,1.13476,306.488,4.620830000000001,169.25400000000002,55.1043,165.395,0.748712,-0.2232039999999999,242.98,1.2402799999999998,1.5709,-0.512031555175781,21.9994239807129,-35.0,22.0,-891936.0,4183.97,pp-ro,1,1,-1,-1
1570533263.9,2019-10-08,13:14:23.900,14.0,9.0,20.4200000762939,18.0,-4.9,-0.4,51.9,11.5,-32.9,18.1114,-5.25403,-0.957577,1.21023,1.05588,-1.50344,48.2998,14.2246,-33.7584,-0.170398,-0.00318289,0.08415,266.3,4.9,52.1701,4.42719,7.4,1.12645,310.92900000000003,4.6208,168.75799999999998,57.0043,165.495,0.748658,-0.234183,243.141,1.25525,1.59592,-2.01058197021484,21.9994239807129,-35.0,22.0,-891668.0,1753.58,pp-ro,1,1,-1,-1
1570533264.0,2019-10-08,13:14:24.000,14.0,8.0,20.5,18.3,-4.9,0.1,52.0,10.9,-33.4,18.4968,-5.2551,-0.417834,1.63731,-1.60293,0.45627,48.9116,13.8403,-32.7068,0.077024,0.0611833,0.131608,266.3,4.9,52.1701,4.42719,7.4,1.13975,314.226,4.62081,168.232,58.9044,165.495,0.74832,-0.245217,243.229,1.26432,1.62587,-3.6012954711914102,21.9994239807129,-35.0,22.0,-891608.0,1230.58,pp-ro,1,1,-1,-1
1570533264.1,2019-10-08,13:14:24.100,14.0,9.0,20.5,18.6,-4.6,0.3,52.6,10.4,-33.4,18.7348,-5.25817,0.175583,-2.25745,4.348330000000001,3.90246,49.1518,13.5557,-32.8673,0.0398859,-0.0389071,-0.116578,266.3,4.9,52.1701,4.42719,7.4,1.14196,314.811,4.62082,167.735,60.8044,165.495,0.747845,-0.2561969999999999,243.354,1.27813,1.6540400000000002,-5.56067657470703,21.9994239807129,-35.0,22.0,-891091.0,3968.62,pp-ro,1,1,-1,-1
1570533264.2,2019-10-08,13:14:24.200,14.0,8.0,20.4599990844727,19.1,-4.6,1.0,53.1,9.5,-32.7,18.8466,-5.06861,0.271913,3.31706,4.55565,2.23468,49.4021,13.3342,-32.6868,0.1219859999999999,0.0681454,0.115797,266.3,4.9,52.1701,4.42719,7.4,1.1403,314.474,4.620830000000001,167.239,62.3244,165.395,0.74738,-0.265161,243.328,1.30399,1.69006,-7.67536926269531,21.9994239807129,-35.0,22.0,-890954.0,2738.04,pp-ro,1,1,-1,-1
1570533264.3,2019-10-08,13:14:24.300,14.0,9.0,20.6700000762939,19.4,-4.5,1.6,53.8,7.5,-32.4,19.387,-4.85279,1.54828,2.42803,1.08839,6.23067,50.7339,11.7952,-30.7515,0.107248,0.0413995,0.44067,266.3,4.9,52.1701,4.42719,7.4,1.15027,317.639,4.62084,166.74200000000002,64.6045,165.295,0.746114,-0.278088,243.514,1.34167,1.7259799999999998,-9.78324127197266,21.9994239807129,-35.0,22.0,-890669.0,3014.92,pp-ro,1,1,-1,-1
1570533264.4,2019-10-08,13:14:24.400,14.0,9.0,20.840000152587898,19.6,-4.1,2.3,54.6,5.7,-31.5,19.4334,-4.65441,1.88718,3.95924,6.65689,4.74864,51.0828,10.8009,-30.2517,0.119248,-0.128847,0.427458,266.3,4.9,52.1701,4.42719,7.4,1.14584,311.158,4.62085,166.304,66.1245,165.095,0.745099,-0.286901,243.487,1.38132,1.7716900000000002,-11.8996429443359,21.9994239807129,-35.0,22.0,-890224.0,3168.74,pp-ro,1,1,-1,-1
1570533264.5,2019-10-08,13:14:24.500,14.0,10.0,21.0499992370605,20.1,-3.5,3.4,55.6,3.0,-30.4,19.4334,-4.65441,1.88718,3.95924,6.65689,4.74864,51.0828,10.8009,-30.2517,0.119248,-0.128847,0.427458,266.3,4.9,52.1701,4.42719,7.2,1.13864,304.34,4.62086,165.895,68.4045,164.895,0.743169,-0.299559,243.702,1.43763,1.84017,-13.9955596923828,21.9994239807129,-35.0,22.0,-889999.0,4245.5,pp-ro,1,1,-1,-1
1570533264.6,2019-10-08,13:14:24.600,14.0,10.0,21.1800003051758,20.6,-2.6,4.4,56.7,0.2,-29.3,19.5861,-4.06899,2.7537,6.51795,5.25736,14.2456,52.1955,8.98852,-28.6021,0.188389,0.0210145999999999,0.538304,266.3,4.9,52.1701,4.42719,7.2,1.10927,297.955,4.62087,165.574,70.3046,164.595,0.741051,-0.310015,243.821,1.49391,1.91075,-16.098312377929698,21.9994239807129,-35.0,22.0,-889580.0,3753.27,pp-ro,1,1,-1,-1
1570533264.7,2019-10-08,13:14:24.700,14.0,9.0,21.340000152587898,20.9,-1.8,6.1,57.9,-2.7,-27.3,20.2954,-2.35944,5.1017,1.7559900000000002,13.4787,16.7431,54.4886,3.73017,-24.781,0.0412031,0.0626618,0.589919,266.3,4.9,52.1701,4.42719,7.2,1.12479,311.72900000000004,4.6208800000000005,165.34,72.5846,164.095,0.737632,-0.322152,243.99400000000003,1.56347,1.99861,-18.2078857421875,21.9994239807129,-35.0,22.0,-889424.0,1045.99,pp-ro,1,1,-1,-1
1570533264.8,2019-10-08,13:14:24.800,14.0,9.0,21.340000152587898,21.4,-0.8,7.6,59.1,-6.5,-25.4,20.2954,-2.35944,5.1017,1.7559900000000002,13.4787,16.7431,54.4886,3.73017,-24.781,0.0412031,0.0626618,0.589919,266.3,4.9,52.1701,4.42719,7.2,1.15914,318.11,4.6208800000000005,165.19400000000002,74.4846,163.495,0.734052,-0.332086,244.065,1.64207,2.0788900000000003,-20.3276977539062,21.9994239807129,-35.0,22.0,-889034.0,4491.62,pp-ro,1,1,-1,-1
1570533264.9,2019-10-08,13:14:24.900,14.0,10.0,21.4300003051758,21.6,0.3,9.1,60.4,-10.5,-22.7,20.658,-1.00579,7.45792,1.87726,8.69202,15.4896,56.3078,-1.26526,-20.6644,0.143137,0.0859236999999999,0.669212,267.8,4.9,52.1701,4.42719,7.2,1.13531,311.075,4.62089,165.165,76.3847,162.795,0.729831,-0.34168,244.164,1.7322799999999998,2.15961,-22.450927734375,21.9994239807129,-35.0,22.0,-888636.0,3445.62,pp-ro,1,1,-1,-1
1570533265.0,2019-10-08,13:14:25.000,14.0,9.0,21.4599990844727,21.2,1.6,10.9,61.3,-15.4,-20.1,20.658,-1.00579,7.45792,1.87726,8.69202,15.4896,56.3078,-1.26526,-20.6644,0.143137,0.0859236999999999,0.669212,267.8,4.9,52.1701,4.42719,7.2,1.13753,309.25,4.6208800000000005,165.22299999999998,78.6647,161.895,0.724298,-0.352853,244.329,1.83392,2.25851,-24.5639190673828,21.9994239807129,-35.0,22.0,-888497.0,2584.22,pp-ro,1,1,-1,-1
1570533265.1,2019-10-08,13:14:25.100,14.0,9.0,21.6299991607666,20.7,3.2,12.4,61.8,-20.7,-16.6,20.6556,0.325357,8.98316,-0.25105,9.23996,17.5027,57.0976,-5.36613,-17.2629,0.200928,0.2289909999999999,1.0564,267.8,4.9,52.1701,4.42719,7.2,1.1303299999999998,303.462,4.62087,165.42700000000002,80.5648,160.795,0.718191,-0.361687,244.36,1.94864,2.35576,-26.6769104003906,21.9994239807129,-35.0,22.0,-888128.0,4214.73,pp-ro,1,1,-1,-1
1570533265.2,2019-10-08,13:14:25.200,14.0,8.0,21.8700008392334,20.2,5.0,14.0,61.7,-26.3,-12.8,19.0183,4.17645,12.7253,-4.92386,16.5725,10.4979,57.1606,-18.6234,-7.57379,0.0942185,-0.114684,1.28541,267.8,4.9,52.1701,4.42719,7.2,1.11703,300.267,4.62086,165.80700000000002,82.8448,159.695,0.7111770000000001,-0.371838,244.658,2.06993,2.4575,-28.7864837646484,21.9994239807129,-35.0,22.0,-887814.0,2584.22,pp-ro,1,1,-1,-1
1570533265.3,2019-10-08,13:14:25.300,14.0,9.0,22.190000534057603,19.6,6.6,16.0,61.8,-32.3,-8.3,18.5684,5.85428,14.4807,-3.07945,14.7589,18.64,56.203,-24.4895,-2.30587,0.197846,0.215994,1.23161,267.8,4.9,52.1701,4.42719,7.2,1.13199,317.16700000000003,4.62084,166.362,84.3649,158.395,0.7040069999999999,-0.377786,244.709,2.19884,2.5536,-30.694656372070305,21.9994239807129,-35.0,22.0,-887578.0,2061.22,pp-ro,1,1,-1,-1
1570533265.4,2019-10-08,13:14:25.400,14.0,10.0,22.4599990844727,18.3,8.4,17.7,60.2,-39.0,-2.8,18.5684,5.85428,14.4807,-3.07945,14.7589,18.64,56.203,-24.4895,-2.30587,0.197846,0.215994,1.23161,267.8,4.9,52.1701,4.42719,7.2,1.20901,349.907,4.620830000000001,167.092,86.6449,156.894,0.694876,-0.386824,245.036,2.34478,2.66137,-31.8996429443359,21.9994239807129,-35.0,22.0,-887530.0,922.935,pp-ro,1,1,-1,-1
1570533265.5,2019-10-08,13:14:25.500,14.0,9.0,22.6200008392334,16.2,10.2,19.2,57.0,-46.2,5.2,16.3226,8.23423,16.8577,-20.2726,14.0281,7.89544,52.0024,-33.793,8.46472,-0.0973238,0.229475,1.47914,267.8,4.9,52.1701,4.42719,7.0,1.22009,348.12800000000004,4.62082,167.997,88.165,155.194,0.685615,-0.391727,245.115,2.5113,2.77937,-33.2001953125,21.9994239807129,-35.0,22.0,-887313.0,4122.44,pp-ro,1,1,-1,-1
1570533265.6,2019-10-08,13:14:25.600,14.0,9.0,22.8400001525879,14.3,12.0,20.1,51.6,-52.6,14.4,15.4761,9.13729,17.4724,-18.3227,9.99164,11.7257,49.8785,-36.6974,12.5834,0.00738641,0.405518,1.4332,267.8,4.9,52.1701,4.42719,7.0,1.1813,335.892,4.62081,169.078,89.685,153.494,0.675955,-0.396123,245.33900000000003,2.66787,2.88305,-34.3300933837891,22.0025119781494,-35.0,22.0,-886730.0,5076.14,pp-ro,1,1,-1,-1
1570533265.7,2019-10-08,13:14:25.700,14.0,9.0,22.8400001525879,11.7,13.5,21.1,43.9,-58.0,27.1,12.5206,11.3899,18.9059,-21.2869,12.3867,11.6413,40.1374,-45.0205,28.1218,0.0116946,0.4740649999999999,1.48748,267.8,4.9,52.1701,4.42719,7.0,1.17521,330.51800000000003,4.62079,170.304,90.8251,151.694,0.6661100000000001,-0.398351,245.487,2.82872,2.99742,-34.8182373046875,22.0025119781494,-35.0,22.0,-886422.0,2953.39,pp-ro,1,1,-1,-1
1570533265.8,2019-10-08,13:14:25.800,14.0,9.0,23.030000686645497,8.5,14.9,21.4,33.3,-62.3,42.2,9.90163,12.7643,19.796,-23.1518,12.9603,7.589180000000001,32.1126,-49.1427,41.0355,0.275538,0.34928,1.75013,267.8,4.9,52.1701,4.42719,7.0,1.16357,320.113,4.62078,171.706,91.9651,149.894,0.655892,-0.400117,245.782,2.98179,3.12489,-34.9513549804688,22.0025119781494,-23.0116176605225,22.0,-885968.0,4830.02,pp-ro,1,1,-1,-1
1570533265.9,2019-10-08,13:14:25.900,14.0,9.0,23.030000686645497,5.7,16.4,21.2,19.9,-64.1,60.2,9.90163,12.7643,19.796,-23.1518,12.9603,7.589180000000001,32.1126,-49.1427,41.0355,0.275538,0.34928,1.75013,266.9,5.0,52.1701,4.42719,7.0,1.1297700000000002,304.469,4.620769999999999,173.225,93.1052,148.094,0.645447,-0.401568,246.185,3.12961,3.24194,-34.9530639648438,22.0025119781494,-23.0116176605225,22.0,-885362.0,3630.21,pp-ro,1,1,-1,-1
1570533266.0,2019-10-08,13:14:26.000,14.0,9.0,22.8700008392334,2.9,17.4,20.9,6.1,-63.1,78.4,6.88887,13.9584,19.9459,-31.9455,12.7783,2.90038,23.0901,-51.365,54.3123,0.147619,0.163177,1.23165,266.9,5.0,52.1701,4.42719,7.0,1.1259,304.838,4.62071,174.889,93.4852,146.394,0.635918,-0.399257,246.489,3.2728200000000003,3.34965,-34.925750732421896,22.0025119781494,-23.0116176605225,22.0,-885170.0,3476.39,pp-ro,1,1,-1,-1
1570533266.1,2019-10-08,13:14:26.100,14.0,9.0,22.5200004577637,0.0,17.9,20.7,-5.1,-61.3,93.8,4.26037,15.1069,19.7582,-26.363000000000003,13.7714,-0.2622489999999999,12.9089,-51.9501,68.1964,0.062085,0.4745609999999999,1.40565,266.9,5.0,52.1701,4.42719,7.0,1.12756,308.433,4.62069,176.613,93.4852,144.694,0.6267119999999999,-0.39513,246.71400000000003,3.40115,3.4526800000000004,-34.468338012695305,22.0025119781494,-23.0116176605225,22.0,-884955.0,1876.63,pp-ro,1,1,-1,-1
