time,date,time_of_day,airspeed_temperature,airspeed_angle_of_attack,airspeed_apparent_windspeed,kite_0_vx,kite_0_vy,kite_0_vz,kite_0_roll,kite_0_pitch,kite_0_yaw,kite_1_vx,kite_1_vy,kite_1_vz,kite_1_ax,kite_1_ay,kite_1_az,kite_1_roll,kite_1_pitch,kite_1_yaw,kite_1_roll_rate,kite_1_pitch_rate,kite_1_yaw_rate,ground_upwind_direction,ground_wind_velocity,ground_pos_latitude,ground_pos_longitude,ground_pos_altitude,ground_tether_reelout_speed,ground_tether_force,est_upwind_direction,kite_pos_east,kite_pos_north,kite_height,kite_elevation,kite_azimuth,kite_distance,kite_heading,kite_course,kite_actual_steering,kite_actual_depower,kite_set_steering,kite_set_depower,ground_mech_energy,ground_mech_power,flight_phase,flight_phase_index,phase,pattern,pattern_section
1570542298.8,2019-10-08,15:44:58.800,14.0,9.0,14.9499998092651,10.9,-4.1,2.0,17.1,-1.0,-72.6,9.70665,-3.4481,2.43213,11.831,4.95402,3.94641,19.9574,13.6089,-75.7994,0.192912,0.299051,0.946556,248.3,5.4,52.17,4.4272,4.0,-2.34044,110.293,4.23172,67.7616,11.4009,242.936,1.29515,0.31398,252.467,0.488396,1.4312,-34.8284606933594,22.0267143249512,-35.0,22.0,2285240.0,984.464,pp-riro,4,0,-1,-1
1570542298.9,2019-10-08,15:44:58.900,14.0,9.0,14.7700004577637,12.0,-3.4,2.4,19.0,-2.5,-67.1,10.7436,-2.80642,2.75431,9.83751,7.21398,3.00824,22.1658,12.6059,-69.6973,0.141065,0.27737,0.992439,248.3,5.4,52.17,4.4272,4.0,-2.3199400000000003,108.583,4.231730000000001,67.3818,12.9209,242.836,1.29544,0.291198,252.343,0.6140260000000001,1.53974,-34.971832275390604,22.007661819458,-35.0,22.0,2285270.0,615.29,pp-riro,4,0,-1,-1
1570542299.0,2019-10-08,15:44:59.000,14.0,9.0,14.5900001525879,13.1,-2.5,2.6,20.8,-4.0,-62.0,11.209,-2.37838,3.01447,9.90504,7.5157,6.42585,23.2655,11.8815,-66.7037,0.0749165,0.0911514,1.03709,248.3,5.4,52.17,4.4272,4.0,-2.29002,103.63,4.23169,67.0605,14.061,242.636,1.29557,0.274014,252.125,0.727224,1.6411,-34.971832275390604,22.0009689331055,-35.0,22.0,2285120.0,-2614.98,pp-riro,4,0,-1,-1
1570542299.1,2019-10-08,15:44:59.100,14.0,8.0,14.5299997329712,14.0,-1.6,2.8,22.6,-5.0,-56.5,12.6425,-1.15887,3.42372,8.48888,7.760619999999999,1.20087,26.1763,9.36132,-58.0789,0.2500969999999999,0.202818,0.962661,248.3,5.4,52.17,4.42719,4.0,-2.28005,98.4859,4.23171,66.8561,15.201,242.536,1.2953,0.257112,252.041,0.845567,1.72988,-34.970123291015604,22.0009689331055,-35.0,22.0,2284600.0,-5906.78,pp-riro,4,0,-1,-1
1570542299.2,2019-10-08,15:44:59.200,14.0,8.0,14.3999996185303,15.0,-0.8,3.2,24.3,-6.7,-51.1,13.5265,-0.306767,3.7102,10.3938,8.56125,2.97663,28.0561,7.819789999999999,-52.2934,0.1663099999999999,0.241337,1.02531,248.3,5.4,52.17,4.42719,4.0,-2.30221,97.9484,4.2317,66.71,16.7211,242.336,1.29427,0.235091,251.906,0.969865,1.81255,-34.9889068603516,22.0009689331055,-35.0,22.0,2283740.0,-6583.6,pp-riro,4,0,-1,-1
1570542299.3,2019-10-08,15:44:59.300,14.0,8.0,14.3999996185303,15.8,0.0,3.6,25.6,-9.0,-45.9,14.335,0.5076390000000001,4.03679,7.568010000000001,7.544289999999999,4.7712,29.6702,5.94886,-46.1632,0.300708,0.255005,1.04866,248.3,5.4,52.17,4.42719,4.0,-2.30664,100.192,4.2317,66.6516,18.2411,242.136,1.2928,0.213551,251.804,1.0928,1.88774,-34.9906158447266,22.0009689331055,-35.0,22.0,2283360.0,-7229.65,pp-riro,4,0,-1,-1
1570542299.4,2019-10-08,15:44:59.400,14.0,10.0,14.3400001525879,16.6,1.2,4.1,27.0,-11.0,-40.4,14.335,0.5076390000000001,4.03679,7.568010000000001,7.544289999999999,4.7712,29.6702,5.94886,-46.1632,0.300708,0.255005,1.04866,248.3,5.4,52.17,4.42719,4.0,-2.31163,104.51,4.2317,66.6807,20.1412,241.836,1.29036,0.187353,251.668,1.22438,1.98594,-34.9906158447266,22.0009689331055,-35.0,22.0,2282910.0,-3107.21,pp-riro,4,0,-1,-1
1570542299.5,2019-10-08,15:44:59.500,14.0,10.0,14.3400001525879,17.3,2.4,4.5,28.0,-12.8,-35.1,14.7356,0.944226,4.29455,8.17714,8.48707,5.44925,30.2806,4.89485,-43.1504,0.124002,0.205342,1.03094,245.6,6.8,52.17,4.42719,4.0,-2.29279,101.351,4.23169,66.85600000000001,21.2812,241.436,1.28799,0.172523,251.424,1.33973,2.06505,-34.9991455078125,22.0009689331055,-35.0,22.0,2282550.0,-3261.04,pp-riro,4,0,-1,-1
1570542299.6,2019-10-08,15:44:59.600,14.0,11.0,14.2799997329712,17.9,3.6,4.9,28.9,-14.8,-29.8,16.3786,3.63401,5.34779,7.65073,11.8871,5.51814,32.6272,-0.5568029999999999,-28.6509,0.0273459,0.202426,0.998085,245.6,6.8,52.17,4.42719,4.0,-2.29501,100.789,4.23168,67.1188,23.1813,241.136,1.28441,0.148151,251.374,1.4651,2.14808,-35.0008544921875,22.0009689331055,-35.0,22.0,2282270.0,-5353.02,pp-riro,4,0,-1,-1
1570542299.7,2019-10-08,15:44:59.700,14.0,10.0,14.3400001525879,18.4,4.8,5.5,29.5,-16.9,-24.4,16.3786,3.63401,5.34779,7.65073,11.8871,5.51814,32.6272,-0.5568029999999999,-28.6509,0.0273459,0.202426,0.998085,245.6,6.8,52.17,4.42719,4.0,-2.2867,106.826,4.231669999999999,67.4985,25.0814,240.636,1.28004,0.124944,251.179,1.59085,2.22834,-35.0076751708984,22.0009689331055,-35.0,22.0,2281710.0,-1938.16,pp-riro,4,0,-1,-1
1570542299.8,2019-10-08,15:44:59.800,14.0,10.0,14.3400001525879,18.6,5.4,5.7,29.9,-18.0,-21.8,17.1678,5.28546,6.01766,5.34323,9.98286,2.22485,33.3349,-3.82887,-20.1916,0.0571968,0.227815,0.973375,245.6,6.8,52.17,4.42719,4.0,-2.26066,111.811,4.23166,67.7321,25.8414,240.436,1.27795,0.116249,251.128,1.64912,2.26347,-35.0076751708984,22.0009689331055,-35.0,22.0,2281520.0,-1353.64,pp-riro,4,0,-1,-1
1570542299.9,2019-10-08,15:44:59.900,14.0,10.0,14.3999996185303,18.9,6.7,6.2,30.1,-19.9,-13.5,17.1678,5.28546,6.01766,5.34323,9.98286,2.22485,33.3349,-3.82887,-20.1916,0.0571968,0.227815,0.973375,245.6,6.8,52.17,4.42719,4.0,-2.23572,112.979,4.23165,68.6083,27.7415,239.936,1.27162,0.0964893,251.09,1.81668,2.34004,-35.0093841552734,22.0009689331055,-35.0,22.0,2281570.0,892.17,pp-riro,4,0,-1,-1
1570542300.0,2019-10-08,15:45:00.000,14.0,9.0,14.5200004577637,19.2,8.0,6.7,30.2,-21.9,-10.5,17.5411,6.45311,6.53894,1.76442,11.4494,7.466989999999999,33.6121,-5.98031,-14.3604,0.0345064,0.2470429999999999,0.976713,245.6,6.8,52.17,4.42719,4.0,-2.18364,111.96,4.2316400000000005,68.988,29.6416,239.336,1.26679,0.0749332,250.838,1.89791,2.41367,-35.0093841552734,22.0009689331055,-35.0,22.0,2281750.0,1968.93,pp-riro,4,0,-1,-1
1570542300.1,2019-10-08,15:45:00.100,14.0,9.0,14.7700004577637,19.4,9.4,7.2,30.2,-24.1,-4.9,17.9386,8.93471,7.393,-0.990571,11.3558,5.20153,33.0328,-10.166,-2.42929,0.0358055,0.295774,1.04818,245.6,6.8,52.17,4.42719,4.0,-2.10163,117.126,4.23163,69.8058,31.5417,238.736,1.26031,0.0563611,250.724,2.01874,2.48621,-35.0076751708984,22.0009689331055,-35.0,22.0,2281930.0,1692.05,pp-riro,4,0,-1,-1
1570542300.2,2019-10-08,15:45:00.200,14.0,8.0,14.9399995803833,19.2,11.6,8.1,29.9,-27.1,3.8,17.9573,9.5774,7.64389,3.96019,15.2568,6.15594,32.9431,-11.2639,0.598256,0.0592361999999999,0.239906,1.01549,245.6,6.8,52.17,4.42719,4.0,-2.07338,121.201,4.23162,70.7988,33.4417,238.036,1.25301,0.0394835,250.583,2.18909,2.59267,-35.0076751708984,22.0009689331055,-35.0,22.0,2282150.0,4060.91,pp-riro,4,0,-1,-1
1570542300.3,2019-10-08,15:45:00.300,14.0,9.0,15.2399997711182,19.1,12.3,8.4,29.6,-28.0,6.9,17.9084,10.8876,8.22073,0.383638,11.5041,4.4562,32.1094,-13.1548,6.87403,0.023636,0.265262,1.0518299999999998,245.6,6.8,52.17,4.42719,4.0,-1.96976,129.094,4.23161,71.9378,35.7218,237.336,1.24448,0.0198806,250.55900000000003,2.26139,2.63909,-35.0076751708984,22.0009689331055,-35.0,22.0,2282770.0,7537.3,pp-riro,4,0,-1,-1
1570542300.4,2019-10-08,15:45:00.400,14.0,10.0,15.4700002670288,18.6,13.9,9.0,28.7,-29.6,12.9,17.4489,12.9509,9.0673,-3.092,15.7818,6.72152,30.8192,-15.844,16.2483,0.0694731,0.31548,0.910898,245.6,6.8,52.17,4.42719,4.0,-1.76309,131.75,4.2316,73.1353,37.2419,236.536,1.23682,0.00979099,250.37,2.37205,2.7156,-35.0059814453125,22.0009689331055,-23.0044822692871,22.0,2284080.0,8521.76,pp-riro,4,0,-1,-1
1570542300.5,2019-10-08,15:45:00.500,14.0,9.0,15.859999656677198,18.1,15.2,9.4,27.2,-31.8,22.7,16.9862,14.3098,9.57003,-4.8469,10.0727,3.20461,29.5208,-17.434,22.4356,0.0708817,0.291062,0.95716,248.3,6.8,52.17,4.42719,4.0,-1.69438,132.211,4.23159,75.2966,40.282,235.236,1.2225700000000002,-0.0104407999999999,250.256,2.5503400000000003,2.78825,-35.0076751708984,22.0009689331055,-23.0044822692871,22.0,2284560.0,8921.7,pp-riro,4,0,-1,-1
1570542300.6,2019-10-08,15:45:00.600,14.0,10.0,16.1399993896484,17.6,16.7,9.9,26.5,-32.4,26.2,16.4614,15.6178,9.96323,-5.1693,13.9404,3.81277,28.196,-18.8421,28.7981,0.179394,0.372699,0.993817,248.3,6.8,52.17,4.42719,4.0,-1.54367,139.46,4.2316,76.1144,41.0421,234.736,1.21783,-0.0137392,250.158,2.60865,2.84833,-34.966720581054695,22.0009689331055,-22.282197952270497,22.0,2285390.0,8521.76,pp-riro,4,0,-1,-1
1570542300.7,2019-10-08,15:45:00.700,14.0,10.0,16.520000457763697,16.8,18.0,10.6,25.2,-34.1,33.0,15.7992,16.8503,10.5466,-10.38,9.68,4.8847,26.6442,-20.2436,35.5848,0.0793581,0.2179019999999999,1.07936,248.3,6.8,52.17,4.42719,4.0,-1.24059,156.295,4.23161,77.7791,42.9422,233.736,1.20755,-0.0236802,250.052,2.72528,2.91525,-34.601470947265604,22.0009689331055,-21.747285842895497,22.0,2286990.0,11905.9,pp-riro,4,0,-1,-1
1570542300.8,2019-10-08,15:45:00.800,14.0,9.0,16.6700000762939,15.7,19.3,11.1,23.4,-35.4,39.9,14.9718,18.0163,11.1334,-11.2079,10.3328,4.34625,24.7099,-21.6476,42.5393,0.0561024,0.251454,1.0854,248.3,6.8,52.17,4.42719,4.0,-0.970752,156.053,4.23162,79.59,44.4622,232.736,1.19745,-0.0286866,249.955,2.8354,2.98312,-33.642257690429695,22.0009689331055,-21.043607711792,22.0,2288110.0,10613.7,pp-riro,4,0,-1,-1
1570542300.9,2019-10-08,15:45:00.900,14.0,8.0,16.8899993896484,14.7,20.4,11.2,20.9,-36.0,47.7,13.9275,19.0649,11.4078,-11.7988,7.3267,1.02723,22.4894,-23.0081,49.5009,0.143513,0.2078,1.12941,248.3,6.8,52.17,4.42719,4.0,-0.7247399999999999,148.114,4.23163,81.6052,45.9823,231.636,1.18652,-0.0323713,249.858,2.95399,3.0399,-32.4645843505859,22.0009689331055,-20.582096099853494,22.0,2288900.0,6922.01,pp-riro,4,0,-1,-1
1570542301.0,2019-10-08,15:45:01.000,14.0,8.0,17.0400009155273,13.3,21.2,11.4,18.6,-36.6,55.1,13.9275,19.0649,11.4078,-11.7988,7.3267,1.02723,22.4894,-23.0081,49.5009,0.143513,0.2078,1.12941,248.3,6.8,52.17,4.42719,4.0,-0.612815,145.06799999999998,4.2316400000000005,83.6205,47.5024,230.536,1.1755799999999998,-0.0358648,249.791,3.06507,3.10182,-30.945556640625,22.0009689331055,-20.037441253662102,22.0,2289150.0,5137.67,pp-riro,4,0,-1,-1
1570542301.1,2019-10-08,15:45:01.100,14.0,9.0,17.1399993896484,12.2,22.1,11.5,15.9,-36.9,62.4,12.167,20.2577,11.52,-11.2578,3.76029,1.55747,19.3025,-24.5258,59.8034,-0.0663283,0.1750799999999999,1.04806,248.3,6.8,52.17,4.42719,4.0,-0.393398,146.453,4.23165,85.7234,49.0225,229.536,1.16451,-0.0387408,249.877,3.17267,3.15531,-29.0646820068359,22.0009689331055,-19.6733322143555,22.0,2289510.0,3076.45,pp-riro,4,0,-1,-1
1570542301.2,2019-10-08,15:45:01.200,14.0,9.0,17.1399993896484,10.8,22.9,11.6,13.6,-36.4,69.8,11.1086,21.0419,11.6699,-12.9705,12.4789,-0.712787,16.9712,-25.3119,66.411,0.180918,0.246281,0.987865,248.3,6.8,52.17,4.42719,4.0,-0.0587327,151.21,4.23166,88.0599,50.1626,228.336,1.15307,-0.0370709,249.816,3.27775,3.21169,-26.9551086425781,22.0009689331055,-19.1502895355225,22.0,2289710.0,430.703,pp-riro,4,0,-1,-1
1570542301.3,2019-10-08,15:45:01.300,14.0,9.0,17.0400009155273,9.2,23.4,11.6,11.2,-36.3,76.4,9.83865,21.7239,11.6283,-13.2424,9.51829,-0.785035,14.7687,-25.647,73.143,0.0436169,0.198947,1.02239,248.3,6.8,52.17,4.42719,4.0,0.160684,155.062,4.23166,90.3381,50.9226,227.236,1.14266,-0.0325635,249.78,3.36844,3.26746,-24.8711395263672,22.0009689331055,-18.5128574371338,22.0,2289610.0,-1630.52,pp-riro,4,0,-1,-1
1570542301.4,2019-10-08,15:45:01.400,14.0,9.0,17.0400009155273,7.8,23.9,11.6,9.3,-36.1,82.4,7.74748,22.5086,11.7058,-13.0743,1.04506,-1.30514,11.4558,-25.9721,82.3771,0.0609146999999999,0.120191,0.8262860000000001,248.3,6.8,52.17,4.42719,4.0,0.272054,157.042,4.23168,92.6746,51.6827,226.136,1.13206,-0.0280124,249.794,3.45027,3.3168800000000003,-22.9919738769531,22.0009689331055,-18.0389728546143,22.0,2289450.0,-3076.45,pp-riro,4,0,-1,-1
1570542301.5,2019-10-08,15:45:01.500,14.0,9.0,17.0400009155273,6.3,24.2,11.3,7.3,-35.1,88.2,7.74748,22.5086,11.7058,-13.0743,1.04506,-1.30514,11.4558,-25.9721,82.3771,0.0609146999999999,0.120191,0.8262860000000001,245.4,7.3,52.17,4.42719,4.0,0.233269,165.208,4.23169,95.0988,52.8228,225.036,1.12051,-0.0263218,249.95,3.53401,3.37114,-21.3637161254883,22.0009689331055,-17.6514205932617,22.0,2289670.0,892.17,pp-riro,4,0,-1,-1
1570542301.6,2019-10-08,15:45:01.600,14.0,9.0,17.1900005340576,5.0,24.5,11.4,5.5,-33.5,93.2,5.69459,23.0765,11.3596,-13.8896,9.27504,-1.30276,8.60962,-25.55,90.2519,0.173231,0.29599,0.614952,245.4,7.3,52.17,4.42719,4.0,0.339098,186.416,4.23169,97.5229,53.5828,224.036,1.10981,-0.0217083,250.148,3.60727,3.41486,-20.6366271972656,22.0009689331055,-17.3548717498779,22.0,2289510.0,-1476.7,pp-riro,4,0,-1,-1
1570542301.7,2019-10-08,15:45:01.700,14.0,11.0,17.2900009155273,3.7,24.9,11.7,3.1,-32.2,98.6,5.0711900000000005,23.2496,11.452,-11.7878,4.946269999999999,-1.27229,7.50192,-25.1025,92.7964,-0.0229831,0.218144,0.8352040000000001,245.4,7.3,52.17,4.42719,4.0,0.357383,195.551,4.23168,100.064,53.9629,222.936,1.09922,-0.0138686,250.25,3.68353,3.4551800000000004,-19.377029418945305,22.0009689331055,-17.046678543090803,22.0,2289590.0,1353.64,pp-riro,4,0,-1,-1
1570542301.8,2019-10-08,15:45:01.800,14.0,11.0,17.5900001525879,2.4,25.0,11.6,0.6,-31.3,103.7,4.54087,23.3682,11.5175,-8.792580000000001,3.5075,3.89937,6.158119999999999,-24.7227,95.2936,0.0343108,0.160346,0.6966,245.4,7.3,52.17,4.42719,4.0,0.329125,202.487,4.23166,102.576,53.9629,221.736,1.08914,-0.00356404,250.201,3.75216,3.49278,-18.1891098022461,22.0025119781494,-16.7093486785889,22.0,2289650.0,-61.529,pp-riro,4,0,-1,-1
1570542301.9,2019-10-08,15:45:01.900,14.0,10.0,17.9400005340576,1.2,25.2,11.5,-1.9,-30.2,108.4,2.06885,23.7791,11.3515,-15.0198,3.69488,-1.3498,0.7843479999999999,-23.5109,105.137,-0.229886,0.00994681,0.5452739999999999,245.4,7.3,52.17,4.42719,4.0,0.372343,211.832,4.231669999999999,105.058,54.343,220.636,1.07869,0.00335916,250.341,3.8193,3.53059,-17.3493804931641,22.0025119781494,35.0,22.0,2289680.0,830.6410000000001,pp-riro,4,0,-1,-1
1570542302.0,2019-10-08,15:45:02.000,14.0,10.0,18.3799991607666,-0.1,25.4,11.6,-4.2,-28.6,112.4,1.39706,24.0385,11.3525,-12.3151,6.42569,-3.19774,-0.487044,-23.019,107.429,-0.2205489999999999,0.265731,0.8411370000000001,245.4,7.3,52.17,4.42719,4.0,0.370127,226.219,4.23166,107.658,54.343,219.336,1.06809,0.0132687999999999,250.303,3.87764,3.5676,-17.1189575195312,22.0025119781494,35.0,22.0,2289730.0,123.058,pp-riro,4,0,-1,-1
1570542302.1,2019-10-08,15:45:02.100,14.0,11.0,18.659999847412102,-1.4,25.3,11.7,-6.4,-27.5,116.3,0.202004,24.2573,11.3315,-6.693289999999999,-3.85194,2.72807,-3.26507,-21.567,111.464,-0.283648,0.185272,0.526379,245.4,7.3,52.17,4.42719,3.9,0.5452170000000001,240.156,4.23165,110.17,54.3431,218.136,1.05791,0.0224854,250.347,3.93253,3.60402,-16.5130615234375,22.003026962280305,35.0,22.0,2288990.0,-13013.4,pp-riro,4,0,-1,-1
1570542302.2,2019-10-08,15:45:02.200,14.0,11.0,18.7999992370605,-2.6,25.2,11.3,-8.9,-25.9,119.2,-1.7158099999999998,24.1955,11.3093,-14.6677,-2.93146,-3.5083300000000004,-6.862589999999999,-20.3419,117.017,-0.177927,0.0393999,0.446942,245.4,7.3,52.17,4.42719,3.9,1.03226,238.741,4.23165,112.711,54.3431,216.835,1.04741,0.0314782,250.349,3.97721,3.64142,-15.683563232421902,22.003026962280305,35.0,22.0,2287020.0,-24180.9,pp-riro,4,0,-1,-1
1570542302.3,2019-10-08,15:45:02.300,14.0,9.0,18.8899993896484,-3.5,25.0,10.8,-10.8,-24.3,121.9,-2.79624,24.1188,10.7162,-4.59286,-2.85828,-2.90599,-9.19326,-19.5948,119.811,-0.233779,0.136702,0.515227,245.4,7.3,52.17,4.42719,3.9,1.01951,209.005,4.2316400000000005,115.193,53.9631,215.635,1.03783,0.0426517,250.36,4.017930000000001,3.66795,-14.502471923828098,22.0025119781494,35.0,22.0,2288350.0,21719.7,pp-riro,4,0,-1,-1
1570542302.4,2019-10-08,15:45:02.400,14.0,9.0,18.9899997711182,-4.3,24.8,10.9,-12.7,-23.0,124.2,-2.79624,24.1188,10.7162,-4.59286,-2.85828,-2.90599,-9.19326,-19.5948,119.811,-0.233779,0.136702,0.515227,245.4,7.3,52.17,4.42719,3.9,1.00732,231.713,4.23163,117.676,53.5832,214.335,1.02798,0.0534613,250.317,4.05143,3.68616,-12.9663772583008,22.0019989013672,35.0,22.0,2288020.0,-8121.83,pp-riro,4,0,-1,-1
1570542302.5,2019-10-08,15:45:02.500,14.0,11.0,19.1200008392334,-5.3,24.6,11.5,-14.2,-22.1,126.0,-4.1503,23.8186,10.636,-12.0502,-0.216803,1.58208,-12.6345,-18.1726,123.187,-0.262885,0.0528111999999999,0.345421,245.4,7.0,52.17,4.42719,3.9,1.04445,263.918,4.23163,120.158,53.2032,213.035,1.01808,0.0639315,250.305,4.07521,3.70659,-11.0820922851562,22.003026962280305,35.0,22.0,2288410.0,4922.32,pp-riro,4,0,-1,-1
1570542302.6,2019-10-08,15:45:02.600,14.0,10.0,19.1200008392334,-5.8,24.5,11.5,-15.5,-20.9,127.2,-5.12925,23.7273,11.1381,-11.9415,-0.988398,3.65025,-14.3493,-17.88,125.358,-0.39662,-0.1210869999999999,0.208105,245.4,7.0,52.17,4.42719,3.9,1.04001,265.012,4.231669999999999,122.612,52.8232,211.735,1.00823,0.0739363999999999,250.311,4.093369999999999,3.71566,-8.96910858154297,22.003026962280305,35.0,22.0,2288450.0,646.054,pp-riro,4,0,-1,-1
1570542302.7,2019-10-08,15:45:02.700,14.0,10.0,19.2999992370605,-6.3,24.5,11.8,-16.8,-20.0,128.2,-5.63817,23.6852,11.156,0.0199484,-4.6893,3.73964,-16.4546,-17.4394,126.637,-0.394017,0.0218857,0.1872869999999999,245.4,7.0,52.17,4.42719,3.9,1.05109,260.211,4.23171,125.153,51.6833,210.435,0.99904,0.0890464,250.235,4.10228,3.71678,-6.862945556640621,22.0025119781494,35.0,22.0,2288860.0,5106.9,pp-riro,4,0,-1,-1
1570542302.8,2019-10-08,15:45:02.800,14.0,10.0,19.3500003814697,-6.9,24.6,12.1,-17.7,-20.1,128.9,-6.24602,23.7403,11.4793,-13.1283,1.25975,3.21436,-17.9556,-17.9661,128.107,-0.321103,-0.1102109999999999,0.114713,245.4,7.0,52.17,4.42719,3.9,1.04001,263.081,4.23174,127.548,51.3033,209.035,0.989039,0.0982232,250.192,4.10364,3.72579,-4.75337219238281,22.0025119781494,35.0,22.0,2288980.0,2368.87,pp-riro,4,0,-1,-1
1570542302.9,2019-10-08,15:45:02.900,14.0,11.0,19.479999542236303,-7.3,24.5,12.4,-18.0,-20.3,128.8,-6.24602,23.7403,11.4793,-13.1283,1.25975,3.21436,-17.9556,-17.9661,128.107,-0.321103,-0.1102109999999999,0.114713,245.4,7.0,52.17,4.42719,3.9,1.0760299999999998,279.99,4.2317800000000005,130.118,50.5433,207.535,0.978692,0.110108,250.112,4.09045,3.7264,-2.640380859375,22.0035419464111,35.0,22.0,2289030.0,646.054,pp-riro,4,0,-1,-1
1570542303.0,2019-10-08,15:45:03.000,14.0,10.0,19.6200008392334,-7.5,24.4,13.1,-18.8,-21.0,128.4,-6.61232,23.8793,11.6336,-3.93134,2.16508,2.53457,-18.8145,-18.0165,128.503,-0.207553,-0.0321912,0.101867,245.4,7.0,52.17,4.42719,3.9,1.10927,302.654,4.23182,132.513,49.7834,206.135,0.969043,0.121201,250.06,4.0695,3.71669,-1.05990600585938,22.0035419464111,35.0,22.0,2289160.0,1445.93,pp-riro,4,0,-1,-1
1570542303.1,2019-10-08,15:45:03.100,14.0,10.0,19.8799991607666,-7.3,24.5,13.8,-19.6,-21.7,127.5,-7.485239999999999,23.932,12.4717,0.563463,4.13938,7.244739999999999,-21.4771,-20.1557,128.995,-0.29096,-0.107775,0.0539631,245.4,7.0,52.17,4.4272,3.8,1.15083,317.701,4.23185,134.908,49.0234,204.535,0.958876,0.131988,249.876,4.04181,3.69346,1.56177520751953,22.0035419464111,35.0,22.0,2289310.0,2215.04,pp-riro,4,0,-1,-1
1570542303.2,2019-10-08,15:45:03.200,14.0,9.0,20.2800006866455,-6.6,24.5,14.4,-20.2,-22.9,126.8,-7.485239999999999,23.932,12.4717,0.563463,4.13938,7.244739999999999,-21.4771,-20.1557,128.995,-0.29096,-0.107775,0.0539631,245.4,7.0,52.17,4.4272,3.8,1.14307,310.76,4.23189,137.42,48.2634,202.935,0.948283,0.142744,249.792,4.0129,3.65573,3.132080078125,22.003026962280305,35.0,22.0,2289860.0,3907.09,pp-riro,4,0,-1,-1
1570542303.3,2019-10-08,15:45:03.300,14.0,8.0,20.4899997711182,-5.8,24.3,14.9,-20.4,-24.2,125.2,-7.24915,24.2663,13.6492,6.12862,0.649655,8.82133,-23.1579,-21.6464,128.391,-0.0972416999999999,-0.204713,-0.184121,245.4,7.0,52.17,4.4272,3.8,1.13809,308.216,4.23193,139.785,47.5034,201.335,0.938077,0.152874,249.664,3.97125,3.61694,5.76854705810547,22.003026962280305,35.0,22.0,2290070.0,3937.85,pp-riro,4,0,-1,-1
1570542303.4,2019-10-08,15:45:03.400,14.0,8.0,20.8299999237061,-4.7,23.9,15.6,-20.3,-25.9,122.9,-6.19203,24.3517,14.6149,11.0946,-2.52514,7.89245,-23.953000000000003,-24.1072,126.525,-0.0536206,-0.231364,-0.420743,245.4,7.0,52.17,4.4272,3.8,1.12867,303.171,4.23197,142.18,47.1235,199.735,0.927343,0.160383,249.66,3.91905,3.56866,7.88385009765625,22.003026962280305,35.0,22.0,2290550.0,2830.33,pp-riro,4,0,-1,-1
1570542303.5,2019-10-08,15:45:03.500,14.0,9.0,21.0400009155273,-3.5,23.8,15.9,-20.2,-27.5,120.1,-5.19966,24.1541,15.3931,10.6124,-2.25113,3.45451,-24.0437,-27.2334,125.106,-0.110292,-0.385737,-0.550197,244.5,7.4,52.17,4.4272,3.8,1.11648,292.011,4.232,144.4,46.7435,198.135,0.917114,0.167323,249.587,3.86184,3.5203,9.99574279785156,22.003026962280305,35.0,22.0,2290950.0,4614.67,pp-riro,4,0,-1,-1
1570542303.6,2019-10-08,15:45:03.600,14.0,10.0,21.25,-2.2,24.1,16.5,-19.7,-29.1,116.4,-5.19966,24.1541,15.3931,10.6124,-2.25113,3.45451,-24.0437,-27.2334,125.106,-0.110292,-0.385737,-0.550197,244.5,7.4,52.17,4.4272,3.8,1.10041,285.407,4.23202,146.88299999999998,46.3636,196.335,0.905573,0.174616,249.543,3.79272,3.46671,12.1076431274414,22.003026962280305,35.0,22.0,2291190.0,4553.14,pp-riro,4,0,-1,-1
1570542303.7,2019-10-08,15:45:03.700,14.0,10.0,21.2000007629395,-0.6,23.8,17.3,-19.0,-31.7,113.0,-3.96999,24.1986,15.83,7.15992,2.48244,4.96225,-23.6209,-29.3924,122.302,-0.330896,0.0238984,-0.541246,244.5,7.4,52.17,4.4272,3.8,1.09154,297.189,4.2320400000000005,149.19,45.9836,194.635,0.8947780000000001,0.181368,249.509,3.72201,3.40228,13.6711273193359,22.003026962280305,35.0,22.0,2291450.0,1661.28,pp-riro,4,0,-1,-1
1570542303.8,2019-10-08,15:45:03.800,14.0,10.0,20.9899997711182,0.2,23.6,18.2,-17.9,-32.9,110.2,-0.882358,24.6603,17.4096,16.6588,-3.73315,10.7467,-23.0397,-34.5487,116.093,-0.195959,-0.189549,-0.703866,244.5,7.4,52.17,4.4272,3.8,1.16745,353.921,4.23206,151.497,45.9837,193.735,0.885648,0.185643,250.198,3.67247,3.36707,16.3041839599609,22.004056930542003,35.0,22.0,2291300.0,-2891.86,pp-riro,4,0,-1,-1
1570542303.9,2019-10-08,15:45:03.900,14.0,11.0,20.479999542236303,2.9,22.3,19.0,-15.8,-34.7,101.6,-0.882358,24.6603,17.4096,16.6588,-3.73315,10.7467,-23.0397,-34.5487,116.093,-0.195959,-0.189549,-0.703866,244.5,7.4,52.17,4.4272,3.8,1.28215,387.463,4.232069999999999,152.636,45.9837,191.935,0.877699,0.1877,249.502,3.543,3.26611,18.4263000488281,22.004056930542003,35.0,22.0,2291190.0,1845.87,pp-riro,4,0,-1,-1
1570542304.0,2019-10-08,15:45:04.000,14.0,9.0,20.0499992370605,4.9,21.4,19.0,-10.7,-37.9,94.9,3.01142,23.7271,19.5752,25.7673,-7.727489999999999,3.7071,-17.9678,-40.6777,104.431,0.163933,-0.149348,-0.933263,244.5,7.4,52.17,4.4272,3.8,1.21843,350.374,4.23209,155.937,46.7438,189.235,0.8603729999999999,0.1890599999999999,249.622,3.43617,3.19159,20.5415954589844,22.003026962280305,35.0,22.0,2292310.0,8029.53,pp-riro,4,0,-1,-1
1570542304.1,2019-10-08,15:45:04.100,14.0,10.0,19.8199996948242,6.3,21.2,18.6,-5.4,-39.0,86.3,4.087359999999999,23.2282,19.5507,16.6299,-8.610710000000001,-0.339334,-15.9286,-41.9562,100.61,-0.288252,-0.0882941,-0.79566,244.5,7.4,52.17,4.4272,3.7,1.17798,329.524,4.23211,158.04,47.1239,187.435,0.8492219999999999,0.190496,249.658,3.31609,3.1423,22.6603088378906,22.0035419464111,-23.0163822174072,22.0,2292870.0,5414.55,pp-riro,4,0,-1,-1
1570542304.2,2019-10-08,15:45:04.200,14.0,10.0,20.0,7.0,20.7,18.4,2.0,-40.1,75.6,6.940339999999999,22.8649,19.6406,17.1321,-13.5991,-5.223330000000001,-7.358739999999999,-44.0984,86.9762,0.00195927,-0.0314529,-1.3103,244.5,7.4,52.17,4.4272,3.7,1.17078,335.67,4.232130000000001,160.113,47.5039,185.735,0.838426,0.191845,249.78,3.16998,3.11276,24.7722015380859,22.0035419464111,23.0163822174072,22.0,2293130.0,4799.26,pp-ro,1,1,-1,-1
1570542304.3,2019-10-08,15:45:04.300,14.0,12.0,20.2600002288818,8.4,19.6,18.8,5.4,-40.3,70.5,8.38868,21.462,19.7936,24.7699,-15.9439,8.33723,-0.0156641,-46.6151,76.19800000000001,-0.442586,-0.454029,-0.935414,244.5,7.4,52.17,4.4272,3.7,1.21566,378.432,4.23214,161.077,47.88399999999999,184.935,0.8332139999999999,0.191291,249.879,3.10239,3.05471,26.780212402343803,22.004056930542003,23.018762588501,22.0,2293120.0,-2061.22,pp-ro,1,1,-1,-1
1570542304.4,2019-10-08,15:45:04.400,14.0,12.0,20.4300003051758,10.7,18.2,18.4,11.6,-40.4,60.0,10.7239,20.259,19.7188,24.7015,-23.8032,-10.2625,7.2122,-48.0407,65.2717,-0.281949,-0.4614439999999999,-1.31211,244.5,7.4,52.17,4.4272,3.7,1.31872,409.073,4.23216,162.975,49.0241,183.234,0.822293,0.188031,250.078,2.96596,2.96193,28.4492797851562,22.004571914672898,23.0211448669434,22.0,2293060.0,1753.58,pp-ro,1,1,-1,-1
1570542304.5,2019-10-08,15:45:04.500,14.0,11.0,20.520000457763697,13.4,16.4,18.4,16.4,-39.4,51.9,13.6311,18.6074,19.3791,22.5963,-20.2502,3.6016800000000004,13.5108,-48.7552,54.5655,0.160866,-0.44461,-0.8192010000000001,246.3,7.2,52.17,4.4272,3.7,1.33312,438.77,4.2321800000000005,164.72799999999998,50.1641,181.534,0.81179,0.184604,250.213,2.85868,2.85089,29.7402648925781,22.0050868988037,23.0235271453857,22.0,2293800.0,1784.34,pp-ro,1,1,-1,-1
1570542304.6,2019-10-08,15:45:04.600,14.0,15.0,20.5599994659424,15.9,14.2,18.0,21.0,-38.2,44.0,18.0767,15.5496,19.1761,23.6901,-16.8665,-0.459806,21.9594,-47.0696,39.5768,0.00908443,-0.152246,-1.10611,246.3,7.2,52.17,4.4272,3.7,1.36803,447.697,4.2322,166.27599999999998,51.3042,179.734,0.8015770000000001,0.180916,250.168,2.7524,2.73606,30.6872253417969,22.0050868988037,23.0235271453857,22.0,2293820.0,338.409,pp-ro,1,1,-1,-1
1570542304.7,2019-10-08,15:45:04.700,14.0,14.0,20.6399993896484,18.6,11.0,16.9,28.8,-35.6,31.0,18.0767,15.5496,19.1761,23.6901,-16.8665,-0.459806,21.9594,-47.0696,39.5768,0.00908443,-0.152246,-1.10611,246.3,7.2,52.17,4.4272,3.7,1.38687,437.392,4.23223,168.232,53.9643,177.03400000000002,0.786412,0.169758,250.111,2.57608,2.59094,31.3037567138672,22.004571914672898,22.6418571472168,22.0,2294520.0,10613.7,pp-ro,1,1,-1,-1
1570542304.8,2019-10-08,15:45:04.800,14.0,13.0,20.4200000762939,19.2,10.1,16.1,30.8,-34.4,26.8,20.4709,13.2865,18.4352,25.9833,-18.0336,-8.413269999999999,28.1538,-45.8373,29.8966,0.26494,-0.4051949999999999,-1.04485,246.3,7.2,52.17,4.4272,3.7,1.3076299999999998,396.862,4.23225,168.75799999999998,54.7244,176.234,0.782076,0.1665599999999999,250.065,2.5156400000000003,2.54629,31.5370788574219,22.004571914672898,21.9184246063232,22.0,2295480.0,8429.47,pp-ro,1,1,-1,-1
1570542304.9,2019-10-08,15:45:04.900,14.0,12.0,20.159999847412102,20.2,8.2,14.6,35.2,-31.1,19.0,22.0951,11.2039,16.6219,23.2771,-23.7702,-24.5816,34.001999999999995,-42.5281,19.8351,-0.0840926,-0.2529929999999999,-1.34529,246.3,7.2,52.17,4.4272,3.7,1.24613,381.205,4.23228,169.78,57.0044,174.634,0.77279,0.156186,250.144,2.39541,2.45958,31.528564453125,22.004056930542003,20.5211791992188,22.0,2296440.0,3968.62,pp-ro,1,1,-1,-1
1570542305.0,2019-10-08,15:45:05.000,14.0,13.0,19.979999542236303,20.7,5.8,13.5,39.3,-26.8,10.6,23.76,7.5853,14.5606,10.604,-20.2853,-5.43307,39.9953,-36.0482,6.948689999999999,0.0641071,-0.194689,-1.2391,246.3,7.2,52.17,4.4272,3.7,1.25777,382.967,4.2323,170.56900000000002,58.9045,173.134,0.7647010000000001,0.147583,250.078,2.25375,2.3713,31.153884887695305,22.004571914672898,19.0653114318848,22.0,2296540.0,1876.63,pp-ro,1,1,-1,-1
1570542305.1,2019-10-08,15:45:05.100,14.0,12.0,19.7099990844727,20.9,4.0,11.7,42.2,-22.4,3.5,23.9363,6.41515,13.6724,-2.64261,-18.4189,-27.5943,41.7247,-33.6826,3.26286,-0.2051869999999999,-0.148894,-1.4662,246.3,7.2,52.17,4.4272,3.8,1.26275,362.943,4.23232,171.18200000000002,61.1846,171.834,0.757258,0.136792,250.148,2.12563,2.2859,30.1422119140625,22.004571914672898,17.6297206878662,22.0,2297120.0,8121.83,pp-ro,1,1,-1,-1
1570542305.2,2019-10-08,15:45:05.200,14.0,11.0,19.6700000762939,21.2,2.4,10.2,45.0,-15.9,-5.0,24.3887,3.37165,10.6749,7.755539999999999,-23.0824,-17.8235,44.5481,-26.0325,-6.63109,-0.305471,0.0664374,-1.13495,246.3,7.2,52.17,4.4272,3.8,1.17853,328.121,4.23235,171.59099999999998,62.7046,170.134,0.749829,0.129686,249.641,1.95082,2.20224,29.586990356445305,22.004571914672898,16.268196105957,22.0,2297980.0,7629.59,pp-ro,1,1,-1,-1
1570542305.3,2019-10-08,15:45:05.300,14.0,11.0,19.3899993896484,21.5,0.9,9.0,45.7,-13.4,-7.9,24.7945,1.41718,9.25613,-1.12294,-20.651,-18.4261,45.3135,-20.9606,-12.582,-0.581692,-0.187817,-1.26522,246.3,7.2,52.17,4.4272,3.8,1.14917,321.66200000000003,4.23237,171.88299999999998,65.3647,169.634,0.7450899999999999,0.116619,250.18400000000003,1.89424,2.12966,28.1972198486328,22.004571914672898,14.9648218154907,22.0,2298360.0,2553.45,pp-ro,1,1,-1,-1
1570542305.4,2019-10-08,15:45:05.400,14.0,14.0,19.2099990844727,22.0,-0.7,7.8,46.4,-8.9,-13.1,24.7945,1.41718,9.25613,-1.12294,-20.651,-18.4261,45.3135,-20.9606,-12.582,-0.581692,-0.187817,-1.26522,246.3,7.2,52.17,4.4272,3.8,1.18906,339.111,4.2324,172.058,67.6447,168.734,0.739777,0.105416,250.302,1.7835299999999998,2.0491200000000003,25.9626998901367,22.004571914672898,13.5556192398071,22.0,2298650.0,1692.05,pp-ro,1,1,-1,-1
1570542305.5,2019-10-08,15:45:05.500,14.0,13.0,18.9400005340576,22.1,-2.0,6.4,47.6,-5.5,-18.6,25.1737,-0.589569,7.67668,-7.71266,-18.4816,-9.25828,45.6442,-15.9233,-18.1621,0.178502,-0.1859849999999999,-1.11706,244.8,6.9,52.17,4.4272,3.8,1.18795,334.15,4.232419999999999,172.058,69.5448,167.93400000000003,0.735521,0.0958519999999999,250.284,1.68182,1.97393,23.8712463378906,22.004571914672898,12.2192707061768,22.0,2299120.0,5537.61,pp-ro,1,1,-1,-1
1570542305.6,2019-10-08,15:45:05.600,14.0,12.0,18.8899993896484,22.0,-3.1,5.0,48.1,-1.9,-23.4,25.1263,-2.19138,6.15449,-4.93922,-20.0812,-16.4234,46.0983,-11.0252,-23.5447,0.0787192,-0.15017,-1.16098,244.8,6.9,52.17,4.4272,3.8,1.16413,328.666,4.23245,171.97,71.8248,167.234,0.7313430000000001,0.0843073999999999,250.399,1.58696,1.90541,21.2347793579102,22.004056930542003,11.0123443603516,22.0,2299530.0,3168.74,pp-ro,1,1,-1,-1
1570542305.7,2019-10-08,15:45:05.700,14.0,13.0,18.9300003051758,21.7,-4.4,3.9,48.3,1.9,-27.6,24.5306,-4.63744,3.826,-13.797,-13.325,-17.9821,46.1521,-4.10198,-29.9174,0.254579,0.14585,-0.927364,244.8,6.9,52.17,4.4272,3.8,1.16911,326.962,4.232469999999999,171.707,74.4849,166.634,0.727429,0.0706258,250.596,1.49785,1.8398,20.1788330078125,22.004571914672898,9.85284805297852,22.0,2299660.0,2553.45,pp-ro,1,1,-1,-1
1570542305.8,2019-10-08,15:45:05.800,14.0,11.0,19.159999847412102,21.0,-5.1,2.6,48.8,4.9,-31.3,24.2033,-5.18332,3.12227,-2.86631,-11.6591,-7.98791,46.0363,-1.87167,-32.1302,-0.111304,0.0140098999999999,-1.20048,244.8,6.9,52.17,4.4272,3.8,1.16246,317.215,4.2325,171.327,76.3849,166.234,0.72513,0.0605024,250.642,1.42259,1.78067,17.545768737793,22.004056930542003,8.75945472717285,22.0,2300110.0,5137.67,pp-ro,1,1,-1,-1
1570542305.9,2019-10-08,15:45:05.900,14.0,11.0,19.2999992370605,20.7,-5.7,1.5,49.5,8.1,-34.6,22.8911,-6.5202800000000005,1.09029,-13.0243,-8.79845,-12.3823,46.1209,4.44725,-37.6186,0.0380143,0.1399369999999999,-0.84691,244.8,6.9,52.17,4.4272,3.8,1.13199,307.088,4.23252,170.947,79.045,165.93400000000003,0.7222430000000001,0.0467686,251.008,1.35199,1.73219,15.4475021362305,22.004056930542003,7.9093942642211905,22.0,2300690.0,2799.57,pp-ro,1,1,-1,-1
1570542306.0,2019-10-08,15:45:06.000,14.0,11.0,19.25,20.5,-6.4,0.6,49.8,11.4,-37.9,22.4722,-7.298610000000001,-0.0584048999999999,-1.01155,-8.79675,-2.5218700000000003,46.1232,8.366430000000001,-40.8512,0.133244,0.0994626,-0.94499,244.8,6.9,52.17,4.4272,3.8,1.1358700000000002,310.902,4.23255,170.422,80.945,165.734,0.720776,0.0364198,251.124,1.27806,1.68505,13.4343872070312,22.004571914672898,7.0240182876586905,22.0,2300850.0,3107.21,pp-ro,1,1,-1,-1
1570542306.1,2019-10-08,15:45:06.100,14.0,10.0,19.5300006866455,20.0,-7.3,-0.1,49.5,13.9,-41.7,22.4722,-7.298610000000001,-0.0584048999999999,-1.01155,-8.79675,-2.5218700000000003,46.1232,8.366430000000001,-40.8512,0.133244,0.0994626,-0.94499,244.8,6.9,52.17,4.4272,3.8,1.15083,327.433,4.23257,169.83700000000002,83.225,165.634,0.719258,0.0241796,251.408,1.21013,1.63702,11.5983963012695,22.004056930542003,6.12670469284058,22.0,2301070.0,1538.22,pp-ro,1,1,-1,-1
1570542306.2,2019-10-08,15:45:06.200,14.0,11.0,19.7099990844727,19.4,-7.9,-1.2,49.5,16.3,-44.3,21.1888,-8.46096,-1.51325,-9.0055,-4.08296,-11.712,45.9469,12.9877,-45.7817,-0.129462,0.02462,-0.825683,244.8,6.9,52.17,4.4272,3.8,1.22286,360.529,4.2326,169.107,85.5051,165.634,0.718309,0.0116536,251.68,1.15793,1.58123,9.92420959472656,22.004056930542003,5.047091960906981,22.0,2301290.0,2614.98,pp-ro,1,1,-1,-1
1570542306.3,2019-10-08,15:45:06.300,14.0,11.0,20.229999542236303,19.0,-8.7,-2.1,49.9,18.8,-46.4,21.1888,-8.46096,-1.51325,-9.0055,-4.08296,-11.712,45.9469,12.9877,-45.7817,-0.129462,0.02462,-0.825683,244.8,6.9,52.17,4.4272,3.8,1.23173,367.471,4.23262,168.34799999999998,87.4051,165.734,0.71811,0.0008825889999999,251.89,1.10944,1.52764,8.08311462402344,22.004056930542003,3.97320985794067,22.0,2301490.0,3784.03,pp-ro,1,1,-1,-1
1570542306.4,2019-10-08,15:45:06.400,14.0,12.0,20.5300006866455,18.7,-9.6,-2.8,49.9,20.3,-49.0,19.8375,-10.0623,-3.3812900000000004,-14.0256,-8.4236,-8.665980000000001,45.6482,18.3994,-50.7513,0.0751753999999999,-0.0246303,-0.528026,244.8,6.9,52.17,4.4272,3.8,1.25167,382.949,4.23265,167.50099999999998,89.6851,165.93400000000003,0.717888,-0.0118476,252.258,1.06916,1.48207,7.39504241943359,22.004571914672898,3.06362771987915,22.0,2301770.0,2215.04,pp-ro,1,1,-1,-1
1570542306.5,2019-10-08,15:45:06.500,14.0,13.0,20.7900009155273,18.1,-10.4,-3.4,49.8,21.2,-51.2,19.8375,-10.0623,-3.3812900000000004,-14.0256,-8.4236,-8.665980000000001,45.6482,18.3994,-50.7513,0.0751753999999999,-0.0246303,-0.528026,244.1,6.9,52.17,4.4272,3.8,1.296,404.277,4.23267,166.50799999999998,91.2051,166.134,0.718874,-0.0214004,252.277,1.03885,1.43559,6.09214019775391,22.004571914672898,2.06056761741638,22.0,2302270.0,3845.56,pp-ro,1,1,-1,-1
1570542306.6,2019-10-08,15:45:06.600,14.0,12.0,20.9200000762939,17.4,-10.7,-4.1,49.8,22.1,-53.0,18.7994,-11.2611,-4.387919999999999,-9.82931,-5.275580000000001,-6.49526,45.5875,20.85,-53.86600000000001,0.0886023,0.0276818,-0.284405,244.1,6.9,52.17,4.4272,3.8,1.3137299999999998,409.98800000000006,4.23268,165.456,93.4852,166.43400000000003,0.719274,-0.0345865999999999,252.617,1.01573,1.39705,4.543983459472661,22.004571914672898,1.25573372840881,22.0,2302690.0,4522.38,pp-ro,1,1,-1,-1
1570542306.7,2019-10-08,15:45:06.700,14.0,11.0,21.1299991607666,17.0,-11.3,-4.6,50.0,22.7,-54.6,17.8187,-11.8401,-5.252680000000001,-1.90783,-4.364330000000001,-1.35561,45.5505,22.7702,-56.575,0.0436353,-0.139209,-0.425171,244.1,6.9,52.17,4.4272,3.8,1.31428,414.819,4.23268,164.405,95.0052,166.834,0.720878,-0.0442856,252.762,0.996229,1.36282,3.36540985107422,22.004571914672898,0.452574908733368,22.0,2302970.0,5537.61,pp-ro,1,1,-1,-1
1570542306.8,2019-10-08,15:45:06.800,14.0,12.0,21.1700000762939,16.6,-11.6,-5.0,50.2,23.0,-56.0,17.8187,-11.8401,-5.252680000000001,-1.90783,-4.364330000000001,-1.35561,45.5505,22.7702,-56.575,0.0436353,-0.139209,-0.425171,244.1,6.9,52.17,4.4272,3.8,1.32758,422.859,4.23269,163.207,97.2852,167.234,0.721749,-0.0578346999999999,253.117,0.985285,1.34119,2.28732299804688,22.004571914672898,-0.046538151800633,22.0,2303320.0,2861.1,pp-ro,1,1,-1,-1
1570542306.9,2019-10-08,15:45:06.900,14.0,11.0,21.4200000762939,16.3,-11.8,-5.2,50.1,23.3,-56.9,17.8187,-11.8401,-5.252680000000001,-1.90783,-4.364330000000001,-1.35561,45.5505,22.7702,-56.575,0.0436353,-0.139209,-0.425171,244.1,6.9,52.17,4.4272,3.8,1.33423,424.487,4.23269,162.01,98.8052,167.734,0.723859,-0.0679493,253.267,0.977886,1.329,1.28757476806641,22.0050868988037,-0.45446190237999,22.0,2304140.0,6337.48,pp-ro,1,1,-1,-1
1570542307.0,2019-10-08,15:45:07.000,14.0,9.0,21.780000686645497,15.9,-11.8,-5.1,50.4,23.2,-57.7,16.4319,-12.7186,-5.865559999999999,-5.29365,-1.94315,-2.45666,46.0305,24.2034,-59.5219,0.1633349999999999,-0.0798331,-0.099732,244.1,6.9,52.17,4.4272,3.8,1.34033,425.823,4.2327,160.812,100.705,168.134,0.725092,-0.0797926,253.517,0.977589,1.32972,0.504127502441406,22.004571914672898,-0.5390165448188781,22.0,2304630.0,4706.97,pp-ro,1,1,-1,-1
1570542307.1,2019-10-08,15:45:07.100,14.0,9.0,22.260000228881804,15.7,-11.9,-5.2,50.6,23.0,-58.2,16.4319,-12.7186,-5.865559999999999,-5.29365,-1.94315,-2.45666,46.0305,24.2034,-59.5219,0.1633349999999999,-0.0798331,-0.099732,244.1,6.9,52.17,4.4272,3.8,1.34199,433.332,4.2327,159.556,102.225,168.634,0.727215,-0.0901141,253.664,0.980961,1.32556,-0.157020568847656,22.004571914672898,-0.7996602058410641,22.0,2305150.0,4706.97,pp-ro,1,1,-1,-1
1570542307.2,2019-10-08,15:45:07.200,14.0,9.0,22.5,15.1,-12.1,-5.1,50.7,23.3,-58.4,16.0452,-12.7145,-5.79337,-4.7008,-1.94746,-4.65181,46.2618,24.2314,-60.2721,0.0866726,-0.0150334,-0.00879802,244.1,6.9,52.17,4.4272,3.8,1.35196,436.516,4.23271,158.329,104.125,169.134,0.728671,-0.1020539999999999,254.001,0.983115,1.31628,-0.587127685546875,22.004571914672898,-1.1116369962692298,22.0,2305360.0,3784.03,pp-ro,1,1,-1,-1
1570542307.3,2019-10-08,15:45:07.300,14.0,10.0,22.6100006103516,14.9,-12.3,-5.1,51.0,23.0,-59.1,15.5327,-12.8471,-5.5359,-2.65472,-3.70494,7.080430000000001,46.5919,24.5082,-60.3137,-0.2403809999999999,-0.01688,-0.20472,244.1,6.9,52.17,4.4272,3.8,1.34753,423.291,4.23271,156.986,105.645,169.53400000000002,0.730571,-0.112673,254.062,0.985518,1.31364,-0.8482666015625,22.004571914672898,-1.33705317974091,22.0,2306280.0,7752.65,pp-ro,1,1,-1,-1
1570542307.4,2019-10-08,15:45:07.400,14.0,9.0,22.4599990844727,14.8,-12.1,-4.8,51.0,22.6,-59.4,15.1798,-12.9594,-5.26259,-0.182084,2.45223,2.47891,47.1792,23.9619,-60.8013,-0.0482428,-0.178163,-0.175948,244.1,6.9,52.17,4.4272,3.8,1.32758,410.942,4.23272,155.701,107.165,170.03400000000002,0.732579,-0.123146,254.241,0.99374,1.33275,-0.99334716796875,22.004571914672898,-1.14677000045776,22.0,2306680.0,7629.59,pp-ro,1,1,-1,-1
1570542307.5,2019-10-08,15:45:07.500,14.0,11.0,22.3400001525879,14.6,-12.2,-4.7,51.6,22.7,-58.9,14.9782,-12.8336,-5.0844,-1.07958,-3.61926,1.95435,47.4896,24.0646,-60.4348,0.160552,0.041404,0.0668646,243.3,7.7,52.17,4.4272,3.8,1.2921200000000002,401.598,4.23273,154.445,108.685,170.43400000000003,0.734176,-0.133549,254.388,1.00552,1.33557,-1.32787322998047,22.004056930542003,-1.25134742259979,22.0,2307360.0,5722.19,pp-ro,1,1,-1,-1
1570542307.6,2019-10-08,15:45:07.600,14.0,10.0,22.0699996948242,14.4,-12.5,-4.4,51.7,21.7,-59.2,14.9782,-12.8336,-5.0844,-1.07958,-3.61926,1.95435,47.4896,24.0646,-60.4348,0.160552,0.041404,0.0668646,243.3,7.7,52.17,4.4272,3.8,1.29489,398.048,4.23273,153.101,110.205,170.834,0.735904,-0.144243,254.498,1.02106,1.3419,-1.30738830566406,22.004571914672898,-1.30792963504791,22.0,2307750.0,3753.27,pp-ro,1,1,-1,-1
1570542307.7,2019-10-08,15:45:07.700,14.0,8.0,21.9500007629395,14.6,-12.3,-3.9,51.9,21.5,-59.6,14.776,-13.1981,-4.77086,-4.178030000000001,0.8541549999999999,4.62665,47.7581,23.5522,-60.1238,0.114665,-0.166421,0.242848,243.3,7.7,52.17,4.4272,3.8,1.28325,388.051,4.23273,151.75799999999998,111.725,171.234,0.737574,-0.1549559999999999,254.625,1.02594,1.37761,-1.2254638671875,22.004571914672898,-0.7809922695159909,22.0,2308390.0,6706.66,pp-ro,1,1,-1,-1
1570542307.8,2019-10-08,15:45:07.800,14.0,8.0,21.6700000762939,14.4,-12.2,-3.5,52.2,21.4,-59.7,14.776,-13.1981,-4.77086,-4.178030000000001,0.8541549999999999,4.62665,47.7581,23.5522,-60.1238,0.114665,-0.166421,0.242848,243.3,7.7,52.17,4.4272,3.8,1.25389,376.442,4.23273,150.502,113.245,171.53400000000002,0.7387090000000001,-0.16541,254.753,1.03304,1.39628,-1.31250762939453,22.004056930542003,-0.543820321559906,22.0,2308910.0,4583.91,pp-ro,1,1,-1,-1
1570542307.9,2019-10-08,15:45:07.900,14.0,10.0,21.4200000762939,14.1,-12.1,-3.1,52.2,20.6,-60.2,14.6226,-12.9453,-3.49002,-8.92077,-4.60724,1.4578799999999998,48.0643,22.3226,-61.3726,-0.00853191,-0.119513,0.142769,243.3,7.7,52.17,4.4272,3.8,1.24004,358.94300000000004,4.23273,149.187,114.765,171.834,0.739911,-0.176063,254.863,1.04385,1.4126299999999998,-1.10086822509766,22.0035419464111,-0.368095070123672,22.0,2309460.0,6337.48,pp-ro,1,1,-1,-1
1570542308.0,2019-10-08,15:45:08.000,14.0,9.0,21.090000152587898,13.8,-11.7,-2.6,52.1,20.0,-60.3,14.4305,-12.9093,-3.27504,-2.45536,4.40011,3.99174,48.1209,21.7912,-61.5331,0.0327884,-0.0705952,-0.0124277,243.3,7.7,52.17,4.4272,3.8,1.17022,321.54400000000004,4.23273,147.99,115.905,172.03400000000002,0.7411439999999999,-0.184756,254.815,1.05574,1.43925,-0.669059753417969,22.003026962280305,-35.0,22.0,2310320.0,4706.97,pp-ro,1,1,-1,-1
1570542308.1,2019-10-08,15:45:08.100,14.0,10.0,20.6700000762939,13.6,-11.1,-2.2,51.9,19.6,-60.1,13.890999999999998,-12.1963,-2.57254,-3.3408,6.42882,-0.298547,48.7139,20.1798,-61.9172,0.277372,-0.255938,0.161031,243.3,7.7,52.17,4.42721,3.8,1.12534,290.625,4.23274,146.763,117.425,172.234,0.741772,-0.195149,254.937,1.07003,1.47215,-0.206520080566406,22.003026962280305,-35.0,22.0,2310940.0,6922.01,pp-ro,1,1,-1,-1
1570542308.2,2019-10-08,15:45:08.200,14.0,9.0,20.159999847412102,13.3,-10.9,-1.8,51.5,18.8,-60.0,13.6739,-11.7462,-2.06561,-0.180886,2.39387,3.87646,49.0882,19.468,-61.9533,-0.0720533,0.0697954,-0.00636579,243.3,7.7,52.17,4.42721,3.8,1.0583,265.772,4.23274,145.595,118.945,172.43400000000003,0.742225,-0.2053449999999999,255.107,1.08781,1.49276,-0.0597381591796879,22.003026962280305,-35.0,22.0,2311460.0,3999.38,pp-ro,1,1,-1,-1
1570542308.3,2019-10-08,15:45:08.300,14.0,11.0,19.7600002288818,13.2,-10.8,-2.0,51.9,18.6,-58.7,13.5165,-11.6516,-1.87691,-6.74649,6.75212,1.51947,48.9515,19.2784,-61.5702,-0.336551,-0.0137439,0.0551399,243.3,7.7,52.17,4.42721,3.8,1.05109,257.881,4.23274,144.45600000000002,120.085,172.634,0.743211,-0.213884,255.128,1.11154,1.48991,-0.160438537597656,22.003026962280305,-35.0,22.0,2311570.0,2245.81,pp-ro,1,1,-1,-1
1570542308.4,2019-10-08,15:45:08.400,14.0,13.0,19.4500007629395,13.0,-11.1,-2.0,52.2,16.9,-58.3,13.2843,-11.3859,-1.88425,-0.979867,-1.0542,-1.5723200000000002,49.3963,19.5237,-60.4754,0.0749661,0.1625049999999999,0.153945,243.3,7.7,52.17,4.42721,3.8,1.02062,248.185,4.23274,143.317,121.605,172.834,0.743508,-0.2239789999999999,255.341,1.1439,1.48281,-0.640037536621094,22.003026962280305,-35.0,22.0,2312090.0,3353.33,pp-ro,1,1,-1,-1
1570542308.5,2019-10-08,15:45:08.500,14.0,13.0,19.270000457763697,13.0,-11.2,-1.8,52.1,15.2,-58.0,13.2843,-11.3859,-1.88425,-0.979867,-1.0542,-1.5723200000000002,49.3963,19.5237,-60.4754,0.0749661,0.1625049999999999,0.153945,243.5,7.4,52.17,4.42721,3.8,1.02671,256.182,4.23274,142.061,122.745,173.03400000000002,0.744649,-0.232938,255.32,1.17442,1.49478,-1.47465515136719,22.003026962280305,-35.0,22.0,2312140.0,1015.23,pp-ro,1,1,-1,-1
1570542308.6,2019-10-08,15:45:08.600,14.0,13.0,19.270000457763697,13.1,-11.4,-1.2,52.3,13.6,-58.0,12.9317,-11.7875,-1.54104,-0.935505,-4.12904,5.26006,48.9465,15.9848,-59.1916,-0.00720825,-0.0882242,0.287928,243.5,7.4,52.17,4.42721,3.8,1.07381,281.118,4.23268,140.893,123.885,173.234,0.745574,-0.241546,255.359,1.20002,1.52354,-2.65574645996094,22.003026962280305,-35.0,22.0,2312120.0,-307.645,pp-ro,1,1,-1,-1
1570542308.7,2019-10-08,15:45:08.700,14.0,9.0,19.1299991607666,13.4,-10.9,-0.8,52.4,12.5,-57.8,13.0528,-11.802,-1.23213,2.8444,1.61615,5.67708,49.0018,15.1214,-59.1382,-0.0608620999999999,-0.2544619999999999,0.136624,243.5,7.4,52.17,4.42721,3.8,1.10152,277.606,4.23262,139.753,125.785,173.334,0.744769,-0.253073,255.73,1.22405,1.5706,-4.19866943359375,22.0035419464111,-35.0,22.0,2312350.0,4245.5,pp-ro,1,1,-1,-1
1570542308.8,2019-10-08,15:45:08.800,14.0,9.0,18.9899997711182,13.8,-10.8,-0.9,52.4,10.5,-57.6,13.1371,-11.7266,-0.901861,0.2928719999999999,0.74421,7.507110000000001,49.3948,14.4932,-58.8428,-0.191435,-0.224017,0.194153,243.5,7.4,52.17,4.42721,3.8,1.04832,254.607,4.232559999999999,138.614,126.925,173.334,0.744973,-0.261573,255.673,1.25718,1.58548,-6.10001373291016,22.003026962280305,-35.0,22.0,2312890.0,4922.32,pp-ro,1,1,-1,-1
1570542308.9,2019-10-08,15:45:08.900,14.0,8.0,18.7600002288818,14.1,-10.4,0.3,52.7,7.5,-57.9,13.5901,-11.0714,-0.283973,-2.93078,4.1220300000000005,6.13497,49.8184,11.6225,-58.7929,0.0864272,-0.260125,0.520859,243.5,7.4,52.17,4.42721,3.8,1.03281,260.356,4.23249,137.505,128.065,173.334,0.745084,-0.269974,255.642,1.29685,1.6611,-8.21300506591797,22.0035419464111,-35.0,22.0,2313140.0,1384.4,pp-ro,1,1,-1,-1
1570542309.0,2019-10-08,15:45:09.000,14.0,10.0,18.5699996948242,14.2,-10.2,0.6,52.7,6.3,-57.7,13.8527,-10.6292,0.944516,1.2408,5.2122,8.52675,51.42,8.11149,-57.1725,0.177884,-0.1018039999999999,0.377751,243.5,7.4,52.17,4.42721,3.8,1.11481,289.261,4.23243,136.95,129.205,173.334,0.744091,-0.276352,255.918,1.31893,1.68664,-10.329406738281198,22.0035419464111,-35.0,22.0,2313070.0,276.88,pp-ro,1,1,-1,-1
1570542309.1,2019-10-08,15:45:09.100,14.0,10.0,18.659999847412102,14.6,-9.7,1.3,53.9,4.1,-56.2,13.8527,-10.6292,0.944516,1.2408,5.2122,8.52675,51.42,8.11149,-57.1725,0.177884,-0.1018039999999999,0.377751,243.5,7.4,52.17,4.4272,3.7,1.10927,283.123,4.23237,135.92700000000002,130.345,173.234,0.743685,-0.284421,255.883,1.37064,1.7462400000000002,-12.428741455078098,22.0035419464111,-35.0,22.0,2313340.0,5045.38,pp-ro,1,1,-1,-1
1570542309.2,2019-10-08,15:45:09.200,14.0,10.0,18.9400005340576,15.3,-9.1,2.1,55.2,1.8,-54.2,14.0765,-9.92887,1.70235,4.21293,4.72986,6.53746,52.535,6.49509,-55.6609,0.183313,-0.0465649999999999,0.4868229999999999,243.5,7.4,52.17,4.4272,3.7,1.06273,265.509,4.23231,134.934,131.865,173.03400000000002,0.742201,-0.2938139999999999,256.001,1.43074,1.81854,-14.5349044799805,22.0035419464111,-35.0,22.0,2313830.0,4491.62,pp-ro,1,1,-1,-1
1570542309.3,2019-10-08,15:45:09.300,14.0,13.0,19.270000457763697,16.0,-8.6,3.5,57.0,-0.2,-51.9,15.0308,-8.91147,3.24211,0.596108,3.52741,14.3984,54.6153,3.43232,-51.4801,0.246693,0.3734119999999999,0.730765,243.5,7.4,52.17,4.4272,3.7,1.0699299999999998,270.618,4.23224,134.029,133.765,172.834,0.739804,-0.30427,256.376,1.49131,1.90804,-16.6478881835938,22.003026962280305,-35.0,22.0,2314070.0,830.6410000000001,pp-ro,1,1,-1,-1
1570542309.4,2019-10-08,15:45:09.400,14.0,13.0,19.1800003051758,16.4,-8.3,4.9,58.3,-4.7,-51.3,15.0308,-8.91147,3.24211,0.596108,3.52741,14.3984,54.6153,3.43232,-51.4801,0.246693,0.3734119999999999,0.730765,243.5,7.4,52.17,4.4272,3.7,1.07714,268.595,4.2321800000000005,133.123,134.905,172.334,0.737916,-0.311839,256.165,1.5622,1.9799400000000005,-18.7711181640625,22.003026962280305,-35.0,22.0,2314210.0,2861.1,pp-ro,1,1,-1,-1
1570542309.5,2019-10-08,15:45:09.500,14.0,15.0,19.2199993133545,17.1,-7.3,5.8,59.4,-8.9,-49.1,15.7198,-7.751189999999999,5.72698,-1.61689,14.7407,5.0380400000000005,57.8317,-3.16681,-46.9784,0.183332,-0.1524,0.757081,243.7,7.1,52.17,4.4272,3.7,1.05941,274.1,4.23212,132.247,136.805,171.834,0.7345119999999999,-0.322069,256.382,1.65038,2.06104,-20.880691528320305,22.003026962280305,-35.0,22.0,2314640.0,1076.76,pp-ro,1,1,-1,-1
1570542309.6,2019-10-08,15:45:09.600,14.0,13.0,19.1800003051758,18.0,-6.9,7.2,61.4,-12.7,-45.6,15.7198,-7.751189999999999,5.72698,-1.61689,14.7407,5.0380400000000005,57.8317,-3.16681,-46.9784,0.183332,-0.1524,0.757081,243.7,7.1,52.17,4.4272,3.7,1.07935,284.706,4.232080000000001,131.517,138.325,171.234,0.731229,-0.330342,256.421,1.74658,2.13016,-23.0073394775391,22.0035419464111,-35.0,22.0,2314650.0,307.645,pp-ro,1,1,-1,-1
1570542309.7,2019-10-08,15:45:09.700,14.0,11.0,19.5400009155273,18.5,-6.4,9.4,62.7,-17.5,-43.0,15.7198,-7.751189999999999,5.72698,-1.61689,14.7407,5.0380400000000005,57.8317,-3.16681,-46.9784,0.183332,-0.1524,0.757081,243.7,7.1,52.17,4.4272,3.7,1.11814,298.58,4.232069999999999,130.787,140.605,170.43400000000003,0.7258899999999999,-0.34124,256.754,1.8472,2.22035,-25.1237411499023,22.0035419464111,-35.0,22.0,2314800.0,2122.75,pp-ro,1,1,-1,-1
1570542309.8,2019-10-08,15:45:09.800,14.0,13.0,19.8500003814697,18.9,-4.7,11.1,63.6,-23.4,-39.9,15.7198,-7.751189999999999,5.72698,-1.61689,14.7407,5.0380400000000005,57.8317,-3.16681,-46.9784,0.183332,-0.1524,0.757081,243.7,7.1,52.17,4.4272,3.7,1.10983,287.918,4.2320400000000005,130.173,142.125,169.334,0.72087,-0.348915,256.551,1.96519,2.3313,-27.226486206054695,22.003026962280305,-35.0,22.0,2315160.0,4091.68,pp-ro,1,1,-1,-1
1570542309.9,2019-10-08,15:45:09.900,14.0,9.0,20.3299999237061,19.3,-2.6,12.6,64.0,-28.1,-35.5,17.5001,-4.1336900000000005,11.0468,4.14463,17.0048,15.692,59.46,-18.4112,-32.3407,0.206773,0.0431154,1.17238,243.7,7.1,52.17,4.4272,3.7,1.08268,285.915,4.23201,129.735,144.025,168.234,0.714791,-0.357176,256.665,2.07991,2.44563,-29.3155822753906,22.0035419464111,-35.0,22.0,2315690.0,2553.45,pp-ro,1,1,-1,-1
1570542310.0,2019-10-08,15:45:10.000,14.0,12.0,20.840000152587898,19.2,-1.2,14.9,64.6,-34.6,-31.8,17.703,-2.18948,12.636,0.633062,10.7233,15.0912,58.7037,-23.6434,-27.5233,0.1529559999999999,0.185802,1.26162,243.7,7.1,52.17,4.4272,3.7,1.09376,298.382,4.23197,129.501,145.925,166.93400000000003,0.707749,-0.364554,256.772,2.2084900000000003,2.54623,-31.1298828125,22.004056930542003,-35.0,22.0,2315740.0,922.935,pp-ro,1,1,-1,-1
1570542310.1,2019-10-08,15:45:10.100,14.0,12.0,21.2999992370605,18.6,0.7,16.6,63.2,-41.7,-27.3,17.528,-0.697723,14.7005,-2.00737,14.9164,14.7408,56.8574,-29.8969,-21.78,0.094912,0.291259,1.48891,243.7,7.1,52.1701,4.42721,3.7,1.16357,321.128,4.23196,129.414,147.825,165.53400000000002,0.700148,-0.371285,256.908,2.34921,2.6521,-32.5994262695312,22.004056930542003,-35.0,22.0,2315920.0,3199.51,pp-ro,1,1,-1,-1
1570542310.2,2019-10-08,15:45:10.200,14.0,11.0,21.5900001525879,17.8,3.1,17.6,59.8,-48.9,-19.7,16.5993,1.5204,15.799,-8.28207,22.8356,9.3906,53.4284,-37.013000000000005,-14.4743,0.172951,-0.00758499,1.6517,243.7,7.1,52.1701,4.42721,3.7,1.14418,314.019,4.23193,129.56,149.725,163.93400000000003,0.691555,-0.3770239999999999,257.056,2.5123,2.76368,-33.7224731445312,22.004056930542003,-35.0,22.0,2316360.0,4183.97,pp-ro,1,1,-1,-1
1570542310.3,2019-10-08,15:45:10.300,14.0,8.0,21.9899997711182,16.4,5.7,18.7,54.7,-55.3,-9.5,14.9825,4.90617,17.1657,-13.8614,19.3373,11.3062,44.5709,-45.9099,0.165851,0.249621,0.387613,1.56762,243.7,7.1,52.1701,4.42721,3.7,1.13975,311.703,4.23191,129.939,151.626,162.334,0.682584,-0.381787,257.345,2.6756,2.89025,-34.473464965820305,22.004056930542003,-35.0,22.0,2316540.0,3291.8,pp-ro,1,1,-1,-1
1570542310.4,2019-10-08,15:45:10.400,14.0,6.0,22.260000228881804,14.5,8.2,19.7,46.7,-60.1,2.9,14.2215,6.09144,17.7788,-10.9947,24.1168,8.95951,41.0144,-48.1561,5.99181,0.127192,0.35625,1.41447,243.7,7.1,52.1701,4.42721,3.7,1.1464,320.692,4.23188,130.582,152.766,160.634,0.674309,-0.383024,257.278,2.82334,3.01767,-34.866012573242195,22.004056930542003,-35.0,22.0,2316800.0,2553.45,pp-ro,1,1,-1,-1
1570542310.5,2019-10-08,15:45:10.500,14.0,7.0,22.530000686645497,12.4,10.7,20.1,35.3,-63.7,19.3,13.2701,7.157610000000001,18.3013,-19.6352,18.2359,9.52647,36.754,-49.9738,12.6242,0.21156,0.294077,1.4090200000000002,246.7,7.9,52.1701,4.42721,3.7,1.16524,320.527,4.23186,131.429,154.286,158.934,0.665018,-0.384694,257.56,2.97684,3.14562,-34.934295654296896,22.004056930542003,-23.018762588501,22.0,2317220.0,3845.56,pp-ro,1,1,-1,-1
1570542310.6,2019-10-08,15:45:10.600,14.0,8.0,22.530000686645497,10.1,13.1,20.2,21.7,-65.5,37.4,11.1581,9.50659,18.6904,-22.5688,22.4967,8.97153,27.8653,-52.9605,26.4209,0.326299,0.384534,1.35209,246.7,7.9,52.1701,4.42721,3.7,1.14695,320.444,4.23188,132.53799999999998,155.42600000000002,157.234,0.656027,-0.384205,257.771,3.11889,3.27277,-34.939407348632805,22.004056930542003,-23.018762588501,22.0,2317660.0,4060.91,pp-ro,1,1,-1,-1
1570542310.7,2019-10-08,15:45:10.700,14.0,13.0,22.530000686645497,8.0,15.0,20.5,7.4,-64.7,56.2,9.09506,11.7666,19.0588,-20.1088,14.3701,2.50457,17.7109,-53.8578,40.8042,0.218084,0.5651189999999999,1.3715700000000002,246.7,7.9,52.1701,4.42721,3.7,1.16579,331.336,4.23191,133.85299999999998,156.186,155.533,0.647417,-0.381767,257.878,3.25962,3.37594,-34.937698364257805,22.004056930542003,-23.018762588501,22.0,2317820.0,1045.99,pp-ro,1,1,-1,-1
1570542310.8,2019-10-08,15:45:10.800,14.0,12.0,22.2900009155273,5.5,16.2,19.9,-8.0,-63.3,75.7,6.9258,13.5639,19.258,-27.8827,8.41638,1.33534,7.11015,-53.4185,55.572,0.212089,0.355481,1.57158,246.7,7.9,52.1701,4.42721,3.7,1.18297,333.242,4.23194,135.313,156.946,153.933,0.6389020000000001,-0.37883,258.141,3.4096300000000004,3.47862,-34.6253662109375,22.004056930542003,-23.018762588501,22.0,2317920.0,1999.69,pp-ro,1,1,-1,-1
1570542310.9,2019-10-08,15:45:10.900,14.0,10.0,22.1700000762939,3.2,17.7,18.6,-20.7,-59.5,93.4,3.6766,15.3919,18.2458,-21.2497,10.6768,-5.415369999999999,-10.4262,-49.9373,79.8243,-0.1683339999999999,0.488257,1.60597,246.7,7.9,52.1701,4.42721,3.7,1.16911,320.878,4.23196,136.91899999999998,157.326,152.333,0.630837,-0.374214,258.27,3.57066,3.5914900000000003,-33.903396606445305,22.004571914672898,-23.0211448669434,22.0,2318440.0,5752.96,pp-ro,1,1,-1,-1
1570542311.0,2019-10-08,15:45:11.000,14.0,9.0,22.5200004577637,1.1,19.3,17.4,-26.0,-53.5,102.6,3.6766,15.3919,18.2458,-21.2497,10.6768,-5.415369999999999,-10.4262,-49.9373,79.8243,-0.1683339999999999,0.488257,1.60597,246.7,7.9,52.1701,4.42721,3.7,1.1358700000000002,310.615,4.231990000000001,138.671,158.086,150.833,0.622224,-0.370328,258.789,3.70874,3.70049,-32.792282104492195,22.004571914672898,-23.0211448669434,22.0,2318900.0,3876.33,pp-ro,1,1,-1,-1
1570542311.1,2019-10-08,15:45:11.100,14.0,9.0,22.8600006103516,-1.1,19.8,16.1,-30.9,-47.3,111.2,1.47639,16.8241,17.2071,-21.8454,4.01399,-10.9292,-17.113,-46.4674,90.2818,0.148388,0.3301929999999999,1.23542,246.7,7.9,52.1701,4.42721,3.9,1.13642,310.097,4.23202,140.541,158.086,149.433,0.615047,-0.363712,258.985,3.85323,3.79541,-31.365417480468803,22.004571914672898,-23.0211448669434,22.0,2319400.0,3784.03,pp-ro,1,1,-1,-1
1570542311.2,2019-10-08,15:45:11.200,14.0,13.0,23.4300003051758,-2.8,20.2,14.4,-35.0,-40.6,118.2,0.6129680000000001,17.3166,16.6117,-14.9173,11.0881,-15.0827,-20.6161,-44.1708,95.6341,0.53475,0.477327,1.57809,246.7,7.9,52.1701,4.42721,3.9,1.13864,311.865,4.2320400000000005,142.556,158.086,148.13299999999998,0.607962,-0.356664,259.339,3.99907,3.88494,-29.566482543945305,22.004571914672898,-23.0211448669434,22.0,2319670.0,2461.16,pp-ro,1,1,-1,-1
1570542311.3,2019-10-08,15:45:11.300,14.0,12.0,23.4300003051758,-4.0,20.1,12.5,-37.0,-33.4,123.1,-2.3504,18.399,14.7599,-15.0533,3.03593,-14.1118,-28.1581,-36.5533,107.757,-0.345008,0.5052439999999999,1.25621,246.7,7.9,52.1701,4.42721,3.9,1.14363,312.273,4.232069999999999,144.483,157.326,146.933,0.602542,-0.3476059999999999,259.261,4.13938,3.96171,-27.6139221191406,22.004571914672898,-23.0211448669434,22.0,2319830.0,2891.86,pp-ro,1,1,-1,-1
1570542311.4,2019-10-08,15:45:11.400,14.0,11.0,23.2000007629395,-5.6,20.3,10.7,-37.6,-27.4,127.2,-4.15144,18.2233,12.2746,-9.66585,10.14,-15.679,-33.6718,-27.2501,117.645,-0.0153122,0.143833,1.12058,246.7,7.9,52.1701,4.42721,3.9,1.13421,302.60900000000004,4.2321,146.44,156.946,145.933,0.597074,-0.339721,259.563,4.25826,4.05747,-25.9890747070312,22.004571914672898,-22.8162059783936,22.0,2320230.0,4491.62,pp-ro,1,1,-1,-1
1570542311.5,2019-10-08,15:45:11.500,14.0,12.0,22.5799999237061,-7.1,20.2,8.9,-38.4,-22.8,130.5,-5.75427,18.7571,10.7419,-18.7735,1.61212,-14.7367,-35.4119,-21.1886,121.974,-0.136434,0.421143,1.07999,247.1,7.4,52.1701,4.42721,3.9,1.13144,319.88,4.232130000000001,148.39700000000002,156.566,145.033,0.59191,-0.331914,259.941,4.3508,4.152019999999999,-24.7226486206055,22.004571914672898,-21.0676174163818,22.0,2320670.0,1045.99,pp-ro,1,1,-1,-1
1570542311.6,2019-10-08,15:45:11.600,14.0,12.0,22.1100006103516,-8.5,20.0,7.0,-39.2,-17.5,133.1,-5.75427,18.7571,10.7419,-18.7735,1.61212,-14.7367,-35.4119,-21.1886,121.974,-0.136434,0.421143,1.07999,247.1,7.4,52.1701,4.42721,3.9,1.20402,355.819,4.23215,150.471,155.806,144.233,0.587463,-0.322581,260.231,4.44756,4.24903,-23.770263671875,22.0050868988037,-19.2554740905762,22.0,2320640.0,-430.703,pp-ro,1,1,-1,-1
1570542311.7,2019-10-08,15:45:11.700,14.0,15.0,22.0699996948242,-9.9,19.5,5.6,-40.2,-12.7,136.6,-8.800510000000001,18.4278,7.400469999999999,-11.3542,-3.89905,-21.4537,-38.2509,-12.1641,129.819,0.142698,0.281831,1.04751,247.1,7.4,52.1701,4.42721,3.9,1.23283,371.877,4.2321800000000005,152.369,155.046,143.533,0.583565,-0.3139,260.494,4.54595,4.33293,-22.7632675170898,22.0061168670654,-17.694147109985398,22.0,2320740.0,1815.1,pp-ro,1,1,-1,-1
1570542311.8,2019-10-08,15:45:11.800,14.0,14.0,22.4599990844727,-11.2,19.1,4.2,-41.3,-8.5,139.9,-10.2013,17.9635,6.01684,-14.722,0.5069859999999999,-7.982469999999999,-39.4172,-7.333769999999999,133.46,-0.0114485,0.384923,1.06115,247.1,7.4,52.1701,4.42721,3.9,1.27771,396.947,4.23221,154.268,153.526,143.033,0.581413,-0.302813,260.436,4.63298,4.413130000000001,-21.2578964233398,22.0061168670654,-16.167188644409197,22.0,2320920.0,1630.52,pp-ro,1,1,-1,-1
1570542311.9,2019-10-08,15:45:11.900,14.0,15.0,22.3799991607666,-11.9,18.8,2.8,-41.1,-3.5,142.0,-11.2064,17.7017,4.717890000000001,-8.218539999999999,-2.28141,-9.95003,-40.7428,-2.7055,136.664,-0.108263,0.235559,0.74306,247.1,7.4,52.1701,4.42721,3.9,1.29932,394.214,4.23224,156.195,152.766,142.533,0.578046,-0.294153,260.86400000000003,4.72179,4.47921,-19.8890609741211,22.0056018829346,-14.9554967880249,22.0,2321360.0,5876.02,pp-ro,1,1,-1,-1
1570542312.0,2019-10-08,15:45:12.000,14.0,15.0,22.1100006103516,-13.4,18.6,1.5,-41.4,-0.1,144.0,-11.5639,17.408,4.08157,-5.88949,-3.02482,-18.0783,-41.08,-0.919623,138.17700000000002,-0.497047,-0.1182579999999999,0.67499,247.1,7.4,52.1701,4.42721,3.9,1.24669,381.767,4.23227,158.094,151.626,142.13299999999998,0.575569,-0.284402,261.124,4.78538,4.55767,-18.4553680419922,22.0056018829346,-13.4781074523926,22.0,2322370.0,5814.49,pp-ro,1,1,-1,-1
1570542312.1,2019-10-08,15:45:12.100,14.0,14.0,21.4699993133545,-14.5,17.8,0.4,-42.4,1.6,147.0,-13.1254,17.7198,2.61635,-15.2384,-2.29921,-11.2629,-42.2717,2.07933,140.725,-0.00365169,0.0349094,0.614192,247.1,7.4,52.1701,4.42721,4.1,1.29157,410.329,4.2323,159.875,149.726,141.833,0.574634,-0.27254,260.949,4.83266,4.62426,-17.0455703735352,22.0050868988037,-12.2043018341064,22.0,2322490.0,799.877,pp-ro,1,1,-1,-1
1570542312.2,2019-10-08,15:45:12.200,14.0,16.0,21.2199993133545,-14.9,16.8,-0.7,-43.0,3.5,149.4,-13.1254,17.7198,2.61635,-15.2384,-2.29921,-11.2629,-42.2717,2.07933,140.725,-0.00365169,0.0349094,0.614192,247.1,7.4,52.1701,4.42721,4.1,1.32481,423.163,4.23233,161.628,148.586,141.533,0.5726100000000001,-0.263309,261.214,4.87849,4.68334,-15.6784439086914,22.0066318511963,-11.1084585189819,22.0,2322560.0,1292.11,pp-ro,1,1,-1,-1
1570542312.3,2019-10-08,15:45:12.300,14.0,14.0,21.2199993133545,-15.0,16.0,-1.7,-43.4,6.1,150.7,-14.9541,15.45,-0.355158,9.25735,-13.5824,-11.99,-43.4156,6.71022,147.838,-0.34003,0.0209683,0.300938,247.1,7.4,52.1701,4.42721,4.1,1.34697,420.768,4.23236,163.234,147.066,141.333,0.571624,-0.253297,261.245,4.923430000000001,4.73209,-14.270355224609402,22.0066318511963,-10.1953868865967,22.0,2323100.0,7445.01,pp-ro,1,1,-1,-1
1570542312.4,2019-10-08,15:45:12.400,14.0,12.0,21.5900001525879,-15.3,14.9,-2.3,-43.5,7.6,153.2,-14.9541,15.45,-0.355158,9.25735,-13.5824,-11.99,-43.4156,6.71022,147.838,-0.34003,0.0209683,0.300938,247.1,7.4,52.1701,4.42721,4.1,1.30819,405.014,4.2323900000000005,164.81099999999998,145.546,141.233,0.57096,-0.243389,261.329,4.96422,4.77665,-12.9049301147461,22.0061168670654,-9.35988807678223,22.0,2323880.0,6952.77,pp-ro,1,1,-1,-1
1570542312.5,2019-10-08,15:45:12.500,14.0,11.0,21.7399997711182,-15.5,14.4,-2.8,-43.5,10.0,154.9,-15.2035,14.1454,-1.60693,-11.1571,-9.08394,-1.29857,-43.4296,10.1865,151.931,-0.217127,0.1931369999999999,0.702725,243.7,8.1,52.1701,4.42721,4.1,1.29267,401.792,4.23241,166.301,144.026,141.233,0.570711,-0.2337679999999999,261.431,5.010269999999999,4.80471,-11.6862945556641,22.0056018829346,-8.844282150268551,22.0,2324400.0,4430.09,pp-ro,1,1,-1,-1
