time,date,time_of_day,airspeed_temperature,airspeed_angle_of_attack,airspeed_apparent_windspeed,kite_0_vx,kite_0_vy,kite_0_vz,kite_0_roll,kite_0_pitch,kite_0_yaw,kite_1_vx,kite_1_vy,kite_1_vz,kite_1_ax,kite_1_ay,kite_1_az,kite_1_roll,kite_1_pitch,kite_1_yaw,kite_1_roll_rate,kite_1_pitch_rate,kite_1_yaw_rate,ground_upwind_direction,ground_wind_velocity,ground_pos_latitude,ground_pos_longitude,ground_pos_altitude,ground_tether_reelout_speed,ground_tether_force,est_upwind_direction,kite_pos_east,kite_pos_north,kite_height,kite_elevation,kite_azimuth,kite_distance,kite_heading,kite_course,kite_actual_steering,kite_actual_depower,kite_set_steering,kite_set_depower,ground_mech_energy,ground_mech_power,flight_phase,flight_phase_index,phase,pattern,pattern_section
1570537361.6,2019-10-08,14:22:41.600,15.0,8.0,15.539999961853,11.8,-4.1,2.5,19.7,-3.7,-64.4,10.3086,-3.4466,2.9721900000000003,8.29598,8.12042,3.21358,22.7069,10.7603,-65.3883,0.12352,0.16391,0.929758,258.6,6.6,52.1701,4.42724,7.7,-2.50944,104.094,4.44722,56.3414,11.4007,237.259,1.3331,0.06551,244.123,0.669851,1.48679,-34.903564453125,22.0092067718506,-35.0,22.0,-625968.0,-707.5830000000001,pp-riro,4,0,-1,-1
1570537361.7,2019-10-08,14:22:41.700,15.0,8.0,15.4200000762939,12.8,-3.1,2.7,21.8,-4.9,-58.9,11.7389,-2.01878,3.37754,7.06035,9.58835,1.84818,25.6442,8.789489999999999,-56.6077,0.316098,0.142333,1.00367,258.6,6.6,52.1701,4.42724,7.7,-2.50057,101.324,4.4471300000000005,55.9616,12.9208,237.159,1.3332,0.0383023,244.014,0.798621,1.60863,-34.970123291015604,22.0019989013672,-35.0,22.0,-626190.0,-4491.62,pp-riro,4,0,-1,-1
1570537361.8,2019-10-08,14:22:41.800,15.0,8.0,15.3100004196167,13.9,-2.1,3.1,23.5,-6.8,-53.4,12.7589,-1.04736,3.66211,10.8959,8.92483,4.59973,27.8013,7.14717,-50.5146,0.1229,0.262077,1.02194,258.6,6.6,52.1701,4.42725,7.8,-2.4967,103.337,4.447030000000001,55.6695,14.0608,236.959,1.33307,0.0179533,243.816,0.922769,1.71694,-34.970123291015604,22.0009689331055,-35.0,22.0,-626712.0,-5629.9,pp-riro,4,0,-1,-1
1570537361.9,2019-10-08,14:22:41.900,15.0,7.0,15.130000114440902,14.8,-1.0,3.6,25.0,-8.8,-48.4,13.6189,-0.0556191,4.18538,6.53996,12.0205,5.88345,29.2859,5.34834,-44.5704,0.0420549,0.196904,1.00714,258.6,6.6,52.1701,4.42725,7.8,-2.4629,109.092,4.446940000000001,55.4943,15.2009,236.759,1.33239,-0.00190928,243.65,1.03823,1.8208,-34.9889068603516,22.0009689331055,-35.0,22.0,-627078.0,-1415.17,pp-riro,4,0,-1,-1
1570537362.0,2019-10-08,14:22:42.000,15.0,7.0,14.960000038147,15.5,0.1,4.0,26.3,-10.6,-43.2,13.9865,0.50627,4.45715,9.41442,11.8198,6.24228,30.1075,4.29389,-41.6882,0.18045,0.170742,1.07059,258.6,6.6,52.1701,4.42725,7.8,-2.44738,107.085,4.44684,55.4066,16.7209,236.459,1.33076,-0.0275482,243.438,1.16247,1.92006,-34.9871978759766,22.0009689331055,-35.0,22.0,-627120.0,-830.6410000000001,pp-riro,4,0,-1,-1
1570537362.1,2019-10-08,14:22:42.100,15.0,8.0,14.8400001525879,16.1,1.5,4.4,27.3,-12.3,-37.6,14.3035,1.08315,4.70686,6.640810000000001,15.3325,5.2104,30.747,3.19224,-38.8572,0.189281,0.182548,1.00208,258.6,6.6,52.1701,4.42725,7.8,-2.42411,97.5195,4.44675,55.5235,18.241,236.159,1.3282,-0.0517783,243.283,1.29171,2.02928,-34.9871978759766,22.0009689331055,-35.0,22.0,-627346.0,-4337.79,pp-riro,4,0,-1,-1
1570537362.2,2019-10-08,14:22:42.200,15.0,8.0,14.7799997329712,16.5,2.9,4.6,28.1,-14.2,-32.2,14.7787,2.3853,4.999280000000001,2.277,13.5367,1.28758,31.8536,0.931237,-33.0819,0.232562,0.135682,1.03657,258.3,6.7,52.1701,4.42725,7.8,-2.4424,89.743,4.44667,55.7279,20.1411,235.859,1.32466,-0.0810903,243.188,1.42301,2.13545,-34.9871978759766,22.0009689331055,-35.0,22.0,-628192.0,-10583.0,pp-riro,4,0,-1,-1
1570537362.3,2019-10-08,14:22:42.300,15.0,8.0,14.7799997329712,16.8,4.2,5.1,28.8,-15.9,-26.8,15.3105,4.277480000000001,5.479080000000001,4.12748,9.96774,2.76451,33.0209,-2.27546,-24.7059,0.0974008999999999,0.276379,1.00167,258.3,6.7,52.1701,4.42725,7.8,-2.48949,89.3377,4.44661,56.0491,21.6611,235.55900000000003,1.32103,-0.103001,243.102,1.54535,2.22806,-34.9940185546875,22.0009689331055,-35.0,22.0,-629412.0,-11905.9,pp-riro,4,0,-1,-1
1570537362.4,2019-10-08,14:22:42.400,15.0,8.0,14.7200002670288,17.1,5.5,5.6,29.5,-18.0,-21.1,15.5256,5.44595,5.92321,2.26448,11.0101,1.78134,33.4694,-4.27442,-18.7737,-0.0349381999999999,0.254828,1.05356,258.3,6.7,52.1701,4.42725,7.8,-2.57039,93.8232,4.44654,56.4872,23.1812,235.159,1.31676,-0.123574,242.956,1.6726,2.31388,-34.9991455078125,22.0009689331055,-35.0,22.0,-631017.0,-9014.0,pp-riro,4,0,-1,-1
1570537362.5,2019-10-08,14:22:42.500,15.0,8.0,14.6499996185303,17.1,6.8,6.0,29.6,-20.1,-15.6,15.7049,6.63127,6.36512,-0.115505,13.0905,5.29035,33.5882,-6.18726,-12.8638,0.0243065999999999,0.275192,0.991344,258.3,6.7,52.1701,4.42725,7.8,-2.60363,93.0894,4.44648,57.0422,25.0812,234.659,1.31124,-0.148341,242.791,1.79974,2.4037900000000003,-35.0076751708984,22.0009689331055,-35.0,22.0,-631883.0,-9044.76,pp-riro,4,0,-1,-1
1570537362.6,2019-10-08,14:22:42.600,15.0,8.0,14.5299997329712,17.2,8.1,6.4,29.7,-22.0,-9.9,15.7358,7.844239999999999,6.71334,2.56724,14.9055,2.80236,33.4722,-8.28518,-6.999410000000001,0.021661,0.267105,1.0198,258.3,6.7,52.1701,4.42725,7.8,-2.61804,92.9542,4.44641,57.7723,26.6013,234.159,1.30557,-0.165536,242.643,1.92073,2.4802,-35.0093841552734,22.0009689331055,-35.0,22.0,-632364.0,-9413.93,pp-riro,4,0,-1,-1
1570537362.7,2019-10-08,14:22:42.700,15.0,9.0,14.6499996185303,17.2,9.5,6.9,29.5,-23.5,-3.8,15.785,9.03196,7.08467,-3.14039,13.4724,6.5149,33.0883,-10.074,-0.982837,0.0425314,0.22765,0.950808,258.3,6.7,52.1701,4.42725,7.8,-2.65295,95.8391,4.44635,58.6193,28.5014,233.55900000000003,1.29864,-0.186517,242.483,2.04863,2.56314,-35.0076751708984,22.0009689331055,-35.0,22.0,-633436.0,-10982.9,pp-riro,4,0,-1,-1
1570537362.8,2019-10-08,14:22:42.800,15.0,8.0,14.6499996185303,17.1,10.8,7.3,29.1,-25.3,2.0,15.785,9.03196,7.08467,-3.14039,13.4724,6.5149,33.0883,-10.074,-0.982837,0.0425314,0.22765,0.950808,258.3,6.7,52.1701,4.42725,7.8,-2.67456,101.279,4.44629,59.5831,30.0214,232.958,1.29186,-0.200659,242.324,2.165,2.6331,-35.0059814453125,22.0009689331055,-35.0,22.0,-634272.0,-7998.77,pp-riro,4,0,-1,-1
1570537362.9,2019-10-08,14:22:42.900,15.0,9.0,14.7700004577637,16.9,12.1,7.8,28.5,-27.0,8.3,15.7375,10.7748,7.669810000000001,0.0632137,10.7374,3.76287,32.017,-12.7639,7.98998,0.157128,0.313805,1.11034,258.3,6.7,52.1701,4.42725,7.8,-2.67123,108.071,4.446219999999999,60.6638,31.9215,232.258,1.2838,-0.2182239999999999,242.163,2.29053,2.70596,-35.0076751708984,22.0009689331055,-35.0,22.0,-634589.0,-2215.04,pp-riro,4,0,-1,-1
1570537363.0,2019-10-08,14:22:43.000,15.0,10.0,14.9499998092651,16.5,13.5,8.3,27.2,-28.5,14.8,15.498,11.9586,8.12411,-2.95925,10.1773,4.3605,30.8019,-14.4377,14.5399,0.0975126,0.338949,1.16264,258.3,6.7,52.1701,4.42725,7.8,-2.633,113.524,4.44616,61.9197,33.4416,231.558,1.27576,-0.228965,242.016,2.41012,2.77779,-35.0093841552734,22.0009689331055,-23.0044822692871,22.0,-634588.0,1845.87,pp-riro,4,0,-1,-1
1570537363.1,2019-10-08,14:22:43.100,15.0,10.0,15.1899995803833,16.1,14.8,8.7,26.1,-30.1,21.4,15.1705,13.1628,8.503969999999999,-2.73191,12.8428,4.10279,29.3562,-15.8487,21.1103,0.2068469999999999,0.367583,1.0648799999999998,258.3,6.7,52.1701,4.42725,7.8,-2.53825,120.355,4.44609,63.2924,35.3417,230.758,1.26642,-0.242966,241.877,2.5327,2.84546,-35.0076751708984,22.0009689331055,-23.0044822692871,22.0,-634126.0,4153.21,pp-riro,4,0,-1,-1
1570537363.2,2019-10-08,14:22:43.200,15.0,10.0,15.4700002670288,15.5,16.2,9.2,24.5,-31.4,28.2,14.9723,13.7507,8.72767,-3.71679,12.894,2.43516,28.5677,-16.6004,24.4433,0.0732481,0.194556,1.1247200000000002,260.7,6.4,52.1701,4.42725,7.8,-2.43408,130.766,4.44603,64.7819,36.4817,229.858,1.25797,-0.246522,241.583,2.6457900000000003,2.90939,-34.9189300537109,22.0009689331055,-23.0044822692871,22.0,-633481.0,7445.01,pp-riro,4,0,-1,-1
1570537363.3,2019-10-08,14:22:43.300,15.0,10.0,15.7600002288818,14.8,17.6,9.7,23.1,-32.2,34.9,14.2395,15.6314,9.36338,-5.115530000000001,12.2314,1.78122,25.938,-18.5267,34.4847,0.046769,0.274029,1.1392,260.7,6.4,52.1701,4.42725,7.8,-2.3736900000000003,136.268,4.44597,66.3883,38.3818,228.958,1.24761,-0.257769,241.459,2.76101,2.97995,-34.4546813964844,22.0025119781494,-23.0116176605225,22.0,-632915.0,10644.5,pp-riro,4,0,-1,-1
1570537363.4,2019-10-08,14:22:43.400,15.0,11.0,15.9799995422363,13.9,18.9,10.1,21.2,-33.2,41.9,13.907,16.3285,9.56956,-6.21715,13.0569,2.15314,24.9738,-19.1301,37.9019,-0.134522,0.284908,1.09704,260.7,6.4,52.1701,4.42725,7.8,-2.1914,145.989,4.4459,68.1699,39.5219,227.958,1.23799,-0.258912,241.193,2.87074,3.04148,-33.6286010742188,22.0025119781494,-23.0116176605225,22.0,-631520.0,15566.8,pp-riro,4,0,-1,-1
1570537363.5,2019-10-08,14:22:43.500,15.0,11.0,16.25,12.9,20.2,10.5,19.2,-33.8,49.0,13.907,16.3285,9.56956,-6.21715,13.0569,2.15314,24.9738,-19.1301,37.9019,-0.134522,0.284908,1.09704,260.7,6.4,52.1701,4.42725,7.8,-1.9753,153.516,4.4458400000000005,70.1268,41.0419,226.958,1.227,-0.262953,241.065,2.9822,3.10595,-32.450927734375,22.0025119781494,-23.0116176605225,22.0,-629777.0,17843.4,pp-riro,4,0,-1,-1
1570537363.6,2019-10-08,14:22:43.600,15.0,10.0,16.520000457763697,11.7,21.3,10.8,17.3,-33.9,55.9,11.782,19.2041,10.5205,-10.8758,9.25494,1.89981,19.7101,-21.4429,54.5096,0.0649996,0.25856,1.02657,260.7,6.4,52.1701,4.42725,7.8,-1.7087900000000005,161.02200000000002,4.44577,72.1421,42.562,225.858,1.21566,-0.26643,240.89,3.08854,3.16971,-30.9182434082031,22.0025119781494,-23.0116176605225,22.0,-627894.0,18427.9,pp-riro,4,0,-1,-1
1570537363.7,2019-10-08,14:22:43.700,15.0,10.0,16.8400001525879,10.5,22.3,11.2,15.2,-33.9,62.5,11.2771,19.7273,10.6607,-9.78196,11.2551,3.0251200000000003,18.6247,-21.8164,57.6911,0.0600729,0.191165,0.983107,260.7,6.4,52.1701,4.42725,7.8,-1.28769,165.366,4.44571,74.3034,43.3221,224.758,1.20531,-0.261175,240.653,3.18238,3.22166,-29.0356750488281,22.003026962280305,-22.5580577850342,22.0,-625344.0,16212.9,pp-riro,4,0,-1,-1
1570537363.8,2019-10-08,14:22:43.800,15.0,9.0,17.1000003814697,9.2,23.0,11.2,12.8,-34.2,69.0,9.57124,21.1305,11.0358,-12.7326,12.06,-0.0655391,15.4826,-22.8428,67.1908,0.0604601,0.0884008,1.00495,260.7,6.4,52.1701,4.42725,7.8,-1.11371,164.775,4.44564,76.5815,44.4621,223.558,1.19365,-0.259274,240.457,3.27672,3.27428,-27.1257934570312,22.0025119781494,-22.0066566467285,22.0,-624632.0,14120.9,pp-riro,4,0,-1,-1
1570537363.9,2019-10-08,14:22:43.900,15.0,10.0,17.3600006103516,8.6,23.4,11.2,11.9,-33.9,72.0,8.42682,21.761,11.0286,-12.3909,5.06639,-2.36471,13.4718,-23.2937,73.0628,0.285536,0.0715164,0.930718,260.7,6.4,52.1701,4.42725,7.8,-0.8239200000000001,162.523,4.4455800000000005,77.6914,44.8422,223.058,1.18843,-0.25666,240.42,3.3191,3.29786,-25.4924011230469,22.003026962280305,-21.7199535369873,22.0,-623498.0,10029.2,pp-riro,4,0,-1,-1
1570537364.0,2019-10-08,14:22:44.000,15.0,10.0,17.4599990844727,6.5,24.2,11.2,9.0,-33.1,80.5,7.16075,22.3828,10.9927,-10.8825,3.86099,-1.94497,11.7381,-23.3667,78.7266,0.19237,0.252349,0.903214,260.7,6.4,52.1701,4.42725,7.8,-0.378438,161.88,4.44551,81.1962,46.3623,221.358,1.17114,-0.251938,240.295,3.44149,3.37537,-24.051887512207,22.0025119781494,-20.8992862701416,22.0,-622592.0,4368.56,pp-riro,4,0,-1,-1
1570537364.1,2019-10-08,14:22:44.100,15.0,9.0,17.5599994659424,5.1,24.7,11.2,7.3,-32.5,86.1,5.83098,22.9922,11.0141,-13.1824,-0.0952218,-1.54514,9.99262,-23.2206,84.0707,-0.0311544,0.124616,0.813375,260.7,6.4,52.1701,4.42725,7.8,-0.23881,161.90200000000002,4.44545,83.708,46.7423,220.158,1.16008,-0.2423239999999999,240.128,3.51705,3.4202800000000004,-22.8349533081055,22.0025119781494,-20.3244457244873,22.0,-622450.0,2707.27,pp-riro,4,0,-1,-1
1570537364.2,2019-10-08,14:22:44.200,15.0,8.0,17.5599994659424,3.8,24.8,10.9,5.8,-31.9,90.9,5.20005,23.1467,10.9354,-16.2645,-0.663326,0.299681,9.22209,-23.0584,86.6113,0.251403,0.213773,0.714802,254.7,6.9,52.1701,4.42725,7.8,0.0598409,162.92600000000002,4.44537,86.1614,47.1224,219.058,1.14935,-0.233446,240.064,3.58164,3.46011,-21.8057708740234,22.003026962280305,-19.867696762085,22.0,-622449.0,-799.877,pp-riro,4,0,-1,-1
1570537364.3,2019-10-08,14:22:44.300,15.0,9.0,17.5599994659424,2.6,24.8,10.6,4.0,-30.9,95.6,4.55034,23.2695,10.8962,-10.8328,3.68659,-1.54105,8.32836,-23.0505,89.0584,0.0139219,0.0682601,0.740279,254.7,6.9,52.1701,4.42725,7.8,0.3174889999999999,160.476,4.44528,88.64399999999999,47.5024,218.058,1.13866,-0.224827,240.132,3.646830000000001,3.49675,-20.9404296875,22.0025119781494,-19.4935989379883,22.0,-622751.0,-3507.15,pp-riro,4,0,-1,-1
1570537364.4,2019-10-08,14:22:44.400,15.0,8.0,17.6499996185303,2.0,24.8,10.5,2.5,-30.1,100.0,2.76246,23.3484,10.3753,-12.4986,-0.283567,-0.301041,6.15519,-22.0853,95.8835,0.0271908,0.156748,0.470516,254.7,6.9,52.1701,4.42725,7.8,0.248229,155.43,4.44519,91.0682,47.8825,217.458,1.12886,-0.216865,240.57,3.70782,3.5118400000000003,-20.2338256835938,22.0019989013672,-19.5331687927246,22.0,-622499.0,2799.57,pp-riro,4,0,-1,-1
1570537364.5,2019-10-08,14:22:44.500,15.0,9.0,17.75,0.3,24.8,10.6,1.0,-28.9,104.2,2.76246,23.3484,10.3753,-12.4986,-0.283567,-0.301041,6.15519,-22.0853,95.8835,0.0271908,0.156748,0.470516,254.7,6.9,52.1701,4.42725,7.8,0.314165,179.018,4.4451,93.5508,47.8825,215.958,1.1179,-0.205782,240.171,3.76548,3.56299,-19.6944885253906,22.0025119781494,-18.8580627441406,22.0,-622569.0,0.0,pp-riro,4,0,-1,-1
1570537364.6,2019-10-08,14:22:44.600,15.0,9.0,17.75,-0.2,24.7,10.6,-0.1,-28.3,106.4,0.00831129,23.3144,10.1806,-8.371739999999999,-3.49034,1.19628,1.70848,-19.9753,106.737,-0.0196288,0.152167,0.549304,254.7,6.9,52.1701,4.42725,7.8,0.3180429999999999,190.273,4.44501,94.8359,47.8825,215.358,1.11251,-0.200181,240.136,3.79602,3.57594,-19.3616638183594,22.003026962280305,-18.7732219696045,22.0,-622528.0,153.822,pp-riro,4,0,-1,-1
1570537364.7,2019-10-08,14:22:44.700,15.0,10.0,17.8999996185303,-1.8,24.7,10.4,-2.6,-27.0,112.4,0.00831129,23.3144,10.1806,-8.371739999999999,-3.49034,1.19628,1.70848,-19.9753,106.737,-0.0196288,0.152167,0.549304,254.7,6.9,52.1701,4.42725,7.8,0.332449,192.842,4.44492,98.4868,47.8826,213.857,1.09754,-0.185066,240.265,3.87798,3.62232,-18.9144897460938,22.003026962280305,-18.3666839599609,22.0,-622528.0,0.0,pp-riro,4,0,-1,-1
1570537364.8,2019-10-08,14:22:44.800,15.0,10.0,17.9500007629395,-2.4,24.6,10.4,-3.7,-26.5,114.6,-2.1076200000000003,23.2085,9.88729,-6.52037,-0.77407,1.37386,-2.51027,-18.3475,114.846,-0.139967,0.118201,0.6585300000000001,254.7,6.9,52.1701,4.42725,7.9,0.340761,201.707,4.4448300000000005,99.7427,47.8826,213.257,1.09221,-0.180013,240.25,3.90879,3.63973,-18.7830657958984,22.003026962280305,-18.2207489013672,22.0,-622476.0,584.525,pp-riro,4,0,-1,-1
1570537364.9,2019-10-08,14:22:44.900,15.0,10.0,18.090000152587898,-3.6,24.6,10.4,-5.6,-25.3,118.4,-3.29639,23.2191,9.87659,-8.1403,1.53302,-1.32703,-4.79614,-17.4123,118.699,-0.2332769999999999,0.0360500999999999,0.292907,254.7,6.9,52.1701,4.42725,7.9,0.364032,214.631,4.44474,102.225,47.5026,212.157,1.08241,-0.167353,240.24400000000003,3.96099,3.67205,-18.5680160522461,22.003026962280305,-17.8862228393555,22.0,-622461.0,92.2935,pp-riro,4,0,-1,-1
1570537365.0,2019-10-08,14:22:45.000,15.0,11.0,18.2399997711182,-5.4,24.3,10.5,-8.8,-23.5,124.1,-3.29639,23.2191,9.87659,-8.1403,1.53302,-1.32703,-4.79614,-17.4123,118.699,-0.2332769999999999,0.0360500999999999,0.292907,254.7,6.9,52.1701,4.42725,7.9,0.399493,234.548,4.44465,105.964,46.7427,210.457,1.06772,-0.1477089999999999,240.22,4.0395,3.71914,-18.363204956054695,22.0035419464111,-17.4372692108154,22.0,-622403.0,492.232,pp-riro,4,0,-1,-1
1570537365.1,2019-10-08,14:22:45.100,15.0,11.0,18.340000152587898,-6.0,24.1,10.4,-9.9,-22.9,126.0,-4.51212,23.0717,9.81011,-9.81572,-1.95279,1.02035,-7.0671,-16.3383,122.46,-0.10948,0.0581861,0.643786,254.7,6.9,52.1701,4.42725,7.9,0.418332,242.778,4.44456,107.19,46.7427,209.857,1.06242,-0.1433859999999999,240.239,4.067740000000001,3.73856,-18.0354995727539,22.0035419464111,-17.297534942627,22.0,-622350.0,584.525,pp-riro,4,0,-1,-1
1570537365.2,2019-10-08,14:22:45.200,15.0,12.0,18.5699996948242,-7.2,23.7,10.3,-11.8,-21.6,129.5,-4.51212,23.0717,9.81011,-9.81572,-1.95279,1.02035,-7.0671,-16.3383,122.46,-0.10948,0.0581861,0.643786,255.8,6.9,52.1701,4.42725,7.9,0.425535,246.549,4.44451,109.615,45.9827,208.757,1.0531700000000002,-0.129322,240.228,4.1163,3.77186,-17.6395263671875,22.003026962280305,-16.9455585479736,22.0,-622312.0,738.3480000000001,pp-riro,4,0,-1,-1
1570537365.3,2019-10-08,14:22:45.300,15.0,12.0,18.7199993133545,-8.6,23.5,10.2,-13.3,-20.0,132.4,-6.86189,22.4153,9.60415,-15.3135,-2.88635,-3.71592,-11.5229,-14.6498,129.156,-0.244579,0.165592,0.518798,255.8,6.9,52.1701,4.42725,7.9,0.436617,257.15,4.4445,112.01,44.8427,207.557,1.04424,-0.112917,240.077,4.15687,3.80879,-17.3152389526367,22.0035419464111,-16.477855682373,22.0,-622239.0,615.29,pp-riro,4,0,-1,-1
1570537365.4,2019-10-08,14:22:45.400,15.0,11.0,18.8999996185303,-9.8,23.0,10.2,-14.6,-18.9,135.3,-7.494289999999999,22.3011,9.53503,-13.1274,-4.32303,1.5309700000000002,-12.7532,-13.9798,130.513,-0.113767,0.175743,0.4561149999999999,255.8,6.9,52.1701,4.42725,7.9,0.4759569999999999,277.949,4.44449,114.346,44.0827,206.457,1.03511,-0.1000669999999999,240.08900000000003,4.19679,3.84277,-17.0046081542969,22.004056930542003,-16.1810207366943,22.0,-622146.0,892.17,pp-riro,4,0,-1,-1
1570537365.5,2019-10-08,14:22:45.500,15.0,12.0,19.090000152587898,-10.9,22.5,10.0,-16.2,-17.9,138.1,-8.7361,21.87,9.57121,-11.259,-3.96087,-3.60205,-14.6598,-13.0155,133.428,-0.126366,-0.0957388999999999,0.261289,255.8,6.9,52.1701,4.42725,7.9,0.495904,288.868,4.44448,116.595,43.3228,205.257,1.02598,-0.0878434,240.004,4.23515,3.87657,-16.584739685058597,22.0035419464111,-15.9265995025635,22.0,-622064.0,830.6410000000001,pp-riro,4,0,-1,-1
1570537365.6,2019-10-08,14:22:45.600,15.0,11.0,19.409999847412102,-12.0,21.9,9.7,-17.3,-16.7,140.7,-9.95631,21.3424,9.41713,-9.69157,-5.23843,-1.81047,-16.6854,-12.257,136.181,-0.319288,-0.0777126,0.445576,255.8,6.9,52.1701,4.42725,7.9,0.5147430000000001,299.362,4.444459999999999,118.903,42.1828,204.057,1.01705,-0.0729909,239.909,4.27032,3.91083,-16.1478118896484,22.004571914672898,-15.6302890777588,22.0,-621955.0,1169.05,pp-riro,4,0,-1,-1
1570537365.7,2019-10-08,14:22:45.700,15.0,11.0,19.7199993133545,-13.1,21.2,9.7,-18.1,-15.8,143.4,-9.95631,21.3424,9.41713,-9.69157,-5.23843,-1.81047,-16.6854,-12.257,136.181,-0.319288,-0.0777126,0.445576,255.8,6.9,52.1701,4.42725,7.9,0.521946,304.866,4.44445,121.064,40.6628,202.957,1.00915,-0.0561079,239.795,4.30288,3.94082,-15.823516845703098,22.004056930542003,-15.3390693664551,22.0,-621901.0,1076.76,pp-riro,4,0,-1,-1
1570537365.8,2019-10-08,14:22:45.800,15.0,10.0,19.9899997711182,-14.1,20.4,9.4,-19.1,-14.9,145.8,-12.5688,19.7265,9.0628,-11.7812,-11.6877,-2.33958,-20.1826,-10.082,142.83,-0.0170822,-0.0712268,0.458441,255.8,6.9,52.1701,4.42726,7.9,0.5418930000000001,311.621,4.44444,123.108,39.5228,201.857,1.0011,-0.0426967,239.716,4.33408,3.97672,-15.6664962768555,22.004056930542003,-15.033686637878402,22.0,-621786.0,1292.11,pp-riro,4,0,-1,-1
1570537365.9,2019-10-08,14:22:45.900,15.0,10.0,20.25,-14.9,19.7,8.9,-19.8,-13.9,148.4,-12.5688,19.7265,9.0628,-11.7812,-11.6877,-2.33958,-20.1826,-10.082,142.83,-0.0170822,-0.0712268,0.458441,255.8,6.9,52.1701,4.42726,7.9,0.5441090000000001,314.8,4.4444300000000005,125.182,37.6227,200.757,0.993645,-0.0239938,239.561,4.36484,4.0043,-15.3934097290039,22.004056930542003,-14.798490524292,22.0,-621625.0,1722.81,pp-riro,4,0,-1,-1
1570537366.0,2019-10-08,14:22:46.000,15.0,10.0,20.4699993133545,-15.8,18.8,8.7,-19.9,-12.7,151.1,-13.0114,19.3248,8.92416,-6.22406,-9.72194,-2.03136,-20.6156,-9.75492,144.267,0.163166,-0.0478945999999999,0.409664,255.8,6.9,52.1701,4.42726,7.9,0.560177,324.61,4.44441,127.11,36.4828,199.757,0.986022,-0.0115297999999999,239.564,4.40417,4.039540000000001,-15.0452270507812,22.004056930542003,-14.5577688217163,22.0,-621414.0,1415.17,pp-riro,4,0,-1,-1
1570537366.1,2019-10-08,14:22:46.100,15.0,10.0,20.6800003051758,-16.5,18.1,8.3,-20.4,-11.6,153.5,-13.0114,19.3248,8.92416,-6.22406,-9.72194,-2.03136,-20.6156,-9.75492,144.267,0.163166,-0.0478945999999999,0.409664,255.8,6.9,52.1701,4.42726,7.9,0.571259,329.842,4.4444,128.892,34.9628,198.857,0.979396,0.00310351,239.54,4.43665,4.06746,-14.787506103515598,22.004056930542003,35.0,22.0,-621264.0,1538.22,pp-riro,4,0,-1,-1
1570537366.2,2019-10-08,14:22:46.200,15.0,10.0,20.8899993896484,-17.2,17.1,8.0,-20.7,-10.5,156.1,-13.8667,18.5232,8.52929,-7.97756,-12.9683,-3.65074,-21.5165,-8.9006,146.808,-0.213925,-0.0659256999999999,0.224436,255.7,7.0,52.1701,4.42726,7.9,0.575137,329.366,4.44436,130.673,33.0627,197.857,0.972761,0.0202116,239.407,4.4701,4.09815,-14.4854049682617,22.004571914672898,35.0,22.0,-621175.0,1692.05,pp-riro,4,0,-1,-1
1570537366.3,2019-10-08,14:22:46.300,15.0,10.0,21.020000457763697,-17.7,16.3,7.5,-20.8,-9.6,158.9,-13.8667,18.5232,8.52929,-7.97756,-12.9683,-3.65074,-21.5165,-8.9006,146.808,-0.213925,-0.0659256999999999,0.224436,255.7,7.0,52.1701,4.42726,7.9,0.707563,325.409,4.4442900000000005,132.28,31.5427,197.057,0.966747,0.0340185999999999,239.425,4.50727,4.12664,-14.1201553344727,22.004571914672898,35.0,22.0,-621907.0,-16828.2,pp-riro,4,0,-1,-1
1570537366.4,2019-10-08,14:22:46.400,15.0,10.0,21.1399993896484,-18.0,15.4,6.8,-20.8,-8.1,161.2,-14.6702,17.668,8.21767,-12.2789,-10.0679,-9.39068,-22.2065,-8.02087,149.50799999999998,-0.267765,0.0468077,0.539708,255.7,7.0,52.1701,4.42726,7.9,1.23616,297.18,4.44421,133.857,29.6427,196.357,0.961267,0.0502409,239.483,4.54139,4.15499,-13.3896560668945,22.004571914672898,35.0,22.0,-623350.0,21596.7,pp-riro,4,0,-1,-1
1570537366.5,2019-10-08,14:22:46.500,15.0,8.0,21.1399993896484,-17.9,14.7,6.0,-21.1,-6.2,163.1,-16.6334,15.0795,7.212680000000001,-4.11282,-7.44682,-6.35858,-23.1425,-5.22388,157.614,-0.165144,0.0102639,0.423776,255.7,7.0,52.1701,4.42726,7.9,1.0716,279.737,4.44414,135.28799999999998,28.1227,195.657,0.955896,0.0632568999999999,239.531,4.57659,4.17443,-12.3109741210938,22.004571914672898,35.0,22.0,-622242.0,20519.9,pp-riro,4,0,-1,-1
1570537366.6,2019-10-08,14:22:46.600,15.0,8.0,21.1000003814697,-18.0,13.9,6.0,-21.0,-5.4,165.5,-16.9021,13.6789,5.64797,-4.360930000000001,-11.4926,-6.3131,-23.441,-2.83066,162.164,-0.0819765,0.105699,0.403517,255.7,7.0,52.1701,4.42726,7.9,1.08046,281.272,4.44407,136.69,25.8427,195.057,0.951276,0.0814651999999999,239.581,4.60382,4.18219,-10.8806991577148,22.004056930542003,35.0,22.0,-622626.0,-8737.11,pp-riro,4,0,-1,-1
1570537366.7,2019-10-08,14:22:46.700,15.0,9.0,20.9300003051758,-18.0,13.2,5.9,-21.4,-4.4,167.5,-17.0385,12.8938,5.76606,-3.63961,-13.4347,-2.0866,-23.5279,-1.92334,164.678,0.1181079999999999,-0.0156337,0.418554,255.7,7.0,52.1701,4.42726,7.9,1.11869,299.559,4.444,138.004,24.3227,194.356,0.946114,0.0939391,239.606,4.63204,4.19241,-9.08175659179688,22.004571914672898,35.0,22.0,-622276.0,5445.31,pp-riro,4,0,-1,-1
1570537366.8,2019-10-08,14:22:46.800,15.0,10.0,20.7600002288818,-17.7,12.8,5.4,-21.7,-2.9,168.8,-16.9241,12.1438,5.31491,1.19006,0.2237579999999999,-5.98871,-23.8731,-1.24629,168.162,-0.0221305,-0.0270080999999999,0.197652,255.7,7.0,52.1701,4.42726,7.9,1.1126,286.955,4.44388,139.231,22.4226,193.856,0.94187,0.10883,239.726,4.65367,4.19434,-6.99948883056641,22.004056930542003,35.0,22.0,-622004.0,2461.16,pp-riro,4,0,-1,-1
1570537366.9,2019-10-08,14:22:46.900,15.0,11.0,20.5499992370605,-18.0,12.5,5.3,-22.2,-1.6,169.8,-17.033,12.0401,5.04983,4.37092,1.92811,1.6491900000000002,-24.0822,-0.656098,168.673,-0.184004,0.12044,0.327637,255.7,7.0,52.1701,4.42726,7.9,1.08212,289.599,4.44385,140.429,20.9026,193.256,0.937192,0.120775,239.802,4.671469999999999,4.20324,-4.89161682128906,22.004056930542003,35.0,22.0,-621441.0,1384.4,pp-riro,4,0,-1,-1
1570537367.0,2019-10-08,14:22:47.000,15.0,9.0,20.3299999237061,-18.2,12.2,5.7,-22.7,-1.7,170.8,-17.3604,11.7504,5.14582,-1.7773599999999998,-0.245102,5.57337,-25.0292,0.0356921,169.83599999999998,-0.0345651,-0.174869,0.212493,255.7,7.0,52.1701,4.42726,7.9,1.11149,297.467,4.44378,141.626,19.0026,192.656,0.932621,0.135233,239.866,4.67288,4.1959800000000005,-2.78546142578125,22.004571914672898,35.0,22.0,-621443.0,-30.7645,pp-riro,4,0,-1,-1
1570537367.1,2019-10-08,14:22:47.100,15.0,10.0,20.1499996185303,-18.0,12.1,5.7,-23.8,-1.7,171.2,-17.7273,11.5445,5.42327,-4.19611,-0.331939,0.0226310999999999,-26.0307,-0.8138380000000001,171.34900000000002,-0.138929,-0.122243,-0.00791504,255.7,7.0,52.1701,4.42726,7.9,1.12811,306.568,4.44371,142.765,17.4826,192.056,0.927997,0.146833,239.944,4.6692,4.18436,-0.684417724609375,22.004056930542003,35.0,22.0,-621160.0,3199.51,pp-riro,4,0,-1,-1
1570537367.2,2019-10-08,14:22:47.200,15.0,10.0,19.979999542236303,-18.0,12.3,6.1,-24.9,-1.7,170.8,-17.7273,11.5445,5.42327,-4.19611,-0.331939,0.0226310999999999,-26.0307,-0.8138380000000001,171.34900000000002,-0.138929,-0.122243,-0.00791504,254.7,6.6,52.1701,4.42726,7.9,1.1303299999999998,302.442,4.44366,143.904,15.2025,191.456,0.923585,0.163475,239.99,4.65037,4.1563300000000005,1.42212677001953,22.004571914672898,35.0,22.0,-620850.0,3291.8,pp-riro,4,0,-1,-1
1570537367.3,2019-10-08,14:22:47.300,15.0,9.0,19.9300003051758,-18.0,12.4,6.8,-26.3,-2.1,170.0,-17.7827,11.7444,5.63267,-3.99753,0.8903190000000001,1.57977,-27.3781,-1.66618,171.382,-0.317979,-0.0871164,-0.134278,254.7,6.6,52.1701,4.42726,7.9,1.11869,300.22900000000004,4.44364,145.07299999999998,13.6825,190.756,0.918465,0.174709,240.044,4.62617,4.12905,3.5169906616210898,22.0035419464111,35.0,22.0,-620463.0,3691.74,pp-riro,4,0,-1,-1
1570537367.4,2019-10-08,14:22:47.400,15.0,10.0,19.7999992370605,-17.5,12.7,7.5,-27.5,-3.5,168.9,-18.0124,12.0981,6.693010000000001,0.3613949999999999,3.62445,4.50736,-29.3279,-2.91352,170.389,-0.196326,-0.154279,-0.254351,254.7,6.6,52.1701,4.42726,7.9,1.11038,286.492,4.44362,146.241,11.7825,189.956,0.913136,0.188367,240.018,4.585369999999999,4.08137,5.632293701171879,22.0035419464111,35.0,22.0,-619996.0,3876.33,pp-riro,4,0,-1,-1
1570537367.5,2019-10-08,14:22:47.500,15.0,10.0,19.659999847412102,-16.9,13.1,8.1,-29.0,-5.2,167.1,-18.0124,12.0981,6.693010000000001,0.3613949999999999,3.62445,4.50736,-29.3279,-2.91352,170.389,-0.196326,-0.154279,-0.254351,254.7,6.6,52.1701,4.42726,7.9,1.07714,275.089,4.44361,147.497,10.2625,189.056,0.907089,0.1993049999999999,240.006,4.533919999999999,4.03268,7.74078369140625,22.003026962280305,35.0,22.0,-619532.0,4430.09,pp-riro,4,0,-1,-1
1570537367.6,2019-10-08,14:22:47.600,15.0,10.0,19.5300006866455,-16.3,13.6,9.1,-29.9,-7.5,164.9,-17.6137,12.8771,7.77053,0.0920753999999999,7.35865,9.31228,-31.0912,-6.17724,168.47099999999998,-0.1791579999999999,-0.118461,-0.4727979999999999,254.7,6.6,52.1701,4.42726,7.9,1.06772,273.55,4.44359,148.753,8.36247,188.156,0.901056,0.212638,240.0,4.46884,3.97174,9.85267639160156,22.0035419464111,35.0,22.0,-619400.0,2584.22,pp-riro,4,0,-1,-1
1570537367.7,2019-10-08,14:22:47.700,15.0,10.0,19.3899993896484,-15.6,14.2,10.1,-30.9,-10.2,162.5,-16.8917,13.8423,9.42543,7.58825,14.9807,12.7324,-33.2605,-10.8164,165.579,-0.416697,-0.251859,-0.393242,254.7,6.6,52.1701,4.42726,7.9,1.0788,275.175,4.44358,150.03799999999998,6.84247,187.256,0.894789,0.22324,240.048,4.39916,3.90885,11.957763671875,22.0035419464111,35.0,22.0,-619207.0,2153.51,pp-riro,4,0,-1,-1
1570537367.8,2019-10-08,14:22:47.800,15.0,10.0,19.2999992370605,-14.5,14.9,11.0,-31.8,-13.3,159.6,-16.1209,14.6796,10.5768,11.3412,5.1238,12.2229,-34.108000000000004,-14.4977,163.514,-0.0754726,-0.247446,-0.639981,254.7,6.6,52.1701,4.42726,7.7,1.07104,269.406,4.44356,151.44,5.70247,186.156,0.887524,0.231185,240.043,4.32092,3.83611,14.059440612793,22.0035419464111,35.0,22.0,-618846.0,3722.5,pp-riro,4,0,-1,-1
1570537367.9,2019-10-08,14:22:47.900,15.0,10.0,19.159999847412102,-13.5,15.6,12.0,-32.1,-16.4,156.2,-15.122,15.617,11.6379,10.0196,9.09001,10.2098,-34.7161,-17.9235,160.47,-0.1438549999999999,-0.1122,-0.706461,254.7,6.6,52.1701,4.42726,7.7,1.05386,259.807,4.4435400000000005,152.842,3.80246,185.056,0.880295,0.243975,240.043,4.23281,3.76258,16.1730422973633,22.0035419464111,35.0,22.0,-618572.0,2768.8,pp-riro,4,0,-1,-1
1570537368.0,2019-10-08,14:22:48.000,15.0,9.0,19.0699996948242,-12.2,16.3,13.1,-31.9,-19.9,151.8,-14.556,16.0199,12.2765,12.5137,7.578410000000001,13.9551,-34.8967,-19.6078,158.67600000000002,-0.581045,-0.103033,-0.8745139999999999,254.7,6.6,52.1701,4.42726,7.7,1.0378,253.729,4.44352,154.39,2.66248,183.756,0.871951,0.251613,240.02,4.13214,3.68318,18.2866363525391,22.0035419464111,35.0,22.0,-618154.0,2430.39,pp-riro,4,0,-1,-1
1570537368.1,2019-10-08,14:22:48.100,15.0,10.0,18.8799991607666,-10.6,16.9,14.1,-31.1,-23.8,147.3,-13.4013,16.8749,13.4403,14.7121,8.58117,5.63681,-35.1659,-24.3274,155.235,-0.418642,-0.488996,-1.0471,254.7,6.6,52.1701,4.42726,7.7,1.03724,253.391,4.44351,155.996,1.14248,182.456,0.8634040000000001,0.26155,240.055,4.02608,3.59606,20.405349731445305,22.003026962280305,35.0,22.0,-618047.0,2030.46,pp-riro,4,0,-1,-1
1570537368.2,2019-10-08,14:22:48.200,15.0,10.0,18.7900009155273,-9.0,17.7,14.9,-29.7,-27.4,142.3,-11.9215,17.8024,14.589,15.6543,12.3066,12.8933,-34.5192,-28.5579,151.298,-0.403212,-0.148093,-0.992535,253.4,6.5,52.1701,4.42726,7.7,1.0378,249.965,4.44348,157.691,0.3825159999999999,181.056,0.8542629999999999,0.266465,240.099,3.92233,3.5144800000000003,22.513839721679695,22.003026962280305,35.0,22.0,-617827.0,2461.16,pp-riro,4,0,-1,-1
1570537368.3,2019-10-08,14:22:48.300,15.0,11.0,18.6000003814697,-7.2,18.3,15.8,-27.3,-30.9,135.7,-10.1202,18.7585,15.6483,18.7815,15.9446,13.6275,-33.1563,-32.4802,146.417,-0.174599,-0.176454,-1.10271,253.4,6.5,52.1701,4.42726,7.7,1.02671,247.112,4.44344,159.385,-0.377451,179.65599999999998,0.845115,0.271322,240.166,3.80113,3.42927,24.6223297119141,22.003026962280305,35.0,22.0,-617521.0,2922.63,pp-riro,4,0,-1,-1
1570537368.4,2019-10-08,14:22:48.400,15.0,11.0,18.5,-5.2,18.7,16.7,-23.9,-34.4,128.1,-8.29031,19.4716,16.7471,23.0629,6.321940000000001,13.002,-31.0358,-36.4864,139.85299999999998,-0.640944,-0.10825,-1.32046,253.4,6.5,52.1701,4.42726,7.7,1.03336,255.947,4.44339,161.225,-1.13741,178.15599999999998,0.835233,0.27605,240.279,3.67054,3.34084,26.7274169921875,22.003026962280305,35.0,22.0,-617402.0,522.996,pp-riro,4,0,-1,-1
1570537368.5,2019-10-08,14:22:48.500,15.0,11.0,18.4500007629395,-3.0,19.1,17.3,-19.0,-37.7,119.8,-4.979,20.5094,18.1737,15.8405,2.33902,5.62127,-26.0532,-43.8395,129.127,-0.503735,-0.160379,-1.5405799999999998,253.4,6.5,52.1701,4.42726,7.7,1.05941,265.185,4.44335,163.035,-1.51736,176.65599999999998,0.825451,0.278345,240.396,3.53884,3.2505900000000003,27.779953002929695,22.003026962280305,35.0,22.0,-617254.0,2061.22,pp-riro,4,0,-1,-1
1570537368.6,2019-10-08,14:22:48.600,15.0,11.0,18.5,-0.7,19.2,17.8,-12.7,-40.4,109.6,-3.70121,20.8409,18.56,17.2321,6.02535,5.23625,-23.9074,-46.2655,124.573,-0.332424,-0.259434,-1.3966,253.4,6.5,52.1701,4.42726,7.7,1.07104,278.37,4.443309999999999,164.963,-1.5173,175.055,0.81505,0.278278,240.54,3.39315,3.16158,29.842468261718803,22.0035419464111,35.0,22.0,-616937.0,1661.28,pp-riro,4,0,-1,-1
1570537368.7,2019-10-08,14:22:48.700,15.0,12.0,18.590000152587898,1.6,19.2,18.6,-5.8,-42.3,98.7,-3.70121,20.8409,18.56,17.2321,6.02535,5.23625,-23.9074,-46.2655,124.573,-0.332424,-0.259434,-1.3966,253.4,6.5,52.1701,4.42726,7.7,1.08379,284.778,4.44327,166.832,-1.51724,173.355,0.80455,0.278217,240.598,3.24704,3.07528,31.5677490234375,22.0035419464111,23.0163822174072,22.0,-616873.0,1230.58,pp-riro,4,0,-1,-1
1570537368.8,2019-10-08,14:22:48.800,15.0,12.0,18.6299991607666,4.2,18.9,18.6,1.6,-43.7,87.3,0.347285,21.1827,19.7128,24.13,3.741,8.80874,-13.5874,-51.8678,108.009,-0.374447,-0.537637,-1.26785,253.4,6.5,52.1701,4.42725,7.3,1.11038,293.24,4.443219999999999,168.731,-1.51717,171.555,0.793679,0.278156,240.632,3.10103,2.97811,32.943878173828104,22.0035419464111,23.0163822174072,22.0,-616673.0,2645.75,pp-ro,1,1,-1,-1
1570537368.9,2019-10-08,14:22:48.900,15.0,13.0,18.6299991607666,7.1,18.4,18.6,9.4,-43.3,75.0,3.3198800000000004,21.1636,20.0646,27.8349,-6.92227,-0.134551,-4.64539,-54.2536,94.7757,-0.295201,-0.2077429999999999,-1.38827,253.4,6.5,52.1701,4.42725,7.3,1.10983,300.5,4.44318,170.62900000000002,-1.1371,169.755,0.78282,0.275871,240.692,2.94731,2.8719200000000003,33.9657592773438,22.004056930542003,23.018762588501,22.0,-616382.0,2522.69,pp-ro,1,1,-1,-1
1570537369.0,2019-10-08,14:22:49.000,15.0,13.0,18.8199996948242,8.3,17.9,18.5,13.5,-43.0,69.0,8.02609,20.4306,20.0882,37.7675,-16.1488,-7.51284,10.8864,-54.999,71.6704,-0.468351,-0.3330579999999999,-1.37863,253.4,6.5,52.1701,4.42725,7.3,1.15582,322.96,4.4431400000000005,172.382,-0.3770159999999999,168.855,0.7750630000000001,0.271437,241.304,2.8748400000000003,2.82816,34.6300048828125,22.004056930542003,23.018762588501,22.0,-616134.0,2491.92,pp-ro,1,1,-1,-1
1570537369.1,2019-10-08,14:22:49.100,15.0,13.0,18.9599990844727,12.1,16.2,17.6,24.5,-40.0,51.5,11.1424,19.4824,19.6862,28.2723,-16.0193,-5.52356,20.8419,-53.1138,56.7239,-0.645752,-0.2018039999999999,-1.53344,253.4,6.5,52.1701,4.42725,7.3,1.1608,327.678,4.4431,174.046,0.383061,166.255,0.762506,0.2670909999999999,240.693,2.64597,2.67471,34.9297485351562,22.004571914672898,23.0211448669434,22.0,-615978.0,3045.68,pp-ro,1,1,-1,-1
1570537369.2,2019-10-08,14:22:49.200,15.0,13.0,19.2800006866455,14.2,14.8,16.6,27.9,-38.2,40.9,11.1424,19.4824,19.6862,28.2723,-16.0193,-5.52356,20.8419,-53.1138,56.7239,-0.645752,-0.2018039999999999,-1.53344,251.4,6.4,52.1701,4.42725,7.3,1.1741,327.433,4.44302,174.864,1.14311,165.355,0.757445,0.262831,240.668,2.5089200000000003,2.57755,34.934844970703104,22.004571914672898,23.0211448669434,22.0,-615714.0,3045.68,pp-ro,1,1,-1,-1
1570537369.3,2019-10-08,14:22:49.300,15.0,13.0,19.5,16.4,13.3,15.3,35.2,-32.2,31.9,11.1424,19.4824,19.6862,28.2723,-16.0193,-5.52356,20.8419,-53.1138,56.7239,-0.645752,-0.2018039999999999,-1.53344,251.4,6.4,52.1701,4.42725,7.3,1.1536,322.888,4.44291,177.054,3.4232400000000003,163.055,0.744167,0.2501469999999999,240.722,2.3524,2.4741,34.532913208007805,22.004056930542003,22.7767391204834,22.0,-615075.0,3476.39,pp-ro,1,1,-1,-1
1570537369.4,2019-10-08,14:22:49.400,15.0,13.0,19.6800003051758,18.1,11.6,13.6,38.8,-27.4,23.4,19.0136,14.6765,15.5709,9.62219,-18.3388,-15.0116,39.5345,-39.7111,23.0187,-0.2058579999999999,-0.00915291,-1.55786,251.4,6.4,52.1701,4.42725,7.3,1.15803,325.274,4.4428,178.33900000000003,4.94333,161.755,0.736481,0.2418789999999999,240.82,2.20574,2.36812,33.7716064453125,22.004571914672898,20.900722503662102,22.0,-614948.0,2399.63,pp-ro,1,1,-1,-1
1570537369.5,2019-10-08,14:22:49.500,15.0,13.0,19.8600006103516,18.7,10.7,12.8,40.3,-25.3,20.3,19.0136,14.6765,15.5709,9.62219,-18.3388,-15.0116,39.5345,-39.7111,23.0187,-0.2058579999999999,-0.00915291,-1.55786,251.4,6.4,52.1701,4.42725,7.3,1.17576,332.784,4.44263,178.894,6.08338,161.255,0.7332989999999999,0.2357639999999999,240.922,2.14945,2.32141,32.6492309570312,22.004571914672898,20.053400039672898,22.0,-614481.0,3691.74,pp-ro,1,1,-1,-1
1570537369.6,2019-10-08,14:22:49.600,15.0,13.0,20.0300006866455,20.0,8.9,11.2,42.4,-20.0,13.6,19.0136,14.6765,15.5709,9.62219,-18.3388,-15.0116,39.5345,-39.7111,23.0187,-0.2058579999999999,-0.00915291,-1.55786,251.4,6.4,52.1701,4.42725,7.3,1.1741,329.19699999999995,4.44258,179.975,7.60345,160.155,0.726749,0.22759,241.036,2.01324,2.21867,31.1709136962891,22.004571914672898,18.209587097168,22.0,-614160.0,3168.74,pp-ro,1,1,-1,-1
1570537369.7,2019-10-08,14:22:49.700,15.0,13.0,20.0699996948242,20.5,7.5,9.2,44.1,-15.2,7.5,22.6271,9.72899,10.9626,1.13424,-15.8445,-20.2331,44.0868,-25.4057,5.04889,-0.763262,0.0726465,-1.39666,251.4,6.4,52.1701,4.42725,7.3,1.17355,324.744,4.44247,180.88,9.88354,159.355,0.721477,0.215336,241.266,1.89089,2.13137,29.3383331298828,22.004571914672898,16.6100578308105,22.0,-613950.0,3937.85,pp-ro,1,1,-1,-1
1570537369.8,2019-10-08,14:22:49.800,15.0,13.0,20.1200008392334,21.0,6.2,7.5,45.0,-10.3,2.3,23.3524,8.04474,8.67005,7.1446,-14.8947,-13.1736,44.4744,-19.5923,-0.296867,-0.0500755,0.378983,-1.40457,251.4,6.4,52.1701,4.42725,6.9,1.14584,317.445,4.44235,181.669,11.4036,158.755,0.7172149999999999,0.2073449999999999,241.53,1.7734900000000002,2.04601,26.713790893554695,22.004571914672898,15.0370254516602,22.0,-613458.0,4768.5,pp-ro,1,1,-1,-1
1570537369.9,2019-10-08,14:22:49.900,15.0,13.0,20.159999847412102,21.3,4.9,6.0,46.0,-5.4,-2.6,23.6957,6.29608,7.00472,5.86494,-11.144,-12.5507,44.6597,-13.5707,-5.3064800000000005,-0.462452,0.126404,-1.37065,251.4,6.4,52.1701,4.42725,6.9,1.14972,317.435,4.44224,182.37,13.6837,158.255,0.713331,0.195253,241.848,1.66138,1.96885,24.6206207275391,22.004571914672898,13.6008834838867,22.0,-613204.0,2614.98,pp-ro,1,1,-1,-1
1570537370.0,2019-10-08,14:22:50.000,15.0,12.0,20.159999847412102,21.3,3.8,4.2,46.5,-0.8,-6.9,23.823,4.81304,5.116630000000001,-0.7065939999999999,-11.4986,-20.3052,45.1026,-8.126610000000001,-9.90481,-0.646204,0.209702,-1.45933,251.4,6.4,52.1701,4.42725,6.9,1.15471,322.413,4.442130000000001,182.924,15.5838,157.855,0.7101770000000001,0.185269,242.12,1.55828,1.88673,22.508728027343803,22.004571914672898,12.0508880615234,22.0,-612865.0,3476.39,pp-ro,1,1,-1,-1
1570537370.1,2019-10-08,14:22:50.100,15.0,13.0,20.159999847412102,21.4,2.6,2.7,47.2,3.9,-11.0,23.6815,2.70292,2.52057,-1.14588,-15.3264,-21.3498,45.0693,-0.116226,-16.0523,0.0724903,-0.0247743,-0.916795,251.4,6.4,52.1701,4.42725,6.9,1.16136,324.716,4.442019999999999,183.362,17.8638,157.655,0.707821,0.17325,242.479,1.45739,1.80777,20.4104614257812,22.004571914672898,10.5291976928711,22.0,-612629.0,2122.75,pp-ro,1,1,-1,-1
1570537370.2,2019-10-08,14:22:50.200,15.0,12.0,20.1100006103516,21.2,1.6,1.5,48.0,7.8,-14.9,23.6815,2.70292,2.52057,-1.14588,-15.3264,-21.3498,45.0693,-0.116226,-16.0523,0.0724903,-0.0247743,-0.916795,253.2,6.3,52.1701,4.42725,6.9,1.16801,329.201,4.44191,183.742,20.1439,157.555,0.705869,0.161228,242.879,1.3695,1.74472,18.2985610961914,22.004571914672898,9.314568519592289,22.0,-612256.0,4091.68,pp-ro,1,1,-1,-1
1570537370.3,2019-10-08,14:22:50.300,15.0,12.0,20.1499996185303,21.0,0.8,0.3,48.2,11.5,-18.6,23.3681,1.57345,1.15135,-7.36695,-11.5486,-12.3309,45.4214,4.43248,-19.817,-0.0301219,0.0992502,-0.755509,253.2,6.3,52.1701,4.42725,6.9,1.19405,344.996,4.44179,183.946,22.0439,157.455,0.704436,0.151326,243.134,1.28555,1.6840700000000002,16.184959411621097,22.004571914672898,8.136463165283201,22.0,-611912.0,1876.63,pp-ro,1,1,-1,-1
1570537370.4,2019-10-08,14:22:50.400,15.0,12.0,20.0699996948242,20.8,-0.6,-1.3,49.1,16.2,-22.6,22.9078,0.471271,-0.130098,-11.0091,-10.7729,-11.5315,45.5662,8.95702,-23.3108,-0.0461498,0.0251225,-0.7699189999999999,253.2,6.3,52.1701,4.42725,6.9,1.20845,350.88,4.44168,184.122,24.324,157.455,0.703216,0.139364,243.484,1.1871200000000002,1.58941,15.1409301757812,22.0050868988037,6.267621040344241,22.0,-611530.0,4645.44,pp-ro,1,1,-1,-1
1570537370.5,2019-10-08,14:22:50.500,15.0,12.0,20.1499996185303,20.6,-1.2,-1.8,49.5,17.3,-23.9,22.9078,0.471271,-0.130098,-11.0091,-10.7729,-11.5315,45.5662,8.95702,-23.3108,-0.0461498,0.0251225,-0.7699189999999999,253.2,6.3,52.1701,4.42725,6.9,1.21012,357.78,4.44156,184.122,26.2241,157.455,0.70253,0.129351,243.681,1.16486,1.55793,12.6884078979492,22.004571914672898,5.64672136306763,22.0,-611193.0,2676.51,pp-ro,1,1,-1,-1
1570537370.6,2019-10-08,14:22:50.600,15.0,13.0,20.1499996185303,20.6,-2.3,-2.9,50.2,19.7,-27.5,22.2762,-1.12407,-1.96556,-1.3169,-12.599,-11.2804,46.1443,14.493,-27.0962,0.176541,0.215207,-0.616003,253.2,6.3,52.1701,4.42725,6.9,1.2284,366.039,4.44145,183.917,29.6441,157.655,0.702332,0.111135,244.047,1.10544,1.49545,10.8490142822266,22.0056018829346,4.37055110931396,22.0,-611078.0,2215.04,pp-ro,1,1,-1,-1
1570537370.7,2019-10-08,14:22:50.700,15.0,13.0,20.3299999237061,20.6,-3.4,-3.8,50.6,20.2,-28.8,21.7637,-3.45684,-4.192159999999999,2.26326,-11.8419,-4.71209,47.0817,19.3109,-31.2918,0.310583,0.0381772,-0.37737,253.2,6.3,52.1701,4.42725,6.9,1.2594299999999998,393.664,4.441330000000001,183.8,30.4041,157.755,0.702626,0.107123,244.118,1.08707,1.43301,9.16631317138672,22.0056018829346,3.10058093070984,22.0,-610822.0,2184.28,pp-ro,1,1,-1,-1
1570537370.8,2019-10-08,14:22:50.800,15.0,12.0,20.4200000762939,20.4,-4.5,-4.7,51.2,21.5,-30.9,21.5159,-4.55754,-5.03526,-3.82123,-4.73975,-3.3547300000000004,47.695,20.8002,-33.1135,-0.013759,-0.0596561,-0.355048,253.2,6.3,52.1701,4.42725,6.6,1.32481,420.511,4.44122,183.479,32.6842,157.955,0.703067,0.094887,244.3,1.05496,1.37515,7.55513763427734,22.0056018829346,1.90166354179382,22.0,-610743.0,984.464,pp-ro,1,1,-1,-1
1570537370.9,2019-10-08,14:22:50.900,15.0,12.0,20.6700000762939,20.1,-5.4,-5.1,51.8,22.0,-32.9,21.5159,-4.55754,-5.03526,-3.82123,-4.73975,-3.3547300000000004,47.695,20.8002,-33.1135,-0.013759,-0.0596561,-0.355048,253.2,6.3,52.1701,4.42725,6.6,1.35806,441.705,4.4411,183.011,34.9642,158.255,0.704124,0.0825146,244.459,1.03408,1.3399299999999998,6.01890563964844,22.0056018829346,1.1258581876754798,22.0,-610098.0,3722.5,pp-ro,1,1,-1,-1
1570537371.0,2019-10-08,14:22:51.000,15.0,11.0,20.8799991607666,19.9,-6.2,-5.6,52.1,22.5,-34.8,21.5159,-4.55754,-5.03526,-3.82123,-4.73975,-3.3547300000000004,47.695,20.8002,-33.1135,-0.013759,-0.0596561,-0.355048,253.2,6.3,52.1701,4.42725,6.6,1.37135,441.97,4.440980000000001,182.456,36.8643,158.555,0.705531,0.0720442999999999,244.518,1.01304,1.30483,4.189727783203121,22.0056018829346,0.3368124961853029,22.0,-609882.0,3876.33,pp-ro,1,1,-1,-1
1570537371.1,2019-10-08,14:22:51.100,15.0,11.0,21.2600002288818,19.5,-6.7,-6.0,52.3,23.0,-35.9,21.2464,-5.46177,-5.56775,2.55062,-7.48658,-1.97256,48.0578,21.8494,-35.1298,0.1370019999999999,-0.164499,-0.359756,253.2,6.3,52.1701,4.42725,6.6,1.36138,434.416,4.440869999999999,181.872,39.1443,158.954,0.7070569999999999,0.0594672,244.696,1.0025700000000002,1.27892,2.8340301513671897,22.0056018829346,-0.278520822525024,22.0,-609169.0,8091.06,pp-ro,1,1,-1,-1
1570537371.2,2019-10-08,14:22:51.200,15.0,11.0,21.5900001525879,19.1,-7.1,-6.1,52.4,23.0,-37.0,21.2464,-5.46177,-5.56775,2.55062,-7.48658,-1.97256,48.0578,21.8494,-35.1298,0.1370019999999999,-0.164499,-0.359756,256.6,6.3,52.1701,4.42725,6.6,1.33755,423.896,4.4408,181.2,41.0443,159.35399999999998,0.7089529999999999,0.0488238,244.769,0.996931,1.26431,1.638427734375,22.0050868988037,-0.687812864780426,22.0,-608558.0,5383.79,pp-ro,1,1,-1,-1
1570537371.3,2019-10-08,14:22:51.300,15.0,11.0,21.9500007629395,18.9,-7.3,-6.3,52.3,23.1,-37.5,20.7242,-6.4749,-6.25491,-5.27927,-7.47773,-4.96847,48.3909,23.4604,-37.166,0.166216,-0.046859,-0.140465,256.6,6.3,52.1701,4.42725,6.6,1.32703,413.964,4.44077,180.499,43.3244,159.754,0.710631,0.0360544,244.905,0.998393,1.2565,1.11385345458984,22.0050868988037,-0.953611433506012,22.0,-607927.0,7352.71,pp-ro,1,1,-1,-1
1570537371.4,2019-10-08,14:22:51.400,15.0,11.0,22.2299995422363,18.8,-7.7,-6.2,52.6,23.1,-38.0,19.9181,-7.215969999999999,-6.559760000000001,1.47957,-2.50467,-1.92525,48.6591,24.503,-38.8771,-0.00505795,-0.0363222,-0.1961099999999999,256.6,6.3,52.1701,4.42725,6.6,1.30597,413.28,4.44074,179.74,44.8444,160.154,0.712871,0.0271485,244.881,0.998481,1.25361,0.027252197265625,22.0056018829346,-1.15283524990082,22.0,-607355.0,4430.09,pp-ro,1,1,-1,-1
1570537371.5,2019-10-08,14:22:51.500,15.0,11.0,22.3899993896484,18.8,-7.8,-6.1,52.4,22.9,-38.4,19.9181,-7.215969999999999,-6.559760000000001,1.47957,-2.50467,-1.92525,48.6591,24.503,-38.8771,-0.00505795,-0.0363222,-0.1961099999999999,256.6,6.3,52.1701,4.42725,6.6,1.32481,416.419,4.44071,178.98,47.1244,160.654,0.714867,0.0142173,245.081,1.00482,1.26289,-0.604202270507812,22.0056018829346,-1.1021876335144,22.0,-606690.0,6122.13,pp-ro,1,1,-1,-1
1570537371.6,2019-10-08,14:22:51.600,15.0,10.0,22.5499992370605,18.9,-7.9,-6.0,52.7,22.7,-38.2,19.836,-7.71842,-6.27249,2.78195,-3.1478,2.59212,48.8166,24.2691,-39.308,0.0782646,-0.0381050999999999,-0.130659,256.6,6.3,52.1701,4.42725,6.6,1.32093,415.223,4.44068,178.16299999999998,49.0244,161.054,0.7168899999999999,0.00317623,245.12,1.01688,1.27314,-1.07527160644531,22.0056018829346,-1.03598999977112,22.0,-606178.0,4799.26,pp-ro,1,1,-1,-1
1570537371.7,2019-10-08,14:22:51.700,15.0,11.0,22.6299991607666,19.2,-8.2,-5.6,52.8,22.0,-38.5,19.836,-7.71842,-6.27249,2.78195,-3.1478,2.59212,48.8166,24.2691,-39.308,0.0782646,-0.0381050999999999,-0.130659,256.6,6.3,52.1701,4.42725,6.6,1.3237,418.423,4.44065,177.315,50.9244,161.454,0.7189270000000001,-0.0079274,245.156,1.02928,1.29273,-1.11452484130859,22.0056018829346,-0.788446307182312,22.0,-605908.0,5106.91,pp-ro,1,1,-1,-1
1570537371.8,2019-10-08,14:22:51.800,15.0,10.0,22.6700000762939,19.4,-8.4,-5.4,53.1,21.6,-38.7,20.1878,-8.139669999999999,-5.62223,1.51049,-0.626803,3.4715,49.0804,23.1845,-39.5722,-0.0105434,-0.065963,0.161686,256.6,6.3,52.1701,4.42725,6.4,1.33423,427.073,4.44062,176.468,53.2045,161.85399999999998,0.720607,-0.0210565,245.293,1.04055,1.30711,-0.94384765625,22.0056018829346,-0.627583622932434,22.0,-605501.0,3291.8,pp-ro,1,1,-1,-1
1570537371.9,2019-10-08,14:22:51.900,15.0,11.0,22.7000007629395,19.5,-8.4,-5.1,53.4,21.0,-39.0,20.1878,-8.139669999999999,-5.62223,1.51049,-0.626803,3.4715,49.0804,23.1845,-39.5722,-0.0105434,-0.065963,0.161686,256.6,6.3,52.1701,4.42725,6.4,1.34808,424.86800000000005,4.44059,175.62099999999998,54.7245,162.254,0.722813,-0.030282,245.284,1.05049,1.32523,-0.8311996459960941,22.0050868988037,-0.428671032190323,22.0,-604992.0,6214.43,pp-ro,1,1,-1,-1
1570537372.0,2019-10-08,14:22:52.000,15.0,10.0,22.6700000762939,19.5,-8.7,-4.8,53.8,20.4,-39.1,20.1878,-8.139669999999999,-5.62223,1.51049,-0.626803,3.4715,49.0804,23.1845,-39.5722,-0.0105434,-0.065963,0.161686,256.6,6.3,52.1701,4.42725,6.4,1.32149,419.107,4.44056,174.687,57.0045,162.654,0.724568,-0.0435971999999999,245.401,1.06555,1.3366,-0.633216857910156,22.0050868988037,-0.342715442180634,22.0,-604320.0,5968.31,pp-ro,1,1,-1,-1
1570537372.1,2019-10-08,14:22:52.100,15.0,10.0,22.6299991607666,19.3,-8.8,-4.5,54.0,19.5,-39.4,20.1878,-8.139669999999999,-5.62223,1.51049,-0.626803,3.4715,49.0804,23.1845,-39.5722,-0.0105434,-0.065963,0.161686,256.6,6.3,52.1701,4.42725,6.4,1.32758,415.259,4.44053,173.752,58.9045,162.954,0.726259,-0.0550085,245.385,1.08067,1.34787,-0.442054748535156,22.0050868988037,-0.2566137611866,22.0,-603825.0,5476.08,pp-ro,1,1,-1,-1
1570537372.2,2019-10-08,14:22:52.200,15.0,10.0,22.5900001525879,19.0,-8.5,-4.2,54.1,19.1,-40.0,20.1878,-8.139669999999999,-5.62223,1.51049,-0.626803,3.4715,49.0804,23.1845,-39.5722,-0.0105434,-0.065963,0.161686,260.9,6.3,52.1701,4.42725,6.4,1.30376,404.864,4.44051,172.87599999999998,60.8045,163.254,0.7277359999999999,-0.0663321,245.429,1.08611,1.36749,-0.349891662597656,22.0050868988037,0.008576598018408,22.0,-603224.0,5876.02,pp-ro,1,1,-1,-1
1570537372.3,2019-10-08,14:22:52.300,15.0,10.0,22.510000228881804,19.0,-8.5,-3.8,53.9,18.5,-40.1,nan,nan,nan,nan,nan,nan,nan,nan,nan,nan,nan,nan,260.9,6.3,52.1701,4.42725,6.4,1.29434,395.759,4.44051,171.99900000000002,62.7046,163.554,0.7291479999999999,-0.0777106,245.491,1.09992,1.38891,-0.18603515625,22.0050868988037,0.310800641775131,22.0,-602633.0,6399.01,pp-ro,1,1,-1,-1
1570537372.4,2019-10-08,14:22:52.400,15.0,10.0,22.440000534057603,18.8,-8.4,-3.4,54.0,18.0,-40.4,nan,nan,nan,nan,nan,nan,nan,nan,nan,nan,nan,nan,260.9,6.3,52.1701,4.42725,6.4,1.27439,391.534,4.44051,171.065,64.6046,163.854,0.730643,-0.0892208999999999,245.53,1.11025,1.40954,-0.015357971191406,22.0056018829346,0.5859752297401429,22.0,-602119.0,4583.91,pp-ro,1,1,-1,-1
1570537372.5,2019-10-08,14:22:52.500,15.0,10.0,22.3199996948242,18.7,-8.3,-3.2,53.8,18.0,-40.3,20.0105,-8.907739999999999,-3.76666,-4.46064,-0.215798,3.03393,49.896,18.7813,-41.908,0.227566,-0.175958,0.162149,260.9,6.3,52.1701,4.42725,6.4,1.2804799999999998,388.232,4.44051,170.218,66.5046,164.15400000000002,0.73185,-0.100584,245.649,1.1191,1.42509,0.243553161621094,22.0050868988037,0.7803074717521671,22.0,-601678.0,4830.02,pp-ro,1,1,-1,-1
1570537372.6,2019-10-08,14:22:52.600,15.0,11.0,22.1599998474121,18.5,-8.4,-2.8,53.8,17.6,-40.5,20.0105,-8.907739999999999,-3.76666,-4.46064,-0.215798,3.03393,49.896,18.7813,-41.908,0.227566,-0.175958,0.162149,260.9,6.3,52.1701,4.42725,6.4,1.26054,381.567,4.4405,169.34099999999998,68.4046,164.354,0.732762,-0.112018,245.699,1.12937,1.44068,0.533088684082031,22.0050868988037,0.999243021011353,22.0,-600926.0,4060.91,pp-ro,1,1,-1,-1
1570537372.7,2019-10-08,14:22:52.700,15.0,10.0,21.9599990844727,18.3,-8.4,-2.7,53.4,16.9,-40.8,19.4922,-8.76314,-2.94486,1.54188,-0.533854,2.13265,49.7595,17.6699,-42.682,0.206116,-0.350536,0.144673,260.9,6.3,52.1701,4.42725,6.4,1.26386,381.411,4.4405,168.465,69.9246,164.554,0.734007,-0.121543,245.659,1.14087,1.44708,0.647193908691406,22.0050868988037,1.00156855583191,22.0,-600452.0,5106.91,pp-ro,1,1,-1,-1
1570537372.8,2019-10-08,14:22:52.800,15.0,11.0,21.760000228881804,18.1,-8.4,-2.6,53.5,16.9,-41.0,19.4922,-8.76314,-2.94486,1.54188,-0.533854,2.13265,49.7595,17.6699,-42.682,0.206116,-0.350536,0.144673,260.9,6.3,52.1701,4.42725,6.4,1.2561,380.54,4.4405,167.618,72.2047,164.854,0.7346189999999999,-0.1348589999999999,245.94,1.14751,1.45596,0.952056884765625,22.0056018829346,1.1110098361969,22.0,-600194.0,4830.02,pp-ro,1,1,-1,-1
1570537372.9,2019-10-08,14:22:52.900,15.0,11.0,21.5200004577637,18.1,-8.5,-2.3,53.2,16.6,-41.7,18.9619,-8.89613,-2.40192,-7.4933,-1.4417799999999998,1.35372,49.5605,16.4785,-43.68,0.0743922,-0.261681,0.0433515,260.9,6.3,52.1701,4.42725,6.4,1.26165,379.829,4.4405,166.713,73.7247,165.054,0.735827,-0.144481,245.909,1.14943,1.47063,1.02359008789062,22.0050868988037,1.2748521566391002,22.0,-599808.0,3937.85,pp-ro,1,1,-1,-1
1570537373.0,2019-10-08,14:22:53.000,15.0,10.0,21.270000457763697,17.9,-8.7,-2.1,52.6,16.4,-42.4,18.9953,-8.99346,-2.1855,2.5325,-1.53956,1.44976,49.206,15.9884,-44.6862,-0.1198839999999999,-0.302183,-0.241529,260.9,6.3,52.1701,4.42725,6.4,1.26275,386.1,4.4405,165.80700000000002,75.6247,165.15400000000002,0.736258,-0.156025,245.941,1.15142,1.47642,1.10193634033203,22.0056018829346,1.34183323383331,22.0,-599175.0,3537.92,pp-ro,1,1,-1,-1
1570537373.1,2019-10-08,14:22:53.100,15.0,11.0,21.1100006103516,17.4,-8.6,-1.9,52.3,15.9,-43.5,18.9953,-8.99346,-2.1855,2.5325,-1.53956,1.44976,49.206,15.9884,-44.6862,-0.1198839999999999,-0.302183,-0.241529,260.9,6.3,52.1701,4.42725,6.4,1.27162,384.275,4.4405,164.90200000000002,77.1447,165.354,0.737364,-0.165682,245.939,1.15103,1.4841,1.26543426513672,22.0050868988037,1.3698365688324,22.0,-599015.0,3014.92,pp-ro,1,1,-1,-1
1570537373.2,2019-10-08,14:22:53.200,15.0,12.0,21.020000457763697,16.9,-8.5,-1.7,51.7,15.4,-44.9,18.1766,-9.15886,-1.79056,-5.45472,-0.404073,1.01433,49.3384,14.9902,-46.2331,0.22548,-0.1094619999999999,-0.070784,263.8,6.1,52.1701,4.42725,6.4,1.25112,369.292,4.44051,163.99599999999998,79.4247,165.454,0.737221,-0.179133,246.126,1.14962,1.49433,1.33186340332031,22.0050868988037,1.5992351770401,22.0,-598393.0,7075.83,pp-ro,1,1,-1,-1
1570537373.3,2019-10-08,14:22:53.300,15.0,12.0,20.770000457763697,16.5,-8.4,-1.6,51.4,14.9,-45.8,18.1766,-9.15886,-1.79056,-5.45472,-0.404073,1.01433,49.3384,14.9902,-46.2331,0.22548,-0.1094619999999999,-0.070784,263.8,6.1,52.1701,4.42725,6.4,1.2173200000000002,354.82,4.44053,163.12,80.5648,165.65400000000002,0.7386050000000001,-0.186893,246.049,1.15015,1.49885,1.36762237548828,22.0050868988037,-35.0,22.0,-597877.0,4553.14,pp-ro,1,1,-1,-1
1570537373.4,2019-10-08,14:22:53.400,15.0,12.0,20.6900005340576,16.1,-8.1,-1.5,51.2,15.7,-45.8,17.2195,-8.96195,-1.58658,-5.18187,0.982593,-1.15119,48.7672,14.344,-48.2257,0.189088,0.238034,-0.192382,263.8,6.1,52.1701,4.42725,6.4,1.2079,348.296,4.44055,162.273,82.4648,165.75400000000002,0.738649,-0.198324,246.186,1.14825,1.51205,1.56689453125,22.0050868988037,-35.0,22.0,-597426.0,4676.2,pp-ro,1,1,-1,-1
1570537373.5,2019-10-08,14:22:53.500,15.0,12.0,20.520000457763697,15.6,-8.2,-1.4,51.1,15.9,-45.9,16.9725,-8.84498,-1.52142,-10.8908,11.2081,-1.11865,48.8092,14.6805,-48.5442,0.0332786,-0.0676621999999999,-0.135956,263.8,6.1,52.1701,4.42725,6.4,1.17743,324.451,4.44057,161.42600000000002,83.9848,165.954,0.739408,-0.207914,246.278,1.15114,1.50934,1.56348419189453,22.0050868988037,-35.0,22.0,-596729.0,5199.2,pp-ro,1,1,-1,-1
1570537373.6,2019-10-08,14:22:53.600,15.0,13.0,20.340000152587898,15.4,-8.2,-1.4,50.8,15.4,-46.9,16.9725,-8.84498,-1.52142,-10.8908,11.2081,-1.11865,48.8092,14.6805,-48.5442,0.0332786,-0.0676621999999999,-0.135956,263.8,6.1,52.1701,4.42725,6.4,1.15637,315.931,4.44059,160.52,85.8848,166.054,0.739474,-0.21949,246.408,1.1532,1.51292,1.18538665771484,22.004571914672898,-35.0,22.0,-596423.0,5876.02,pp-ro,1,1,-1,-1
1570537373.7,2019-10-08,14:22:53.700,15.0,12.0,20.0799999237061,15.2,-8.1,-1.3,50.3,14.8,-47.9,16.9725,-8.84498,-1.52142,-10.8908,11.2081,-1.11865,48.8092,14.6805,-48.5442,0.0332786,-0.0676621999999999,-0.135956,263.8,6.1,52.1701,4.42725,6.4,1.1331,310.117,4.44062,159.673,87.0248,166.25400000000002,0.74063,-0.227237,246.393,1.15375,1.52147,0.459846496582031,22.004571914672898,-35.0,22.0,-595918.0,2399.63,pp-ro,1,1,-1,-1
1570537373.8,2019-10-08,14:22:53.800,15.0,12.0,19.6800003051758,15.2,-8.1,-1.2,50.3,14.6,-48.2,16.9725,-8.84498,-1.52142,-10.8908,11.2081,-1.11865,48.8092,14.6805,-48.5442,0.0332786,-0.0676621999999999,-0.135956,263.8,6.1,52.1701,4.42725,6.4,1.14196,313.851,4.44062,158.826,88.9248,166.354,0.740444,-0.238636,246.591,1.16047,1.5334,-0.633216857910156,22.004571914672898,-35.0,22.0,-595794.0,2368.87,pp-ro,1,1,-1,-1
1570537373.9,2019-10-08,14:22:53.900,15.0,13.0,19.3700008392334,15.2,-8.0,-0.5,50.3,13.4,-48.9,15.6706,-8.53599,-0.8556020000000001,0.453943,0.142568,4.2483,48.7607,14.6301,-50.1953,0.2247449999999999,0.0537641999999999,-0.00933469,263.8,6.1,52.1701,4.42725,6.4,1.15027,320.6,4.44066,158.009,90.4448,166.454,0.740642,-0.2481539999999999,246.686,1.17324,1.5732,-2.08226776123047,22.004571914672898,-35.0,22.0,-595498.0,2799.57,pp-ro,1,1,-1,-1
1570537374.0,2019-10-08,14:22:54.000,15.0,13.0,19.1399993896484,15.5,-7.8,-0.2,50.8,12.7,-48.5,15.6706,-8.53599,-0.8556020000000001,0.453943,0.142568,4.2483,48.7607,14.6301,-50.1953,0.2247449999999999,0.0537641999999999,-0.00933469,263.8,6.1,52.1701,4.42725,6.4,1.15859,320.246,4.44068,157.22,91.5849,166.554,0.74125,-0.255767,246.67,1.19195,1.6036700000000002,-3.89144897460938,22.004571914672898,-35.0,22.0,-595229.0,3014.92,pp-ro,1,1,-1,-1
1570537374.1,2019-10-08,14:22:54.100,15.0,13.0,19.0499992370605,15.8,-7.6,0.1,51.5,11.3,-48.1,15.8464,-8.16225,0.0563621999999999,0.0810236999999999,2.3565,4.4322,49.6978,14.034,-49.1492,0.154221,0.00421486,0.255146,263.8,6.1,52.1701,4.42725,6.4,1.1464,309.166,4.4407,156.373,93.4849,166.65400000000002,0.7409020000000001,-0.26714,246.912,1.22201,1.63617,-5.99419403076172,22.004571914672898,-35.0,22.0,-594793.0,4460.85,pp-ro,1,1,-1,-1
1570537374.2,2019-10-08,14:22:54.200,15.0,12.0,19.0,16.0,-7.6,0.3,51.9,10.7,-47.9,15.8464,-8.16225,0.0563621999999999,0.0810236999999999,2.3565,4.4322,49.6978,14.034,-49.1492,0.154221,0.00421486,0.255146,259.1,5.6,52.1701,4.42725,6.4,1.10595,296.523,4.44072,155.993,94.2449,166.65400000000002,0.740722,-0.271805,246.961,1.2351299999999998,1.65091,-8.10547637939453,22.004571914672898,-35.0,22.0,-594198.0,2830.33,pp-ro,1,1,-1,-1
1570537374.3,2019-10-08,14:22:54.300,15.0,12.0,19.0,16.3,-7.3,1.8,53.1,6.0,-47.2,16.1024,-7.894419999999999,0.604233,7.42892,4.46316,6.6845300000000005,50.5856,12.8215,-48.797,0.1434,0.208423,0.268728,259.1,5.6,52.1701,4.42725,6.4,1.11315,298.54200000000003,4.44073,154.825,96.9049,166.454,0.7390369999999999,-0.287589,247.12,1.31366,1.7381,-10.2133483886719,22.004571914672898,-35.0,22.0,-594100.0,1845.87,pp-ro,1,1,-1,-1
1570537374.4,2019-10-08,14:22:54.400,15.0,12.0,19.0,16.7,-6.9,2.3,53.7,4.6,-46.7,16.1795,-7.62869,0.895207,5.22653,3.55453,8.75526,51.2048,11.9482,-47.7673,0.135509,-0.0697844,0.378756,259.1,5.6,52.1701,4.42725,6.4,1.11814,298.75,4.44073,154.474,97.6649,166.354,0.738444,-0.292127,247.133,1.34072,1.78014,-12.3195114135742,22.004571914672898,-35.0,22.0,-593683.0,3076.45,pp-ro,1,1,-1,-1
1570537374.5,2019-10-08,14:22:54.500,15.0,12.0,19.1399993896484,16.9,-5.9,3.4,55.3,1.4,-44.6,16.4991,-6.50587,3.0472,0.7742100000000001,11.1198,8.88943,54.46,6.75522,-44.734,0.220164,-0.0145979999999999,0.556806,259.1,5.6,52.1701,4.42725,6.4,1.10816,284.411,4.44075,153.773,98.8049,166.054,0.737486,-0.299467,246.947,1.41222,1.8675,-14.4239654541016,22.004571914672898,-35.0,22.0,-593324.0,4153.21,pp-ro,1,1,-1,-1
1570537374.6,2019-10-08,14:22:54.600,15.0,12.0,19.229999542236303,17.5,-5.2,4.8,56.8,-2.2,-42.2,16.6086,-5.90742,3.67795,3.28381,9.449,11.6841,55.57,5.582319999999999,-43.5276,0.2058179999999999,0.174525,0.511592,259.1,5.6,52.1701,4.42725,6.4,1.08545,273.305,4.44076,153.189,101.085,165.65400000000002,0.734236,-0.311655,247.237,1.4963,1.95745,-16.542068481445302,22.004571914672898,-35.0,22.0,-593071.0,5076.14,pp-ro,1,1,-1,-1
1570537374.7,2019-10-08,14:22:54.700,15.0,12.0,19.229999542236303,17.9,-4.2,6.1,59.1,-5.9,-39.7,16.6086,-5.90742,3.67795,3.28381,9.449,11.6841,55.57,5.582319999999999,-43.5276,0.2058179999999999,0.174525,0.511592,259.1,5.6,52.1701,4.42725,6.4,1.03503,247.849,4.44077,152.66299999999998,102.605,165.15400000000002,0.731637,-0.320131,247.204,1.58028,2.04744,-18.6687164306641,22.004571914672898,-35.0,22.0,-592519.0,3137.98,pp-ro,1,1,-1,-1
1570537374.8,2019-10-08,14:22:54.800,15.0,12.0,19.1399993896484,18.4,-3.2,7.5,60.9,-9.6,-37.2,17.4815,-3.52342,6.868239999999999,-0.00988166,9.72049,12.7269,59.9602,-2.34421,-34.272,0.26279,0.171341,1.00296,259.1,5.6,52.1701,4.42724,6.4,1.02505,242.373,4.44078,152.284,104.505,164.554,0.727798,-0.329827,247.365,1.66511,2.13601,-20.7799987792969,22.004056930542003,-35.0,22.0,-592357.0,3045.68,pp-ro,1,1,-1,-1
1570537374.9,2019-10-08,14:22:54.900,15.0,10.0,18.9500007629395,18.7,-2.2,8.9,61.9,-14.5,-34.2,17.73,-2.54957,8.21021,-1.47156,7.398280000000001,13.6647,61.1999,-6.82689,-31.2674,0.288587,0.341125,0.8758290000000001,259.1,5.6,52.1701,4.42724,6.4,1.02339,256.242,4.44079,151.96200000000002,106.025,163.754,0.723766,-0.3375869999999999,247.284,1.77005,2.21867,-22.8964004516602,22.004056930542003,-35.0,22.0,-592094.0,399.9380000000001,pp-ro,1,1,-1,-1
1570537375.0,2019-10-08,14:22:55.000,15.0,11.0,19.0499992370605,18.7,-0.9,10.5,62.4,-18.9,-29.4,17.5646,-1.2903,9.50623,-0.1449099999999999,15.8599,13.9964,61.0303,-11.7323,-27.0661,0.4411989999999999,0.142204,1.23332,259.1,5.6,52.1701,4.42724,6.4,1.05165,264.001,4.4408,151.75799999999998,108.305,162.954,0.718276,-0.348254,247.617,1.88933,2.31757,-25.007682800293,22.004571914672898,-35.0,22.0,-592121.0,-553.761,pp-ro,1,1,-1,-1
1570537375.1,2019-10-08,14:22:55.100,15.0,11.0,18.9500007629395,18.4,0.6,12.3,63.4,-25.9,-26.1,17.381,-0.548112,10.3089,-6.20826,13.9401,13.1848,60.9186,-14.6903,-24.313,0.277787,0.142118,1.39761,259.1,5.6,52.1701,4.42724,6.4,1.05719,263.886,4.44081,151.69899999999998,109.825,161.85399999999998,0.7126979999999999,-0.355052,247.53,2.02303,2.4242,-27.1172561645508,22.004056930542003,-35.0,22.0,-591707.0,3476.39,pp-ro,1,1,-1,-1
1570537375.2,2019-10-08,14:22:55.200,15.0,11.0,19.1399993896484,17.7,2.2,14.0,63.5,-33.0,-22.8,16.8732,1.70515,12.7898,-13.0435,13.7624,12.9697,60.138000000000005,-24.1559,-16.3895,0.169023,0.338786,1.4058,261.7,5.4,52.1701,4.42724,6.4,1.05054,264.335,4.44082,151.816,111.725,160.754,0.706133,-0.3628639999999999,247.735,2.15741,2.53358,-29.2165832519531,22.004056930542003,-35.0,22.0,-591575.0,2461.16,pp-ro,1,1,-1,-1
1570537375.3,2019-10-08,14:22:55.300,15.0,11.0,19.229999542236303,16.8,4.1,15.3,62.2,-39.4,-17.4,16.8732,1.70515,12.7898,-13.0435,13.7624,12.9697,60.138000000000005,-24.1559,-16.3895,0.169023,0.338786,1.4058,261.7,5.4,52.1701,4.42724,6.4,1.06218,263.786,4.44083,152.079,113.245,159.454,0.699218,-0.36851,247.746,2.29864,2.6437,-31.0530853271484,22.004056930542003,-35.0,22.0,-591406.0,1876.63,pp-ro,1,1,-1,-1
