time,date,time_of_day,airspeed_temperature,airspeed_angle_of_attack,airspeed_apparent_windspeed,kite_0_vx,kite_0_vy,kite_0_vz,kite_0_roll,kite_0_pitch,kite_0_yaw,kite_1_vx,kite_1_vy,kite_1_vz,kite_1_ax,kite_1_ay,kite_1_az,kite_1_roll,kite_1_pitch,kite_1_yaw,kite_1_roll_rate,kite_1_pitch_rate,kite_1_yaw_rate,ground_upwind_direction,ground_wind_velocity,ground_pos_latitude,ground_pos_longitude,ground_pos_altitude,ground_tether_reelout_speed,ground_tether_force,est_upwind_direction,kite_pos_east,kite_pos_north,kite_height,kite_elevation,kite_azimuth,kite_distance,kite_heading,kite_course,kite_actual_steering,kite_actual_depower,kite_set_steering,kite_set_depower,ground_mech_energy,ground_mech_power,flight_phase,flight_phase_index,phase,pattern,pattern_section
1570541687.7,2019-10-08,15:34:47.700,14.0,8.0,15.0100002288818,9.3,-5.5,0.5,16.1,4.1,-82.7,8.49409,-4.43765,1.08117,13.7285,5.26105,1.50113,18.0077,17.4904,-83.7264,0.116795,0.219304,0.8921530000000001,248.2,9.0,52.17,4.42721,-2.8,-1.6916099999999998,117.263,4.26278,85.0815,15.2013,239.97,1.22509,0.272803,255.06,0.3141469999999999,1.24803,-33.6678619384766,22.1564807891846,-35.0,22.0,1883610.0,4245.5,pp-riro,4,0,-1,-1
1570541687.8,2019-10-08,15:34:47.800,14.0,6.0,14.710000038147,10.5,-5.0,0.6,18.6,2.9,-77.8,10.1057,-3.48474,1.37474,11.8374,5.81884,1.63419,21.8054,16.4159,-75.0121,0.208242,0.135664,0.932675,248.2,9.0,52.17,4.42721,-2.8,-1.61515,108.279,4.26283,84.5558,16.7213,239.97,1.22596,0.25432,254.98,0.423328,1.35282,-34.4529724121094,22.100866317749,-35.0,22.0,1883830.0,1261.34,pp-riro,4,0,-1,-1
1570541687.9,2019-10-08,15:34:47.900,14.0,7.0,14.710000038147,11.6,-4.5,0.9,20.9,1.7,-72.8,10.1057,-3.48474,1.37474,11.8374,5.81884,1.63419,21.8054,16.4159,-75.0121,0.208242,0.135664,0.932675,248.2,9.0,52.17,4.42721,-2.8,-1.58412,107.071,4.2628900000000005,84.0592,17.4814,239.87,1.22707,0.244453,254.773,0.5259149999999999,1.43948,-34.883087158203104,22.0576114654541,-35.0,22.0,1883720.0,-1292.11,pp-riro,4,0,-1,-1
1570541688.0,2019-10-08,15:34:48.000,14.0,7.0,14.5299997329712,12.9,-4.0,1.4,23.2,0.3,-67.8,10.6556,-3.24428,1.57171,13.0273,4.886,0.885116,23.091,15.8717,-72.1093,0.125898,0.157585,1.04289,248.2,9.0,52.17,4.42721,-2.8,-1.55198,115.574,4.26293,83.6211,18.6214,239.87,1.22777,0.2303469999999999,254.709,0.633886,1.52882,-34.970123291015604,22.0267143249512,-35.0,22.0,1883680.0,553.761,pp-riro,4,0,-1,-1
1570541688.1,2019-10-08,15:34:48.100,14.0,7.0,14.5299997329712,13.9,-3.4,1.9,24.8,-1.6,-62.8,12.3108,-2.53065,2.13679,10.894,4.61718,7.851610000000001,26.5923,13.8319,-63.4844,0.154047,0.182228,0.875965,248.2,9.0,52.17,4.42721,-2.9,-1.49104,116.466,4.26299,83.2706,20.1414,239.67,1.22749,0.212077,254.522,0.74852,1.61304,-34.971832275390604,22.007661819458,-35.0,22.0,1883880.0,2584.22,pp-riro,4,0,-1,-1
1570541688.2,2019-10-08,15:34:48.200,14.0,8.0,14.6499996185303,14.7,-2.5,2.2,26.9,-4.1,-57.5,13.2037,-1.73875,2.59821,7.403110000000001,9.72909,4.52452,28.5763,11.6954,-57.7312,0.132333,0.0197832,1.02833,248.2,9.0,52.17,4.42721,-2.9,-1.42565,107.854,4.2630300000000005,82.9201,21.2815,239.57,1.2276,0.1981349999999999,254.406,0.8672610000000001,1.69805,-34.971832275390604,22.0009689331055,-35.0,22.0,1884040.0,522.996,pp-riro,4,0,-1,-1
1570541688.3,2019-10-08,15:34:48.300,14.0,9.0,14.8299999237061,15.6,-1.3,2.5,28.3,-6.4,-51.7,13.9542,-0.845877,2.94061,7.370010000000001,9.78557,3.4684800000000005,30.2586,9.15487,-51.7558,0.170632,0.1128859999999999,1.02491,248.2,9.0,52.17,4.42721,-2.9,-1.39684,100.548,4.26307,82.7448,22.8015,239.47,1.22665,0.180423,254.387,0.998378,1.7985,-34.9991455078125,22.0009689331055,-35.0,22.0,1883940.0,-2030.46,pp-riro,4,0,-1,-1
1570541688.4,2019-10-08,15:34:48.400,14.0,6.0,15.0100002288818,16.4,-0.2,3.0,29.9,-8.1,-46.2,15.0151,0.814954,3.52109,5.96652,11.0899,5.74714,32.547,5.534669999999999,-42.7473,-0.0266611,0.2323579999999999,1.06209,248.2,9.0,52.17,4.42721,-2.9,-1.40238,98.122,4.26312,82.6279,24.7016,239.27,1.22486,0.158772,254.338,1.12491,1.89251,-34.9991455078125,22.0009689331055,-35.0,22.0,1883570.0,-3937.85,pp-riro,4,0,-1,-1
1570541688.5,2019-10-08,15:34:48.500,14.0,4.0,15.2399997711182,16.8,0.9,3.7,30.9,-10.5,-40.8,15.6194,1.7817599999999998,4.13349,5.662319999999999,9.16132,5.86724,33.8892,3.18245,-36.8094,0.154775,0.15772,1.0601,247.9,9.5,52.17,4.42721,-2.9,-1.41845,98.5117,4.26317,82.6571,25.8416,239.07,1.22325,0.146207,254.272,1.24411,1.97699,-34.9974365234375,22.0009689331055,-35.0,22.0,1883160.0,-4060.91,pp-riro,4,0,-1,-1
1570541688.6,2019-10-08,15:34:48.600,14.0,6.0,15.1800003051758,17.5,2.0,3.9,31.6,-13.0,-35.6,15.9717,2.86506,4.59364,4.8167,11.2734,2.83192,34.4587,0.8524010000000001,-31.3197,0.190134,0.169341,1.0018,247.9,9.5,52.17,4.42721,-2.9,-1.45336,94.6791,4.26322,82.8031,27.7417,238.77,1.22017,0.125888,254.238,1.36806,2.05246,-34.9991455078125,22.0009689331055,-35.0,22.0,1882480.0,-5106.9,pp-riro,4,0,-1,-1
1570541688.7,2019-10-08,15:34:48.700,14.0,7.0,15.4099998474121,18.3,3.2,4.1,32.6,-14.3,-30.3,15.9717,2.86506,4.59364,4.8167,11.2734,2.83192,34.4587,0.8524010000000001,-31.3197,0.190134,0.169341,1.0018,247.9,9.5,52.17,4.42721,-2.9,-1.4794,105.538,4.26327,83.0368,29.2618,238.47,1.2171299999999998,0.1103099999999999,254.203,1.4805,2.12201,-34.9991455078125,22.0009689331055,-35.0,22.0,1882030.0,-4245.5,pp-riro,4,0,-1,-1
1570541688.8,2019-10-08,15:34:48.800,14.0,9.0,15.4700002670288,18.8,4.4,5.0,33.5,-16.1,-25.3,16.2575,3.4007400000000003,4.6531400000000005,8.30302,13.0622,4.18709,34.8702,-0.34778,-28.5834,0.276296,0.278019,0.924466,247.9,9.5,52.17,4.42721,-2.9,-1.47718,114.435,4.263319999999999,83.4164,31.5419,238.17,1.21252,0.0875597,254.319,1.59719,2.2068,-34.9991455078125,22.0009689331055,-35.0,22.0,1881940.0,-1815.1,pp-riro,4,0,-1,-1
1570541688.9,2019-10-08,15:34:48.900,14.0,10.0,15.5299997329712,19.2,5.6,5.9,34.0,-18.6,-20.7,17.663,5.56058,5.84094,4.22491,10.5108,11.6759,35.821,-4.23565,-17.1757,0.151072,0.272455,0.906829,247.9,9.5,52.17,4.42721,-2.9,-1.41291,131.572,4.26337,83.8837,33.0619,237.77,1.20834,0.0735735,254.292,1.70261,2.27926,-34.9991455078125,22.0009689331055,-35.0,22.0,1882250.0,4430.09,pp-riro,4,0,-1,-1
1570541689.0,2019-10-08,15:34:49.000,14.0,10.0,15.4099998474121,19.4,7.3,6.3,34.1,-20.7,-15.5,17.663,5.56058,5.84094,4.22491,10.5108,11.6759,35.821,-4.23565,-17.1757,0.151072,0.272455,0.906829,247.9,9.5,52.17,4.42721,-2.9,-1.27273,133.174,4.26342,84.5262,35.342,237.27,1.2023,0.0529404,254.344,1.82037,2.37093,-34.9991455078125,22.0009689331055,-35.0,22.0,1882930.0,7137.36,pp-riro,4,0,-1,-1
1570541689.1,2019-10-08,15:34:49.100,14.0,9.0,15.4700002670288,19.5,8.8,6.6,34.2,-22.5,-9.9,17.9516,8.30905,6.90573,-2.30908,13.4299,4.58955,35.3362,-8.923689999999999,-6.16296,0.196203,0.249684,0.902021,247.9,9.5,52.17,4.427219999999999,-3.0,-1.1303299999999998,123.136,4.26347,85.3148,36.8621,236.67,1.19661,0.0410738,254.264,1.93272,2.44224,-34.9991455078125,22.0009689331055,-35.0,22.0,1883480.0,4676.2,pp-riro,4,0,-1,-1
1570541689.2,2019-10-08,15:34:49.200,14.0,8.0,15.8100004196167,19.7,10.4,7.3,34.6,-24.2,-4.6,18.0037,9.76419,7.37086,1.7283400000000002,14.355,5.79305,35.2497,-10.8476,-0.90974,0.204769,0.288393,0.918671,247.9,9.5,52.17,4.427219999999999,-3.0,-1.02339,121.193,4.26352,86.2494,39.1422,236.07,1.18924,0.0228632,254.362,2.04414,2.52049,-34.9991455078125,22.0009689331055,-35.0,22.0,1883740.0,2338.1,pp-riro,4,0,-1,-1
1570541689.3,2019-10-08,15:34:49.300,14.0,9.0,16.1399993896484,19.7,11.9,8.3,34.2,-26.3,1.0,18.1266,11.1339,8.08255,-3.20877,11.8426,11.2431,34.7685,-12.5243,4.94234,0.153918,0.302701,1.01666,247.9,9.5,52.17,4.427219999999999,-3.0,-0.926426,137.32,4.26357,87.3592,40.6623,235.37,1.18222,0.0131835,254.331,2.15336,2.58908,-34.9991455078125,22.0009689331055,-35.0,22.0,1884040.0,3568.68,pp-riro,4,0,-1,-1
1570541689.4,2019-10-08,15:34:49.400,14.0,11.0,16.25,19.4,13.3,9.2,33.8,-28.3,6.5,18.1059,11.8228,8.5516,-0.413954,12.4157,9.92232,34.3372,-13.5306,7.99326,0.00662656,0.334655,1.02175,247.9,9.5,52.17,4.427219999999999,-3.0,-0.630546,159.211,4.26362,88.5275,42.9423,234.57,1.17363,-0.00286545,254.371,2.26434,2.66202,-34.9991455078125,22.0009689331055,-35.0,22.0,1884940.0,6491.31,pp-riro,4,0,-1,-1
1570541689.5,2019-10-08,15:34:49.500,14.0,11.0,16.4699993133545,19.0,14.9,9.8,32.5,-30.7,13.2,17.9508,12.5131,9.04125,-2.56684,14.9744,10.8457,33.8955,-14.5977,11.0401,0.0434279999999999,0.159293,1.04965,251.4,8.5,52.17,4.427219999999999,-3.0,-0.34741,156.43,4.26368,89.9586,44.4624,233.67,1.16517,-0.0103321,254.305,2.38584,2.7297,-34.9991455078125,22.0009689331055,-23.0044822692871,22.0,1885400.0,3814.8,pp-riro,4,0,-1,-1
1570541689.6,2019-10-08,15:34:49.600,14.0,11.0,16.629999160766598,18.3,16.3,10.3,31.3,-32.7,20.2,17.2433,14.5992,9.93911,-7.68439,13.9911,5.1499,32.138000000000005,-17.915,20.395,0.092696,0.265637,0.987424,251.4,8.5,52.17,4.427219999999999,-3.0,-0.0986267,149.523,4.263730000000001,91.4189,46.7425,232.87,1.15552,-0.0239877,254.501,2.512,2.80126,-34.9991455078125,22.0009689331055,-23.0044822692871,22.0,1885560.0,861.4060000000001,pp-riro,4,0,-1,-1
1570541689.7,2019-10-08,15:34:49.700,14.0,10.0,16.8400001525879,17.4,17.8,10.9,29.1,-34.8,27.8,16.5475,15.8267,10.3912,-6.7051300000000005,14.4672,4.79701,30.4065,-20.097,27.2064,0.33854,0.309307,1.08703,251.4,8.5,52.17,4.427219999999999,-3.0,0.129655,145.774,4.26379,93.1129,48.2626,231.87,1.14602,-0.0295967,254.486,2.63748,2.87125,-34.906982421875,22.0009689331055,-23.0044822692871,22.0,1885490.0,-1138.29,pp-riro,4,0,-1,-1
1570541689.8,2019-10-08,15:34:49.800,14.0,10.0,16.8899993896484,16.1,19.3,11.4,27.1,-36.4,35.5,16.1531,16.5131,10.6663,-8.36166,13.3503,4.92474,29.3766,-21.0292,30.7767,0.143421,0.332411,1.1868,251.4,8.5,52.17,4.427219999999999,-3.0,0.222741,145.718,4.26384,95.0113,50.1627,230.77,1.13507,-0.0372240999999999,254.555,2.76086,2.95106,-34.4342041015625,22.0009689331055,-23.0044822692871,22.0,1885400.0,-1845.87,pp-riro,4,0,-1,-1
1570541689.9,2019-10-08,15:34:49.900,14.0,10.0,16.8899993896484,14.8,20.6,12.0,24.6,-38.0,43.4,15.1874,17.7796,11.2077,-8.61772,13.3076,3.91994,27.0326,-22.7602,38.1391,0.1169029999999999,0.2205869999999999,1.08523,251.4,8.5,52.17,4.427219999999999,-3.0,0.288677,150.346,4.2639,96.9973,51.6828,229.57,1.12429,-0.0410750999999999,254.523,2.88088,3.02104,-33.847076416015604,22.0009689331055,-23.0044822692871,22.0,1885420.0,1445.93,pp-riro,4,0,-1,-1
1570541690.0,2019-10-08,15:34:50.000,14.0,11.0,17.0400009155273,13.5,21.8,12.6,22.3,-38.8,51.1,12.7915,19.9999,12.1628,-12.6451,9.63976,8.059,22.2366,-25.7272,52.7786,0.0958293,0.19768,1.0328,251.4,8.5,52.17,4.427219999999999,-3.0,0.2509989999999999,167.053,4.26396,99.071,53.2029,228.47,1.11341,-0.0443907,254.645,2.99308,3.0862700000000003,-32.7444915771484,22.0009689331055,-23.0044822692871,22.0,1885450.0,-676.819,pp-riro,4,0,-1,-1
1570541690.1,2019-10-08,15:34:50.100,14.0,10.0,17.2999992370605,12.1,23.0,13.5,19.5,-39.5,59.0,12.184,20.4783,12.4961,-10.4127,13.7132,7.30545,20.9485,-26.3703,56.3503,0.0393503,0.13182,1.07211,251.4,8.5,52.17,4.42721,-3.0,0.341869,201.044,4.26402,101.32,54.3429,227.17,1.10227,-0.0439296999999999,254.608,3.10304,3.1487,-31.3005676269531,22.0009689331055,-23.0044822692871,22.0,1885440.0,799.877,pp-riro,4,0,-1,-1
1570541690.2,2019-10-08,15:34:50.200,14.0,12.0,17.3999996185303,11.4,23.4,13.8,17.8,-40.1,62.9,11.599,21.172,12.8159,-12.1458,14.7433,7.69598,19.2747,-26.9435,60.0921,0.0102377999999999,0.274719,1.04223,251.4,8.5,52.17,4.42721,-3.0,0.344639,208.842,4.264069999999999,102.401,55.103,226.47,1.09643,-0.0453544,254.58,3.15783,3.17723,-29.491378784179695,22.0009689331055,-23.0044822692871,22.0,1885450.0,307.645,pp-riro,4,0,-1,-1
1570541690.3,2019-10-08,15:34:50.300,14.0,11.0,17.6499996185303,9.9,24.4,14.2,14.4,-40.9,71.0,10.9739,21.7142,13.1578,-12.8748,13.8668,8.37706,17.6253,-27.4448,63.7409,0.0423614,0.182419,1.02289,251.4,8.5,52.17,4.42721,-3.0,0.383979,222.533,4.264130000000001,104.854,55.8631,225.07,1.08511,-0.0412599,254.503,3.26405,3.23317,-27.5422439575195,22.0009689331055,-23.0044822692871,22.0,1885450.0,123.058,pp-riro,4,0,-1,-1
1570541690.4,2019-10-08,15:34:50.400,14.0,11.0,18.1000003814697,8.3,25.4,14.5,10.6,-40.4,78.5,8.928939999999999,22.9802,13.7199,-14.3782,6.729769999999999,5.72701,12.6104,-29.4193,74.4896,-0.0157667,0.11484,1.07702,251.4,8.5,52.17,4.42721,-3.0,0.398385,235.682,4.26419,107.278,57.3831,223.67,1.07263,-0.0429753,254.617,3.36712,3.2955300000000003,-25.9327545166016,22.0009689331055,-23.0044822692871,22.0,1885520.0,553.761,pp-riro,4,0,-1,-1
1570541690.5,2019-10-08,15:34:50.500,14.0,11.0,18.8099994659424,6.6,26.0,14.8,7.1,-39.8,86.1,6.681189999999999,24.2005,14.0023,-9.41978,3.32096,4.36476,7.17024,-29.5124,84.964,-0.208983,0.204728,1.12354,252.8,7.2,52.17,4.42721,-3.0,0.436617,252.327,4.26427,111.104,58.1432,222.17,1.05695,-0.0340085,255.116,3.46339,3.3456300000000003,-24.6782684326172,22.0009689331055,-23.0044822692871,22.0,1885580.0,615.29,pp-riro,4,0,-1,-1
1570541690.6,2019-10-08,15:34:50.600,14.0,10.0,19.590000152587898,4.8,26.4,14.7,2.7,-38.7,93.7,5.06181,24.7152,14.0561,-12.0518,3.19476,-0.456246,3.11658,-29.2242,91.9315,-0.28268,0.184727,1.14509,252.8,7.2,52.17,4.42721,-3.0,0.444928,261.225,4.26437,112.448,58.5233,220.67,1.04937,-0.0318531,254.489,3.5677800000000004,3.40378,-23.715652465820305,22.0009689331055,-22.3921546936035,22.0,1885670.0,738.3480000000001,pp-riro,4,0,-1,-1
1570541690.7,2019-10-08,15:34:50.700,14.0,9.0,20.2600002288818,3.1,26.7,14.4,-0.4,-36.8,100.9,3.59746,24.9086,13.7049,-11.2952,2.27861,-5.81073,-0.636709,-28.0625,98.824,-0.0620666999999999,0.144994,1.12158,252.8,7.2,52.17,4.42721,-3.0,0.4682,273.475,4.264469999999999,115.105,58.9033,219.17,1.03779,-0.0250733,254.469,3.66827,3.45511,-22.8554382324219,22.0009689331055,-22.132957458496104,22.0,1885730.0,769.112,pp-riro,4,0,-1,-1
1570541690.8,2019-10-08,15:34:50.800,14.0,10.0,20.8099994659424,0.8,26.5,14.3,-3.5,-35.0,107.6,2.60651,24.9785,13.6483,-20.8633,-0.992806,2.6208400000000003,-2.42341,-27.0049,102.133,-0.0539155,0.410514,1.0008,252.8,7.2,52.17,4.42721,-3.0,0.4781729999999999,280.79900000000004,4.26457,117.734,59.2834,217.77,1.02649,-0.0186582,254.558,3.763630000000001,3.5226900000000003,-22.4014358520508,22.0009689331055,-21.570837020874,22.0,1885780.0,799.877,pp-riro,4,0,-1,-1
1570541690.9,2019-10-08,15:34:50.900,14.0,10.0,21.3199996948242,-1.4,26.4,13.7,-6.3,-32.6,113.1,1.55052,24.9355,13.5614,-22.311,-5.31577,0.0409408,-4.06358,-25.9386,105.359,0.0228283,0.2762739999999999,0.942235,252.8,7.2,52.17,4.42721,-3.0,0.505323,295.599,4.26468,120.363,59.2834,216.37,1.01573,-0.0099497999999999,254.593,3.84677,3.59052,-22.2290496826172,22.0009689331055,-20.9439525604248,22.0,1885840.0,615.29,pp-riro,4,0,-1,-1
1570541691.0,2019-10-08,15:34:51.000,14.0,8.0,21.7299995422363,-3.5,26.3,13.1,-8.6,-29.8,118.7,-0.715647,24.8749,13.2416,-22.6478,1.76625,-4.94525,-6.670439999999999,-24.0758,110.845,-0.0510661,0.426235,0.862691,252.8,7.2,52.17,4.42721,-3.0,0.5346890000000001,315.243,4.26478,123.05,58.9035,215.07,1.00553,0.00114944,254.688,3.93451,3.65444,-21.810890197753896,22.0009689331055,35.0,22.0,1885940.0,1107.52,pp-riro,4,0,-1,-1
1570541691.1,2019-10-08,15:34:51.100,14.0,8.0,22.25,-5.7,25.9,12.8,-9.5,-26.9,123.2,-1.57707,24.6936,12.9685,-20.0501,-6.44342,-7.72608,-7.77043,-22.8561,113.269,0.0108768999999999,0.2782449999999999,0.7271529999999999,252.8,7.2,52.17,4.42721,-3.1,0.57957,348.60400000000004,4.264880000000001,125.649,58.5235,213.77,0.995542,0.0116174,254.775,4.01046,3.72036,-21.2101058959961,22.0025119781494,35.0,22.0,1885980.0,184.587,pp-riro,4,0,-1,-1
1570541691.2,2019-10-08,15:34:51.200,14.0,10.0,22.6399993896484,-8.1,25.0,12.6,-10.7,-25.0,127.6,-5.8870000000000005,23.9386,12.2097,-23.9302,-9.2172,-2.32168,-12.4628,-18.0404,123.383,-0.1953329999999999,0.170224,0.722722,252.8,7.2,52.17,4.42721,-3.1,0.793446,379.035,4.26498,128.19,57.7636,212.47,0.986201,0.0240453,254.78,4.07666,3.79239,-20.628097534179695,22.0019989013672,35.0,22.0,1884980.0,-18704.8,pp-riro,4,0,-1,-1
1570541691.3,2019-10-08,15:34:51.300,14.0,8.0,22.8299999237061,-9.9,24.0,11.3,-12.4,-22.9,131.6,-8.05252,22.9253,11.8164,-10.5933,-14.8367,-7.88656,-13.907,-16.3112,128.231,-0.0623806,0.15705,0.637193,252.8,7.2,52.17,4.42721,-3.1,1.30597,371.337,4.26511,130.673,57.0036,211.27,0.977184,0.0359324,254.872,4.1403,3.8619,-19.7269134521484,22.0019989013672,35.0,22.0,1882240.0,-31595.1,pp-riro,4,0,-1,-1
1570541691.4,2019-10-08,15:34:51.400,14.0,8.0,22.899999618530305,-10.9,23.2,10.1,-13.9,-20.2,136.2,-8.881910000000001,22.4093,11.1926,-22.3517,-11.6436,-12.9757,-14.2842,-15.6401,130.076,-0.0279615,0.103631,0.5678380000000001,252.8,7.2,52.17,4.42721,-3.1,1.07547,302.957,4.2651900000000005,133.097,55.8636,210.17,0.968983,0.0498091,254.965,4.21718,3.90527,-18.4792633056641,22.0009689331055,35.0,22.0,1885310.0,16243.7,pp-riro,4,0,-1,-1
1570541691.5,2019-10-08,15:34:51.500,14.0,7.0,22.8199996948242,-12.1,22.5,9.5,-15.1,-17.1,139.6,-10.7646,20.9451,9.12145,-10.7161,-2.55162,-1.1001,-17.5031,-10.942,137.865,-0.397227,0.319009,0.776097,253.3,8.6,52.17,4.42721,-3.1,1.17798,336.551,4.26529,135.375,54.7236,209.17,0.96136,0.0629487,255.095,4.28276,3.94847,-16.8783111572266,22.0009689331055,35.0,22.0,1884730.0,-7260.42,pp-riro,4,0,-1,-1
1570541691.6,2019-10-08,15:34:51.600,14.0,8.0,22.6299991607666,-13.1,21.5,9.7,-16.6,-15.2,143.7,-11.6751,20.0254,9.27284,-13.5792,-14.3589,1.27459,-18.9741,-9.08386,142.554,-0.0896266,-0.0891848,0.7295550000000001,253.3,8.6,52.17,4.42721,-3.1,1.22286,360.13,4.26538,137.566,53.5836,208.27,0.954153,0.0756226,255.288,4.34788,3.97777,-14.9257583618164,22.0009689331055,35.0,22.0,1884890.0,2984.16,pp-riro,4,0,-1,-1
1570541691.7,2019-10-08,15:34:51.700,14.0,10.0,22.350000381469695,-13.6,20.6,8.8,-18.5,-12.6,147.5,-11.9485,19.5044,9.03241,-5.55919,-11.0557,-12.1031,-19.8296,-8.59113,144.95,-0.171464,-0.0514635,0.8008529999999999,253.3,8.6,52.17,4.42721,-3.1,1.2345,361.473,4.26547,139.66899999999998,52.0636,207.37,0.947567,0.0901065,255.383,4.41467,4.00776,-12.8127670288086,22.0009689331055,35.0,22.0,1885220.0,2645.75,pp-riro,4,0,-1,-1
1570541691.8,2019-10-08,15:34:51.800,14.0,9.0,22.3099994659424,-13.8,19.9,8.3,-19.8,-9.7,150.6,-12.1034,19.2566,8.3523,-4.84439,-1.17541,-16.441,-20.6433,-7.68128,146.74,-0.0778717,0.130827,0.5688270000000001,253.3,8.6,52.17,4.42721,-3.1,1.1741,337.5,4.26556,141.684,50.9236,206.47,0.940742,0.101785,255.534,4.47754,4.02309,-10.7168426513672,22.0009689331055,35.0,22.0,1886240.0,6552.84,pp-riro,4,0,-1,-1
1570541691.9,2019-10-08,15:34:51.900,14.0,8.0,22.030000686645497,-14.6,19.0,8.4,-21.3,-8.5,153.1,-12.1034,19.2566,8.3523,-4.84439,-1.17541,-16.441,-20.6433,-7.68128,146.74,-0.0778717,0.130827,0.5688270000000001,253.3,8.6,52.17,4.42721,-3.1,1.19183,338.464,4.26566,143.612,49.7837,205.57,0.934123,0.11304,255.66,4.51543,4.0509,-8.59361267089844,22.0009689331055,35.0,22.0,1886350.0,461.467,pp-riro,4,0,-1,-1
1570541692.0,2019-10-08,15:34:52.000,14.0,11.0,21.8700008392334,-14.8,18.2,7.9,-23.0,-7.3,154.3,-13.6109,17.5348,7.81427,0.318809,-4.95161,-4.82748,-24.5255,-4.07866,153.392,-0.0924929,0.0461233,0.318748,253.3,8.6,52.17,4.42721,-3.1,1.17853,323.588,4.26575,145.452,47.8836,204.67,0.928459,0.128654,255.615,4.53187,4.06703,-6.49257659912109,22.0009689331055,35.0,22.0,1886930.0,7014.3,pp-riro,4,0,-1,-1
1570541692.1,2019-10-08,15:34:52.100,14.0,9.0,21.4200000762939,-14.7,17.6,7.6,-24.0,-6.9,154.9,-13.7295,17.1946,7.65338,-0.318098,-10.4291,-5.945869999999999,-25.0192,-3.83768,154.079,-0.317589,-0.0995364,0.122515,253.3,8.6,52.17,4.42721,-3.2,1.14917,311.389,4.26584,147.204,46.7437,203.77,0.922227,0.13912,255.688,4.53584,4.07185,-4.37446594238281,22.0009689331055,35.0,22.0,1887250.0,6029.84,pp-riro,4,0,-1,-1
1570541692.2,2019-10-08,15:34:52.200,14.0,8.0,21.0499992370605,-15.0,17.3,7.9,-25.0,-6.5,154.9,-14.0373,16.6127,7.42311,-2.86765,-4.17672,3.04318,-27.1905,-4.49216,154.686,-0.0624048,0.110775,0.0779779,253.3,8.6,52.17,4.42721,-3.2,1.12202,302.323,4.2659400000000005,148.957,44.8436,202.87,0.916631,0.154032,255.647,4.52802,4.0686,-2.264892578125,22.0009689331055,35.0,22.0,1887620.0,2830.33,pp-riro,4,0,-1,-1
1570541692.3,2019-10-08,15:34:52.300,14.0,10.0,20.6200008392334,-14.9,17.0,8.3,-25.9,-7.4,154.5,-14.4159,16.3753,7.88346,1.43507,-2.16744,5.79882,-28.0231,-4.78308,154.627,-0.131705,-0.0841508,-0.0765921,253.3,8.6,52.17,4.42721,-3.2,1.12257,296.906,4.266030000000001,150.621,43.7036,201.87,0.910298,0.1640059999999999,255.633,4.50507,4.05489,-0.172386169433594,22.0009689331055,35.0,22.0,1888090.0,3568.68,pp-riro,4,0,-1,-1
1570541692.4,2019-10-08,15:34:52.400,14.0,10.0,20.2800006866455,-14.4,17.0,8.7,-26.9,-8.3,153.7,-14.4159,16.3753,7.88346,1.43507,-2.16744,5.79882,-28.0231,-4.78308,154.627,-0.131705,-0.0841508,-0.0765921,253.3,8.6,52.17,4.42721,-3.2,1.09376,274.017,4.26612,152.257,42.1836,200.87,0.904316,0.175992,255.55900000000003,4.47499,4.0212900000000005,1.93988037109375,22.0009689331055,35.0,22.0,1888550.0,4860.79,pp-riro,4,0,-1,-1
1570541692.5,2019-10-08,15:34:52.500,14.0,8.0,19.8799991607666,-13.7,17.2,9.2,-27.7,-9.7,152.6,-14.4159,16.3753,7.88346,1.43507,-2.16744,5.79882,-28.0231,-4.78308,154.627,-0.131705,-0.0841508,-0.0765921,250.5,9.1,52.17,4.42721,-3.2,1.0699299999999998,264.115,4.26618,153.893,40.6636,199.87,0.8982610000000001,0.187883,255.509,4.43572,3.97563,4.03985595703125,22.0009689331055,35.0,22.0,1888860.0,5445.31,pp-riro,4,0,-1,-1
1570541692.6,2019-10-08,15:34:52.600,14.0,9.0,19.6100006103516,-13.2,17.5,10.0,-28.6,-11.3,151.2,-13.8547,16.4601,8.55109,9.12269,0.349761,3.80397,-29.4946,-7.8137,154.075,-0.0401411,-0.238211,-0.2277,250.5,9.1,52.17,4.42721,-3.2,1.03724,254.032,4.2662,155.616,39.5237,198.67,0.8911020000000001,0.19747,255.438,4.39219,3.93144,6.15004730224609,22.0009689331055,35.0,22.0,1889130.0,1415.17,pp-riro,4,0,-1,-1
1570541692.7,2019-10-08,15:34:52.700,14.0,9.0,19.2900009155273,-12.3,17.7,10.6,-28.9,-13.5,149.9,-12.8473,17.2408,10.0042,11.1779,7.44503,2.97407,-31.2014,-11.3099,151.82,-0.182246,-0.150995,-0.376409,250.5,9.1,52.17,4.42721,-3.2,1.02893,250.05,4.26621,157.31,38.3837,197.57,0.884229,0.20685,255.448,4.34394,3.8793,8.26194000244141,22.0009689331055,35.0,22.0,1889560.0,3476.39,pp-riro,4,0,-1,-1
1570541692.8,2019-10-08,15:34:52.800,14.0,10.0,19.25,-11.5,18.2,11.4,-29.5,-15.7,147.5,-12.8473,17.2408,10.0042,11.1779,7.44503,2.97407,-31.2014,-11.3099,151.82,-0.182246,-0.150995,-0.376409,250.5,9.1,52.17,4.42721,-3.2,1.02893,255.761,4.26623,159.033,36.8637,196.37,0.877238,0.218379,255.366,4.27951,3.82188,10.373840332031198,22.0009689331055,35.0,22.0,1889650.0,1692.05,pp-riro,4,0,-1,-1
1570541692.9,2019-10-08,15:34:52.900,14.0,10.0,19.2000007629395,-10.6,18.5,12.5,-29.6,-18.2,144.8,-10.9921,18.5707,12.3215,12.1951,2.27412,10.7587,-32.5355,-19.262,147.07,-0.268655,-0.299144,-0.663752,250.5,9.1,52.17,4.42721,-3.2,1.06218,273.095,4.26627,160.727,35.7237,195.17,0.8700180000000001,0.22741,255.345,4.210319999999999,3.76185,12.4840316772461,22.0009689331055,35.0,22.0,1889670.0,0.0,pp-riro,4,0,-1,-1
1570541693.0,2019-10-08,15:34:53.000,14.0,11.0,19.340000152587898,-9.4,19.0,13.5,-29.6,-21.4,141.8,-10.4577,18.8655,13.003,8.29763,3.48531,10.8916,-32.8578,-21.2907,145.993,-0.276979,-0.196934,-0.6704720000000001,250.5,9.1,52.17,4.42721,-3.2,1.09542,288.126,4.26627,162.597,34.9637,193.77,0.861503,0.234308,255.357,4.1323,3.694,14.5925216674805,22.0009689331055,35.0,22.0,1889990.0,2830.33,pp-riro,4,0,-1,-1
1570541693.1,2019-10-08,15:34:53.100,14.0,12.0,19.2399997711182,-8.4,19.5,14.3,-28.7,-24.6,137.8,-10.4577,18.8655,13.003,8.29763,3.48531,10.8916,-32.8578,-21.2907,145.993,-0.276979,-0.196934,-0.6704720000000001,250.5,9.1,52.17,4.42721,-3.3,1.09653,289.956,4.266290000000001,164.407,33.8237,192.37,0.8533620000000001,0.2431969999999999,255.304,4.04084,3.63664,16.6993103027344,22.0009689331055,35.0,22.0,1890120.0,2307.34,pp-riro,4,0,-1,-1
1570541693.2,2019-10-08,15:34:53.200,14.0,10.0,19.2399997711182,-6.9,20.0,15.4,-27.5,-28.1,132.7,-10.4577,18.8655,13.003,8.29763,3.48531,10.8916,-32.8578,-21.2907,145.993,-0.276979,-0.196934,-0.6704720000000001,250.5,9.1,52.17,4.42721,-3.3,1.11038,297.196,4.26631,166.27700000000002,33.0638,190.87,0.8445360000000001,0.24979,255.289,3.93563,3.56162,18.8112106323242,22.0009689331055,35.0,22.0,1890330.0,2307.34,pp-riro,4,0,-1,-1
1570541693.3,2019-10-08,15:34:53.300,14.0,11.0,19.1900005340576,-5.3,20.2,16.7,-25.4,-32.1,127.0,-6.57503,20.7872,16.5906,20.8414,3.02871,14.9121,-30.9438,-33.9074,134.567,-0.1955059999999999,-0.4989649999999999,-1.0964,250.5,9.1,52.17,4.42721,-3.3,1.1331,317.541,4.26633,168.233,32.3038,189.27,0.835176,0.25635,255.283,3.82095,3.48545,20.9197006225586,22.0009689331055,35.0,22.0,1890520.0,1538.22,pp-riro,4,0,-1,-1
1570541693.4,2019-10-08,15:34:53.400,14.0,12.0,19.3799991607666,-3.0,20.4,17.4,-21.8,-35.7,119.8,-5.6982,21.1107,17.3425,16.489,2.62118,8.55856,-30.2517,-36.2441,132.004,-0.00377719,-0.127,-0.992109,250.5,9.1,52.17,4.42721,-3.3,1.1901700000000002,340.61,4.26635,170.278,31.9238,187.47,0.824815,0.260719,255.262,3.69613,3.3928800000000003,23.036697387695305,22.0009689331055,35.0,22.0,1890750.0,2738.04,pp-riro,4,0,-1,-1
1570541693.5,2019-10-08,15:34:53.500,14.0,12.0,19.7399997711182,-1.1,20.3,18.3,-17.6,-39.5,111.7,-5.6982,21.1107,17.3425,16.489,2.62118,8.55856,-30.2517,-36.2441,132.004,-0.00377719,-0.127,-0.992109,245.2,8.4,52.17,4.42721,-3.3,1.2018,351.653,4.26636,172.176,31.9239,185.77,0.8149270000000001,0.262693,255.293,3.56544,3.31734,25.146896362304695,22.0009689331055,35.0,22.0,1891110.0,3199.51,pp-riro,4,0,-1,-1
1570541693.6,2019-10-08,15:34:53.600,14.0,12.0,20.0,1.1,20.2,19.4,-12.3,-42.8,102.3,-0.0814905,21.8417,20.1007,17.6313,0.472713,12.8521,-20.9803,-47.9757,112.449,-0.344769,-0.275333,-1.56389,245.2,8.4,52.17,4.42721,-3.3,1.22341,363.148,4.266369999999999,174.192,31.924,183.87,0.804172,0.264758,255.284,3.42855,3.23303,27.2417602539062,22.0009689331055,35.0,22.0,1891350.0,2276.57,pp-riro,4,0,-1,-1
1570541693.7,2019-10-08,15:34:53.700,14.0,15.0,20.2199993133545,3.9,19.6,19.9,-5.8,-45.2,91.3,1.38237,21.7973,20.5786,26.6184,1.26902,5.572830000000001,-17.8027,-50.0655,107.381,-0.0778305,-0.335709,-1.1654,245.2,8.4,52.17,4.42721,-3.3,1.23671,368.396,4.266380000000001,176.11900000000003,31.924,181.87,0.7933819999999999,0.26669,255.174,3.2834800000000004,3.12948,29.3349304199219,22.0009689331055,23.0044822692871,22.0,1891500.0,3014.92,pp-riro,4,0,-1,-1
1570541693.8,2019-10-08,15:34:53.800,14.0,16.0,20.2999992370605,6.9,18.8,20.1,1.6,-46.5,79.7,4.55547,21.2802,21.3025,32.2433,-5.83786,6.56012,-10.9194,-53.5455,95.591,-0.312827,-0.250678,-1.34932,245.2,8.4,52.17,4.42721,-3.3,1.2489,377.22,4.26639,177.988,32.3041,179.97,0.782832,0.2664559999999999,255.172,3.14144,3.02034,31.1453552246094,22.0009689331055,23.0044822692871,22.0,1891920.0,4245.5,pp-ro,1,1,-1,-1
1570541693.9,2019-10-08,15:34:53.900,14.0,14.0,20.520000457763697,9.7,17.8,20.3,9.8,-46.5,67.0,6.225709999999999,21.0,21.4364,32.928000000000004,-12.9366,-0.189147,-6.42248,-54.8003,88.8795,-0.260519,-0.134071,-1.27211,245.2,8.4,52.17,4.42721,-3.3,1.26608,389.346,4.26641,179.799,33.0642,177.97,0.7719729999999999,0.2641199999999999,255.136,2.99105,2.91943,31.9288024902344,22.0009689331055,23.0044822692871,22.0,1892210.0,2707.27,pp-ro,1,1,-1,-1
1570541694.0,2019-10-08,15:34:54.000,14.0,16.0,20.729999542236303,12.5,15.9,20.2,18.4,-45.3,53.4,6.225709999999999,21.0,21.4364,32.928000000000004,-12.9366,-0.189147,-6.42248,-54.8003,88.8795,-0.260519,-0.134071,-1.27211,245.2,8.4,52.17,4.42721,-3.3,1.30099,413.223,4.26641,181.522,33.8242,175.87,0.761059,0.261754,255.0,2.82744,2.80721,33.2334136962891,22.003026962280305,23.0139999389648,22.0,1892530.0,3414.86,pp-ro,1,1,-1,-1
1570541694.1,2019-10-08,15:34:54.100,14.0,17.0,20.979999542236303,15.1,14.2,19.3,26.0,-42.5,41.2,12.9135,18.6077,21.9473,26.6709,-19.4798,1.9746,14.5406,-56.4146,57.0716,-0.574363,-0.188183,-1.71333,245.2,8.4,52.17,4.427219999999999,-3.3,1.33977,424.538,4.26642,183.012,35.3443,173.87,0.7506510000000001,0.255192,254.899,2.67161,2.69864,34.163330078125,22.0025119781494,23.0116176605225,22.0,1892780.0,2338.1,pp-ro,1,1,-1,-1
1570541694.2,2019-10-08,15:34:54.200,14.0,17.0,21.1000003814697,17.2,12.4,17.8,32.7,-38.6,30.0,16.2872,16.7955,21.255,27.0636,-15.5708,-7.87392,24.5702,-53.9404,41.7555,-0.107871,0.0497281,-1.38061,245.2,8.4,52.17,4.427219999999999,-3.3,1.30431,411.084,4.266430000000001,184.355,36.8644,171.97,0.740884,0.248599,254.793,2.51358,2.59298,34.73388671875,22.0025119781494,23.0116176605225,22.0,1893890.0,7291.18,pp-ro,1,1,-1,-1
1570541694.3,2019-10-08,15:34:54.300,14.0,16.0,21.1399993896484,18.2,11.3,17.2,35.5,-36.2,24.9,16.2872,16.7955,21.255,27.0636,-15.5708,-7.87392,24.5702,-53.9404,41.7555,-0.107871,0.0497281,-1.38061,245.2,8.4,52.17,4.427219999999999,-3.3,1.30099,415.489,4.26644,184.968,37.6244,170.97,0.735995,0.245278,254.676,2.43388,2.53831,34.9638061523438,22.003026962280305,23.0139999389648,22.0,1894070.0,3384.09,pp-ro,1,1,-1,-1
1570541694.4,2019-10-08,15:34:54.400,14.0,16.0,21.2600002288818,19.4,9.2,15.6,40.1,-30.8,15.8,20.3186,13.7343,19.0074,20.0193,-22.5396,-7.6269,36.7768,-47.3929,21.4091,-0.5574060000000001,-0.0796667,-1.87996,245.2,8.4,52.17,4.427219999999999,-3.3,1.34254,425.278,4.26645,185.991,39.5245,169.37,0.72768,0.236553,254.639,2.27752,2.44299,34.904205322265604,22.003026962280305,22.7083797454834,22.0,1894370.0,4799.26,pp-ro,1,1,-1,-1
1570541694.5,2019-10-08,15:34:54.500,14.0,17.0,21.340000152587898,20.6,7.2,14.0,43.5,-25.1,8.0,23.743,9.00877,15.3363,14.2169,-24.8716,-23.0015,45.1089,-35.0857,2.84013,-0.275872,0.0390245,-1.45261,249.3,8.5,52.17,4.427219999999999,-3.3,1.33368,421.763,4.2664800000000005,186.808,41.8046,167.87,0.719924,0.225755,254.608,2.12889,2.34512,34.403472900390604,22.003026962280305,20.997484207153303,22.0,1894960.0,5722.19,pp-ro,1,1,-1,-1
1570541694.6,2019-10-08,15:34:54.600,14.0,18.0,21.4200000762939,21.5,5.4,12.0,45.7,-19.2,1.3,25.1292,6.867000000000001,13.2859,19.264,-23.4104,-19.3527,46.7389,-28.6795,-4.39759,-1.0189700000000002,-0.00362731,-1.66579,249.3,8.5,52.17,4.427219999999999,-3.3,1.32758,417.58,4.26653,187.451,43.7047,166.57,0.713366,0.2168,254.546,1.98548,2.24368,33.5382690429688,22.003026962280305,19.185983657836896,22.0,1895580.0,6614.37,pp-ro,1,1,-1,-1
1570541694.7,2019-10-08,15:34:54.700,14.0,13.0,21.4200000762939,22.3,3.2,10.0,47.4,-12.5,-5.0,25.1292,6.867000000000001,13.2859,19.264,-23.4104,-19.3527,46.7389,-28.6795,-4.39759,-1.0189700000000002,-0.00362731,-1.66579,249.3,8.5,52.17,4.427219999999999,-3.3,1.32204,423.824,4.26658,187.947,45.9847,165.47,0.707496,0.2058559999999999,254.596,1.83496,2.12946,32.322235107421896,22.0035419464111,17.0914039611816,22.0,1896050.0,3445.62,pp-ro,1,1,-1,-1
1570541694.8,2019-10-08,15:34:54.800,14.0,13.0,21.4200000762939,22.2,1.2,8.2,48.5,-7.0,-10.9,25.1292,6.867000000000001,13.2859,19.264,-23.4104,-19.3527,46.7389,-28.6795,-4.39759,-1.0189700000000002,-0.00362731,-1.66579,249.3,8.5,52.17,4.427219999999999,-3.3,1.35307,433.465,4.26663,188.21,47.8848,164.57,0.702983,0.196624,254.557,1.702,2.03207,30.7383117675781,22.0035419464111,15.2934885025024,22.0,1896480.0,5445.31,pp-ro,1,1,-1,-1
1570541694.9,2019-10-08,15:34:54.900,14.0,14.0,21.5799999237061,22.0,-0.4,5.7,49.0,-1.2,-16.2,26.1585,0.404919,6.22649,-3.11465,-17.9726,-28.5482,48.4455,-9.4199,-21.0518,-0.0103867,0.206972,-1.28035,249.3,8.5,52.17,4.427219999999999,-3.3,1.3503,432.286,4.26668,188.297,50.1648,163.77,0.698911,0.18537,254.545,1.57244,1.91919,28.8137512207031,22.003026962280305,13.1684627532959,22.0,1897030.0,5168.43,pp-ro,1,1,-1,-1
1570541695.0,2019-10-08,15:34:55.000,14.0,14.0,21.8299999237061,21.6,-2.0,3.9,49.8,4.0,-20.7,26.1585,0.404919,6.22649,-3.11465,-17.9726,-28.5482,48.4455,-9.4199,-21.0518,-0.0103867,0.206972,-1.28035,249.3,8.5,52.17,4.427219999999999,-3.3,1.35529,439.047,4.26673,188.239,52.0649,163.27,0.696292,0.175816,254.562,1.45858,1.82067,26.1875152587891,22.0035419464111,11.2819747924805,22.0,1897600.0,5937.55,pp-ro,1,1,-1,-1
1570541695.1,2019-10-08,15:34:55.100,14.0,13.0,21.899999618530305,20.7,-3.3,2.3,50.0,8.5,-25.0,25.4431,-2.35351,3.08291,-23.0466,-15.0938,-21.1133,47.6837,-0.189181,-28.1051,-0.050092,-0.0227245,-1.09133,249.3,8.5,52.17,4.427219999999999,-3.3,1.37634,454.932,4.266780000000001,188.18,54.7249,162.87,0.6934020000000001,0.162604,254.82,1.35894,1.73462,24.079025268554695,22.003026962280305,9.6546573638916,22.0,1897950.0,2645.75,pp-ro,1,1,-1,-1
1570541695.2,2019-10-08,15:34:55.200,14.0,14.0,21.6200008392334,19.2,-4.3,0.8,50.7,13.1,-29.2,24.9143,-3.10679,2.17595,-10.6981,-16.3414,-10.1107,47.709,2.40518,-30.1565,0.342273,0.1673059999999999,-1.17286,249.3,8.5,52.17,4.427219999999999,-3.3,1.37025,435.116,4.266830000000001,187.976,57.005,162.57,0.691362,0.151117,254.978,1.25849,1.64939,21.9569091796875,22.0035419464111,8.01813125610352,22.0,1899040.0,10152.3,pp-ro,1,1,-1,-1
1570541695.3,2019-10-08,15:34:55.300,14.0,16.0,21.1299991607666,18.0,-4.8,-0.6,50.4,18.1,-33.0,24.0326,-3.96422,1.25349,-19.3432,-10.3613,-19.4365,47.4676,5.3432900000000005,-32.1958,0.125493,0.2072679999999999,-1.32766,249.3,8.5,52.17,4.427219999999999,-3.3,1.34143,422.265,4.2668800000000005,187.742,58.525,162.37,0.690199,0.143325,255.022,1.1558,1.57243,19.8603439331055,22.0035419464111,6.5190534591674805,22.0,1899490.0,8367.94,pp-ro,1,1,-1,-1
1570541695.4,2019-10-08,15:34:55.400,14.0,17.0,20.7900009155273,17.5,-6.1,-2.1,50.1,21.8,-36.3,21.508000000000003,-5.07878,-1.53346,-1.72125,-17.4751,-21.1844,46.1925,14.0566,-38.0446,0.0693758999999999,0.252428,-1.18957,249.3,8.5,52.17,4.427219999999999,-3.3,1.31428,410.454,4.26693,187.362,60.8051,162.27,0.689076,0.13165,255.213,1.0789799999999998,1.46993,17.7433395385742,22.003026962280305,4.50650644302368,22.0,1900120.0,6152.9,pp-ro,1,1,-1,-1
1570541695.5,2019-10-08,15:34:55.500,14.0,17.0,20.4899997711182,16.8,-7.1,-3.5,49.0,24.7,-40.9,21.2603,-5.943630000000001,-2.28673,-9.95321,-20.0567,-20.5079,45.8758,16.4486,-39.5543,-0.230508,0.2560489999999999,-0.640065,247.5,8.2,52.17,4.427219999999999,-3.3,1.3408799999999998,434.253,4.26698,186.866,62.3251,162.371,0.6893699999999999,0.1234799999999999,255.279,0.996596,1.37514,15.6348495483398,22.003026962280305,2.59044122695923,22.0,1900660.0,1661.28,pp-ro,1,1,-1,-1
1570541695.6,2019-10-08,15:34:55.600,14.0,17.0,20.1900005340576,15.7,-8.0,-4.6,47.9,27.3,-45.2,20.6365,-7.30248,-3.90339,-10.7199,-19.1256,-20.265,44.9215,19.8885,-43.1618,-0.0839987,-0.0896087,-0.857806,247.5,8.2,52.17,4.427219999999999,-3.3,1.36526,446.093,4.26701,186.282,64.2251,162.571,0.689832,0.113365,255.45,0.923173,1.28621,13.5297622680664,22.0035419464111,0.7836796641349789,22.0,1900820.0,3076.45,pp-ro,1,1,-1,-1
1570541695.7,2019-10-08,15:34:55.700,14.0,16.0,19.9699993133545,15.0,-8.9,-5.8,46.4,29.4,-49.8,18.7242,-8.804110000000001,-5.9069,-13.59,-14.398,-11.3422,43.1353,24.7012,-49.4068,0.3158289999999999,-0.0162392,-0.5874510000000001,247.5,8.2,52.17,4.427219999999999,-3.3,1.39906,455.325,4.26705,185.697,66.1251,162.971,0.690847,0.103248,255.764,0.8529209999999999,1.20245,11.4229736328125,22.0035419464111,-0.944520711898804,22.0,1901510.0,6122.13,pp-ro,1,1,-1,-1
1570541695.8,2019-10-08,15:34:55.800,14.0,16.0,19.9300003051758,13.9,-9.4,-6.6,45.5,30.1,-53.7,16.8365,-10.0765,-7.40147,-8.87444,-12.5783,-8.27725,40.75,28.0786,-55.8795,0.0148481,-0.22255,-0.8481559999999999,247.5,8.2,52.17,4.427219999999999,-3.3,1.39296,451.737,4.2670900000000005,184.996,68.0252,163.27100000000002,0.691782,0.0929356,255.946,0.8069430000000001,1.13173,9.31618499755859,22.0035419464111,-2.40782284736633,22.0,1901910.0,7506.54,pp-ro,1,1,-1,-1
1570541695.9,2019-10-08,15:34:55.900,14.0,14.0,20.020000457763697,12.8,-9.3,-7.1,44.2,30.9,-57.1,15.3932,-10.3814,-8.116019999999999,-17.3461,-5.22052,-0.2096849999999999,39.8632,29.9384,-58.9601,0.123,0.063439,-0.5683779999999999,247.5,8.2,52.17,4.427219999999999,-3.3,1.36526,437.99300000000005,4.26713,184.325,69.5452,163.77100000000002,0.693531,0.0844795,256.189,0.763972,1.08106,7.19406890869141,22.003026962280305,-3.51014804840088,22.0,1902600.0,6460.54,pp-ro,1,1,-1,-1
1570541696.0,2019-10-08,15:34:56.000,14.0,11.0,20.2399997711182,11.6,-9.1,-7.2,43.0,32.4,-60.3,13.9774,-10.2528,-8.350060000000001,-8.86346,0.2007789999999999,0.220356,39.1691,31.5858,-61.8339,0.241615,-0.231079,-0.392441,247.5,8.2,52.17,4.427219999999999,-3.3,1.34587,421.768,4.26717,183.565,71.0652,164.37099999999998,0.695746,0.0758443999999999,256.445,0.715919,1.03983,6.14323425292969,22.0035419464111,-4.4494891166687,22.0,1903300.0,7383.48,pp-ro,1,1,-1,-1
1570541696.1,2019-10-08,15:34:56.100,14.0,12.0,20.3199996948242,11.1,-8.9,-7.2,42.2,34.1,-62.6,13.3473,-10.1615,-8.331,-5.26707,-1.28821,3.39675,38.5134,32.4417,-63.5727,0.3159119999999999,0.0058226,-0.670652,247.5,8.2,52.17,4.427219999999999,-3.4,1.27716,378.263,4.2672,182.864,72.5852,164.87099999999998,0.6974859999999999,0.0673255,256.691,0.676921,1.02816,4.03985595703125,22.0025119781494,-4.77513360977173,22.0,1904400.0,7321.95,pp-ro,1,1,-1,-1
1570541696.2,2019-10-08,15:34:56.200,14.0,11.0,20.4899997711182,10.5,-8.9,-7.5,41.2,35.5,-64.5,12.8686,-10.1547,-8.30021,-0.777744,0.128332,6.63829,37.835,33.4154,-65.1856,0.221137,0.0909415,-0.6694939999999999,247.5,8.2,52.17,4.427219999999999,-3.4,1.24779,355.154,4.26724,182.105,73.7252,165.571,0.700276,0.0604679,256.926,0.645072,0.99362,1.41020202636719,22.0019989013672,-5.61624479293823,22.0,1904840.0,8029.53,pp-ro,1,1,-1,-1
1570541696.3,2019-10-08,15:34:56.300,14.0,11.0,20.409999847412102,10.3,-8.8,-7.7,40.9,36.1,-65.1,11.7697,-9.87957,-8.530619999999999,-6.53918,-0.4087949999999999,0.955142,36.7815,36.2501,-67.1272,0.0745204,0.0214424,-0.170271,247.5,8.2,52.17,4.427219999999999,-3.4,1.15637,312.994,4.26728,181.287,75.6253,166.271,0.702442,0.0499011,257.35200000000003,0.6391439999999999,0.984603,-0.486434936523438,22.0009689331055,-5.91805219650269,22.0,1905740.0,8552.53,pp-ro,1,1,-1,-1
1570541696.4,2019-10-08,15:34:56.400,14.0,10.0,20.409999847412102,10.2,-8.9,-7.4,40.9,35.7,-65.9,11.3826,-9.78381,-8.4774,-1.91671,-3.29312,4.049930000000001,36.5492,36.5914,-67.758,-0.0405699,0.0788965,0.00989426,247.5,8.2,52.17,4.427219999999999,-3.4,1.12368,309.247,4.26732,180.498,76.7653,166.97099999999998,0.705229,0.0429514,257.588,0.6382680000000001,0.994922,-2.18808746337891,22.0009689331055,-5.870352268218991,22.0,1906060.0,1384.4,pp-ro,1,1,-1,-1
1570541696.5,2019-10-08,15:34:56.500,14.0,11.0,20.3299999237061,10.7,-8.8,-7.0,40.9,35.9,-66.7,11.4419,-9.8873,-8.00912,4.14237,-1.67068,3.6395,36.9317,37.1227,-67.8104,0.0212922,0.0134067999999999,-0.147836,251.2,9.5,52.17,4.427219999999999,-3.4,1.14861,310.182,4.26737,179.65099999999998,78.2853,167.671,0.7077399999999999,0.0340709,257.908,0.6328010000000001,1.04205,-3.61324310302734,22.0009689331055,-5.076269149780269,22.0,1906430.0,3691.74,pp-ro,1,1,-1,-1
1570541696.6,2019-10-08,15:34:56.600,14.0,11.0,20.2800006866455,11.1,-8.8,-7.0,40.9,35.3,-67.5,11.4419,-9.8873,-8.00912,4.14237,-1.67068,3.6395,36.9317,37.1227,-67.8104,0.0212922,0.0134067999999999,-0.147836,251.2,9.5,52.17,4.427219999999999,-3.4,1.13698,301.316,4.26743,178.804,79.4253,168.37099999999998,0.710597,0.0269354,258.124,0.63384,1.06414,-4.72435760498047,22.0009689331055,-4.80702495574951,22.0,1906710.0,5045.38,pp-ro,1,1,-1,-1
1570541696.7,2019-10-08,15:34:56.700,14.0,13.0,20.159999847412102,11.4,-8.9,-7.0,41.9,35.0,-67.3,11.8988,-9.83538,-7.47317,5.463419999999999,1.07342,0.8156359999999999,37.6601,37.3541,-68.2268,0.188004,0.00927369,-0.0657608,251.2,9.5,52.17,4.427219999999999,-3.4,1.1031799999999998,295.657,4.2675,177.928,80.5653,169.071,0.713492,0.0197157,258.33,0.643917,1.0794700000000002,-5.48899078369141,22.0009689331055,-4.68066692352295,22.0,1907140.0,4122.44,pp-ro,1,1,-1,-1
1570541696.8,2019-10-08,15:34:56.800,14.0,12.0,19.979999542236303,11.6,-9.6,-6.7,42.6,33.6,-67.4,12.1094,-9.90891,-7.31942,4.71394,-5.6438,4.46821,38.0743,37.0329,-68.4323,0.185281,-0.0932525,0.0211548,251.2,9.5,52.17,4.427219999999999,-3.4,1.12922,316.196,4.26756,177.023,82.0853,169.771,0.716019,0.0106414,258.645,0.6624270000000001,1.0915,-5.93616485595703,22.0009689331055,-4.60561943054199,22.0,1907210.0,-276.88,pp-ro,1,1,-1,-1
1570541696.9,2019-10-08,15:34:56.900,14.0,12.0,19.8500003814697,11.9,-9.5,-6.5,43.6,32.2,-66.9,12.3725,-10.5838,-6.783860000000001,1.92551,1.13327,3.69196,39.3712,34.9919,-68.1126,0.230225,-0.0602261,0.141676,251.2,9.5,52.17,4.427219999999999,-3.4,1.17964,331.12800000000004,4.26762,176.02900000000002,83.2253,170.37099999999998,0.718824,0.00311988,258.726,0.687317,1.11863,-5.920806884765621,22.0009689331055,-4.24992847442627,22.0,1907340.0,2153.51,pp-ro,1,1,-1,-1
1570541697.0,2019-10-08,15:34:57.000,14.0,14.0,19.8099994659424,12.3,-9.5,-6.3,44.9,31.1,-66.0,12.4985,-10.5768,-6.58484,2.1358900000000003,3.7563,5.09556,39.9053,34.2944,-67.8386,0.0587958,-0.177639,0.227576,251.2,9.5,52.17,4.427219999999999,-3.4,1.1630200000000002,320.85200000000003,4.26769,175.06599999999997,84.3653,170.97099999999998,0.721532,-0.00436739,258.837,0.71438,1.14719,-5.52312469482422,22.0009689331055,-3.86567735671997,22.0,1907810.0,5414.55,pp-ro,1,1,-1,-1
1570541697.1,2019-10-08,15:34:57.100,14.0,10.0,19.8500003814697,12.4,-9.6,-5.7,45.8,29.7,-65.5,12.7624,-10.4792,-6.19661,5.65355,-2.1707,0.125818,40.9062,32.716,-67.3773,0.133717,-0.0940068999999999,0.238905,251.2,9.5,52.17,4.427230000000001,-3.3,1.14086,309.135,4.26775,174.102,85.8853,171.47099999999998,0.723492,-0.0136407,259.018,0.741114,1.17951,-4.794334411621089,22.0009689331055,-3.36558389663696,22.0,1908260.0,4276.26,pp-ro,1,1,-1,-1
1570541697.2,2019-10-08,15:34:57.200,14.0,8.0,19.8999996185303,12.6,-9.3,-5.1,46.5,28.0,-64.8,12.9162,-10.5216,-5.55986,-2.28403,-1.01289,2.3180400000000003,41.8187,30.5239,-66.9983,0.0754881,-0.316308,0.256456,251.2,9.5,52.17,4.427230000000001,-3.3,1.12534,304.552,4.26782,173.138,87.0253,171.97099999999998,0.725845,-0.0211817,259.084,0.772475,1.22423,-4.10308837890625,22.0009689331055,-2.64623308181763,22.0,1908590.0,2738.04,pp-ro,1,1,-1,-1
1570541697.3,2019-10-08,15:34:57.300,14.0,10.0,20.0300006866455,12.7,-8.7,-4.5,47.3,27.1,-63.6,12.9162,-10.5216,-5.55986,-2.28403,-1.01289,2.3180400000000003,41.8187,30.5239,-66.9983,0.0754881,-0.316308,0.256456,251.2,9.5,52.17,4.427230000000001,-3.3,1.11758,285.853,4.26788,172.232,88.1653,172.47099999999998,0.728035,-0.0286115999999999,259.198,0.8019729999999999,1.27449,-3.78392028808594,22.0009689331055,-1.81040930747986,22.0,1908930.0,4214.73,pp-ro,1,1,-1,-1
1570541697.4,2019-10-08,15:34:57.400,14.0,6.0,20.1200008392334,13.0,-8.3,-4.0,48.0,26.2,-62.8,13.1,-9.89359,-4.65695,2.45986,5.88635,4.86103,43.914,27.8592,-65.7054,0.116318,-0.0245423,0.39968,251.2,9.5,52.17,4.427230000000001,-3.3,1.04001,257.67400000000004,4.26796,171.327,89.6853,172.87099999999998,0.729457,-0.0378192,259.386,0.827924,1.3244,-3.0346450805664102,22.0009689331055,-0.935455739498138,22.0,1909690.0,3537.92,pp-ro,1,1,-1,-1
1570541697.5,2019-10-08,15:34:57.500,14.0,8.0,20.2000007629395,13.3,-8.2,-3.6,48.4,25.3,-61.8,13.612,-9.22857,-3.63416,6.9726,-1.70818,3.5942800000000004,45.3344,25.159,-64.7538,0.138898,-0.141446,0.192888,248.8,10.2,52.17,4.427230000000001,-3.3,1.05331,264.116,4.268009999999999,170.451,90.8254,173.271,0.731229,-0.0452046,259.472,0.8551770000000001,1.36006,-2.37924194335938,22.0009689331055,-0.371080338954926,22.0,1909830.0,1261.34,pp-ro,1,1,-1,-1
1570541697.6,2019-10-08,15:34:57.600,14.0,4.0,20.0799999237061,13.4,-8.1,-3.3,48.9,24.4,-60.7,13.6317,-9.18202,-3.4197,-2.3826,-0.5003989999999999,7.28397,45.8296,24.6584,-64.0713,0.175447,0.0681168,0.399483,248.8,10.2,52.17,4.427230000000001,-3.3,1.06328,270.756,4.26807,169.545,91.9654,173.572,0.732753,-0.0526937,259.481,0.8838540000000001,1.38488,-1.51732635498047,22.0009689331055,-0.009766244329512,22.0,1909930.0,1876.63,pp-ro,1,1,-1,-1
1570541697.7,2019-10-08,15:34:57.700,14.0,8.0,20.0300006866455,13.3,-7.9,-2.9,49.1,23.8,-60.0,13.6752,-9.0848,-3.31006,-0.2258219999999999,1.03625,2.1198,46.0848,23.9619,-63.6954,0.279116,0.0620495,0.292783,248.8,10.2,52.17,4.427230000000001,-3.3,1.09265,285.308,4.26814,168.669,93.4854,173.872,0.733708,-0.0618540999999999,259.654,0.905545,1.41281,-0.9506759643554692,22.0009689331055,0.4500535130500789,22.0,1910160.0,1599.75,pp-ro,1,1,-1,-1
1570541697.8,2019-10-08,15:34:57.800,14.0,7.0,20.25,13.6,-7.8,-2.5,49.3,23.0,-59.7,13.6645,-8.92478,-2.90332,0.899086,2.60703,3.64539,46.6196,22.9275,-62.8475,0.025356,-0.153822,0.164513,248.8,10.2,52.17,4.427230000000001,-3.3,1.10041,289.305,4.26821,167.822,94.6254,174.072,0.734753,-0.0692261,259.652,0.923321,1.44819,-0.208229064941406,22.0009689331055,1.05387961864471,22.0,1910440.0,3045.68,pp-ro,1,1,-1,-1
1570541697.9,2019-10-08,15:34:57.900,14.0,10.0,20.340000152587898,13.8,-7.8,-2.2,49.1,22.6,-59.4,13.6645,-8.92478,-2.90332,0.899086,2.60703,3.64539,46.6196,22.9275,-62.8475,0.025356,-0.153822,0.164513,248.8,10.2,52.17,4.427230000000001,-3.3,1.10816,300.065,4.268269999999999,166.975,95.7654,174.27200000000002,0.73577,-0.0766116999999999,259.658,0.936647,1.47244,0.26739501953125,22.0009689331055,1.43482553958893,22.0,1910680.0,2061.22,pp-ro,1,1,-1,-1
1570541698.0,2019-10-08,15:34:58.000,14.0,10.0,20.2099990844727,13.3,-7.9,-1.9,48.3,22.3,-59.2,13.9754,-8.83962,-2.45229,2.36796,0.966217,-2.85213,47.0535,21.6989,-62.7487,0.267499,0.0508384,0.2421309999999999,248.8,10.2,52.17,4.427230000000001,-3.3,1.12146,307.532,4.26834,166.128,97.6654,174.372,0.735483,-0.0874168,259.889,0.950107,1.47697,0.8396530151367191,22.0009689331055,1.52094781398773,22.0,1910750.0,1353.64,pp-ro,1,1,-1,-1
1570541698.1,2019-10-08,15:34:58.100,14.0,11.0,19.8099994659424,12.6,-8.0,-2.7,48.1,21.8,-57.4,13.3179,-9.002089999999999,-2.0642,-12.3035,-1.42762,-10.4225,46.0514,20.9103,-62.3948,-0.179084,0.0791201,0.1866799999999999,248.8,10.2,52.17,4.427230000000001,-3.2,1.1464,307.064,4.2684,165.252,98.8054,174.572,0.736499,-0.0948928,259.896,0.982964,1.41987,1.34037017822266,22.0009689331055,0.271540373563766,22.0,1911170.0,4553.14,pp-ro,1,1,-1,-1
1570541698.2,2019-10-08,15:34:58.200,14.0,11.0,19.3600006103516,12.0,-8.1,-2.6,48.9,19.9,-56.5,12.3977,-8.64113,-2.5552,-9.43192,3.33574,-4.85234,45.8767,20.2693,-60.1514,0.0600013,0.0906654,0.394853,248.8,10.2,52.17,4.427230000000001,-3.2,1.11038,294.47,4.26847,164.34599999999998,99.9454,174.77200000000002,0.7375520000000001,-0.102461,259.892,1.02127,1.40733,1.51750183105469,22.0009689331055,-0.0934294387698169,22.0,1911650.0,4307.03,pp-ro,1,1,-1,-1
1570541698.3,2019-10-08,15:34:58.300,14.0,11.0,19.0,12.0,-8.3,-2.2,48.2,18.9,-56.7,12.3134,-8.82595,-2.5683700000000003,-1.35744,-7.59111,-2.04911,46.5075,19.658,-59.6379,-0.442694,-0.0313297,0.185804,248.8,10.2,52.17,4.427230000000001,-3.2,1.10373,292.406,4.26853,163.47,101.085,174.972,0.738512,-0.109963,259.915,1.0357299999999998,1.42562,1.3931655883789098,22.0009689331055,0.163426473736763,22.0,1911820.0,3076.45,pp-ro,1,1,-1,-1
1570541698.4,2019-10-08,15:34:58.400,14.0,11.0,18.6700000762939,11.9,-7.7,-1.6,47.8,18.6,-56.8,12.3132,-9.08776,-2.53137,4.29125,-4.28827,4.62072,46.2495,19.1906,-59.69,-0.0518853,-0.112139,-0.0650183999999999,248.8,10.2,52.17,4.427230000000001,-3.2,1.1065,290.295,4.2686,162.594,102.225,175.072,0.73916,-0.117476,259.879,1.04323,1.47884,0.8873367309570309,22.0009689331055,1.14549922943115,22.0,1912100.0,3168.74,pp-ro,1,1,-1,-1
1570541698.5,2019-10-08,15:34:58.500,14.0,12.0,18.2399997711182,11.9,-7.1,-1.4,47.7,19.0,-57.2,12.2808,-8.87734,-1.6972599999999998,-1.04722,6.29636,7.071910000000001,46.5091,18.8572,-59.4998,-0.249495,0.0749751999999999,-0.0517814,246.8,10.1,52.17,4.427230000000001,-3.2,1.07714,267.908,4.268680000000001,162.214,102.985,175.27200000000002,0.739509,-0.121957,260.076,1.0366799999999998,1.5148700000000002,0.37469482421875,22.0009689331055,1.81988739967346,22.0,1912650.0,4030.15,pp-ro,1,1,-1,-1
1570541698.6,2019-10-08,15:34:58.600,14.0,13.0,17.8999996185303,12.1,-7.1,-1.3,47.7,19.1,-57.5,12.1597,-8.48811,-1.42798,-0.6432939999999999,10.9833,4.81118,46.0681,18.9005,-59.8835,0.042247,-0.171697,-0.131303,246.8,10.1,52.17,4.427230000000001,-3.2,1.04112,251.699,4.26877,161.075,104.885,175.472,0.739897,-0.133573,260.262,1.03988,1.53371,0.197563171386719,22.0009689331055,2.1269772052764897,22.0,1913080.0,4245.5,pp-ro,1,1,-1,-1
1570541698.7,2019-10-08,15:34:58.700,14.0,13.0,17.7999992370605,12.0,-7.3,-1.3,47.8,19.0,-57.7,12.1597,-8.48811,-1.42798,-0.6432939999999999,10.9833,4.81118,46.0681,18.9005,-59.8835,0.042247,-0.171697,-0.131303,246.8,10.1,52.17,4.427230000000001,-3.2,1.02893,255.563,4.26887,160.666,105.265,175.572,0.740529,-0.136487,260.231,1.04055,1.52508,0.3389205932617189,22.0009689331055,1.8813066482543896,22.0,1913310.0,1384.4,pp-ro,1,1,-1,-1
1570541698.8,2019-10-08,15:34:58.800,14.0,14.0,17.5499992370605,11.7,-7.3,-1.2,47.4,18.0,-58.2,11.9567,-8.330639999999999,-1.08287,-5.97003,1.99348,4.50255,46.0279,18.5687,-61.0382,0.210642,-0.312735,-0.161108,246.8,10.1,52.17,4.427230000000001,-3.2,1.045,261.641,4.26896,159.877,106.405,175.77200000000002,0.741174,-0.143797,260.344,1.05124,1.52646,0.6965866088867191,22.0009689331055,1.82111287117004,22.0,1913330.0,430.703,pp-ro,1,1,-1,-1
1570541698.9,2019-10-08,15:34:58.900,14.0,15.0,17.3500003814697,11.5,-7.6,-1.5,47.9,18.4,-57.8,11.9567,-8.330639999999999,-1.08287,-5.97003,1.99348,4.50255,46.0279,18.5687,-61.0382,0.210642,-0.312735,-0.161108,246.8,10.1,52.17,4.427230000000001,-3.2,1.06772,268.268,4.26906,158.709,108.305,176.072,0.7417819999999999,-0.155492,260.615,1.05952,1.50071,1.39146423339844,22.0009689331055,1.20796060562134,22.0,1913500.0,2276.57,pp-ro,1,1,-1,-1
1570541699.0,2019-10-08,15:34:59.000,14.0,15.0,17.2000007629395,11.4,-7.8,-1.6,48.2,17.9,-58.2,11.4995,-8.35174,-1.27365,-2.73821,-1.65255,-5.75813,46.2727,17.9631,-61.7136,-0.0546883,-0.0378213,0.026504,246.8,10.1,52.17,4.427230000000001,-3.2,1.04999,258.198,4.26915,157.891,109.445,176.27200000000002,0.74242,-0.162888,260.72900000000004,1.06563,1.48973,1.7882995605468797,22.0009689331055,0.8959336280822751,22.0,1913950.0,2861.1,pp-ro,1,1,-1,-1
1570541699.1,2019-10-08,15:34:59.100,14.0,13.0,17.1000003814697,11.1,-7.9,-1.6,48.3,17.5,-58.3,11.3421,-8.70925,-1.44954,-4.56297,-2.41222,-3.5195,46.2343,17.5917,-61.6844,0.127135,-0.201171,0.160043,246.8,10.1,52.17,4.427230000000001,-3.3,1.04666,257.353,4.26924,157.482,109.825,176.472,0.743293,-0.165823,260.777,1.07109,1.47812,1.8513107299804696,22.0009689331055,0.55283659696579,22.0,1914100.0,2861.1,pp-ro,1,1,-1,-1
1570541699.2,2019-10-08,15:34:59.200,14.0,15.0,17.1499996185303,11.1,-8.1,-1.6,47.8,16.5,-59.0,11.3421,-8.70925,-1.44954,-4.56297,-2.41222,-3.5195,46.2343,17.5917,-61.6844,0.127135,-0.201171,0.160043,246.8,10.1,52.17,4.427230000000001,-3.3,1.04167,255.55900000000003,4.269340000000001,156.635,111.346,176.672,0.743384,-0.174926,261.047,1.08068,1.47694,1.54985809326172,22.0009689331055,0.4920553863048549,22.0,1914340.0,2091.99,pp-ro,1,1,-1,-1
1570541699.3,2019-10-08,15:34:59.300,14.0,14.0,17.2999992370605,11.1,-8.3,-1.7,47.8,15.9,-59.6,11.1456,-8.99353,-1.59764,0.556992,-3.22928,-1.11273,47.1372,16.1774,-61.93600000000001,0.219555,-0.0630486,0.103818,246.8,10.1,52.17,4.427230000000001,-3.3,1.03835,250.465,4.269430000000001,155.78799999999998,112.106,176.872,0.744588,-0.180805,261.001,1.08437,1.46854,0.957168579101562,22.0009689331055,0.156006768345833,22.0,1914600.0,2953.39,pp-ro,1,1,-1,-1
1570541699.4,2019-10-08,15:34:59.400,14.0,14.0,17.6000003814697,11.0,-8.3,-1.8,47.9,16.2,-60.1,11.1456,-8.99353,-1.59764,0.556992,-3.22928,-1.11273,47.1372,16.1774,-61.93600000000001,0.219555,-0.0630486,0.103818,246.8,10.1,52.17,4.427230000000001,-3.3,1.0317,252.874,4.2695300000000005,154.88299999999998,113.246,177.072,0.745317,-0.188478,261.09,1.07994,1.46497,0.582473754882812,22.0009689331055,-35.0,22.0,1914850.0,2153.51,pp-ro,1,1,-1,-1
1570541699.5,2019-10-08,15:34:59.500,14.0,13.0,17.9500007629395,10.9,-8.3,-1.9,48.1,15.8,-60.5,11.1456,-8.99353,-1.59764,0.556992,-3.22928,-1.11273,47.1372,16.1774,-61.93600000000001,0.219555,-0.0630486,0.103818,247.5,9.5,52.17,4.427230000000001,-3.3,1.04611,256.458,4.2696,154.036,114.386,177.372,0.746175,-0.195956,261.289,1.0849,1.46121,0.26568603515625,22.0009689331055,-35.0,22.0,1915120.0,2430.39,pp-ro,1,1,-1,-1
1570541699.6,2019-10-08,15:34:59.600,14.0,13.0,18.0499992370605,10.8,-8.4,-1.8,47.9,15.3,-61.0,11.1456,-8.99353,-1.59764,0.556992,-3.22928,-1.11273,47.1372,16.1774,-61.93600000000001,0.219555,-0.0630486,0.103818,247.5,9.5,52.17,4.427230000000001,-3.3,1.045,256.782,4.26966,153.189,115.526,177.572,0.7467239999999999,-0.203416,261.42900000000003,1.08982,1.46451,-0.201400756835938,22.0009689331055,-35.0,22.0,1915250.0,2645.75,pp-ro,1,1,-1,-1
1570541699.7,2019-10-08,15:34:59.700,14.0,11.0,18.1000003814697,10.8,-8.3,-1.6,47.5,14.2,-61.1,11.0998,-9.12751,-1.59328,-0.345246,-0.6955979999999999,3.1235,46.9164,16.3094,-62.7704,-0.0223244,-0.1083799999999999,-0.0708796,247.5,9.5,52.17,4.427230000000001,-3.3,1.04445,257.651,4.2697400000000005,152.313,116.286,177.77200000000002,0.7479060000000001,-0.209415,261.39,1.10574,1.48274,-1.02406311035156,22.0009689331055,-35.0,22.0,1915480.0,2091.99,pp-ro,1,1,-1,-1
1570541699.8,2019-10-08,15:34:59.800,14.0,11.0,18.0,10.9,-7.9,-1.2,47.9,13.4,-61.1,10.6607,-8.90938,-1.24282,-2.56277,4.53589,3.1509400000000003,47.0414,14.6408,-63.4554,0.0092646,-0.0383555,0.121776,247.5,9.5,52.17,4.427230000000001,-3.3,1.04223,251.857,4.26978,151.466,117.426,177.972,0.748405,-0.216853,261.543,1.12055,1.52747,-2.19661712646484,22.0009689331055,-35.0,22.0,1915720.0,2614.98,pp-ro,1,1,-1,-1
1570541699.9,2019-10-08,15:34:59.900,14.0,8.0,17.8999996185303,11.2,-7.5,-0.7,48.4,13.0,-60.6,10.6607,-8.90938,-1.24282,-2.56277,4.53589,3.1509400000000003,47.0414,14.6408,-63.4554,0.0092646,-0.0383555,0.121776,247.5,9.5,52.17,4.427230000000001,-3.3,1.0245,240.358,4.26986,150.67700000000002,118.566,178.072,0.748476,-0.224159,261.67,1.13679,1.5848799999999998,-3.72418212890625,22.0009689331055,-35.0,22.0,1916050.0,3599.45,pp-ro,1,1,-1,-1
1570541700.0,2019-10-08,15:35:00.000,14.0,10.0,17.75,11.5,-7.4,-0.3,49.3,12.2,-60.6,11.1424,-8.11023,-0.347276,5.73865,3.75662,4.69247,48.4729,14.694,-62.8978,0.251694,0.0442226,0.27125,247.5,9.5,52.17,4.427230000000001,-3.3,1.0006700000000002,232.844,4.26989,149.918,119.706,178.273,0.748742,-0.231314,261.889,1.1514799999999998,1.62429,-5.62211608886719,22.0009689331055,-35.0,22.0,1916320.0,2215.04,pp-ro,1,1,-1,-1
1570541700.1,2019-10-08,15:35:00.100,14.0,12.0,17.5599994659424,11.9,-6.9,0.3,50.7,12.2,-59.4,11.1424,-8.11023,-0.347276,5.73865,3.75662,4.69247,48.4729,14.694,-62.8978,0.251694,0.0442226,0.27125,247.5,9.5,52.17,4.427230000000001,-3.3,1.00289,233.316,4.26995,149.158,120.846,178.273,0.748424,-0.238481,261.97900000000004,1.17156,1.69301,-7.735107421875,22.0009689331055,-35.0,22.0,1916510.0,1815.1,pp-ro,1,1,-1,-1
1570541700.2,2019-10-08,15:35:00.200,14.0,14.0,17.3500003814697,12.6,-6.6,0.5,52.0,12.5,-57.3,11.1424,-8.11023,-0.347276,5.73865,3.75662,4.69247,48.4729,14.694,-62.8978,0.251694,0.0442226,0.27125,247.5,9.5,52.17,4.427230000000001,-3.3,0.996794,221.179,4.27001,148.428,121.986,178.273,0.748021,-0.245542,262.092,1.19871,1.73728,-9.84809875488281,22.0009689331055,-35.0,22.0,1916750.0,2922.63,pp-ro,1,1,-1,-1
1570541700.3,2019-10-08,15:35:00.300,14.0,16.0,17.2999992370605,13.3,-7.0,1.1,52.9,10.6,-56.3,11.7846,-7.15342,0.818535,6.88462,4.09137,1.67746,50.6118,15.5089,-59.1444,0.35073,0.264289,0.2295969999999999,247.5,9.5,52.17,4.427230000000001,-3.3,0.962995,213.701,4.27007,147.727,123.126,178.273,0.747537,-0.252494,262.23,1.23914,1.76822,-11.957672119140598,22.0009689331055,-35.0,22.0,1917100.0,3261.04,pp-ro,1,1,-1,-1
1570541700.4,2019-10-08,15:35:00.400,14.0,15.0,17.4099998474121,14.6,-7.2,1.6,54.6,7.9,-54.9,13.2249,-7.314780000000001,1.89245,13.7221,-5.4432,3.70567,52.5204,12.798,-55.7757,0.0571439,0.0972238,0.58695,247.5,9.5,52.17,4.427230000000001,-3.3,1.04555,277.657,4.27012,146.968,124.646,178.173,0.746229,-0.261134,262.453,1.29585,1.81041,-14.050178527832,22.0009689331055,-35.0,22.0,1916900.0,-3261.04,pp-ro,1,1,-1,-1
1570541700.5,2019-10-08,15:35:00.500,14.0,14.0,17.5100002288818,15.6,-7.5,2.9,55.9,4.6,-53.7,13.2249,-7.314780000000001,1.89245,13.7221,-5.4432,3.70567,52.5204,12.798,-55.7757,0.0571439,0.0972238,0.58695,250.9,9.6,52.17,4.427230000000001,-3.3,1.10096,299.123,4.27019,146.15,126.166,177.97299999999998,0.744722,-0.269944,262.587,1.35817,1.87215,-16.1597518920898,22.0009689331055,-35.0,22.0,1916760.0,-2614.98,pp-ro,1,1,-1,-1
1570541700.6,2019-10-08,15:35:00.600,14.0,13.0,17.7099990844727,16.5,-7.5,4.4,57.1,1.1,-52.6,13.2249,-7.314780000000001,1.89245,13.7221,-5.4432,3.70567,52.5204,12.798,-55.7757,0.0571439,0.0972238,0.58695,250.9,9.6,52.17,4.427230000000001,-3.3,1.15803,325.394,4.27026,145.361,127.686,177.57299999999998,0.7425609999999999,-0.278627,262.613,1.42231,1.94413,-18.2642059326172,22.0009689331055,-35.0,22.0,1917060.0,2491.92,pp-ro,1,1,-1,-1
1570541700.7,2019-10-08,15:35:00.700,14.0,11.0,18.0,17.3,-6.8,5.8,58.0,-3.4,-50.9,15.8545,-6.87529,5.66886,5.88902,5.10316,15.7267,57.2109,2.08399,-49.3342,0.2710889999999999,-0.0990318,0.856454,250.9,9.6,52.17,4.427230000000001,-3.3,1.16524,320.298,4.27033,144.66,129.586,177.07299999999998,0.739264,-0.288432,262.819,1.50807,2.0316400000000003,-20.37548828125,22.0009689331055,-35.0,22.0,1917190.0,2553.45,pp-ro,1,1,-1,-1
1570541700.8,2019-10-08,15:35:00.800,14.0,10.0,18.25,17.9,-5.9,7.6,59.7,-9.1,-48.3,16.2181,-6.43037,6.391380000000001,3.23949,9.73892,16.7805,57.9908,-0.0605455,-47.9451,0.246275,0.119684,0.80858,250.9,9.6,52.17,4.427230000000001,-3.3,1.13421,298.762,4.27041,143.959,131.106,176.373,0.736017,-0.296722,262.717,1.61985,2.13112,-22.5055465698242,22.0009689331055,-35.0,22.0,1917770.0,6368.25,pp-ro,1,1,-1,-1
1570541700.9,2019-10-08,15:35:00.900,14.0,14.0,18.6299991607666,18.5,-4.4,9.0,61.2,-13.5,-44.1,16.4713,-5.92609,7.18583,3.98714,11.2142,15.1839,58.3164,-2.19749,-45.8564,0.186571,0.316474,1.04676,250.9,9.6,52.17,4.427230000000001,-3.3,1.08988,279.488,4.27048,143.433,133.006,175.57299999999998,0.731466,-0.305786,262.849,1.7333599999999998,2.23437,-24.618537902832,22.0009689331055,-35.0,22.0,1918330.0,2338.1,pp-ro,1,1,-1,-1
1570541701.0,2019-10-08,15:35:01.000,14.0,12.0,19.2800006866455,18.9,-2.9,10.9,62.3,-18.4,-40.2,16.4713,-5.92609,7.18583,3.98714,11.2142,15.1839,58.3164,-2.19749,-45.8564,0.186571,0.316474,1.04676,250.9,9.6,52.17,4.427230000000001,-3.3,1.08434,271.784,4.27055,143.054,134.526,174.673,0.726986,-0.31285,262.816,1.8477,2.34302,-26.734939575195305,22.0009689331055,-35.0,22.0,1918520.0,3599.45,pp-ro,1,1,-1,-1
1570541701.1,2019-10-08,15:35:01.100,14.0,11.0,19.770000457763697,19.5,-1.4,12.8,63.6,-24.2,-36.3,17.185,-3.70981,9.47666,5.21501,12.8693,12.8595,59.495,-9.72856,-39.0206,0.289593,0.410865,1.02869,250.9,9.6,52.1701,4.427230000000001,-3.2,1.05165,263.705,4.27065,142.761,136.42600000000002,173.57299999999998,0.721092,-0.320965,262.907,1.97363,2.44033,-28.8359832763672,22.0009689331055,-35.0,22.0,1918940.0,3968.62,pp-ro,1,1,-1,-1
1570541701.2,2019-10-08,15:35:01.200,14.0,10.0,20.3799991607666,19.3,0.5,14.6,63.9,-30.5,-32.4,17.9001,-0.8233229999999999,12.9243,-3.74019,17.1295,16.9091,59.5109,-20.1478,-29.2797,0.315028,0.383971,1.34445,250.9,9.6,52.1701,4.427230000000001,-3.2,1.07049,284.616,4.2707,142.703,138.326,172.373,0.714465,-0.328134,263.079,2.104,2.54903,-30.7424468994141,22.0009689331055,-35.0,22.0,1919030.0,30.7645,pp-ro,1,1,-1,-1
1570541701.3,2019-10-08,15:35:01.300,14.0,11.0,20.6399993896484,18.8,2.6,16.5,63.9,-36.7,-27.2,17.9001,-0.8233229999999999,12.9243,-3.74019,17.1295,16.9091,59.5109,-20.1478,-29.2797,0.315028,0.383971,1.34445,250.9,9.6,52.1701,4.427230000000001,-3.2,1.13144,312.775,4.27077,142.79,140.226,171.07299999999998,0.707277,-0.3347199999999999,263.284,2.2427900000000003,2.66234,-32.288787841796896,22.0009689331055,-35.0,22.0,1919010.0,0.0,pp-ro,1,1,-1,-1
