time,date,time_of_day,airspeed_temperature,airspeed_angle_of_attack,airspeed_apparent_windspeed,kite_0_vx,kite_0_vy,kite_0_vz,kite_0_roll,kite_0_pitch,kite_0_yaw,kite_1_vx,kite_1_vy,kite_1_vz,kite_1_ax,kite_1_ay,kite_1_az,kite_1_roll,kite_1_pitch,kite_1_yaw,kite_1_roll_rate,kite_1_pitch_rate,kite_1_yaw_rate,ground_upwind_direction,ground_wind_velocity,ground_pos_latitude,ground_pos_longitude,ground_pos_altitude,ground_tether_reelout_speed,ground_tether_force,est_upwind_direction,kite_pos_east,kite_pos_north,kite_height,kite_elevation,kite_azimuth,kite_distance,kite_heading,kite_course,kite_actual_steering,kite_actual_depower,kite_set_steering,kite_set_depower,ground_mech_energy,ground_mech_power,flight_phase,flight_phase_index,phase,pattern,pattern_section
1570537491.5,2019-10-08,14:24:51.500,15.0,10.0,14.7799997329712,11.6,-3.6,2.4,18.5,-3.9,-60.9,10.446,-2.36745,3.00833,11.964,7.43338,2.8604700000000003,22.1103,10.8811,-59.6342,0.270469,0.150054,0.971286,251.0,4.3,52.1701,4.427219999999999,8.9,-2.7471400000000004,101.759,4.45854,47.9589,4.5604,238.025,1.3711,0.159041,242.852,0.6200680000000001,1.40738,-34.7977447509766,22.0318641662598,-35.0,22.0,-603465.0,-6091.37,pp-riro,4,0,-1,-1
1570537491.6,2019-10-08,14:24:51.600,15.0,10.0,14.4099998474121,12.7,-2.7,2.8,20.0,-5.3,-55.7,10.9871,-1.93674,3.09919,8.4752,9.40329,2.94391,23.1787,10.4443,-56.6827,0.271488,0.23964,1.0248,251.0,4.3,52.1701,4.427219999999999,8.9,-2.71944,113.45,4.458480000000001,47.5791,6.08045,237.825,1.37178,0.126805,242.614,0.7482810000000001,1.53267,-34.971832275390604,22.0102367401123,-35.0,22.0,-603927.0,-1353.64,pp-riro,4,0,-1,-1
1570537491.7,2019-10-08,14:24:51.700,15.0,10.0,14.1000003814697,13.6,-1.8,3.1,21.7,-6.6,-50.6,11.8727,-1.06358,3.56494,9.34626,10.7301,5.3788,25.0336,9.24269,-50.8583,0.157189,0.1467119999999999,0.956453,251.0,4.3,52.1701,4.427219999999999,8.9,-2.66347,113.145,4.45837,47.3163,7.22049,237.625,1.37203,0.1025869999999999,242.398,0.866532,1.63479,-34.971832275390604,22.0019989013672,-35.0,22.0,-603615.0,3691.74,pp-riro,4,0,-1,-1
1570537491.8,2019-10-08,14:24:51.800,15.0,12.0,13.9799995422363,14.6,-0.8,3.4,23.0,-8.2,-45.5,12.7655,-0.181779,3.93698,6.60732,8.31205,3.0527900000000003,26.6548,7.519789999999999,-45.2255,0.203324,0.241696,0.982015,251.0,4.3,52.1701,4.427219999999999,8.8,-2.60751,104.942,4.45822,47.1702,8.36053,237.425,1.3717,0.0787461,242.21,0.985403,1.73452,-34.9889068603516,22.0009689331055,-35.0,22.0,-603510.0,246.116,pp-riro,4,0,-1,-1
1570537491.9,2019-10-08,14:24:51.900,15.0,11.0,14.1000003814697,15.4,0.1,3.6,24.4,-10.1,-39.8,13.9098,1.28803,4.26585,7.63921,11.9951,3.77524,28.8434,4.62513,-36.8404,0.152646,0.173442,0.937551,251.0,4.3,52.1701,4.427219999999999,8.8,-2.5908900000000004,101.921,4.45816,47.0826,9.88059,237.225,1.37071,0.0473776,242.054,1.12337,1.82503,-34.9889068603516,22.0009689331055,-35.0,22.0,-603711.0,-4060.91,pp-riro,4,0,-1,-1
1570537492.0,2019-10-08,14:24:52.000,15.0,11.0,14.2299995422363,16.1,1.2,3.8,25.2,-12.1,-34.2,14.4931,2.2868,4.51181,5.78913,8.81353,2.93588,29.6884,2.27313,-31.1885,0.0134402999999999,0.205956,1.05724,251.0,4.3,52.1701,4.427219999999999,8.8,-2.58036,104.889,4.45805,47.1118,11.4006,236.925,1.369,0.0168587,241.833,1.25903,1.92109,-34.9871978759766,22.0009689331055,-35.0,22.0,-604223.0,-6091.37,pp-riro,4,0,-1,-1
1570537492.1,2019-10-08,14:24:52.100,15.0,9.0,14.4200000762939,16.7,2.3,4.1,26.0,-13.9,-28.6,15.1619,3.24708,4.79171,4.06326,11.5386,2.24571,30.4575,-0.0322364,-24.9381,0.0411476,0.287146,1.18686,251.0,4.3,52.1701,4.427219999999999,8.8,-2.54435,109.679,4.45794,47.2286,13.3007,236.725,1.36642,-0.0200682,241.757,1.40024,2.01917,-34.9871978759766,22.0009689331055,-35.0,22.0,-604333.0,-430.703,pp-riro,4,0,-1,-1
1570537492.2,2019-10-08,14:24:52.200,15.0,9.0,14.539999961853,17.0,3.7,4.5,26.6,-16.0,-22.4,15.3838,3.76922,4.9425300000000005,3.11388,11.1195,2.86475,30.6173,-1.00999,-21.6622,0.175725,0.301429,1.0583,255.9,6.9,52.1701,4.427219999999999,8.8,-2.51775,105.549,4.45786,47.5206,14.8208,236.425,1.3632799999999998,-0.0478217,241.609,1.54315,2.12376,-34.9889068603516,22.0009689331055,-35.0,22.0,-604290.0,799.877,pp-riro,4,0,-1,-1
1570537492.3,2019-10-08,14:24:52.300,15.0,9.0,14.539999961853,16.9,5.3,5.0,26.7,-18.7,-16.3,15.4709,4.41022,5.15113,0.511112,12.8296,1.55686,30.8488,-2.10576,-18.3205,0.0512233,0.162891,1.18877,255.9,6.9,52.1701,4.427219999999999,8.8,-2.50888,94.7427,4.45783,47.9295,16.7208,236.025,1.35895,-0.081116,241.422,1.69154,2.24627,-34.9923248291016,22.0009689331055,-35.0,22.0,-605046.0,-7475.77,pp-riro,4,0,-1,-1
1570537492.4,2019-10-08,14:24:52.400,15.0,9.0,14.6000003814697,17.0,6.7,5.3,26.7,-21.0,-10.6,15.4949,5.06827,5.34438,-1.07198,13.8644,3.8847,30.9089,-3.32769,-15.0413,0.119871,0.194316,1.19038,255.9,6.9,52.1701,4.427219999999999,8.8,-2.53714,95.4833,4.4578,48.4844,18.2409,235.625,1.35439,-0.105248,241.252,1.82162,2.3395900000000003,-34.9940185546875,22.0009689331055,-35.0,22.0,-605933.0,-9752.34,pp-riro,4,0,-1,-1
1570537492.5,2019-10-08,14:24:52.500,15.0,7.0,14.7200002670288,17.1,8.3,5.4,27.0,-21.7,-4.3,15.5354,7.76041,6.09476,0.776488,12.9456,0.879295,30.6864,-8.09442,-3.2627900000000003,-0.00954306,0.199719,0.937324,255.9,6.9,52.1701,4.427219999999999,8.8,-2.55931,97.4111,4.45776,49.1854,20.141,235.225,1.34858,-0.134035,241.155,1.95865,2.43994,-34.9940185546875,22.0009689331055,-35.0,22.0,-606698.0,-7352.71,pp-riro,4,0,-1,-1
1570537492.6,2019-10-08,14:24:52.600,15.0,9.0,14.8999996185303,17.0,9.7,5.8,27.2,-22.8,1.5,15.5574,9.09699,6.25523,0.4514859999999999,11.4969,1.7286400000000002,30.6212,-9.41521,2.67711,0.107503,0.376662,0.976856,255.9,6.9,52.1701,4.427219999999999,8.8,-2.57039,99.1944,4.45771,50.0324,21.661,234.825,1.34266,-0.153901,241.071,2.07913,2.52467,-34.9940185546875,22.0009689331055,-35.0,22.0,-607129.0,-8183.35,pp-riro,4,0,-1,-1
1570537492.7,2019-10-08,14:24:52.700,15.0,9.0,14.8999996185303,16.8,11.1,6.6,26.9,-24.4,7.2,15.531,9.72622,6.48356,-3.34237,11.9304,5.47198,30.6443,-9.99006,5.91765,0.133508,0.386343,1.0324,255.9,6.9,52.1701,4.427219999999999,8.8,-2.55377,118.619,4.4577,51.0254,23.1811,234.325,1.3360299999999998,-0.171737,240.93400000000003,2.19681,2.60806,-35.0008544921875,22.0009689331055,-35.0,22.0,-607633.0,799.877,pp-riro,4,0,-1,-1
1570537492.8,2019-10-08,14:24:52.800,15.0,10.0,14.8400001525879,16.4,12.5,7.0,26.3,-25.9,12.7,15.2664,11.6261,7.39875,-3.7061,13.9184,6.48008,29.6327,-12.2973,15.2343,-0.0101507,0.236224,1.06315,255.9,6.9,52.1701,4.427219999999999,8.8,-2.52606,124.43,4.457669999999999,52.1353,25.0812,233.725,1.32814,-0.193673,240.779,2.31346,2.69444,-35.0076751708984,22.0009689331055,-35.0,22.0,-607299.0,6306.72,pp-riro,4,0,-1,-1
1570537492.9,2019-10-08,14:24:52.900,15.0,12.0,15.0100002288818,16.0,13.9,7.2,25.9,-27.0,18.9,14.7981,12.9029,7.762560000000001,-6.89664,11.2059,2.84091,28.6646,-13.6141,21.4023,0.0893166999999999,0.30357,1.03742,255.9,6.9,52.1701,4.427219999999999,8.8,-2.41414,125.103,4.45762,53.362,26.6012,233.125,1.3204,-0.207679,240.629,2.43103,2.7687,-35.0042724609375,22.0009689331055,-23.0044822692871,22.0,-606472.0,9106.29,pp-riro,4,0,-1,-1
1570537493.0,2019-10-08,14:24:53.000,15.0,10.0,15.359999656677198,15.4,15.3,7.5,25.3,-28.2,25.5,14.2585,14.1883,7.885680000000001,-5.12418,12.9798,2.54447,27.9405,-14.8704,27.6833,0.193852,0.2901849999999999,0.97851,255.9,6.9,52.1701,4.427219999999999,8.8,-2.30443,117.789,4.4576,54.7639,28.5013,232.425,1.3111700000000002,-0.225078,240.484,2.55696,2.84917,-35.0059814453125,22.0009689331055,-23.0044822692871,22.0,-605794.0,6183.66,pp-riro,4,0,-1,-1
1570537493.1,2019-10-08,14:24:53.100,15.0,10.0,15.6499996185303,14.8,16.6,8.2,24.5,-29.6,31.9,14.0553,14.8526,7.99545,-5.84457,13.1825,2.99315,27.4442,-15.4607,30.9436,0.169298,0.293689,1.08713,255.9,6.9,52.1701,4.427219999999999,8.8,-2.21023,126.486,4.45757,56.3119,29.6414,231.725,1.3027799999999998,-0.229708,240.304,2.6668,2.9123,-34.848953247070305,22.0009689331055,-23.0044822692871,22.0,-605342.0,3814.8,pp-riro,4,0,-1,-1
1570537493.2,2019-10-08,14:24:53.200,15.0,9.0,15.8199996948242,13.8,17.8,8.7,23.1,-30.6,38.5,13.4571,15.9873,8.6083,-5.75306,12.7133,6.302219999999999,26.0878,-16.8628,37.4349,0.0517923,0.2215599999999999,1.01993,258.9,7.5,52.1701,4.427219999999999,8.8,-2.0839,143.019,4.45754,58.0059,31.5415,230.825,1.29219,-0.243198,240.083,2.78517,2.99042,-34.299362182617195,22.0009689331055,-23.0044822692871,22.0,-604326.0,11936.6,pp-riro,4,0,-1,-1
1570537493.3,2019-10-08,14:24:53.300,15.0,9.0,15.9300003051758,12.6,18.8,8.8,21.6,-31.3,45.3,12.5919,17.058,9.0797,-11.1207,11.1572,3.04617,24.6204,-18.0283,44.1711,0.14506,0.254498,1.0893700000000002,258.9,7.5,52.1701,4.427219999999999,8.8,-1.79855,127.151,4.45754,59.7583,32.6815,230.025,1.28292,-0.245612,239.897,2.89445,3.05743,-33.391357421875,22.0009689331055,-22.1165199279785,22.0,-602250.0,11505.9,pp-riro,4,0,-1,-1
1570537493.4,2019-10-08,14:24:53.400,15.0,9.0,16.2099990844727,11.6,19.7,8.8,20.3,-32.0,52.1,10.9581,18.4274,9.24894,-11.7271,7.146389999999999,-0.530454,22.3946,-19.5984,53.9329,-0.0762927,0.247729,0.974404,258.9,7.5,52.1701,4.427219999999999,8.8,-1.73262,119.407,4.45755,61.6276,33.8216,229.125,1.2731,-0.247082,239.666,3.00156,3.1133,-32.1283569335938,22.0009689331055,-21.4251384735107,22.0,-601884.0,6645.13,pp-riro,4,0,-1,-1
1570537493.5,2019-10-08,14:24:53.500,15.0,8.0,16.4200000762939,10.5,20.6,9.2,18.5,-32.2,58.8,10.4822,18.8042,9.22882,-11.6477,12.1609,2.16969,21.6726,-20.1138,57.1014,0.2164489999999999,0.2092639999999999,0.968586,258.9,7.5,52.1701,4.427219999999999,8.8,-1.63066,119.088,4.45754,63.5552,35.3417,228.225,1.26233,-0.252653,239.53,3.10921,3.17523,-30.5120239257812,22.0009689331055,-20.7678680419922,22.0,-601604.0,2799.57,pp-riro,4,0,-1,-1
1570537493.6,2019-10-08,14:24:53.600,15.0,8.0,16.5300006866455,9.4,21.4,9.6,16.9,-31.7,65.0,9.53539,19.7281,9.51127,-7.817039999999999,11.6317,5.357419999999999,20.1848,-20.9114,63.2928,0.0872902,0.331886,0.8864700000000001,258.9,7.5,52.1701,4.427219999999999,8.8,-1.45336,146.543,4.45754,65.5997,36.1017,227.325,1.2526,-0.248255,239.33900000000003,3.2,3.22432,-28.545822143554695,22.0009689331055,-20.0768489837646,22.0,-600653.0,9506.23,pp-riro,4,0,-1,-1
1570537493.7,2019-10-08,14:24:53.700,15.0,8.0,16.5799999237061,8.2,21.9,9.8,15.0,-31.4,71.4,8.00274,20.6862,9.96925,-8.21531,3.78747,2.34603,17.3945,-21.5312,72.4163,0.0952358,0.27715,0.90132,258.9,7.5,52.1701,4.427219999999999,8.8,-1.25112,148.447,4.45754,67.7903,36.8618,226.425,1.24235,-0.2431969999999999,239.212,3.29321,3.27077,-25.9532318115234,22.0009689331055,-19.4539890289307,22.0,-599528.0,11321.3,pp-riro,4,0,-1,-1
1570537493.8,2019-10-08,14:24:53.800,15.0,9.0,16.5799999237061,6.9,22.4,9.6,13.1,-31.6,77.5,8.00274,20.6862,9.96925,-8.21531,3.78747,2.34603,17.3945,-21.5312,72.4163,0.0952358,0.27715,0.90132,258.9,7.5,52.1701,4.427219999999999,8.9,-1.14141,143.537,4.45754,69.9516,37.6218,225.424,1.23204,-0.238605,239.008,3.38131,3.32182,-24.1355133056641,22.0009689331055,-18.7643032073975,22.0,-599002.0,9875.4,pp-riro,4,0,-1,-1
1570537493.9,2019-10-08,14:24:53.900,15.0,9.0,16.5300006866455,5.7,22.8,9.5,11.4,-31.2,83.0,7.40269,20.9514,9.97414,-11.5623,6.020980000000001,-2.09194,16.4839,-21.7423,75.4508,-0.0838161,0.239525,0.935122,258.9,7.5,52.1701,4.427219999999999,8.9,-0.930858,135.311,4.45754,72.1421,38.7619,224.524,1.22104,-0.238196,238.99400000000003,3.46449,3.37146,-22.508956909179695,22.0009689331055,-18.2540016174316,22.0,-598300.0,5999.08,pp-riro,4,0,-1,-1
1570537494.0,2019-10-08,14:24:54.000,15.0,8.0,16.5799999237061,4.5,23.2,9.5,9.9,-30.2,88.1,5.66484,21.5841,9.79532,-13.1056,4.592980000000001,-0.4257869999999999,13.8857,-22.295,83.7348,-0.0312247,0.189395,0.648131,258.9,7.5,52.1701,4.427219999999999,8.9,-0.771837,138.316,4.45754,74.4202,39.1419,223.524,1.21099,-0.229353,238.817,3.536,3.41272,-21.1145248413086,22.0009689331055,-17.6618251800537,22.0,-597853.0,4460.85,pp-riro,4,0,-1,-1
1570537494.1,2019-10-08,14:24:54.100,15.0,8.0,16.6800003051758,3.9,23.3,9.5,9.0,-29.6,90.6,5.66484,21.5841,9.79532,-13.1056,4.592980000000001,-0.4257869999999999,13.8857,-22.295,83.7348,-0.0312247,0.189395,0.648131,258.9,7.5,52.1701,4.427219999999999,8.9,-0.588435,143.738,4.45754,75.6177,39.5219,223.024,1.2054,-0.226762,238.788,3.5730800000000005,3.43402,-19.8822326660156,22.0009689331055,-17.4304046630859,22.0,-597414.0,4276.26,pp-riro,4,0,-1,-1
1570537494.2,2019-10-08,14:24:54.200,15.0,9.0,16.7399997711182,2.3,23.5,9.4,6.2,-28.7,97.6,3.02895,22.419,9.65166,-9.94266,0.0434169,1.30954,9.63683,-21.3892,95.6373,-0.0972335,0.130187,0.6353850000000001,254.0,7.0,52.1701,4.427219999999999,8.9,-0.395615,144.459,4.45754,79.181,39.902,221.524,1.1900700000000002,-0.211939,238.61,3.6684,3.4836,-18.8001403808594,22.0009689331055,-16.7918281555176,22.0,-597090.0,2891.86,pp-riro,4,0,-1,-1
1570537494.3,2019-10-08,14:24:54.300,15.0,11.0,16.8400001525879,1.8,23.6,9.2,5.3,-28.2,99.8,2.07426,22.5626,9.22806,-10.7367,-4.1063,-1.43272,7.85191,-20.8307,99.9022,0.06044,0.188713,0.636038,254.0,7.0,52.1701,4.427219999999999,8.9,-0.185064,142.76,4.45749,80.3201,39.902,221.024,1.1853200000000002,-0.20618,238.527,3.69838,3.49919,-17.9416275024414,22.0009689331055,-16.564500808715803,22.0,-596910.0,1353.64,pp-riro,4,0,-1,-1
1570537494.4,2019-10-08,14:24:54.400,15.0,9.0,17.0499992370605,0.8,23.7,9.1,3.7,-27.1,103.8,1.13008,22.699,9.05464,-12.6149,0.5677180000000001,0.7587229999999999,6.00244,-20.1613,103.889,0.0391455999999999,0.199541,0.583017,254.0,7.0,52.1701,4.427219999999999,8.9,0.00387858,145.744,4.45745,82.6567,40.2821,220.124,1.17511,-0.198533,238.557,3.75632,3.53189,-17.2179565429688,22.0009689331055,-16.2262229919434,22.0,-596891.0,-184.587,pp-riro,4,0,-1,-1
1570537494.5,2019-10-08,14:24:54.500,15.0,10.0,17.1499996185303,-0.2,23.7,9.0,2.2,-26.3,107.7,1.13008,22.699,9.05464,-12.6149,0.5677180000000001,0.7587229999999999,6.00244,-20.1613,103.889,0.0391455999999999,0.199541,0.583017,254.0,7.0,52.1701,4.427219999999999,8.9,0.207227,149.203,4.457409999999999,85.0808,40.2821,219.124,1.16504,-0.18723,238.488,3.80863,3.56095,-16.7212829589844,22.0009689331055,-15.8720626831055,22.0,-597028.0,-1815.1,pp-riro,4,0,-1,-1
1570537494.6,2019-10-08,14:24:54.600,15.0,10.0,17.2000007629395,-1.0,23.7,8.9,0.2,-25.9,110.7,0.125432,22.8961,8.925939999999999,-10.8043,1.55302,-1.81814,4.24425,-19.3359,107.553,-0.00924782,0.252389,0.5294439999999999,254.0,7.0,52.1701,4.427219999999999,8.9,0.2449039999999999,156.861,4.45737,87.4466,40.2821,218.124,1.15512,-0.176651,238.427,3.84614,3.58307,-16.262161254882802,22.0009689331055,-15.6818075180054,22.0,-596960.0,1599.75,pp-riro,4,0,-1,-1
1570537494.7,2019-10-08,14:24:54.700,15.0,8.0,17.25,-1.8,23.6,9.0,-1.2,-24.9,113.6,-1.15688,22.9257,8.73201,-12.3465,-3.46173,-0.418625,1.4781,-19.0759,112.593,-0.0971957,0.0875876,0.406802,254.0,7.0,52.1701,4.427219999999999,8.9,0.23881,162.991,4.457319999999999,89.8124,39.9022,217.224,1.14593,-0.163024,238.421,3.88279,3.6010000000000004,-15.84912109375,22.0009689331055,-15.4705772399902,22.0,-596989.0,-553.761,pp-riro,4,0,-1,-1
1570537494.8,2019-10-08,14:24:54.800,15.0,9.0,17.25,-2.6,23.3,9.2,-3.4,-23.9,117.0,-1.15688,22.9257,8.73201,-12.3465,-3.46173,-0.418625,1.4781,-19.0759,112.593,-0.0971957,0.0875876,0.406802,254.0,7.0,52.1701,4.427219999999999,9.0,0.322476,176.78799999999998,4.45728,92.2658,39.9022,216.224,1.13561,-0.153073,238.449,3.9305,3.62185,-15.6187057495117,22.0009689331055,-15.3758420944214,22.0,-597051.0,61.529,pp-riro,4,0,-1,-1
1570537494.9,2019-10-08,14:24:54.900,15.0,10.0,17.3999996185303,-3.5,22.9,9.2,-4.9,-23.0,119.9,-3.05857,22.2868,8.9111,-7.13363,-5.5001,1.86507,-3.24961,-16.8382,120.114,-0.20997,0.136935,0.479735,254.0,7.0,52.1701,4.427219999999999,9.0,0.296434,172.57299999999998,4.4572400000000005,94.544,39.5222,215.124,1.12625,-0.140802,238.283,3.96841,3.64671,-15.4309616088867,22.0009689331055,-15.1023406982422,22.0,-596952.0,799.877,pp-riro,4,0,-1,-1
1570537495.0,2019-10-08,14:24:55.000,15.0,10.0,17.3999996185303,-4.2,22.8,9.2,-6.8,-22.5,122.7,-3.05857,22.2868,8.9111,-7.13363,-5.5001,1.86507,-3.24961,-16.8382,120.114,-0.20997,0.136935,0.479735,254.0,7.0,52.1701,4.427219999999999,9.0,0.294218,170.37400000000002,4.4572,96.8513,39.1422,214.124,1.11691,-0.128883,238.246,4.00285,3.66367,-15.3763427734375,22.0009689331055,-15.0122404098511,22.0,-596916.0,369.174,pp-riro,4,0,-1,-1
1570537495.1,2019-10-08,14:24:55.100,15.0,11.0,17.5,-5.1,22.8,9.2,-8.4,-21.1,125.0,-4.66027,22.0782,8.825289999999999,-4.55017,-2.28113,0.0882578,-7.201280000000001,-15.3417,125.155,-0.116948,0.1666109999999999,0.479286,254.0,7.0,52.1701,4.427219999999999,9.0,0.303637,182.673,4.45715,99.1879,38.7623,213.024,1.10722,-0.1173109999999999,238.159,4.03595,3.68817,-15.1561737060547,22.0009689331055,-14.8203372955322,22.0,-596892.0,92.2935,pp-riro,4,0,-1,-1
1570537495.2,2019-10-08,14:24:55.200,15.0,11.0,17.5499992370605,-6.0,22.4,9.6,-9.9,-20.8,127.5,-5.09429,21.9036,8.970410000000001,-10.7908,-5.86102,-0.562821,-7.97346,-15.077,126.374,-0.151724,0.0335020999999999,0.381079,252.3,6.5,52.1701,4.427219999999999,9.0,0.337436,196.338,4.45709,101.495,38.3823,212.024,1.09777,-0.106251,238.178,4.06556,3.7112,-15.0128021240234,22.0009689331055,-14.676936149597198,22.0,-596850.0,553.761,pp-riro,4,0,-1,-1
1570537495.3,2019-10-08,14:24:55.300,15.0,12.0,17.6000003814697,-6.7,22.1,9.6,-11.2,-20.3,129.8,-5.09429,21.9036,8.970410000000001,-10.7908,-5.86102,-0.562821,-7.97346,-15.077,126.374,-0.151724,0.0335020999999999,0.381079,252.3,6.5,52.1701,4.427219999999999,9.0,0.344639,200.346,4.45701,103.744,37.2423,210.924,1.08924,-0.0892753,237.989,4.08849,3.72482,-14.8267669677734,22.0009689331055,-14.5277452468872,22.0,-596813.0,338.409,pp-riro,4,0,-1,-1
1570537495.4,2019-10-08,14:24:55.400,15.0,11.0,17.6499996185303,-7.5,22.0,9.6,-12.8,-19.4,132.3,-6.290769999999999,21.4429,9.15072,-12.8732,-6.63255,-0.558028,-10.624,-14.7177,129.68200000000002,-0.289143,0.0695827,0.202077,252.3,6.5,52.1701,4.427219999999999,9.0,0.351842,203.258,4.456930000000001,106.022,36.4823,209.724,1.0798299999999998,-0.0759885,237.814,4.12046,3.74406,-14.6799774169922,22.0009689331055,-14.4438810348511,22.0,-596755.0,676.819,pp-riro,4,0,-1,-1
1570537495.5,2019-10-08,14:24:55.500,15.0,11.0,17.6499996185303,-8.4,21.8,9.7,-13.9,-19.2,134.7,-7.01565,21.3699,9.04988,-8.68493,-5.11437,-2.20163,-12.2815,-14.2789,131.95600000000002,-0.0424806,0.0761514,0.434888,252.3,6.5,52.1701,4.427219999999999,9.0,0.35295,209.11,4.456840000000001,108.213,36.1023,208.623,1.07041,-0.0664643999999999,237.775,4.14918,3.76986,-14.5263671875,22.0009689331055,-14.3526477813721,22.0,-596722.0,615.29,pp-riro,4,0,-1,-1
1570537495.6,2019-10-08,14:24:55.600,15.0,11.0,17.7999992370605,-9.3,21.2,9.9,-14.8,-19.3,136.7,-8.40963,20.8137,9.37743,-9.88428,-7.16945,5.57603,-14.5814,-13.9153,135.54399999999998,-0.2279199999999999,-0.183703,0.304464,252.3,6.5,52.1701,4.427219999999999,9.0,0.381209,229.198,4.45676,110.374,34.9624,207.523,1.0619,-0.0511318,237.636,4.16456,3.79312,-14.3830032348633,22.0009689331055,-14.1238660812378,22.0,-596717.0,-92.2935,pp-riro,4,0,-1,-1
1570537495.7,2019-10-08,14:24:55.700,15.0,10.0,17.9500007629395,-10.0,20.8,9.8,-15.9,-18.8,138.8,-9.27113,20.2857,9.37941,-9.7013,-3.74849,1.6492099999999998,-15.7146,-14.15,137.639,-0.141225,0.0719437,0.2937099999999999,252.3,6.5,52.1701,4.427219999999999,9.0,0.419994,237.006,4.45667,112.506,33.8224,206.323,1.05318,-0.0363157,237.426,4.1864300000000005,3.81132,-14.2549896240234,22.0009689331055,-14.0530881881714,22.0,-596683.0,830.6410000000001,pp-riro,4,0,-1,-1
1570537495.8,2019-10-08,14:24:55.800,15.0,10.0,18.1900005340576,-10.6,20.2,9.9,-16.6,-18.3,140.9,-9.50734,19.9996,9.36235,-5.01424,-4.16332,1.26818,-16.3284,-13.9894,138.662,-0.0579734,0.0470311999999999,0.444196,252.3,6.5,52.1701,4.427230000000001,8.9,0.383425,218.436,4.45659,114.522,33.0624,205.223,1.0446,-0.0252581999999999,237.329,4.21152,3.82944,-14.079193115234402,22.0009689331055,-14.0978727340698,22.0,-596488.0,1169.05,pp-riro,4,0,-1,-1
1570537495.9,2019-10-08,14:24:55.900,15.0,9.0,18.2900009155273,-11.1,19.4,9.7,-17.3,-18.2,143.1,-10.0405,19.3214,9.32115,-4.89419,-8.51657,-1.17861,-16.9431,-13.5542,140.809,-0.0417393,-0.104847,0.271499,252.3,6.5,52.1701,4.427230000000001,8.9,0.373452,212.625,4.45651,116.508,31.9224,204.123,1.03642,-0.011547,237.191,4.23255,3.84896,-14.0467681884766,22.0009689331055,-14.0470561981201,22.0,-596439.0,953.699,pp-riro,4,0,-1,-1
1570537496.0,2019-10-08,14:24:56.000,15.0,9.0,18.4300003051758,-11.6,19.0,9.3,-17.9,-17.5,144.9,-10.3112,18.9273,9.27815,-3.96544,-5.2219,1.01681,-17.2348,-13.5265,141.843,-0.0433223,-0.00192825,0.298487,252.3,6.5,52.1701,4.427230000000001,8.9,0.355721,201.09,4.45642,118.494,30.4024,203.123,1.02872,0.0048115,237.116,4.25053,3.86435,-14.0655364990234,22.0009689331055,35.0,22.0,-596347.0,984.464,pp-riro,4,0,-1,-1
1570537496.1,2019-10-08,14:24:56.100,15.0,8.0,18.5699996948242,-12.0,18.6,9.1,-18.1,-17.0,147.0,-10.8084,18.4405,8.9162,-4.95062,-4.19255,-3.08415,-17.8484,-13.1355,143.75799999999998,0.0411866999999999,0.1202029999999999,0.291939,252.3,6.5,52.1701,4.427230000000001,8.9,0.341315,204.916,4.45634,120.305,29.6424,202.123,1.0208700000000002,0.014469,237.077,4.27684,3.87958,-14.0006866455078,22.0009689331055,35.0,22.0,-596245.0,338.409,pp-riro,4,0,-1,-1
1570537496.2,2019-10-08,14:24:56.200,15.0,8.0,18.659999847412102,-12.3,18.0,9.3,-18.6,-16.5,149.3,-11.3395,17.7604,8.59147,-0.104345,-3.67776,-0.442924,-18.9073,-12.4188,146.93200000000002,-0.2444329999999999,0.00475551,0.39386,255.7,6.6,52.1701,4.427230000000001,8.9,0.7463489999999999,225.355,4.45625,122.174,28.5024,201.123,1.01308,0.0269404999999999,237.043,4.3037,3.88652,-13.9904403686523,22.0009689331055,35.0,22.0,-597692.0,-17658.8,pp-riro,4,0,-1,-1
1570537496.3,2019-10-08,14:24:56.300,15.0,9.0,18.7600002288818,-12.3,17.4,8.9,-19.3,-15.6,151.9,-11.4347,17.0194,8.78167,-1.9013,-4.26209,-2.35001,-19.4259,-11.5824,149.487,0.00204818,-0.126352,0.614326,255.7,6.6,52.1701,4.427230000000001,8.9,0.990145,223.16,4.45619,123.926,27.3624,200.123,1.00563,0.0388880999999999,236.972,4.33892,3.89289,-13.6217803955078,22.0009689331055,35.0,22.0,-598926.0,-23196.4,pp-riro,4,0,-1,-1
1570537496.4,2019-10-08,14:24:56.400,15.0,8.0,18.7600002288818,-12.1,17.1,8.1,-19.5,-13.7,153.7,-11.425,16.6292,8.1495,1.67643,-2.34145,-8.82588,-19.5997,-10.4735,151.72,-0.129864,0.1143349999999999,0.400839,255.7,6.6,52.1701,4.427230000000001,8.9,1.0006700000000002,183.045,4.4561,125.621,25.8424,199.323,0.999051,0.0534044999999999,237.019,4.36986,3.89167,-12.8861541748047,22.0009689331055,35.0,22.0,-597812.0,19535.4,pp-riro,4,0,-1,-1
1570537496.5,2019-10-08,14:24:56.500,15.0,6.0,18.7099990844727,-12.3,16.4,8.0,-19.2,-12.3,155.2,-11.2562,16.244,7.46155,-0.881864,-9.17638,-3.60943,-19.7048,-9.35259,153.559,0.0714706,-0.0383745,0.275762,255.7,6.6,52.1701,4.427230000000001,8.9,0.816717,161.227,4.45607,127.256,24.7024,198.523,0.992329,0.0645908999999999,237.098,4.39486,3.90475,-11.798942565918,22.0009689331055,35.0,22.0,-597448.0,-4060.91,pp-riro,4,0,-1,-1
1570537496.6,2019-10-08,14:24:56.600,15.0,7.0,18.4699993133545,-12.6,15.7,8.2,-19.5,-12.2,156.8,-11.5195,15.9416,7.46473,-4.45785,-6.530069999999999,4.51812,-19.8428,-9.03255,154.45600000000002,-0.0612626999999999,0.108504,0.346815,255.7,6.6,52.1701,4.427230000000001,8.9,0.956346,206.879,4.45601,128.892,23.1824,197.623,0.985561,0.0784273,237.077,4.40715,3.914930000000001,-10.3584213256836,22.0009689331055,35.0,22.0,-597654.0,2491.92,pp-riro,4,0,-1,-1
1570537496.7,2019-10-08,14:24:56.700,15.0,8.0,18.1800003051758,-12.5,15.3,7.9,-19.7,-11.7,158.2,-11.9005,15.2711,7.801589999999999,-1.55551,-5.92387,2.06224,-20.0143,-8.42545,156.194,0.0488271,-0.0828266999999999,0.395991,255.7,6.6,52.1701,4.427230000000001,8.9,0.954684,197.005,4.45594,130.381,22.0424,196.823,0.979227,0.0889691,237.117,4.42305,3.91626,-8.55606842041016,22.0009689331055,35.0,22.0,-597509.0,1538.22,pp-riro,4,0,-1,-1
1570537496.8,2019-10-08,14:24:56.800,15.0,8.0,18.0300006866455,-12.5,15.2,7.7,-20.0,-10.7,159.1,-11.7855,14.8037,7.55657,3.27584,-1.42376,-4.58114,-20.0374,-8.359210000000001,157.989,-0.0936973,-0.0793746,0.285429,255.7,6.6,52.1701,4.427230000000001,8.9,0.946373,191.172,4.4558800000000005,131.9,20.9024,196.023,0.972746,0.0993445,237.191,4.436780000000001,3.913580000000001,-6.99948883056641,22.0009689331055,35.0,22.0,-597336.0,3414.86,pp-riro,4,0,-1,-1
1570537496.9,2019-10-08,14:24:56.900,15.0,7.0,17.9300003051758,-12.8,15.1,8.2,-20.4,-9.8,159.7,-11.8213,14.7507,7.2972,-1.27767,2.80809,1.4889,-20.4486,-8.3185,159.256,-0.0617155999999999,-0.0390808,0.1635619999999999,255.7,6.6,52.1701,4.427230000000001,8.9,0.916452,191.93,4.45582,133.361,20.1424,195.223,0.966226,0.106636,237.282,4.44792,3.91178,-4.364227294921879,22.0009689331055,35.0,22.0,-597101.0,922.935,pp-riro,4,0,-1,-1
1570537497.0,2019-10-08,14:24:57.000,15.0,8.0,17.979999542236303,-12.7,15.0,8.6,-20.8,-10.1,160.5,-12.1861,14.7317,7.65638,-3.5841199999999995,-2.18733,6.05361,-20.9997,-8.11469,160.287,-0.0349341,-0.131441,0.173751,255.7,6.6,52.1701,4.427230000000001,8.9,0.953576,198.715,4.45576,134.821,18.6224,194.323,0.959811,0.119344,237.24400000000003,4.44589,3.892430000000001,-2.25806427001953,22.0009689331055,35.0,22.0,-596992.0,2184.28,pp-riro,4,0,-1,-1
1570537497.1,2019-10-08,14:24:57.100,15.0,8.0,17.8799991607666,-12.2,15.0,8.4,-21.6,-10.2,161.0,-12.0179,14.6636,8.00351,0.903458,0.8550479999999999,-4.16506,-21.8222,-8.75147,161.64600000000002,-0.2841849999999999,-0.195081,0.0401733,255.7,6.6,52.1701,4.427230000000001,8.9,0.942494,194.642,4.45569,136.22299999999998,17.4824,193.523,0.9536,0.129026,237.304,4.444,3.86929,-0.155319213867188,22.0009689331055,35.0,22.0,-596836.0,3045.68,pp-riro,4,0,-1,-1
1570537497.2,2019-10-08,14:24:57.200,15.0,9.0,17.8299999237061,-12.3,14.7,8.3,-21.8,-9.9,160.4,-12.0068,14.7286,7.87085,-6.60129,-2.58772,-0.3084139999999999,-22.4807,-9.28409,161.673,0.082713,-0.1029109999999999,-0.1341119999999999,253.5,5.9,52.1701,4.427230000000001,8.9,0.924763,187.445,4.4556,137.654,15.9624,192.622,0.947155,0.141345,237.291,4.42848,3.87141,1.4323425292968797,22.0009689331055,35.0,22.0,-596621.0,1938.16,pp-riro,4,0,-1,-1
1570537497.3,2019-10-08,14:24:57.300,15.0,10.0,17.729999542236303,-12.6,14.6,8.7,-22.7,-10.4,158.8,-12.3406,14.6537,7.882510000000001,-4.94395,-3.17509,0.207351,-22.9315,-9.58628,161.173,0.0401741,-0.0537266,-0.2190219999999999,253.5,5.9,52.1701,4.427230000000001,8.9,0.938616,202.929,4.45546,139.056,14.8224,191.722,0.940605,0.1507359999999999,237.305,4.39341,3.87009,4.06199645996094,22.0009689331055,35.0,22.0,-596476.0,338.409,pp-riro,4,0,-1,-1
1570537497.4,2019-10-08,14:24:57.400,15.0,9.0,17.4300003051758,-12.6,15.0,9.4,-24.1,-12.3,157.4,-12.8171,14.7294,8.30829,-3.50971,2.26886,5.16765,-24.3889,-10.9434,159.983,-0.236026,-0.2822409999999999,-0.426943,253.5,5.9,52.1701,4.427230000000001,8.9,0.956346,210.447,4.45532,140.516,13.6824,190.822,0.933819,0.16,237.372,4.3474900000000005,3.84171,5.64591979980469,22.0009689331055,35.0,22.0,-596474.0,30.7645,pp-riro,4,0,-1,-1
1570537497.5,2019-10-08,14:24:57.500,15.0,11.0,17.0699996948242,-11.8,14.8,9.8,-24.5,-14.5,156.7,-12.8522,14.8527,8.73507,-0.0491028,-9.16648,5.69246,-24.8477,-12.4305,159.709,-0.0919842,-0.319704,-0.250025,253.5,5.9,52.1701,4.427230000000001,8.9,0.969644,211.919,4.45518,141.918,12.1624,189.922,0.927306,0.171713,237.401,4.30656,3.79889,7.75611114501953,22.0009689331055,35.0,22.0,-596213.0,2522.69,pp-riro,4,0,-1,-1
1570537497.6,2019-10-08,14:24:57.600,15.0,13.0,17.020000457763697,-11.7,15.7,9.6,-25.3,-16.3,154.4,-12.3242,14.9947,9.32256,5.7255,-2.36891,7.424139999999999,-25.6764,-15.4442,159.583,0.0106102,-0.2285969999999999,-0.395125,253.5,5.9,52.1701,4.427230000000001,8.9,0.963549,209.45,4.45498,143.379,11.0224,188.922,0.920185,0.180681,237.425,4.2498,3.77412,9.85608673095703,22.0009689331055,35.0,22.0,-596099.0,2215.04,pp-riro,4,0,-1,-1
1570537497.7,2019-10-08,14:24:57.700,15.0,9.0,17.229999542236303,-11.2,16.0,10.7,-25.5,-18.2,150.8,-12.3482,16.0766,9.48488,3.4997800000000003,2.54075,8.9451,-26.6884,-18.3975,155.77,-0.286378,-0.0357361,-0.477368,253.5,5.9,52.1701,4.427230000000001,8.9,0.991807,242.43,4.45491,144.868,10.2624,187.922,0.912845,0.1867589999999999,237.501,4.17672,3.72732,11.9543533325195,22.0009689331055,35.0,22.0,-595975.0,-676.819,pp-riro,4,0,-1,-1
1570537497.8,2019-10-08,14:24:57.800,15.0,9.0,17.7800006866455,-10.3,16.0,12.2,-26.2,-21.9,147.8,-11.7415,16.3202,11.0173,8.90832,4.24314,14.474,-28.6227,-21.8423,153.512,-0.3271139999999999,-0.723196,-0.475263,253.5,5.9,52.1701,4.42724,8.9,1.02561,258.948,4.45477,146.475,9.12243,186.722,0.904667,0.195419,237.49400000000003,4.093430000000001,3.66381,14.0577392578125,22.0009689331055,35.0,22.0,-596064.0,-1692.05,pp-riro,4,0,-1,-1
1570537497.9,2019-10-08,14:24:57.900,15.0,11.0,18.1700000762939,-8.8,16.7,12.4,-25.7,-24.5,143.6,-10.8588,16.8986,12.2054,6.83072,15.7639,3.32459,-29.0595,-26.537,151.535,-0.380163,-0.2407929999999999,-0.770227,253.5,5.9,52.1701,4.42724,8.9,1.05608,246.968,4.45463,148.023,7.982439999999999,185.522,0.896647,0.203881,237.472,4.00566,3.58494,16.1730422973633,22.0009689331055,35.0,22.0,-595665.0,6029.84,pp-riro,4,0,-1,-1
1570537498.0,2019-10-08,14:24:58.000,15.0,11.0,18.409999847412102,-7.3,17.0,13.0,-24.9,-27.2,139.1,-10.2253,17.4412,12.3067,15.1139,11.3439,3.6486,-29.172,-27.8797,149.42600000000002,-0.2499699999999999,-0.0562195,-0.8535209999999999,253.5,5.9,52.1701,4.42724,8.9,1.01674,233.316,4.45449,149.6,7.222460000000001,184.322,0.888439,0.209653,237.501,3.91642,3.50855,18.2832336425781,22.0009689331055,35.0,22.0,-595342.0,6183.66,pp-riro,4,0,-1,-1
1570537498.1,2019-10-08,14:24:58.100,15.0,10.0,18.5499992370605,-5.9,17.1,13.7,-23.7,-29.8,133.8,-8.671660000000001,17.9839,13.0616,10.6384,1.91594,10.6959,-28.2501,-31.3412,144.67,-0.0686019,-0.282265,-0.8245969999999999,253.5,5.9,52.1701,4.42724,8.9,0.982942,232.713,4.454359999999999,151.236,6.8425,183.122,0.879975,0.2128199999999999,237.598,3.820980000000001,3.4398,20.3968353271484,22.0009689331055,35.0,22.0,-595151.0,153.822,pp-riro,4,0,-1,-1
1570537498.2,2019-10-08,14:24:58.200,15.0,13.0,18.5499992370605,-4.0,17.3,14.5,-22.0,-33.1,127.4,-7.98756,18.2493,13.5181,11.7668,-0.134627,11.6327,-28.0215,-33.1482,142.18,-0.191331,-0.109289,-0.717667,253.9,6.8,52.1701,4.42724,8.9,1.03226,250.524,4.45421,152.9,6.08253,181.822,0.871199,0.218415,237.644,3.70594,3.3473900000000003,22.5036239624023,22.0009689331055,35.0,22.0,-595154.0,553.761,pp-riro,4,0,-1,-1
1570537498.3,2019-10-08,14:24:58.300,15.0,11.0,18.6000003814697,-2.0,17.7,14.9,-19.6,-35.4,120.5,-5.22973,18.9071,14.8519,19.3294,9.24712,5.65747,-26.1248,-38.2049,133.626,-0.6332979999999999,-0.1501809999999999,-0.948955,253.9,6.8,52.1701,4.42724,8.9,1.03724,244.552,4.45407,154.594,6.08258,180.522,0.862231,0.218995,237.749,3.59832,3.25788,24.6189270019531,22.0009689331055,35.0,22.0,-594875.0,3414.86,pp-riro,4,0,-1,-1
1570537498.4,2019-10-08,14:24:58.400,15.0,12.0,18.6900005340576,0.2,17.7,15.3,-16.1,-38.0,112.8,-4.18653,19.1336,15.1192,25.8039,1.01079,7.752999999999999,-25.0925,-40.0254,130.444,-0.500748,0.0331765999999999,-0.7401479999999999,253.9,6.8,52.1701,4.42724,8.9,1.00566,239.88,4.45392,156.28799999999998,5.70262,179.222,0.853316,0.221993,237.863,3.47965,3.1606400000000003,26.720603942871104,22.0009689331055,35.0,22.0,-594524.0,3014.92,pp-riro,4,0,-1,-1
1570537498.5,2019-10-08,14:24:58.500,15.0,11.0,18.7399997711182,2.5,17.8,15.7,-11.4,-39.7,103.3,-0.660007,19.846,16.1049,20.8926,-2.08402,12.062,-21.08,-45.0334,119.53,0.00203118,-0.23664,-1.17281,253.9,6.8,52.1701,4.42724,8.9,1.0317,256.071,4.45378,158.012,6.08268,177.822,0.84395,0.220134,237.96,3.34877,3.06553,28.8324890136719,22.0009689331055,35.0,22.0,-594485.0,-123.058,pp-riro,4,0,-1,-1
1570537498.6,2019-10-08,14:24:58.600,15.0,11.0,18.6900005340576,3.8,17.5,16.2,-8.5,-40.8,98.1,1.9908,20.0971,16.9216,23.6804,-0.143393,3.03405,-16.6589,-48.5699,110.076,-0.622382,-0.0491345,-1.22824,253.9,6.8,52.1701,4.42724,8.9,1.06605,272.362,4.45363,159.764,6.08274,177.02200000000002,0.8362350000000001,0.2207,238.533,3.27712,3.01154,30.7434234619141,22.0009689331055,23.0044822692871,22.0,-594369.0,1753.58,pp-ro,1,1,-1,-1
1570537498.7,2019-10-08,14:24:58.700,15.0,11.0,18.6399993896484,7.4,16.3,16.0,1.4,-42.2,81.5,3.2688900000000003,20.0292,17.2369,28.8297,-5.676419999999999,4.40524,-13.7271,-49.9803,104.933,-0.6935899999999999,-0.2459599999999999,-1.25462,253.9,6.8,52.1701,4.42724,8.9,1.08101,271.843,4.45349,160.611,6.46277,174.922,0.82762,0.218683,237.561,3.06156,2.85702,32.300094604492195,22.0009689331055,23.0044822692871,22.0,-594007.0,3322.56,pp-ro,1,1,-1,-1
1570537498.8,2019-10-08,14:24:58.800,15.0,11.0,18.6399993896484,9.5,15.5,15.2,8.6,-41.8,69.6,7.52642,19.0662,17.2695,19.8155,-5.28554,-4.71525,-1.05264,-53.6388,85.3201,-0.153348,-0.343337,-1.43134,253.9,6.8,52.1701,4.42724,9.0,1.06882,263.17400000000004,4.45334,163.006,7.222869999999999,173.421,0.815858,0.214763,238.114,2.91088,2.7609,33.5059204101562,22.0009689331055,23.0044822692871,22.0,-593790.0,4060.91,pp-ro,1,1,-1,-1
1570537498.9,2019-10-08,14:24:58.900,15.0,12.0,18.6399993896484,10.6,15.0,14.9,12.4,-41.1,63.5,8.86373,18.843,16.9205,22.226,-12.9984,-2.47791,3.5772800000000005,-53.7181,78.3294,-0.419836,0.2452119999999999,-1.33662,253.9,6.8,52.1701,4.42724,9.0,1.0317,248.499,4.4532,163.79399999999998,7.98292,172.72099999999998,0.811327,0.21049,238.17,2.83374,2.71169,34.3438720703125,22.0009689331055,23.0044822692871,22.0,-593416.0,3291.8,pp-ro,1,1,-1,-1
1570537499.0,2019-10-08,14:24:59.000,15.0,11.0,18.7800006866455,12.8,13.6,14.1,19.5,-38.5,51.9,11.5604,17.94,16.1921,28.4294,-12.2728,-1.92656,12.51,-52.3235,63.2335,-0.678207,0.107792,-1.62732,253.9,6.8,52.1701,4.42724,9.0,1.03115,254.845,4.45306,165.313,9.123,171.421,0.802776,0.204203,238.321,2.67681,2.60158,34.8241577148438,22.0009689331055,22.4934768676758,22.0,-593201.0,1722.81,pp-ro,1,1,-1,-1
1570537499.1,2019-10-08,14:24:59.100,15.0,10.0,18.729999542236303,15.3,10.9,12.4,27.5,-33.3,36.5,14.2413,16.4419,15.2667,28.723000000000003,-9.78537,-7.98769,21.2371,-50.235,49.4575,0.129802,-0.255581,-1.53744,253.9,6.8,52.1701,4.42724,9.0,1.05885,269.351,4.45291,167.18200000000002,11.0231,169.62099999999998,0.791555,0.193639,238.417,2.45003,2.43856,34.9672241210938,22.0009689331055,19.612379074096697,22.0,-593113.0,738.3480000000001,pp-ro,1,1,-1,-1
1570537499.2,2019-10-08,14:24:59.200,15.0,10.0,18.8199996948242,15.8,9.9,11.7,29.4,-31.0,32.2,15.418,15.6805,14.7152,22.573,-15.5112,-6.56158,24.9075,-48.4666,43.2754,-0.134179,-0.0211188,-1.54454,253.6,7.8,52.1701,4.42724,9.0,1.05276,250.096,4.452780000000001,167.708,11.7831,169.12099999999998,0.788363,0.189468,238.468,2.37795,2.38738,34.795196533203104,22.0009689331055,18.6875305175781,22.0,-592655.0,4799.26,pp-ro,1,1,-1,-1
1570537499.3,2019-10-08,14:24:59.300,15.0,11.0,18.6299991607666,17.0,8.8,10.2,33.0,-26.2,24.7,17.3447,13.3301,13.3959,16.2204,-24.3462,-17.6245,30.4494,-44.2055,31.8081,-0.4154779999999999,0.328594,-1.27007,253.6,7.8,52.1701,4.42724,9.0,1.0245,234.863,4.45265,168.73,13.3032,168.12099999999998,0.782041,0.181057,238.561,2.2418400000000003,2.29438,34.2008056640625,22.0019989013672,17.0269508361816,22.0,-592380.0,5106.9,pp-ro,1,1,-1,-1
1570537499.4,2019-10-08,14:24:59.400,15.0,12.0,18.5400009155273,17.9,7.4,8.9,35.1,-21.2,16.9,18.9375,11.9359,11.5143,17.1887,-12.6437,-18.5915,34.4094,-38.8221,22.6473,-0.5946170000000001,0.018696,-1.61212,253.6,7.8,52.1701,4.42724,9.0,0.981834,230.472,4.45247,169.606,14.8233,167.321,0.776714,0.172622,238.71,2.09627,2.20366,33.524658203125,22.0019989013672,15.3739309310913,22.0,-592047.0,2584.22,pp-ro,1,1,-1,-1
1570537499.5,2019-10-08,14:24:59.500,15.0,14.0,18.340000152587898,18.7,5.7,8.1,37.0,-16.2,10.1,20.2312,10.3152,9.84244,3.92571,-21.7183,-26.5508,36.6021,-32.9533,14.5132,-0.438881,-0.0184969,-1.5011,253.6,7.8,52.1701,4.42724,9.0,1.03281,262.788,4.4524,170.366,17.1034,166.62099999999998,0.771781,0.159929,238.913,1.96349,2.12098,32.3171234130859,22.0019989013672,13.8313369750977,22.0,-592145.0,-1568.99,pp-ro,1,1,-1,-1
1570537499.6,2019-10-08,14:24:59.600,15.0,14.0,18.1000003814697,19.2,4.2,6.7,38.3,-11.6,4.0,21.7382,7.31947,8.070910000000001,6.939369999999999,-13.0617,-14.7216,38.8964,-25.2258,4.22612,-0.0732873,0.354819,-1.31683,253.6,7.8,52.1701,4.42724,9.0,1.07492,257.461,4.45228,170.92,18.6234,166.021,0.7679090000000001,0.151578,239.005,1.8394,2.02792,30.7383117675781,22.0025119781494,12.0787830352783,22.0,-592030.0,2984.16,pp-ro,1,1,-1,-1
1570537499.7,2019-10-08,14:24:59.700,15.0,14.0,17.6100006103516,18.9,3.2,5.0,39.2,-7.4,-1.1,21.9601,6.34812,7.350210000000001,1.41809,-17.117,-11.9545,39.6623,-22.5536,1.14242,-0.219854,0.00433092,-1.55505,253.6,7.8,52.1701,4.42724,9.0,0.961333,207.556,4.45216,171.446,20.9035,165.521,0.76413,0.138908,239.223,1.73449,1.95322,28.823974609375,22.0025119781494,10.6577157974243,22.0,-591165.0,4276.26,pp-ro,1,1,-1,-1
1570537499.8,2019-10-08,14:24:59.800,15.0,12.0,17.0499992370605,18.7,2.3,3.9,39.6,-3.3,-5.7,21.9601,6.34812,7.350210000000001,1.41809,-17.117,-11.9545,39.6623,-22.5536,1.14242,-0.219854,0.00433092,-1.55505,253.6,7.8,52.1701,4.42724,9.0,0.947481,204.73,4.452030000000001,171.796,22.4235,165.12099999999998,0.761368,0.130568,239.336,1.63339,1.89179,26.1875152587891,22.0009689331055,9.49551773071289,22.0,-591066.0,1968.93,pp-ro,1,1,-1,-1
1570537499.9,2019-10-08,14:24:59.900,15.0,11.0,16.3600006103516,18.3,1.3,3.5,39.8,0.6,-10.1,21.3999,3.02015,3.61164,-3.55906,-14.5473,-14.5624,39.8125,-9.56941,-11.6104,-0.368247,0.18417,-0.905258,253.6,7.8,52.1701,4.42724,9.0,0.95413,197.499,4.45191,172.088,24.3236,164.821,0.758891,0.120069,239.525,1.53851,1.85232,24.0892486572266,22.0009689331055,8.74515724182129,22.0,-590883.0,1907.4,pp-ro,1,1,-1,-1
1570537500.0,2019-10-08,14:25:00.000,15.0,10.0,16.0900001525879,17.3,0.8,2.8,39.5,4.4,-14.1,20.5017,1.85654,2.8311900000000003,-11.1881,-10.9606,-11.3426,40.0404,-4.7597,-15.7993,-0.168732,0.252246,-0.88387,253.6,7.8,52.1701,4.42724,9.0,0.938616,181.781,4.45178,172.293,26.2237,164.521,0.756609,0.1095619999999999,239.666,1.44974,1.82243,21.9773483276367,22.0009689331055,8.18152809143066,22.0,-590713.0,3199.51,pp-ro,1,1,-1,-1
1570537500.1,2019-10-08,14:25:00.100,15.0,12.0,16.0300006866455,16.9,0.6,1.6,39.0,7.3,-17.5,20.5017,1.85654,2.8311900000000003,-11.1881,-10.9606,-11.3426,40.0404,-4.7597,-15.7993,-0.168732,0.252246,-0.88387,253.6,7.8,52.1701,4.42724,9.0,0.864923,141.694,4.45166,172.468,28.1237,164.321,0.7546609999999999,0.0990872,239.87,1.37968,1.77502,19.8688583374023,22.0009689331055,7.2551531791687,22.0,-590295.0,4276.26,pp-ro,1,1,-1,-1
1570537500.2,2019-10-08,14:25:00.200,15.0,13.0,16.3099994659424,17.1,0.0,0.8,38.9,10.8,-20.7,19.2696,1.14113,1.1127,-3.9759,-6.78291,-10.4275,39.6007,2.5821,-21.27,0.087058,0.309608,-0.909075,261.9,7.4,52.1701,4.42724,9.0,0.811177,135.124,4.45159,172.585,29.6438,164.22099999999998,0.753313,0.0906997,240.068,1.30325,1.72176,17.7637786865234,22.0009689331055,6.19938802719116,22.0,-590070.0,1045.99,pp-ro,1,1,-1,-1
1570537500.3,2019-10-08,14:25:00.300,15.0,12.0,16.3600006103516,17.2,-1.1,0.3,38.6,13.5,-24.1,19.0432,-0.158929,-0.0770561,-6.07381,-12.5283,-3.4305,38.3616,7.89797,-26.3493,-0.180489,-0.0688296,-0.597418,261.9,7.4,52.1701,4.42724,9.0,0.864923,164.269,4.45161,172.614,31.5438,164.22099999999998,0.752287,0.0800275,240.331,1.2362799999999998,1.66356,15.6569900512695,22.0009689331055,5.01310968399048,22.0,-590246.0,-1784.34,pp-ro,1,1,-1,-1
1570537500.4,2019-10-08,14:25:00.400,15.0,11.0,16.3600006103516,16.9,-1.5,-0.2,38.5,15.0,-27.6,19.0432,-0.158929,-0.0770561,-6.07381,-12.5283,-3.4305,38.3616,7.89797,-26.3493,-0.180489,-0.0688296,-0.597418,261.9,7.4,52.1701,4.42724,9.0,0.91202,175.514,4.45164,172.497,33.0638,164.22099999999998,0.751818,0.0713605,240.451,1.18175,1.63118,14.6061477661133,22.0009689331055,4.329115867614751,22.0,-590264.0,584.525,pp-ro,1,1,-1,-1
1570537500.5,2019-10-08,14:25:00.500,15.0,12.0,16.3099994659424,16.5,-1.7,-0.9,38.3,16.0,-29.9,19.0432,-0.158929,-0.0770561,-6.07381,-12.5283,-3.4305,38.3616,7.89797,-26.3493,-0.180489,-0.0688296,-0.597418,261.9,7.4,52.1701,4.42724,9.0,0.892073,166.76,4.45167,172.38,34.9639,164.22099999999998,0.7511,0.0606035,240.636,1.14927,1.59765,11.966278076171902,22.0009689331055,3.6225996017456095,22.0,-589993.0,3137.98,pp-ro,1,1,-1,-1
1570537500.6,2019-10-08,14:25:00.600,15.0,11.0,16.2999992370605,16.7,-2.2,-1.7,39.7,17.0,-31.8,17.9076,-1.91607,-1.88832,2.09868,-4.32028,-2.97732,38.7555,13.9043,-33.8214,0.1876799999999999,-0.0573725,-0.4108819999999999,261.9,7.4,52.1701,4.42724,9.0,0.902046,181.055,4.4517,172.176,36.8639,164.321,0.750872,0.0497691999999999,240.842,1.12171,1.55143,9.87141418457031,22.0009689331055,2.63487935066223,22.0,-589944.0,-953.699,pp-ro,1,1,-1,-1
1570537500.7,2019-10-08,14:25:00.700,15.0,7.0,16.0900001525879,16.9,-2.6,-1.5,40.2,18.0,-34.7,17.9076,-1.91607,-1.88832,2.09868,-4.32028,-2.97732,38.7555,13.9043,-33.8214,0.1876799999999999,-0.0573725,-0.4108819999999999,261.9,7.4,52.1701,4.42724,9.0,0.933629,194.891,4.45173,171.942,38.764,164.321,0.750364,0.0389217,240.973,1.08207,1.55367,7.97071075439453,22.0009689331055,2.63397479057312,22.0,-589893.0,1045.99,pp-ro,1,1,-1,-1
1570537500.8,2019-10-08,14:25:00.800,15.0,8.0,15.9799995422363,16.6,-2.7,-1.7,41.3,18.9,-37.7,17.9076,-1.91607,-1.88832,2.09868,-4.32028,-2.97732,38.7555,13.9043,-33.8214,0.1876799999999999,-0.0573725,-0.4108819999999999,261.9,7.4,52.1701,4.42725,9.0,0.943048,199.967,4.45175,171.65,40.284,164.321,0.750205,0.0301195,241.014,1.04086,1.54399,6.25053405761719,22.0009689331055,2.38890814781189,22.0,-589790.0,922.935,pp-ro,1,1,-1,-1
1570537500.9,2019-10-08,14:25:00.900,15.0,9.0,15.8100004196167,16.3,-2.9,-1.8,42.1,19.2,-39.6,18.1371,-2.92911,-2.09422,-8.031460000000001,0.164318,2.79597,39.8449,17.4462,-38.7524,0.49193,-0.094659,-0.5794189999999999,261.9,7.4,52.1701,4.42725,9.0,0.947481,198.929,4.45178,171.358,42.184,164.32,0.7497520000000001,0.0192448,241.131,1.0216,1.53564,4.82329559326172,22.0009689331055,2.17546558380127,22.0,-589722.0,1230.58,pp-ro,1,1,-1,-1
1570537501.0,2019-10-08,14:25:01.000,15.0,9.0,15.9200000762939,15.9,-3.4,-1.9,43.5,19.9,-40.9,18.1371,-2.92911,-2.09422,-8.031460000000001,0.164318,2.79597,39.8449,17.4462,-38.7524,0.49193,-0.094659,-0.5794189999999999,261.9,7.4,52.1701,4.42725,9.0,0.938616,191.09,4.45181,171.03599999999997,43.7041,164.32,0.749588,0.010421,241.174,1.00366,1.51219,3.71625518798828,22.0009689331055,1.65697026252747,22.0,-589490.0,2676.51,pp-ro,1,1,-1,-1
1570537501.1,2019-10-08,14:25:01.100,15.0,8.0,16.0900001525879,15.4,-3.6,-1.8,44.7,20.1,-41.9,17.7489,-2.92807,-1.98741,-3.3386400000000003,-0.6695979999999999,1.43958,40.3782,18.1219,-40.2331,0.265962,-0.2107349999999999,-0.404087,261.9,7.4,52.1701,4.42725,9.0,0.913128,179.796,4.45184,170.657,45.6041,164.42,0.749572,-0.000575247,241.324,0.996742,1.50898,2.68756103515625,22.0009689331055,1.51898038387299,22.0,-589286.0,1661.28,pp-ro,1,1,-1,-1
1570537501.2,2019-10-08,14:25:01.200,15.0,7.0,16.2000007629395,15.1,-3.5,-1.8,46.1,19.7,-42.7,16.4713,-3.72047,-2.06237,-5.80732,1.45773,-6.07263,43.6472,20.4939,-42.6712,0.289101,-0.0618530999999999,-0.163069,253.3,6.7,52.1701,4.42725,9.0,0.904817,179.706,4.45185,170.248,47.1241,164.42,0.749559,-0.00950231,241.328,0.997717,1.51459,2.03185272216797,22.0009689331055,1.57151079177856,22.0,-589071.0,1015.23,pp-ro,1,1,-1,-1
1570537501.3,2019-10-08,14:25:01.300,15.0,8.0,16.3600006103516,15.2,-3.8,-1.8,47.5,20.2,-42.7,16.4713,-3.72047,-2.06237,-5.80732,1.45773,-6.07263,43.6472,20.4939,-42.6712,0.289101,-0.0618530999999999,-0.163069,253.3,6.7,52.1701,4.42725,9.0,0.910911,184.096,4.45181,169.868,48.2641,164.52,0.750026,-0.0162519,241.353,0.996808,1.5085,1.62139129638672,22.0009689331055,1.3710834980011002,22.0,-589039.0,615.29,pp-ro,1,1,-1,-1
1570537501.4,2019-10-08,14:25:01.400,15.0,8.0,16.2000007629395,15.2,-4.3,-1.6,48.3,20.5,-42.8,16.2844,-3.69256,-2.07784,-1.3134,1.97721,-3.57007,44.4602,20.7754,-42.97,0.1233349999999999,0.0165196,-0.169325,253.3,6.7,52.1701,4.42725,9.0,0.92975,194.573,4.45176,169.43,50.1642,164.62,0.7500220000000001,-0.0272505,241.501,0.999946,1.50507,1.47832489013672,22.0009689331055,1.22741103172302,22.0,-588989.0,492.232,pp-ro,1,1,-1,-1
1570537501.5,2019-10-08,14:25:01.500,15.0,9.0,16.0900001525879,15.0,-4.7,-1.6,48.6,20.1,-43.3,16.1912,-4.3684400000000005,-1.95073,0.838144,-4.02008,-0.6900649999999999,47.1726,21.3117,-43.5197,-0.0436844,-0.01034,0.0141217,253.3,6.7,52.1701,4.42725,9.0,0.947481,202.543,4.45172,168.96200000000002,51.6842,164.62,0.750049,-0.0361820999999999,241.49400000000003,1.00474,1.49186,1.30290222167969,22.0009689331055,0.900170862674713,22.0,-588913.0,922.935,pp-ro,1,1,-1,-1
1570537501.6,2019-10-08,14:25:01.600,15.0,10.0,15.869999885559098,14.9,-4.9,-1.8,49.1,19.0,-43.0,15.7516,-4.7953,-1.92789,-3.21693,1.1284,-3.51431,47.7345,20.1698,-44.1952,0.0907603,-0.0471805,0.187344,253.3,6.7,52.1701,4.42725,9.0,0.95413,201.543,4.45165,168.46599999999998,53.2042,164.72,0.750416,-0.0451685999999999,241.545,1.02756,1.47906,1.2467041015625,22.0009689331055,0.554584860801697,22.0,-588749.0,1968.93,pp-ro,1,1,-1,-1
1570537501.7,2019-10-08,14:25:01.700,15.0,12.0,15.9200000762939,15.0,-5.3,-1.8,49.6,18.0,-42.4,15.7516,-4.7953,-1.92789,-3.21693,1.1284,-3.51431,47.7345,20.1698,-44.1952,0.0907603,-0.0471805,0.187344,253.3,6.7,52.1701,4.42725,9.0,0.944156,202.135,4.451630000000001,167.91099999999997,54.7242,164.82,0.7509,-0.0542943,241.567,1.05311,1.4716,1.06275939941406,22.0009689331055,0.304389923810959,22.0,-588499.0,984.464,pp-ro,1,1,-1,-1
1570537501.8,2019-10-08,14:25:01.800,15.0,11.0,15.869999885559098,15.2,-5.8,-1.9,49.7,17.0,-42.1,15.7516,-4.7953,-1.92789,-3.21693,1.1284,-3.51431,47.7345,20.1698,-44.1952,0.0907603,-0.0471805,0.187344,253.3,6.7,52.1701,4.42726,9.0,0.951359,205.265,4.45158,167.356,56.6243,164.82,0.750696,-0.0654477,241.61900000000003,1.07652,1.45968,0.6812591552734379,22.0009689331055,0.004214198794216,22.0,-588448.0,984.464,pp-ro,1,1,-1,-1
1570537501.9,2019-10-08,14:25:01.900,15.0,11.0,15.869999885559098,15.4,-5.9,-1.6,49.8,15.7,-41.8,16.0673,-5.87146,-1.90894,1.46696,-2.80713,1.28918,48.2298,17.725,-42.6226,0.0934382,-0.1000149999999999,0.211302,253.3,6.7,52.1701,4.42726,9.0,0.963549,212.881,4.4515400000000005,166.74200000000002,58.1443,164.92,0.751242,-0.0746689,241.625,1.10215,1.47939,0.3406295776367189,22.0009689331055,0.288331419229507,22.0,-588306.0,1630.52,pp-ro,1,1,-1,-1
1570537502.0,2019-10-08,14:25:02.000,15.0,11.0,16.0900001525879,16.0,-5.8,-1.4,49.7,14.8,-41.7,16.0673,-5.87146,-1.90894,1.46696,-2.80713,1.28918,48.2298,17.725,-42.6226,0.0934382,-0.1000149999999999,0.211302,253.3,6.7,52.1701,4.42726,9.0,0.972969,218.292,4.45149,166.1,59.2843,164.92,0.751883,-0.0819264,241.459,1.11924,1.50742,0.064720153808594,22.0009689331055,0.741929113864899,22.0,-588198.0,984.464,pp-ro,1,1,-1,-1
1570537502.1,2019-10-08,14:25:02.100,15.0,10.0,16.3099994659424,16.4,-5.9,-1.1,49.9,14.4,-41.6,16.5464,-5.98274,-1.69308,4.1855400000000005,3.09012,-1.38516,48.0913,16.6872,-42.3376,0.0848015,0.0119457,0.0933651,253.3,6.7,52.1701,4.42726,9.0,0.989591,227.807,4.45144,165.516,61.1843,165.02,0.751903,-0.0931345,241.6,1.13326,1.53069,0.042572021484375,22.0009689331055,1.12339580059052,22.0,-587966.0,1845.87,pp-ro,1,1,-1,-1
1570537502.2,2019-10-08,14:25:02.200,15.0,9.0,16.629999160766598,16.6,-6.0,-0.6,49.9,14.2,-41.7,16.5464,-5.98274,-1.69308,4.1855400000000005,3.09012,-1.38516,48.0913,16.6872,-42.3376,0.0848015,0.0119457,0.0933651,248.0,6.8,52.1701,4.42726,9.0,0.994578,231.893,4.45136,164.93099999999998,62.7043,165.02,0.751941,-0.102279,241.59,1.14096,1.55722,0.386611938476562,22.0009689331055,1.58332192897797,22.0,-587897.0,1292.11,pp-ro,1,1,-1,-1
1570537502.3,2019-10-08,14:25:02.300,15.0,9.0,16.8400001525879,16.5,-5.9,-0.3,49.6,14.1,-42.0,17.546,-6.32767,-0.436547,-0.795346,2.68028,2.18954,47.7205,15.1934,-42.5758,-0.0678552,-0.0845539,0.0601736,248.0,6.8,52.1701,4.42726,9.0,1.00732,233.835,4.45121,164.31799999999998,64.6044,164.92,0.751319,-0.113418,241.605,1.1465,1.57958,1.00826263427734,22.0009689331055,2.00813055038452,22.0,-587785.0,1384.4,pp-ro,1,1,-1,-1
1570537502.4,2019-10-08,14:25:02.400,15.0,9.0,17.1000003814697,16.4,-5.8,-0.4,49.9,13.9,-42.0,17.546,-6.32767,-0.436547,-0.795346,2.68028,2.18954,47.7205,15.1934,-42.5758,-0.0678552,-0.0845539,0.0601736,248.0,6.8,52.1701,4.42726,9.0,0.964657,205.795,4.45105,163.705,66.1244,164.92,0.751339,-0.122625,241.599,1.15547,1.584,1.4510726928710902,22.0009689331055,2.0283451080322297,22.0,-587267.0,4276.26,pp-ro,1,1,-1,-1
1570537502.5,2019-10-08,14:25:02.500,15.0,8.0,17.2999992370605,16.4,-6.0,-0.5,49.7,13.8,-41.8,17.291,-6.18877,-0.382383,-2.64587,-0.193166,-1.52379,47.7752,14.9033,-42.8043,0.0409121,-0.0165905999999999,0.11746,248.0,6.8,52.1701,4.42726,9.0,0.943048,198.255,4.4509,163.12,68.0244,164.82,0.750525,-0.133601,241.663,1.16708,1.58011,1.86153411865234,22.0009689331055,1.9560949802398704,22.0,-587123.0,2707.28,pp-ro,1,1,-1,-1
1570537502.6,2019-10-08,14:25:02.600,15.0,9.0,17.5100002288818,16.2,-6.2,-0.5,49.8,13.5,-41.6,17.2095,-6.18521,-0.4327609999999999,0.699062,-0.921517,1.0407799999999998,47.6879,14.8661,-42.8824,0.029004,-0.190282,-0.00373025,248.0,6.8,52.1701,4.42726,9.0,0.945265,204.866,4.45075,162.44899999999998,69.5444,164.82,0.750602,-0.14285,241.644,1.17976,1.5763,2.08975982666016,22.0009689331055,1.8078150749206496,22.0,-586953.0,799.877,pp-ro,1,1,-1,-1
1570537502.7,2019-10-08,14:25:02.700,15.0,10.0,17.659999847412102,16.4,-6.4,-0.5,49.9,12.7,-41.5,17.2095,-6.18521,-0.4327609999999999,0.699062,-0.921517,1.0407799999999998,47.6879,14.8661,-42.8824,0.029004,-0.190282,-0.00373025,248.0,6.8,52.1701,4.42726,9.0,0.957454,213.301,4.45059,161.806,71.4445,164.82,0.750127,-0.154079,241.767,1.19868,1.5798299999999998,1.9943771362304696,22.0009689331055,1.85444569587708,22.0,-586927.0,492.232,pp-ro,1,1,-1,-1
1570537502.8,2019-10-08,14:25:02.800,15.0,12.0,17.7999992370605,16.8,-6.6,-0.7,50.1,12.7,-41.2,17.3055,-6.832789999999999,-0.6095550000000001,1.2259799999999998,-2.50319,-2.53321,47.6011,13.4994,-42.7744,-0.0722254,0.0356809,0.0457131999999999,248.0,6.8,52.1701,4.42726,9.0,0.989037,231.847,4.45044,161.16299999999998,72.9645,164.82,0.750031,-0.163176,241.791,1.20885,1.57704,1.7865982055664098,22.0009689331055,1.7490727901458702,22.0,-586906.0,215.351,pp-ro,1,1,-1,-1
1570537502.9,2019-10-08,14:25:02.900,15.0,10.0,17.8999996185303,17.1,-7.2,-0.6,50.5,12.4,-41.4,17.5751,-6.99839,-0.671219,5.15561,-2.08645,0.00315991,47.5668,13.6516,-42.5398,-0.224657,0.136641,0.0204275999999999,248.0,6.8,52.1701,4.42726,9.0,1.02505,251.598,4.45028,160.46200000000002,74.8645,164.92,0.749893,-0.17443,241.974,1.21805,1.57304,1.82746887207031,22.0009689331055,1.6118556261062602,22.0,-586852.0,769.112,pp-ro,1,1,-1,-1
1570537503.0,2019-10-08,14:25:03.000,15.0,10.0,18.25,17.2,-7.4,-0.5,50.6,11.8,-41.9,17.846,-7.564089999999999,-0.624787,-0.897925,-6.65523,2.1440200000000003,47.2495,13.3863,-42.4233,0.018731,-0.0843095,0.00488884,248.0,6.8,52.1701,4.42726,9.0,1.08212,284.272,4.450130000000001,159.761,76.3845,164.82,0.7495470000000001,-0.183729,241.917,1.22595,1.57829,1.66908264160156,22.0009689331055,-35.0,22.0,-586761.0,369.174,pp-ro,1,1,-1,-1
1570537503.1,2019-10-08,14:25:03.100,15.0,10.0,18.4400005340576,17.4,-7.5,-0.5,50.8,11.7,-42.3,18.1565,-8.0213,-0.511931,5.102130000000001,-2.61683,0.361948,47.3556,12.8538,-43.024,0.137876,0.0130852999999999,0.0318547,248.0,6.8,52.1701,4.42726,9.0,1.0970799999999998,291.198,4.44998,158.97299999999998,78.2845,164.82,0.749209,-0.195169,242.005,1.23041,1.58595,1.62309265136719,22.0025119781494,-35.0,22.0,-586698.0,1169.05,pp-ro,1,1,-1,-1
1570537503.2,2019-10-08,14:25:03.200,15.0,10.0,18.4400005340576,17.7,-7.9,-0.5,51.0,11.8,-42.4,18.1565,-8.0213,-0.511931,5.102130000000001,-2.61683,0.361948,47.3556,12.8538,-43.024,0.137876,0.0130852999999999,0.0318547,248.9,6.2,52.1701,4.42726,9.0,1.11758,296.78,4.44984,158.184,79.8046,164.82,0.749287,-0.2047,241.985,1.23468,1.58423,1.6656723022460902,22.0025119781494,-35.0,22.0,-586483.0,2614.98,pp-ro,1,1,-1,-1
1570537503.3,2019-10-08,14:25:03.300,15.0,9.0,18.909999847412102,17.7,-8.3,-0.5,51.3,11.6,-42.9,18.2925,-8.194989999999999,-0.49581,2.44141,-4.92278,-1.42499,47.3803,12.8193,-43.2474,0.0466754,-0.1171799999999999,-0.0605635,248.9,6.2,52.1701,4.42726,9.0,1.11426,300.522,4.44974,157.366,81.7046,164.82,0.7489,-0.21624,242.085,1.2392,1.57957,1.44085693359375,22.0025119781494,-35.0,22.0,-586031.0,2215.04,pp-ro,1,1,-1,-1
1570537503.4,2019-10-08,14:25:03.400,15.0,9.0,19.3700008392334,17.7,-8.5,-0.5,51.4,11.0,-43.8,18.55,-9.01788,-0.5733699999999999,-10.2388,-6.2915,-9.79334,47.7219,12.499,-44.0537,0.0112177,-0.0628009,0.303232,248.9,6.2,52.1701,4.42726,9.0,1.13088,305.026,4.44963,156.519,83.2246,164.82,0.74902,-0.2259989999999999,242.054,1.2425,1.58006,0.8311309814453121,22.0019989013672,-35.0,22.0,-585797.0,2799.57,pp-ro,1,1,-1,-1
1570537503.5,2019-10-08,14:25:03.500,15.0,9.0,19.729999542236303,17.7,-8.7,-0.4,51.8,10.6,-44.1,18.55,-9.01788,-0.5733699999999999,-10.2388,-6.2915,-9.79334,47.7219,12.499,-44.0537,0.0112177,-0.0628009,0.303232,248.9,6.2,52.1701,4.42726,9.0,1.13088,308.251,4.44949,155.643,85.5046,164.82,0.748139,-0.239459,242.283,1.25336,1.58689,-0.121177673339844,22.0025119781494,-35.0,22.0,-585618.0,3476.39,pp-ro,1,1,-1,-1
1570537503.6,2019-10-08,14:25:03.600,15.0,10.0,20.1299991607666,17.7,-8.7,-0.3,52.5,10.5,-44.0,18.55,-9.01788,-0.5733699999999999,-10.2388,-6.2915,-9.79334,47.7219,12.499,-44.0537,0.0112177,-0.0628009,0.303232,248.9,6.2,52.1701,4.42726,9.0,1.1358700000000002,312.7,4.44942,154.796,87.0246,164.92,0.748447,-0.249187,242.35,1.2626,1.5973,-1.4473495483398402,22.0025119781494,-35.0,22.0,-585397.0,1815.1,pp-ro,1,1,-1,-1
1570537503.7,2019-10-08,14:25:03.700,15.0,10.0,20.3500003814697,18.1,-8.8,-0.1,52.9,10.5,-44.1,18.566,-9.26318,-0.391053,1.05724,0.370489,4.0151,48.9459,12.5038,-43.9638,0.14697,0.0564464,0.0730154,248.9,6.2,52.1701,4.42726,9.0,1.15083,315.69,4.449319999999999,154.329,87.7846,164.92,0.7485390000000001,-0.254103,242.326,1.2648700000000002,1.6111799999999998,-3.1148681640625,22.0025119781494,-35.0,22.0,-585095.0,3630.21,pp-ro,1,1,-1,-1
1570537503.8,2019-10-08,14:25:03.800,15.0,10.0,20.6499996185303,18.2,-8.8,0.3,53.4,9.8,-44.3,18.7356,-9.42952,-0.0533855,-0.687828,0.441572,-1.63431,49.4588,12.8056,-43.7866,0.0493736,0.0189845999999999,0.00486831,248.9,6.2,52.1701,4.42726,9.0,1.14584,320.015,4.44918,153.423,89.6847,164.92,0.7480760000000001,-0.265775,242.447,1.27937,1.6352,-5.13568878173828,22.0025119781494,-35.0,22.0,-584774.0,2645.75,pp-ro,1,1,-1,-1
1570537503.9,2019-10-08,14:25:03.900,15.0,10.0,20.8600006103516,18.7,-8.8,0.7,54.1,9.1,-43.9,18.9748,-9.3082,0.715971,3.63773,2.34916,1.0848,50.397,12.3932,-43.3957,0.0434906,0.0157495,0.0187203,248.9,6.2,52.1701,4.42726,9.0,1.16357,322.631,4.44911,152.547,91.5847,164.82,0.7471720000000001,-0.277409,242.536,1.30108,1.66427,-7.243560791015621,22.0019989013672,-35.0,22.0,-584532.0,2830.33,pp-ro,1,1,-1,-1
1570537504.0,2019-10-08,14:25:04.000,15.0,10.0,20.9899997711182,19.2,-8.8,1.2,55.4,8.2,-42.5,19.3062,-9.26593,0.813433,5.86799,-0.141811,0.8052239999999999,50.8001,12.3275,-42.7351,-0.00912974,0.262275,0.281339,248.9,6.2,52.1701,4.42726,9.0,1.15526,320.509,4.449,151.641,93.4847,164.82,0.7465729999999999,-0.289065,242.693,1.33731,1.6959,-9.35654449462891,22.0019989013672,-35.0,22.0,-584116.0,4399.32,pp-ro,1,1,-1,-1
1570537504.1,2019-10-08,14:25:04.100,15.0,10.0,20.9899997711182,19.5,-8.7,2.1,56.1,6.0,-41.5,19.3062,-9.26593,0.813433,5.86799,-0.141811,0.8052239999999999,50.8001,12.3275,-42.7351,-0.00912974,0.262275,0.281339,248.9,6.2,52.1701,4.42726,9.0,1.17244,331.902,4.4488900000000005,150.765,95.3847,164.71900000000002,0.745534,-0.300603,242.819,1.38511,1.74083,-11.4695358276367,22.0025119781494,-35.0,22.0,-583771.0,1630.52,pp-ro,1,1,-1,-1
1570537504.2,2019-10-08,14:25:04.200,15.0,10.0,21.0300006866455,20.0,-8.4,3.0,57.0,3.7,-40.0,19.7703,-8.88873,2.38821,3.15105,4.95201,9.38764,52.3911,9.60736,-39.3134,0.0338455,0.16988,0.508081,247.2,5.9,52.1701,4.42726,9.0,1.17853,329.50699999999995,4.4488,149.889,97.2847,164.419,0.7438239999999999,-0.312158,242.827,1.44028,1.79237,-13.5654525756836,22.0025119781494,-35.0,22.0,-583376.0,4614.67,pp-ro,1,1,-1,-1
1570537504.3,2019-10-08,14:25:04.300,15.0,10.0,21.0699996948242,20.3,-8.0,4.2,57.9,0.0,-38.8,19.7703,-8.88873,2.38821,3.15105,4.95201,9.38764,52.3911,9.60736,-39.3134,0.0338455,0.16988,0.508081,247.2,5.9,52.1701,4.42726,9.0,1.16579,323.134,4.44871,149.129,99.1848,164.11900000000003,0.741776,-0.323279,242.925,1.5097200000000002,1.85325,-15.6750259399414,22.0019989013672,-35.0,22.0,-583137.0,4737.73,pp-ro,1,1,-1,-1
1570537504.4,2019-10-08,14:25:04.400,15.0,9.0,21.1100006103516,20.8,-6.9,5.4,58.6,-3.5,-36.8,20.4355,-7.240810000000001,5.21718,5.98583,11.3228,10.8611,54.9418,2.02265,-33.227,0.178005,0.155135,0.788904,247.2,5.9,52.1701,4.42726,9.0,1.14473,307.685,4.44862,148.37,101.465,163.719,0.7387699999999999,-0.336046,243.131,1.58744,1.93639,-17.7846069335938,22.0025119781494,-35.0,22.0,-582689.0,4614.67,pp-ro,1,1,-1,-1
1570537504.5,2019-10-08,14:25:04.500,15.0,9.0,21.1100006103516,21.3,-6.0,6.9,60.0,-7.2,-34.2,20.6074,-6.73623,5.83256,2.73143,10.7698,10.2864,55.3838,0.2899219999999999,-31.5708,0.162943,0.111325,0.797692,247.2,5.9,52.1701,4.42726,9.0,1.11758,304.026,4.44853,147.69799999999998,103.745,163.219,0.7351840000000001,-0.348529,243.348,1.6744900000000005,2.01888,-19.9044189453125,22.0019989013672,-35.0,22.0,-582143.0,2122.75,pp-ro,1,1,-1,-1
1570537504.6,2019-10-08,14:25:04.600,15.0,9.0,21.1499996185303,21.6,-4.8,8.6,61.2,-11.4,-32.0,20.6074,-6.73623,5.83256,2.73143,10.7698,10.2864,55.3838,0.2899219999999999,-31.5708,0.162943,0.111325,0.797692,247.2,5.9,52.1701,4.42726,9.0,1.14584,317.085,4.44844,147.172,105.645,162.519,0.731201,-0.358644,243.378,1.7617,2.11125,-22.013992309570305,22.003026962280305,-35.0,22.0,-581962.0,1999.69,pp-ro,1,1,-1,-1
1570537504.7,2019-10-08,14:25:04.700,15.0,10.0,21.1100006103516,21.9,-3.3,10.5,61.8,-16.2,-29.1,20.6074,-6.73623,5.83256,2.73143,10.7698,10.2864,55.3838,0.2899219999999999,-31.5708,0.162943,0.111325,0.797692,247.2,5.9,52.1701,4.42726,9.0,1.16025,329.346,4.4483,146.705,107.925,161.719,0.726117,-0.370175,243.564,1.86532,2.2145,-24.1304016113281,22.003026962280305,-35.0,22.0,-581686.0,2614.98,pp-ro,1,1,-1,-1
1570537504.8,2019-10-08,14:25:04.800,15.0,10.0,21.229999542236303,21.8,-1.9,12.6,62.3,-21.7,-26.0,20.9244,-5.72311,7.48948,2.80488,10.6482,15.515999999999998,56.3516,-3.63395,-28.6964,0.121149,-0.0500323,0.909153,247.2,5.9,52.1701,4.42726,9.0,1.17188,334.07800000000003,4.448259999999999,146.442,109.825,160.619,0.720226,-0.379342,243.527,1.97792,2.31458,-26.2468032836914,22.003026962280305,-35.0,22.0,-581597.0,1815.1,pp-ro,1,1,-1,-1
1570537504.9,2019-10-08,14:25:04.900,15.0,10.0,21.3999996185303,21.3,0.0,14.4,62.5,-27.7,-22.4,20.6878,-1.26157,12.9071,-8.87575,18.1277,18.7561,56.7724,-18.6181,-17.3716,0.0142038999999999,0.0958305,1.0591,247.2,5.9,52.1701,4.42726,9.0,1.18851,333.68800000000005,4.448169999999999,146.267,112.105,159.41899999999998,0.713174,-0.3897199999999999,243.672,2.10185,2.42396,-28.356384277343803,22.003026962280305,-35.0,22.0,-581276.0,4060.91,pp-ro,1,1,-1,-1
1570537505.0,2019-10-08,14:25:05.000,15.0,11.0,21.6399993896484,20.4,2.1,16.1,62.2,-33.9,-17.6,20.6878,-1.26157,12.9071,-8.87575,18.1277,18.7561,56.7724,-18.6181,-17.3716,0.0142038999999999,0.0958305,1.0591,247.2,5.9,52.1701,4.42726,9.0,1.1475,317.747,4.44808,146.35399999999998,114.385,158.119,0.705214,-0.3990849999999999,243.937,2.23765,2.5388,-29.8822326660156,22.003026962280305,-35.0,22.0,-580562.0,4060.91,pp-ro,1,1,-1,-1
