time,date,time_of_day,airspeed_temperature,airspeed_angle_of_attack,airspeed_apparent_windspeed,kite_0_vx,kite_0_vy,kite_0_vz,kite_0_roll,kite_0_pitch,kite_0_yaw,kite_1_vx,kite_1_vy,kite_1_vz,kite_1_ax,kite_1_ay,kite_1_az,kite_1_roll,kite_1_pitch,kite_1_yaw,kite_1_roll_rate,kite_1_pitch_rate,kite_1_yaw_rate,ground_upwind_direction,ground_wind_velocity,ground_pos_latitude,ground_pos_longitude,ground_pos_altitude,ground_tether_reelout_speed,ground_tether_force,est_upwind_direction,kite_pos_east,kite_pos_north,kite_height,kite_elevation,kite_azimuth,kite_distance,kite_heading,kite_course,kite_actual_steering,kite_actual_depower,kite_set_steering,kite_set_depower,ground_mech_energy,ground_mech_power,flight_phase,flight_phase_index,phase,pattern,pattern_section
1570535398.4,2019-10-08,13:49:58.400,14.0,8.0,15.2399997711182,12.2,-0.3,1.8,18.0,-2.3,-51.4,10.2082,-0.897452,1.89369,9.91171,9.80898,0.454499,18.7204,12.722,-58.5681,0.136187,0.270025,0.836068,273.2,4.4,52.1701,4.42724,5.7,-1.85728,102.405,4.58753,50.4125,-10.6401,238.662,1.35818,0.332865,244.16,0.478865,1.37382,-34.4222564697266,22.0395889282227,-35.0,22.0,-1035290.0,-3784.03,pp-riro,4,0,-1,-1
1570535398.5,2019-10-08,13:49:58.500,14.0,8.0,14.890000343322802,13.0,0.7,2.0,19.7,-4.0,-46.3,11.2844,0.623634,2.29238,7.72906,11.9455,2.9258900000000003,21.6868,11.8959,-50.1818,0.235605,0.154019,0.925668,273.2,4.4,52.1701,4.42724,5.7,-1.85562,103.049,4.58761,50.3832,-9.5001,238.562,1.3591,0.311152,244.01,0.595071,1.47329,-34.869430541992195,22.0153865814209,-35.0,22.0,-1035550.0,-2215.04,pp-riro,4,0,-1,-1
1570535398.6,2019-10-08,13:49:58.600,14.0,8.0,14.6499996185303,13.6,1.8,2.4,21.2,-5.9,-41.5,12.2544,2.23659,2.84104,8.28307,11.7488,4.25922,24.6164,10.0362,-41.7976,0.211799,0.134629,0.984072,273.2,4.4,52.1701,4.42724,5.9,-1.84565,99.4117,4.58769,50.4416,-7.98004,238.362,1.35974,0.2816,243.772,0.715002,1.5827,-34.970123291015604,22.0009689331055,-35.0,22.0,-1035890.0,-3599.45,pp-riro,4,0,-1,-1
1570535398.7,2019-10-08,13:49:58.700,14.0,8.0,14.460000038147,14.0,3.0,2.7,22.6,-7.5,-36.7,12.8153,3.3351800000000003,3.20695,0.863568,8.35142,3.07117,26.3205,8.37218,-35.989000000000004,0.120567,0.152171,0.905572,273.2,4.4,52.1701,4.42724,5.9,-1.87446,90.2629,4.58778,50.6461,-6.839989999999999,238.262,1.3595,0.258854,243.682,0.827815,1.68525,-34.973541259765604,22.0009689331055,-35.0,22.0,-1036800.0,-7721.89,pp-riro,4,0,-1,-1
1570535398.8,2019-10-08,13:49:58.800,14.0,8.0,14.3400001525879,14.5,4.2,3.1,24.0,-9.0,-31.8,13.1809,4.48739,3.56199,4.11805,11.1519,3.688,27.9429,6.692010000000001,-30.6639,0.146445,0.15638,0.997588,273.2,4.4,52.1701,4.42724,5.9,-1.92544,87.6894,4.58786,50.9381,-4.93992,238.062,1.35905,0.221202,243.501,0.957412,1.79414,-34.9854888916016,22.0009689331055,-35.0,22.0,-1037740.0,-9875.4,pp-riro,4,0,-1,-1
1570535398.9,2019-10-08,13:49:58.900,14.0,8.0,14.1499996185303,14.8,5.4,3.4,25.3,-10.5,-26.7,13.3566,5.03648,3.74352,0.656562,10.3748,2.5541400000000003,28.6024,5.73463,-27.9067,0.1937819999999999,0.174274,0.998252,273.2,4.4,52.1701,4.42724,5.9,-1.96201,87.4099,4.58795,51.3762,-3.79987,237.862,1.35751,0.198267,243.377,1.07575,1.88441,-34.9923248291016,22.0009689331055,-35.0,22.0,-1038300.0,-10336.9,pp-riro,4,0,-1,-1
1570535399.0,2019-10-08,13:49:59.000,14.0,8.0,14.0900001525879,15.2,6.6,3.8,26.2,-12.2,-21.7,13.8069,6.73402,4.3303400000000005,0.32237,10.9748,5.84026,30.5854,3.00141,-19.9835,0.106743,0.168337,0.84867,273.2,4.4,52.1701,4.42724,5.9,-2.05952,86.8857,4.58804,51.9312,-2.27981,237.662,1.3554700000000002,0.168226,243.28,1.2001,1.97405,-34.9923248291016,22.0009689331055,-35.0,22.0,-1039870.0,-11505.9,pp-riro,4,0,-1,-1
1570535399.1,2019-10-08,13:49:59.100,14.0,8.0,13.960000038147,15.4,7.8,4.2,27.1,-13.8,-16.7,13.9441,7.28856,4.54638,3.54129,13.2019,2.23177,31.214,2.03368,-17.3002,0.0965748,0.203415,0.951362,265.1,4.6,52.1701,4.42724,5.9,-2.0972,87.3874,4.5881300000000005,52.5737,-0.379736,237.462,1.35291,0.1314779999999999,243.213,1.33046,2.06935,-34.9923248291016,22.0009689331055,-35.0,22.0,-1040460.0,-11382.9,pp-riro,4,0,-1,-1
1570535399.2,2019-10-08,13:49:59.200,14.0,9.0,13.8999996185303,15.7,8.9,4.6,27.9,-15.6,-11.8,14.2128,8.93425,5.12864,1.57752,11.3753,5.483969999999999,32.3558,-0.828073,-9.4138,0.176689,0.150232,0.976948,265.1,4.6,52.1701,4.42724,5.9,-2.16037,90.4055,4.58821,53.3331,0.760315,237.162,1.3495700000000002,0.109925,243.086,1.44453,2.13756,-34.9957275390625,22.0009689331055,-35.0,22.0,-1041560.0,-10982.9,pp-riro,4,0,-1,-1
1570535399.3,2019-10-08,13:49:59.300,14.0,9.0,13.8999996185303,15.8,10.2,5.0,28.5,-17.2,-6.8,14.4187,10.0665,5.54161,-1.16154,13.3833,6.04957,32.72,-2.90867,-4.09661,0.117123,0.266932,0.948707,265.1,4.6,52.1701,4.42724,5.9,-2.2113400000000003,93.2577,4.58828,54.2093,2.66039,236.762,1.34545,0.0750689,242.903,1.57214,2.22845,-34.9991455078125,22.0009689331055,-35.0,22.0,-1042480.0,-9690.81,pp-riro,4,0,-1,-1
1570535399.4,2019-10-08,13:49:59.400,14.0,10.0,13.960000038147,15.7,11.4,5.4,28.3,-19.3,-1.6,14.335,11.7587,6.15404,0.903411,11.7161,2.63706,32.7377,-5.95184,4.29465,-0.00598651,0.1655309999999999,0.998568,265.1,4.6,52.1701,4.42724,5.9,-2.24293,95.0122,4.58836,55.2023,4.18046,236.362,1.34072,0.0484456,242.759,1.69652,2.30877,-35.0042724609375,22.0009689331055,-35.0,22.0,-1043340.0,-8091.06,pp-riro,4,0,-1,-1
1570535399.5,2019-10-08,13:49:59.500,14.0,10.0,14.0900001525879,15.6,12.5,5.8,28.0,-21.3,3.7,14.2055,12.8348,6.50577,-3.88593,11.2915,4.13313,32.2186,-7.95865,10.0792,0.0305962,0.253735,0.995554,265.1,4.6,52.1701,4.42724,5.9,-2.28725,98.3568,4.588430000000001,56.3122,6.08054,235.962,1.33522,0.0163938,242.665,1.8265,2.38693,-35.0059814453125,22.0009689331055,-35.0,22.0,-1044470.0,-6337.48,pp-riro,4,0,-1,-1
1570535399.6,2019-10-08,13:49:59.600,14.0,10.0,14.2799997329712,15.5,13.8,6.2,28.1,-22.9,9.5,13.9129,13.913,6.865660000000001,-4.72168,12.3489,5.1102,31.6689,-9.94293,15.9421,-0.00854136,0.223384,0.970573,265.1,4.6,52.1701,4.427230000000001,6.0,-2.29224,100.157,4.588509999999999,57.5681,7.2206,235.462,1.3292,-0.000893652,242.505,1.94772,2.4544900000000003,-35.0042724609375,22.0009689331055,-35.0,22.0,-1044740.0,-5106.91,pp-riro,4,0,-1,-1
1570535399.7,2019-10-08,13:49:59.700,14.0,10.0,14.5200004577637,15.1,15.0,6.7,27.4,-24.8,15.5,13.9129,13.913,6.865660000000001,-4.72168,12.3489,5.1102,31.6689,-9.94293,15.9421,-0.00854136,0.223384,0.970573,265.1,4.6,52.1701,4.427230000000001,6.0,-2.29778,104.237,4.58858,58.9408,9.12068,234.862,1.32211,-0.0297189,242.317,2.08306,2.5363900000000004,-35.0042724609375,22.0009689331055,-35.0,22.0,-1045290.0,-5199.2,pp-riro,4,0,-1,-1
1570535399.8,2019-10-08,13:49:59.800,14.0,10.0,14.7600002288818,14.7,16.2,7.1,26.6,-26.5,21.5,13.8138,14.5394,7.06312,-4.45985,9.23292,2.67364,31.2338,-10.9568,19.1153,-0.186024,0.290672,1.08092,265.1,4.6,52.1701,4.427230000000001,6.0,-2.28116,110.003,4.58866,60.4012,10.6408,234.262,1.31474,-0.0506466,242.157,2.20832,2.60692,-35.0059814453125,22.0009689331055,-35.0,22.0,-1045480.0,-1107.52,pp-riro,4,0,-1,-1
1570535399.9,2019-10-08,13:49:59.900,14.0,10.0,15.0600004196167,14.0,17.5,7.5,25.7,-27.7,27.8,13.2051,16.1875,7.68663,-6.68749,9.50283,3.5776,29.5473,-13.4352,28.5033,0.0844896,0.269683,1.05281,265.1,4.6,52.1701,4.427230000000001,6.0,-2.23129,117.938,4.58873,62.0368,11.7808,233.562,1.30675,-0.063971,241.947,2.32767,2.67979,-35.0059814453125,22.0009689331055,-35.0,22.0,-1045410.0,1753.58,pp-riro,4,0,-1,-1
1570535400.0,2019-10-08,13:50:00.000,14.0,10.0,15.4099998474121,13.2,18.9,8.0,24.8,-28.9,34.4,12.591,17.3544,8.15375,-8.50402,10.8573,4.87241,28.3448,-14.8778,34.7695,0.0907723999999999,0.317528,1.0642200000000002,265.1,4.6,52.1701,4.427230000000001,6.0,-2.14762,125.577,4.58881,63.8184,13.6809,232.762,1.29741,-0.0875938,241.74,2.45943,2.76498,-35.0042724609375,22.0009689331055,-23.0044822692871,22.0,-1044910.0,4922.32,pp-riro,4,0,-1,-1
1570535400.1,2019-10-08,13:50:00.100,14.0,10.0,15.6899995803833,12.3,20.1,8.5,23.8,-30.2,40.7,11.4159,19.0632,8.90823,-8.47752,11.5025,4.14353,26.3168,-16.5925,44.4496,-0.0032433,0.222887,1.04383,243.4,4.8,52.1701,4.427230000000001,6.0,-2.02351,131.484,4.58878,65.7461,14.821,231.962,1.28803,-0.0981565,241.554,2.57317,2.8332900000000003,-35.0042724609375,22.0009689331055,-22.3721313476562,22.0,-1044090.0,9167.82,pp-riro,4,0,-1,-1
1570535400.2,2019-10-08,13:50:00.200,14.0,10.0,15.9700002670288,11.2,21.3,8.9,22.6,-31.2,47.3,10.4364,20.1142,9.35053,-12.1965,8.976389999999999,5.77257,24.7991,-17.5458,50.8667,0.064532,0.269605,1.03699,243.4,4.8,52.1701,4.427230000000001,6.0,-1.798,143.585,4.58869,67.7322,15.961,231.162,1.27839,-0.1077279999999999,241.409,2.6880900000000003,2.90433,-34.789215087890604,22.0009689331055,-21.5818901062012,22.0,-1042460.0,11782.8,pp-riro,4,0,-1,-1
1570535400.3,2019-10-08,13:50:00.300,14.0,11.0,16.2999992370605,10.1,22.4,9.4,21.3,-31.6,54.2,9.40785,21.1403,9.73847,-10.614,9.24396,5.3518300000000005,23.2277,-18.4439,57.3678,0.0385931,0.318448,1.00247,243.4,4.8,52.1701,4.427230000000001,6.0,-1.58745,152.917,4.5886,69.8935,17.4811,230.262,1.26756,-0.121295,241.27,2.80813,2.9746,-34.2003784179688,22.0019989013672,-20.9838905334473,22.0,-1041100.0,13967.1,pp-riro,4,0,-1,-1
1570535400.4,2019-10-08,13:50:00.400,14.0,10.0,16.5100002288818,8.9,23.5,9.9,19.7,-32.4,61.1,9.40785,21.1403,9.73847,-10.614,9.24396,5.3518300000000005,23.2277,-18.4439,57.3678,0.0385931,0.318448,1.00247,243.4,4.8,52.1701,4.427230000000001,6.0,-1.46832,156.658,4.588509999999999,72.2009,18.2412,229.262,1.25672,-0.123589,241.053,2.9176900000000003,3.03482,-33.2531127929688,22.0009689331055,-20.2804336547852,22.0,-1040350.0,14367.0,pp-riro,4,0,-1,-1
1570535400.5,2019-10-08,13:50:00.500,14.0,11.0,16.7800006866455,7.5,24.4,10.1,18.2,-32.9,68.0,9.40785,21.1403,9.73847,-10.614,9.24396,5.3518300000000005,23.2277,-18.4439,57.3678,0.0385931,0.318448,1.00247,243.4,4.8,52.1701,4.427230000000001,6.0,-1.19072,163.87400000000002,4.588419999999999,74.5082,19.0012,228.362,1.246,-0.1257319999999999,240.96,3.02527,3.09642,-31.5770568847656,22.0025119781494,-19.5572319030762,22.0,-1038930.0,13659.4,pp-riro,4,0,-1,-1
1570535400.6,2019-10-08,13:50:00.600,14.0,10.0,16.9400005340576,6.0,25.1,10.5,16.6,-33.2,75.0,6.36699,23.2683,10.5743,-11.8634,6.3519,1.01441,18.7325,-20.6675,74.1229,-0.0590903,0.2196429999999999,1.00715,243.4,4.8,52.1701,4.427230000000001,6.0,-0.746903,169.46400000000003,4.58833,77.02,20.1413,227.262,1.23385,-0.131724,240.802,3.1364,3.1612,-30.7458648681641,22.003026962280305,-18.9624195098877,22.0,-1037260.0,9906.17,pp-riro,4,0,-1,-1
1570535400.7,2019-10-08,13:50:00.700,14.0,10.0,17.1399993896484,4.5,25.6,10.6,14.4,-33.5,81.6,5.02185,23.8773,10.7247,-16.323,8.67786,1.40491,16.9689,-21.6295,80.6749,0.170545,0.071108,0.896141,243.4,4.8,52.1701,4.427230000000001,6.0,-0.408359,168.145,4.58824,79.4734,20.9014,226.262,1.22242,-0.133029,240.722,3.23642,3.21865,-28.29833984375,22.0035419464111,-18.3667545318604,22.0,-1036600.0,5414.55,pp-riro,4,0,-1,-1
1570535400.8,2019-10-08,13:50:00.800,14.0,10.0,17.3500003814697,3.0,25.9,10.5,12.6,-33.0,88.1,3.59886,24.2767,10.7691,-20.4862,5.7432,-2.43765,15.0504,-22.399,86.8954,0.31503,0.0431761999999999,0.949795,243.4,4.8,52.1701,4.427230000000001,6.0,-0.25377,166.266,4.58815,82.0437,21.2814,225.162,1.21077,-0.129608,240.586,3.33094,3.2700400000000003,-26.1802368164062,22.003026962280305,-17.7850303649902,22.0,-1036430.0,3199.51,pp-riro,4,0,-1,-1
1570535400.9,2019-10-08,13:50:00.900,14.0,9.0,17.5499992370605,1.5,26.0,10.3,10.5,-32.6,94.4,2.19519,24.4697,10.6073,-17.7543,3.39523,-5.49074,13.2334,-22.859,92.9868,0.193829,0.111396,0.872985,243.4,4.8,52.1701,4.427230000000001,6.0,0.200578,160.281,4.58806,84.6723,21.2815,224.162,1.19939,-0.121914,240.563,3.41879,3.31685,-24.0809020996094,22.003026962280305,-17.1759834289551,22.0,-1036560.0,-2522.69,pp-riro,4,0,-1,-1
1570535401.0,2019-10-08,13:50:01.000,14.0,9.0,17.6499996185303,0.1,25.8,10.2,8.6,-32.0,100.3,0.868402,24.5043,10.3892,-9.46618,-4.45632,-3.87522,11.3738,-23.196,98.6232,0.0720813,0.104592,0.8246370000000001,243.4,4.8,52.1701,4.427230000000001,6.0,0.359599,156.085,4.58798,87.3594,21.6615,223.162,1.18743,-0.118643,240.628,3.50485,3.3637300000000003,-21.6760559082031,22.0025119781494,-16.7447814941406,22.0,-1036580.0,2614.98,pp-riro,4,0,-1,-1
1570535401.1,2019-10-08,13:50:01.100,14.0,8.0,17.75,-1.0,25.6,10.0,7.0,-31.3,105.3,-0.392675,24.4179,10.2018,-17.0492,-0.623951,0.662307,9.83418,-23.0191,103.732,-0.111122,0.118122,0.679603,244.8,5.6,52.1701,4.427230000000001,6.0,0.262635,155.986,4.58793,89.9296,21.6616,222.161,1.17626,-0.111916,240.65,3.57505,3.39772,-20.0290145874023,22.003026962280305,-16.451099395752,22.0,-1036410.0,3445.62,pp-riro,4,0,-1,-1
1570535401.2,2019-10-08,13:50:01.200,14.0,8.0,17.8899993896484,-2.3,25.6,10.1,5.5,-29.7,110.1,-0.981599,24.3033,10.1329,-6.10732,-0.980441,-1.19001,8.893239999999999,-22.9218,106.271,-0.00274101,0.144095,0.8310299999999999,244.8,5.6,52.1701,4.427230000000001,6.0,0.333003,183.621,4.5879,92.4999,21.6616,221.161,1.16507,-0.105545,240.703,3.64632,3.43841,-18.6550598144531,22.0035419464111,-16.0555038452148,22.0,-1036570.0,-1015.23,pp-riro,4,0,-1,-1
1570535401.3,2019-10-08,13:50:01.300,14.0,9.0,17.9899997711182,-3.4,25.4,10.3,3.8,-29.0,114.7,-2.10177,24.2246,10.1211,-11.5516,-1.49452,4.84503,7.21877,-22.2579,110.768,-0.0496452,0.250938,0.764843,244.8,5.6,52.1701,4.427230000000001,6.0,0.324138,194.052,4.58786,95.0701,21.2816,220.161,1.15419,-0.0956955,240.754,3.70884,3.46843,-17.545654296875,22.0035419464111,-15.774920463562,22.0,-1036450.0,1015.23,pp-riro,4,0,-1,-1
1570535401.4,2019-10-08,13:50:01.400,14.0,10.0,18.0400009155273,-4.5,25.2,10.2,1.7,-28.4,118.9,-3.29259,24.2452,10.1613,-10.8693,-1.22876,0.0539883,5.08412,-21.3329,115.502,0.0961001,0.2907409999999999,0.83746,244.8,5.6,52.1701,4.427230000000001,6.0,0.324692,195.499,4.58783,97.6404,20.9017,219.061,1.14311,-0.086341,240.745,3.76546,3.50043,-17.0728759765625,22.0035419464111,-15.5030813217163,22.0,-1036450.0,0.0,pp-riro,4,0,-1,-1
1570535401.5,2019-10-08,13:50:01.500,14.0,10.0,18.229999542236303,-5.0,25.1,10.1,-0.1,-26.9,122.9,-4.2337,23.9896,10.0644,-2.6227,-1.39722,4.81385,3.0196400000000003,-20.8974,119.855,-0.160399,0.204775,0.691067,244.8,5.6,52.1701,4.427230000000001,6.0,0.357383,203.698,4.58779,100.24,20.5217,217.961,1.1319,-0.0773373,240.783,3.82427,3.51113,-16.3218994140625,22.0035419464111,-15.7008123397827,22.0,-1036430.0,553.761,pp-riro,4,0,-1,-1
1570535401.6,2019-10-08,13:50:01.600,14.0,11.0,18.4300003051758,-6.1,25.0,10.1,-1.0,-26.3,124.5,-5.83165,23.9119,9.84102,-10.7221,-1.20361,2.32575,-0.404936,-19.6249,125.353,-0.328713,0.247751,0.460563,244.8,5.6,52.1701,4.427230000000001,5.9,0.376776,224.793,4.58775,102.752,20.1417,217.461,1.12206,-0.0689338999999999,241.357,3.84346,3.54306,-15.686981201171902,22.0035419464111,-15.430814743042,22.0,-1036370.0,-61.529,pp-riro,4,0,-1,-1
1570535401.7,2019-10-08,13:50:01.700,14.0,11.0,18.659999847412102,-7.8,24.7,10.4,-4.1,-24.4,129.6,-5.83165,23.9119,9.84102,-10.7221,-1.20361,2.32575,-0.404936,-19.6249,125.353,-0.328713,0.247751,0.460563,244.8,5.6,52.1701,4.427230000000001,5.9,0.403926,233.525,4.58772,105.263,19.3818,215.761,1.1103,-0.0574334,240.85,3.92012,3.5919300000000005,-15.4582672119141,22.003026962280305,-14.8807010650635,22.0,-1036360.0,61.529,pp-riro,4,0,-1,-1
1570535401.8,2019-10-08,13:50:01.800,14.0,11.0,18.9899997711182,-8.3,24.6,10.4,-5.1,-23.8,131.3,-5.83165,23.9119,9.84102,-10.7221,-1.20361,2.32575,-0.404936,-19.6249,125.353,-0.328713,0.247751,0.460563,244.8,5.6,52.1701,4.427230000000001,5.9,0.435509,261.266,4.587680000000001,107.775,18.2418,215.161,1.10075,-0.0429607,241.335,3.9362,3.59688,-15.3661041259766,22.004056930542003,-15.0018911361694,22.0,-1036280.0,153.822,pp-riro,4,0,-1,-1
1570535401.9,2019-10-08,13:50:01.900,14.0,11.0,19.8099994659424,-10.2,24.6,10.5,-7.7,-21.6,135.5,-8.01178,23.5852,10.0387,-6.24144,-0.194633,-3.8194,-5.72152,-17.7732,131.795,-0.283088,-0.00263008,0.369688,244.8,5.6,52.1701,4.427230000000001,5.9,0.464321,274.661,4.58765,110.258,17.4818,213.461,1.08894,-0.0325007999999999,240.89,4.00373,3.65017,-15.0896072387695,22.004571914672898,-14.465428352356,22.0,-1036280.0,0.0,pp-riro,4,0,-1,-1
1570535402.0,2019-10-08,13:50:02.000,14.0,15.0,20.3299999237061,-10.9,24.3,10.8,-8.6,-21.4,136.7,-9.31981,23.6602,10.0023,-16.205,-0.0929488999999999,1.01281,-8.55382,-16.6268,134.579,-0.3856489999999999,0.2375789999999999,0.5442640000000001,244.8,5.6,52.1701,4.427230000000001,5.9,0.511972,308.284,4.58761,111.426,17.1018,212.961,1.08395,-0.0275125,240.958,4.01856,3.66914,-14.8660202026367,22.004571914672898,-14.3055286407471,22.0,-1036250.0,276.88,pp-riro,4,0,-1,-1
1570535402.1,2019-10-08,13:50:02.100,14.0,13.0,20.6399993896484,-12.7,23.7,11.3,-12.1,-21.1,140.9,-11.4861,23.1533,10.8178,-6.31104,-2.64874,8.34259,-12.6741,-15.7467,139.016,-0.105124,-0.129143,0.397846,246.6,5.1,52.1701,4.427230000000001,5.9,0.600625,346.237,4.58758,115.136,15.2018,210.961,1.06757,-0.00646275,240.815,4.0644800000000005,3.70987,-14.4461517333984,22.0050868988037,-14.1327219009399,22.0,-1036180.0,1476.7,pp-riro,4,0,-1,-1
1570535402.2,2019-10-08,13:50:02.200,14.0,14.0,20.6800003051758,-13.8,23.3,11.2,-13.7,-20.4,143.5,-11.4861,23.1533,10.8178,-6.31104,-2.64874,8.34259,-12.6741,-15.7467,139.016,-0.105124,-0.129143,0.397846,246.6,5.1,52.1701,4.427230000000001,5.9,0.606166,352.756,4.58755,117.531,14.0618,209.561,1.05663,0.0057607,240.68,4.097180000000001,3.7387,-14.2089080810547,22.0050868988037,35.0,22.0,-1036080.0,1999.69,pp-riro,4,0,-1,-1
1570535402.3,2019-10-08,13:50:02.300,14.0,12.0,20.9699993133545,-14.6,23.1,11.6,-14.9,-19.7,145.8,-11.4861,23.1533,10.8178,-6.31104,-2.64874,8.34259,-12.6741,-15.7467,139.016,-0.105124,-0.129143,0.397846,246.6,5.1,52.1701,4.427230000000001,5.9,0.756877,370.134,4.58752,119.809,12.1618,208.161,1.04632,0.0237016,240.485,4.12075,3.74571,-14.1440505981445,22.0050868988037,35.0,22.0,-1036920.0,-17966.5,pp-riro,4,0,-1,-1
1570535402.4,2019-10-08,13:50:02.400,14.0,11.0,21.510000228881804,-16.3,22.0,11.1,-16.6,-18.8,148.3,-12.4834,22.7612,10.7383,-12.9037,-7.00904,-0.4128239999999999,-15.1522,-15.6912,141.428,-0.0768074,-0.112119,0.350896,246.6,5.1,52.1701,4.427230000000001,5.9,1.4217799999999998,353.29400000000004,4.5875,122.116,11.0219,206.861,1.03574,0.0348656,240.469,4.1547,3.80611,-13.9153442382812,22.0056018829346,35.0,22.0,-1039090.0,10429.2,pp-riro,4,0,-1,-1
1570535402.5,2019-10-08,13:50:02.500,14.0,11.0,22.1599998474121,-16.5,21.6,10.7,-17.1,-18.3,149.5,-15.8713,20.8472,10.4773,-6.6482,-6.41581,-8.88713,-20.0619,-14.5027,148.988,0.0371863,-0.0431858,0.3806739999999999,246.6,5.1,52.1701,4.427230000000001,5.9,1.29434,330.756,4.58747,123.168,10.2619,206.261,1.03095,0.0417819,240.456,4.17033,3.81647,-13.3435745239258,22.004571914672898,35.0,22.0,-1037600.0,29749.3,pp-riro,4,0,-1,-1
1570535402.6,2019-10-08,13:50:02.600,14.0,5.0,22.510000228881804,-16.8,20.5,10.3,-17.6,-17.1,151.7,-15.8713,20.8472,10.4773,-6.6482,-6.41581,-8.88713,-20.0619,-14.5027,148.988,0.0371863,-0.0431858,0.3806739999999999,246.6,5.1,52.1701,4.427230000000001,5.8,1.13864,325.558,4.58744,125.358,8.36185,204.961,1.02089,0.0583410999999999,240.403,4.198169999999999,3.83372,-12.4236221313477,22.0050868988037,35.0,22.0,-1037070.0,-10152.3,pp-riro,4,0,-1,-1
1570535402.7,2019-10-08,13:50:02.700,14.0,6.0,22.7000007629395,-17.4,19.5,10.4,-17.8,-16.1,153.3,-16.1499,19.7505,10.1485,-6.80144,-9.5937,3.93441,-20.9503,-13.7148,151.14700000000002,0.0235087,-0.0600735,0.343183,246.6,5.1,52.1701,4.427230000000001,5.8,1.22064,337.663,4.58742,127.344,6.84185,203.861,1.01179,0.0712968,240.463,4.21888,3.85622,-11.1418304443359,22.004056930542003,35.0,22.0,-1037110.0,-769.112,pp-riro,4,0,-1,-1
1570535402.8,2019-10-08,13:50:02.800,14.0,7.0,22.7399997711182,-17.4,18.8,10.2,-18.2,-15.5,154.9,-16.1499,19.7505,10.1485,-6.80144,-9.5937,3.93441,-20.9503,-13.7148,151.14700000000002,0.0235087,-0.0600735,0.343183,246.6,5.1,52.1701,4.427230000000001,5.8,1.16579,326.567,4.58742,129.27200000000002,4.94184,202.661,1.00266,0.0867565,240.431,4.23426,3.85872,-9.49991607666016,22.004056930542003,35.0,22.0,-1036190.0,7691.12,pp-riro,4,0,-1,-1
1570535402.9,2019-10-08,13:50:02.900,14.0,8.0,22.7000007629395,-17.3,18.3,9.7,-18.1,-14.6,156.2,-16.8584,18.3273,10.2416,2.00283,-3.52857,-0.912979,-21.6199,-12.8247,153.942,-0.151789,-0.0982691,0.309695,246.6,5.1,52.1701,4.427230000000001,5.8,1.14473,308.586,4.587359999999999,131.112,3.42184,201.561,0.993925,0.0989336,240.476,4.25082,3.86201,-7.50128173828125,22.004056930542003,35.0,22.0,-1035890.0,2676.51,pp-riro,4,0,-1,-1
1570535403.0,2019-10-08,13:50:03.000,14.0,8.0,22.469999313354503,-17.7,18.0,10.0,-18.2,-13.7,157.3,-16.795,17.5515,9.64751,-2.08792,-1.06067,-0.8690979999999999,-21.6498,-12.3451,156.453,0.0480958,-0.0210847,0.184421,246.6,5.1,52.1701,4.427230000000001,5.8,1.13199,319.385,4.58734,132.894,1.90184,200.561,0.985559,0.110743,240.601,4.26497,3.8654,-5.398529052734379,22.004571914672898,35.0,22.0,-1035490.0,3414.86,pp-riro,4,0,-1,-1
1570535403.1,2019-10-08,13:50:03.100,14.0,9.0,22.469999313354503,-17.9,17.6,10.4,-18.6,-13.7,158.8,-17.1561,17.152,9.72159,-3.95397,-5.55958,2.85455,-21.8345,-12.0392,157.746,-0.236731,0.0636759,0.0333180999999999,240.0,5.1,52.1701,4.427230000000001,5.8,1.19128,346.207,4.58723,134.763,0.00182955,199.361,0.976376,0.125148,240.636,4.274859999999999,3.86169,-3.29578399658203,22.004571914672898,35.0,22.0,-1035570.0,-1507.46,pp-riro,4,0,-1,-1
1570535403.2,2019-10-08,13:50:03.200,14.0,8.0,22.5400009155273,-18.0,17.3,10.6,-18.9,-13.6,159.3,-17.7553,16.7012,10.33,-1.61753,-9.48341,-0.032295,-22.4695,-12.08,160.138,-0.0637099,-0.185553,-0.131346,240.0,5.1,52.1701,4.427230000000001,5.8,1.22231,358.807,4.5871,136.486,-2.27819,198.16,0.967584,0.141978,240.627,4.26922,3.85393,-1.18962097167969,22.004571914672898,35.0,22.0,-1035200.0,4860.79,pp-riro,4,0,-1,-1
1570535403.3,2019-10-08,13:50:03.300,14.0,5.0,22.6200008392334,-18.2,16.8,10.8,-19.3,-15.0,159.1,-17.7553,16.7012,10.33,-1.61753,-9.48341,-0.032295,-22.4695,-12.08,160.138,-0.0637099,-0.185553,-0.131346,240.0,5.1,52.1701,4.427230000000001,5.8,1.21621,351.456,4.5869800000000005,138.998,-4.55819,196.46,0.954793,0.158195,240.703,4.24026,3.85379,0.919700622558594,22.004571914672898,35.0,22.0,-1034830.0,3414.86,pp-riro,4,0,-1,-1
1570535403.4,2019-10-08,13:50:03.400,14.0,6.0,22.5799999237061,-17.6,16.1,11.2,-19.5,-16.2,158.5,-17.7553,16.7012,10.33,-1.61753,-9.48341,-0.032295,-22.4695,-12.08,160.138,-0.0637099,-0.185553,-0.131346,240.0,5.1,52.1701,4.427230000000001,5.8,1.19183,332.275,4.58685,139.75799999999998,-5.31819,195.86,0.950687,0.163511,240.669,4.2163,3.84177,3.01626586914062,22.004571914672898,35.0,22.0,-1034260.0,6522.07,pp-riro,4,0,-1,-1
1570535403.5,2019-10-08,13:50:03.500,14.0,7.0,22.1800003051758,-16.5,16.1,11.1,-19.8,-17.5,156.0,-17.3191,15.7598,11.1692,7.532030000000001,2.26055,-6.961939999999999,-22.9211,-17.3563,159.094,0.0174201,-0.270023,-0.559589,240.0,5.1,52.1701,4.427230000000001,5.8,1.1031799999999998,275.238,4.58672,141.364,-7.2182,194.56,0.941832,0.1766829999999999,240.603,4.15834,3.80068,5.134979248046879,22.0035419464111,35.0,22.0,-1033390.0,5629.9,pp-riro,4,0,-1,-1
1570535403.6,2019-10-08,13:50:03.600,14.0,9.0,21.7000007629395,-15.5,16.3,11.0,-19.9,-17.8,153.4,-17.3191,15.7598,11.1692,7.532030000000001,2.26055,-6.961939999999999,-22.9211,-17.3563,159.094,0.0174201,-0.270023,-0.559589,240.0,5.1,52.1701,4.427230000000001,5.7,1.06882,256.642,4.5866,142.941,-8.7382,193.36,0.93332,0.186848,240.617,4.11067,3.75919,7.231536865234379,22.003026962280305,35.0,22.0,-1033050.0,6552.84,pp-riro,4,0,-1,-1
1570535403.7,2019-10-08,13:50:03.700,14.0,9.0,21.2000007629395,-14.9,17.0,12.0,-20.6,-18.9,150.9,-15.6263,16.838,11.4146,3.9028,6.09473,6.38376,-23.7309,-20.1541,153.486,-0.5389550000000001,-0.4252439999999999,-0.665977,240.0,5.1,52.1701,4.427230000000001,5.7,1.0173,258.452,4.586469999999999,144.548,-10.2582,192.16,0.924666,0.196765,240.676,4.057519999999999,3.70534,9.32981109619141,22.003026962280305,35.0,22.0,-1032620.0,-676.819,pp-riro,4,0,-1,-1
1570535403.8,2019-10-08,13:50:03.800,14.0,9.0,20.6499996185303,-13.9,17.6,13.2,-21.1,-21.5,148.9,-14.7896,17.7225,12.6963,15.012,2.86827,15.9908,-24.5036,-22.7784,151.87,0.195895,-0.29063,-0.4525409999999999,240.0,5.1,52.1701,4.427230000000001,5.7,1.05719,278.23400000000004,4.58635,146.27100000000002,-11.7782,190.86,0.915335,0.206393,240.752,3.99902,3.64045,11.4365997314453,22.004056930542003,35.0,22.0,-1032720.0,-2030.46,pp-riro,4,0,-1,-1
1570535403.9,2019-10-08,13:50:03.900,14.0,12.0,20.270000457763697,-12.6,18.1,13.9,-21.7,-24.0,145.6,-14.2925,18.0939,13.2398,13.3147,9.21779,9.70538,-24.8082,-24.0967,150.747,-0.0835508999999999,-0.261004,-0.476804,240.0,5.1,52.1701,4.427230000000001,5.7,1.13919,309.282,4.58622,147.965,-13.2982,189.56,0.906063,0.215804,240.83900000000003,3.92413,3.57447,13.5485000610352,22.004056930542003,35.0,22.0,-1032560.0,3568.68,pp-riro,4,0,-1,-1
1570535404.0,2019-10-08,13:50:04.000,14.0,15.0,19.7399997711182,-11.5,18.9,14.7,-21.4,-26.0,141.5,-13.7062,18.4174,13.7327,13.1375,9.19701,13.7452,-25.1584,-25.4799,149.571,-0.170905,-0.291267,-0.495039,240.0,5.1,52.1701,4.427230000000001,5.7,1.13365,310.22900000000004,4.58609,149.717,-14.4382,188.16,0.896431,0.222436,240.89,3.84547,3.51295,15.6620941162109,22.004571914672898,35.0,22.0,-1032360.0,3753.27,pp-riro,4,0,-1,-1
1570535404.1,2019-10-08,13:50:04.100,14.0,15.0,19.4200000762939,-10.5,19.7,15.8,-20.5,-29.0,136.9,-12.69,19.3626,14.6529,14.9089,8.27079,13.1474,-25.2304,-28.5375,145.855,-0.196388,-0.220578,-0.785496,258.9,4.1,52.1701,4.427230000000001,5.7,1.14972,324.863,4.58602,151.58700000000002,-15.1981,186.76,0.886534,0.226285,241.016,3.75577,3.45709,17.7654800415039,22.004571914672898,35.0,22.0,-1032140.0,1692.05,pp-riro,4,0,-1,-1
1570535404.2,2019-10-08,13:50:04.200,14.0,12.0,19.3299999237061,-8.9,20.0,17.0,-18.4,-33.2,131.6,-12.2754,19.8986,15.233,4.68123,9.65999,9.88162,-25.3931,-30.6167,143.58,-0.381785,-0.410959,-1.04203,258.9,4.1,52.1701,4.427230000000001,5.7,1.23671,377.844,4.58601,153.485,-16.7181,185.16,0.875761,0.234877,241.084,3.64749,3.38509,19.8841857910156,22.004571914672898,35.0,22.0,-1032140.0,-1107.52,pp-riro,4,0,-1,-1
1570535404.3,2019-10-08,13:50:04.300,14.0,11.0,19.4699993133545,-6.6,20.1,17.6,-14.8,-37.5,124.0,-9.37672,21.2678,18.1027,16.9531,2.93516,7.77687,-22.1772,-39.7218,132.90200000000002,-0.0700804,-0.363707,-1.18099,258.9,4.1,52.1701,4.427230000000001,5.7,1.27771,382.287,4.58599,155.442,-17.4781,183.56,0.865052,0.23836,241.168,3.51778,3.29896,21.9977874755859,22.004571914672898,35.0,22.0,-1032070.0,1292.11,pp-riro,4,0,-1,-1
1570535404.4,2019-10-08,13:50:04.400,14.0,11.0,19.6900005340576,-4.0,20.2,17.6,-10.1,-40.6,115.2,-8.15841,21.4772,18.519,32.9949,4.76987,0.972198,-20.4571,-42.2338,129.254,-0.3869869999999999,-0.530327,-1.17377,258.9,4.1,52.1701,4.427230000000001,5.7,1.24281,361.362,4.58598,157.37,-17.858,181.86,0.854299,0.239407,241.158,3.3878699999999995,3.20428,24.1096801757812,22.004056930542003,35.0,22.0,-1031280.0,9167.82,pp-riro,4,0,-1,-1
1570535404.5,2019-10-08,13:50:04.500,14.0,10.0,19.9500007629395,-1.3,20.2,17.7,-4.2,-42.3,105.0,-3.7113,22.0235,18.8508,34.2187,8.283710000000001,1.4230200000000002,-11.9608,-48.4587,114.819,-0.234146,-0.233838,-1.19334,258.9,4.1,52.1701,4.427230000000001,5.7,1.18961,338.102,4.58596,159.297,-18.238,180.26,0.843822,0.240413,241.251,3.25075,3.10417,26.213058471679695,22.004571914672898,23.0211448669434,22.0,-1030710.0,4768.5,pp-riro,4,0,-1,-1
1570535404.6,2019-10-08,13:50:04.600,14.0,11.0,20.1299991607666,1.5,19.8,17.5,1.5,-43.1,95.0,-3.7113,22.0235,18.8508,34.2187,8.283710000000001,1.4230200000000002,-11.9608,-48.4587,114.819,-0.234146,-0.233838,-1.19334,258.9,4.1,52.1701,4.427230000000001,5.5,1.16025,324.522,4.58594,161.254,-18.2379,178.66,0.8333969999999999,0.239075,241.361,3.12308,3.00074,27.2621994018555,22.004571914672898,23.0211448669434,22.0,-1030020.0,4460.85,pp-ro,1,1,-1,-1
1570535404.7,2019-10-08,13:50:04.700,14.0,10.0,20.340000152587898,4.4,19.1,17.1,7.9,-42.3,83.9,-3.7113,22.0235,18.8508,34.2187,8.283710000000001,1.4230200000000002,-11.9608,-48.4587,114.819,-0.234146,-0.233838,-1.19334,258.9,4.1,52.1701,4.427230000000001,5.5,1.15582,322.861,4.58593,163.094,-17.8578,177.06,0.8234610000000001,0.235517,241.389,2.98275,2.8909,29.3366241455078,22.004571914672898,23.0211448669434,22.0,-1029860.0,3014.92,pp-ro,1,1,-1,-1
1570535404.8,2019-10-08,13:50:04.800,14.0,10.0,20.340000152587898,7.1,18.0,16.7,13.5,-40.7,73.3,-3.7113,22.0235,18.8508,34.2187,8.283710000000001,1.4230200000000002,-11.9608,-48.4587,114.819,-0.234146,-0.233838,-1.19334,258.9,4.1,52.1701,4.427230000000001,5.5,1.15083,316.407,4.58592,164.93400000000003,-17.4777,175.46,0.8135220000000001,0.2320469999999999,241.443,2.84405,2.78351,31.0840454101562,22.004571914672898,23.0211448669434,22.0,-1029320.0,4368.56,pp-ro,1,1,-1,-1
1570535404.9,2019-10-08,13:50:04.900,14.0,13.0,20.2999992370605,9.6,17.2,16.2,18.3,-37.8,63.6,-3.7113,22.0235,18.8508,34.2187,8.283710000000001,1.4230200000000002,-11.9608,-48.4587,114.819,-0.234146,-0.233838,-1.19334,258.9,4.1,52.1701,4.427230000000001,5.5,1.13975,312.213,4.5859,166.658,-16.7177,173.96,0.8043319999999999,0.226465,241.487,2.70779,2.68385,32.478912353515604,22.004571914672898,23.0211448669434,22.0,-1029130.0,3599.45,pp-ro,1,1,-1,-1
1570535405.0,2019-10-08,13:50:05.000,14.0,13.0,20.25,12.0,16.1,15.5,23.3,-35.4,54.2,10.6875,19.9958,17.3206,28.1462,-0.91432,1.55315,18.6698,-48.6838,61.9653,0.1359759999999999,0.121499,-1.15852,258.9,4.1,52.1701,4.427230000000001,5.5,1.1403,311.666,4.58589,168.293,-15.5776,172.56,0.795782,0.218803,241.541,2.57615,2.58333,33.512725830078104,22.004571914672898,22.5937232971191,22.0,-1028800.0,3660.97,pp-ro,1,1,-1,-1
1570535405.1,2019-10-08,13:50:05.100,14.0,13.0,19.9899997711182,14.0,14.7,14.6,27.9,-32.4,44.6,13.3553,18.7013,16.4813,28.5074,-19.0436,-4.50089,24.4164,-46.3547,50.1194,-0.5547949999999999,-0.362217,-1.0692700000000002,257.2,3.8,52.1701,4.427230000000001,5.5,1.16191,323.471,4.58589,169.87,-14.4375,171.16,0.787379,0.2112889999999999,241.578,2.43502,2.4880400000000003,34.187164306640604,22.004056930542003,20.968685150146506,22.0,-1028510.0,953.699,pp-ro,1,1,-1,-1
1570535405.2,2019-10-08,13:50:05.200,14.0,12.0,19.7199993133545,15.7,13.2,13.0,32.0,-28.6,35.5,13.3553,18.7013,16.4813,28.5074,-19.0436,-4.50089,24.4164,-46.3547,50.1194,-0.5547949999999999,-0.362217,-1.0692700000000002,257.2,3.8,52.1701,4.427230000000001,5.5,1.16911,314.826,4.58588,171.27200000000002,-13.2974,169.759,0.77946,0.203988,241.514,2.29023,2.3844,34.4954528808594,22.004056930542003,19.1656723022461,22.0,-1028320.0,3599.45,pp-ro,1,1,-1,-1
1570535405.3,2019-10-08,13:50:05.300,14.0,11.0,19.4899997711182,16.7,11.7,11.2,35.7,-24.1,27.1,17.0677,16.3755,14.7531,16.8458,-16.1057,-8.62669,32.0396,-40.6876,34.6481,-0.0907373,0.201782,-1.36479,257.2,3.8,52.1701,4.427230000000001,5.5,1.10706,290.982,4.58588,172.645,-11.3973,168.55900000000003,0.772339,0.192428,241.554,2.14701,2.29436,34.457977294921896,22.004056930542003,17.568702697753903,22.0,-1027600.0,7844.94,pp-ro,1,1,-1,-1
1570535405.4,2019-10-08,13:50:05.400,14.0,10.0,19.3999996185303,17.7,10.0,9.6,38.2,-19.1,19.8,19.8668,12.6931,10.7993,17.1456,-18.8773,-19.394,38.6912,-30.4021,16.7457,-0.528342,-0.0382376999999999,-1.3602299999999998,257.2,3.8,52.1701,4.427230000000001,5.5,1.08656,282.51,4.58589,173.78400000000002,-9.87721,167.55900000000003,0.76636,0.183284,241.608,2.00712,2.19524,33.960662841796896,22.004056930542003,15.7715797424316,22.0,-1027390.0,892.17,pp-ro,1,1,-1,-1
1570535405.5,2019-10-08,13:50:05.500,14.0,9.0,19.3099994659424,18.2,8.5,7.9,39.7,-14.1,13.5,20.2517,11.6061,9.77493,3.9838,-14.0544,-24.0225,39.5681,-27.5522,13.6042,-0.454738,-0.0392999,-1.56461,257.2,3.8,52.1701,4.427230000000001,5.5,1.09043,275.743,4.58588,174.77700000000002,-7.977130000000001,166.65900000000002,0.761109,0.172123,241.632,1.87856,2.10578,33.1159057617188,22.004056930542003,14.126485824584998,22.0,-1027030.0,4737.73,pp-ro,1,1,-1,-1
1570535405.6,2019-10-08,13:50:05.600,14.0,10.0,19.2600002288818,18.2,7.2,6.1,41.3,-8.6,7.6,20.8209,10.7965,8.74036,4.464230000000001,-4.86602,-14.1904,40.4862,-24.7625,10.367,-0.0755737,0.3229619999999999,-1.57074,257.2,3.8,52.1701,4.427230000000001,5.5,1.05442,263.062,4.58587,175.71099999999998,-6.45706,166.05900000000003,0.756828,0.163248,241.851,1.74551,2.0209200000000003,31.552413940429695,22.004571914672898,12.5554323196411,22.0,-1026670.0,3045.68,pp-ro,1,1,-1,-1
1570535405.7,2019-10-08,13:50:05.700,14.0,12.0,19.1700000762939,18.4,5.9,4.6,42.6,-3.1,2.1,20.8209,10.7965,8.74036,4.464230000000001,-4.86602,-14.1904,40.4862,-24.7625,10.367,-0.0755737,0.3229619999999999,-1.57074,257.2,3.8,52.1701,4.427230000000001,5.5,1.05774,270.658,4.58587,176.5,-4.55698,165.55900000000003,0.753259,0.152332,242.039,1.61768,1.93477,30.7706604003906,22.004571914672898,10.9165420532227,22.0,-1026450.0,1907.4,pp-ro,1,1,-1,-1
1570535405.8,2019-10-08,13:50:05.800,14.0,12.0,19.0699996948242,18.7,4.6,3.2,43.0,2.1,-3.0,21.6185,6.4501,3.96829,4.420669999999999,-17.3522,-12.0692,41.8405,-8.82522,-4.1395,0.00787618,0.1745529999999999,-1.37168,257.2,3.8,52.1701,4.427230000000001,5.5,1.09099,290.844,4.58587,177.142,-3.0369200000000003,165.259,0.750634,0.143664,242.279,1.4965700000000002,1.84387,28.946609497070305,22.004571914672898,9.16037178039551,22.0,-1026410.0,-61.529,pp-ro,1,1,-1,-1
1570535405.9,2019-10-08,13:50:05.900,14.0,14.0,19.0699996948242,18.7,3.4,1.6,43.1,6.8,-8.2,21.6185,6.4501,3.96829,4.420669999999999,-17.3522,-12.0692,41.8405,-8.82522,-4.1395,0.00787618,0.1745529999999999,-1.37168,257.2,3.8,52.1701,4.427230000000001,5.5,1.11038,292.349,4.58586,177.726,-0.756837,165.05900000000003,0.7484569999999999,0.1307829999999999,242.553,1.38366,1.75216,26.855148315429695,22.004571914672898,7.34181785583496,22.0,-1025980.0,4799.26,pp-ro,1,1,-1,-1
1570535406.0,2019-10-08,13:50:06.000,14.0,13.0,19.1200008392334,18.7,2.2,0.1,43.2,10.9,-12.6,21.6036,4.02557,1.36016,3.25213,-18.1071,-21.3438,41.2642,-0.3785679999999999,-11.9373,-0.300125,0.0493514,-1.11958,257.2,3.8,52.1701,4.427230000000001,5.5,1.10096,294.524,4.58586,178.135,0.763216,164.959,0.747009,0.122243,242.784,1.28535,1.65739,24.7568817138672,22.004571914672898,5.46016073226929,22.0,-1025800.0,3384.09,pp-ro,1,1,-1,-1
1570535406.1,2019-10-08,13:50:06.100,14.0,11.0,19.159999847412102,18.2,0.9,-1.1,42.9,15.0,-17.2,21.2679,1.79417,-1.08024,-3.91937,-17.5601,-6.1272,40.4442,7.23448,-18.7143,-0.129742,0.1584809999999999,-1.18334,251.2,3.5,52.1701,4.427230000000001,5.5,1.13753,311.678,4.58586,178.42700000000002,3.04328,165.05900000000003,0.7464270000000001,0.109471,243.084,1.1882,1.57158,22.1170043945312,22.004056930542003,3.68858599662781,22.0,-1025600.0,1784.34,pp-ro,1,1,-1,-1
1570535406.2,2019-10-08,13:50:06.200,14.0,13.0,18.979999542236303,17.7,-0.2,-2.3,42.6,18.1,-21.8,20.8567,0.991411,-1.79848,-10.5994,-14.3635,-18.5509,40.0062,9.17532,-20.9399,-0.1433029999999999,0.0470455999999999,-0.832406,251.2,3.5,52.1701,4.427230000000001,5.5,1.14584,314.699,4.58585,178.602,4.5633300000000006,165.259,0.746451,0.100996,243.373,1.10111,1.48528,20.0085144042969,22.004056930542003,1.9056541919708296,22.0,-1025460.0,2768.8,pp-ro,1,1,-1,-1
1570535406.3,2019-10-08,13:50:06.300,14.0,12.0,18.979999542236303,17.1,-0.9,-3.4,42.4,21.2,-25.7,19.696,-0.79282,-3.71219,-8.098939999999999,-10.3061,-15.8098,39.2659,14.5839,-27.1818,-0.182852,0.197439,-0.929238,251.2,3.5,52.1701,4.427230000000001,5.5,1.14141,309.232,4.5858300000000005,178.66099999999997,6.46338,165.459,0.746728,0.0903939,243.594,1.02461,1.41517,17.9034271240234,22.004056930542003,0.41902881860733,22.0,-1025100.0,3845.56,pp-ro,1,1,-1,-1
1570535406.4,2019-10-08,13:50:06.400,14.0,11.0,19.0300006866455,16.5,-1.7,-4.2,42.1,23.6,-29.3,19.696,-0.79282,-3.71219,-8.098939999999999,-10.3061,-15.8098,39.2659,14.5839,-27.1818,-0.182852,0.197439,-0.929238,251.2,3.5,52.1701,4.427230000000001,5.5,1.12479,303.775,4.58582,178.63099999999997,7.98342,165.759,0.747541,0.0819083,243.822,0.959197,1.34902,15.7881317138672,22.004056930542003,-1.00396287441254,22.0,-1024710.0,3660.97,pp-ro,1,1,-1,-1
1570535406.5,2019-10-08,13:50:06.500,14.0,12.0,19.1700000762939,16.1,-2.7,-5.1,41.8,26.0,-33.2,18.7064,-2.14976,-5.14365,-5.91456,-12.3459,-13.2132,38.5697,19.9725,-32.805,0.0487604,-0.0991976,-0.747322,251.2,3.5,52.1701,4.427230000000001,5.5,1.14695,321.888,4.5858,178.515,10.2635,166.15900000000002,0.748744,0.0691548999999999,244.094,0.8937649999999999,1.2752,13.6864547729492,22.004056930542003,-2.6327977180481,22.0,-1024390.0,1538.22,pp-ro,1,1,-1,-1
1570535406.6,2019-10-08,13:50:06.600,14.0,12.0,19.0300006866455,15.5,-3.6,-5.9,41.3,27.6,-36.2,18.0583,-3.17225,-5.99386,-4.92541,-8.00656,-6.95287,38.3135,23.0116,-35.9837,0.0678075,0.0599462,-0.783894,251.2,3.5,52.1701,4.427219999999999,5.6,1.1608,327.288,4.58579,178.28099999999998,11.7835,166.55900000000003,0.750332,0.0605934,244.264,0.8457469999999999,1.20206,11.5711517333984,22.004056930542003,-4.24503564834595,22.0,-1024300.0,1538.22,pp-ro,1,1,-1,-1
1570535406.7,2019-10-08,13:50:06.700,14.0,13.0,18.979999542236303,15.3,-4.0,-6.3,41.3,27.8,-38.0,17.2712,-4.036230000000001,-6.8046,-2.40371,-5.59855,-2.86093,38.0936,25.2352,-38.9066,0.0185745,0.0141254,-0.573944,251.2,3.5,52.1701,4.427219999999999,5.6,1.17853,337.75199999999995,4.58577,177.989,13.3035,166.759,0.751447,0.0520101,244.265,0.827609,1.17236,9.466064453125,22.004056930542003,-4.96456003189087,22.0,-1023810.0,4091.68,pp-ro,1,1,-1,-1
1570535406.8,2019-10-08,13:50:06.800,14.0,12.0,18.979999542236303,14.9,-4.9,-6.8,41.0,29.1,-42.2,17.2712,-4.036230000000001,-6.8046,-2.40371,-5.59855,-2.86093,38.0936,25.2352,-38.9066,0.0185745,0.0141254,-0.573944,251.2,3.5,52.1701,4.427219999999999,5.6,1.1813,343.974,4.58576,177.78400000000002,14.0635,167.259,0.7533479999999999,0.0476824999999999,244.501,0.765203,1.11359,7.35417175292969,22.004056930542003,-6.2842502593994105,22.0,-1023680.0,2553.45,pp-ro,1,1,-1,-1
1570535406.9,2019-10-08,13:50:06.900,14.0,11.0,19.0699996948242,14.7,-5.5,-7.1,40.8,30.0,-44.4,16.8136,-4.90738,-7.504580000000001,-5.71549,-11.3133,-2.25001,37.927,27.0391,-41.4835,0.0443482,-0.113689,-0.458796,251.2,3.5,52.1701,4.427219999999999,5.6,1.22175,359.22900000000004,4.58577,177.112,16.7236,168.05900000000003,0.7569600000000001,0.0324749,244.729,0.739494,1.08644,6.2982177734375,22.004571914672898,-7.164432525634769,22.0,-1023540.0,1568.99,pp-ro,1,1,-1,-1
1570535407.0,2019-10-08,13:50:07.000,14.0,11.0,19.2600002288818,14.4,-6.1,-7.6,40.6,30.4,-45.8,16.2318,-5.90324,-7.821280000000001,-4.5558,-2.93586,-5.26673,37.5851,29.1463,-45.1672,0.252589,0.0482186,-0.296185,251.2,3.5,52.1701,4.427219999999999,5.6,1.22508,356.154,4.58573,176.55700000000002,18.2436,168.759,0.760167,0.0236960999999999,244.918,0.724273,1.04534,3.65494537353516,22.004571914672898,-8.260983467102049,22.0,-1023080.0,5260.73,pp-ro,1,1,-1,-1
1570535407.1,2019-10-08,13:50:07.100,14.0,11.0,19.4899997711182,14.2,-6.6,-7.8,40.8,29.9,-46.8,16.2318,-5.90324,-7.821280000000001,-4.5558,-2.93586,-5.26673,37.5851,29.1463,-45.1672,0.252589,0.0482186,-0.296185,262.9,5.2,52.1701,4.427219999999999,5.6,1.20291,349.958,4.58568,175.94400000000002,19.3836,169.359,0.763317,0.016978,244.979,0.7212810000000001,1.02083,1.55326843261719,22.004571914672898,-9.01332569122314,22.0,-1022590.0,4276.26,pp-ro,1,1,-1,-1
1570535407.2,2019-10-08,13:50:07.200,14.0,11.0,19.8899993896484,14.1,-7.0,-7.8,41.2,29.2,-47.6,15.3882,-6.86591,-8.42987,-4.65765,-5.42473,-5.02987,37.2561,30.7301,-47.7925,0.23429,-0.0228092,-0.038548,262.9,5.2,52.1701,4.427219999999999,5.6,1.22175,364.811,4.58567,175.27200000000002,20.9036,169.959,0.7664810000000001,0.00801108,245.038,0.724222,1.01156,-0.556411743164062,22.004571914672898,-9.49187088012695,22.0,-1022180.0,2584.22,pp-ro,1,1,-1,-1
1570535407.3,2019-10-08,13:50:07.300,14.0,11.0,20.2399997711182,14.2,-7.2,-7.7,41.7,28.8,-47.8,15.303,-7.24012,-8.38234,-4.29501,-0.691956,0.802746,37.9399,31.0071,-48.0754,0.171783,-0.0392338,0.1062029999999999,262.9,5.2,52.1701,4.427219999999999,5.6,1.23616,366.518,4.58566,174.542,22.4237,170.65900000000002,0.770059,-0.00104726,245.137,0.7319720000000001,1.0187700000000002,-2.66939544677734,22.004571914672898,-9.68183612823486,22.0,-1022060.0,2399.63,pp-ro,1,1,-1,-1
1570535407.4,2019-10-08,13:50:07.400,14.0,10.0,20.3700008392334,14.4,-7.2,-7.3,42.6,28.2,-47.4,15.4646,-7.546689999999999,-7.864039999999999,4.362830000000001,0.401281,4.08144,38.9825,30.9179,-47.5077,0.235934,0.0497446999999999,0.175373,262.9,5.2,52.1701,4.427219999999999,5.6,1.22951,351.7,4.58565,173.87,24.3237,171.259,0.772988,-0.0122588,245.26,0.750999,1.0471,-4.66291046142578,22.004056930542003,-9.44178867340088,22.0,-1021520.0,6460.54,pp-ro,1,1,-1,-1
1570535407.5,2019-10-08,13:50:07.500,14.0,10.0,20.5,15.0,-6.7,-7.0,43.4,27.4,-46.6,15.7167,-7.3324,-7.2955,1.35225,3.70085,0.644385,39.8814,30.4744,-46.6518,0.152831,0.0726665,0.0691528,262.9,5.2,52.1701,4.427219999999999,5.6,1.16468,322.58,4.58564,173.19799999999998,25.4637,171.859,0.776171,-0.0192298,245.32,0.774066,1.09693,-6.36627197265625,22.004571914672898,-8.75430297851562,22.0,-1020840.0,6275.96,pp-ro,1,1,-1,-1
1570535407.6,2019-10-08,13:50:07.600,14.0,10.0,20.5,15.2,-6.7,-6.8,44.0,26.8,-46.1,16.2035,-7.16775,-6.897810000000001,2.79069,-0.8826209999999999,2.76185,41.1705,29.9884,-45.1545,0.0611754,0.0118452,0.262013,262.9,5.2,52.1701,4.427230000000001,5.6,1.13919,306.381,4.58563,172.81900000000002,26.2237,172.15900000000002,0.777796,-0.0238379999999999,245.342,0.789741,1.11334,-7.994537353515621,22.004571914672898,-8.60115623474121,22.0,-1020410.0,4153.21,pp-ro,1,1,-1,-1
1570535407.7,2019-10-08,13:50:07.700,14.0,10.0,20.6700000762939,15.7,-6.6,-6.3,45.0,24.9,-45.5,16.7059,-7.06967,-6.31647,2.09475,4.69575,4.63169,42.5733,28.4386,-43.7992,0.3687809999999999,-0.0598500999999999,0.2831079999999999,262.9,5.2,52.1701,4.427230000000001,5.6,1.13088,315.997,4.58562,172.14700000000002,28.1237,172.759,0.7805880000000001,-0.0351804,245.502,0.8247459999999999,1.15666,-8.89571380615234,22.004571914672898,-8.09057521820068,22.0,-1019990.0,769.112,pp-ro,1,1,-1,-1
1570535407.8,2019-10-08,13:50:07.800,14.0,9.0,20.9699993133545,16.5,-6.4,-5.8,46.7,24.2,-44.3,16.7059,-7.06967,-6.31647,2.09475,4.69575,4.63169,42.5733,28.4386,-43.7992,0.3687809999999999,-0.0598500999999999,0.2831079999999999,262.9,5.2,52.1701,4.427230000000001,5.6,1.15415,324.272,4.58561,171.475,29.2637,173.259,0.783396,-0.0422561,245.518,0.852526,1.207,-9.20976257324219,22.004571914672898,-7.397140979766849,22.0,-1019950.0,676.819,pp-ro,1,1,-1,-1
1570535407.9,2019-10-08,13:50:07.900,14.0,11.0,21.1399993896484,17.1,-6.3,-5.2,48.0,22.8,-42.4,17.6616,-6.81995,-5.18883,3.74999,1.14379,4.44337,44.3189,26.4689,-41.8856,0.0839261,0.026456,0.341466,262.9,5.2,52.1701,4.427230000000001,5.6,1.17743,335.047,4.5856,170.803,31.5438,173.859,0.78588,-0.0558366,245.756,0.901529,1.25535,-9.57672119140625,22.004571914672898,-6.829473495483401,22.0,-1019490.0,3876.33,pp-ro,1,1,-1,-1
1570535408.0,2019-10-08,13:50:08.000,14.0,9.0,21.2999992370605,17.9,-6.2,-4.6,49.4,20.8,-40.7,17.9594,-6.69567,-4.89722,8.65794,3.44766,6.52772,45.1269,25.6248,-41.1007,0.131633,0.0601154999999999,0.363807,262.9,5.2,52.1701,4.427230000000001,5.6,1.17743,335.97,4.58559,170.16099999999997,33.0638,174.259,0.788033,-0.0651234,245.793,0.951481,1.30337,-9.57160186767578,22.004571914672898,-6.19397735595703,22.0,-1019340.0,2861.1,pp-ro,1,1,-1,-1
1570535408.1,2019-10-08,13:50:08.100,14.0,9.0,21.3500003814697,18.6,-5.8,-3.9,51.1,18.8,-39.3,18.9509,-6.54741,-3.88629,7.14162,2.23863,8.59293,46.904,22.0835,-38.5563,0.177644,-0.178941,0.379079,261.8,4.4,52.1701,4.427230000000001,5.6,1.18906,339.88,4.58559,169.489,34.9638,174.55900000000003,0.789718,-0.0766346,245.805,0.9997,1.36185,-9.12612915039062,22.004571914672898,-5.36356401443481,22.0,-1019040.0,3507.15,pp-ro,1,1,-1,-1
1570535408.2,2019-10-08,13:50:08.200,14.0,9.0,21.4300003051758,19.2,-5.0,-2.8,51.8,16.8,-37.9,19.595,-5.94776,-2.8802,5.3936,9.38855,15.032,48.1343,19.0496,-37.8758,0.144476,-0.226376,0.34431,261.8,4.4,52.1701,4.427230000000001,5.6,1.20513,353.771,4.58558,168.905,36.8639,174.859,0.791088,-0.0880704,245.893,1.0483,1.44381,-8.32394409179688,22.004571914672898,-4.05315399169922,22.0,-1018620.0,1968.93,pp-ro,1,1,-1,-1
1570535408.3,2019-10-08,13:50:08.300,14.0,8.0,21.5900001525879,19.7,-4.6,-1.9,52.3,14.9,-36.2,20.1168,-5.35278,-1.91745,1.80617,7.0779,9.40041,49.0907,16.0698,-36.9229,0.1695829999999999,-0.21828,0.579549,261.8,4.4,52.1701,4.427230000000001,5.6,1.22231,357.42800000000005,4.58557,168.37900000000002,38.7639,175.05900000000003,0.791941,-0.0994526999999999,245.967,1.1,1.50271,-7.17357635498047,22.0050868988037,-3.17400217056274,22.0,-1018500.0,2368.87,pp-ro,1,1,-1,-1
1570535408.4,2019-10-08,13:50:08.400,14.0,8.0,21.6299991607666,19.9,-4.1,-1.1,53.3,12.8,-34.1,20.4617,-4.92952,-1.01391,3.20703,3.57605,8.80916,49.7662,13.5275,-35.7055,0.0805986,-0.0148126,0.403006,261.8,4.4,52.1701,4.427230000000001,5.6,1.21843,359.51300000000003,4.58556,167.94099999999997,40.6639,175.15900000000002,0.792197,-0.110732,246.046,1.15936,1.55723,-6.49086761474609,22.0056018829346,-2.33996987342834,22.0,-1017910.0,3045.68,pp-ro,1,1,-1,-1
1570535408.5,2019-10-08,13:50:08.500,14.0,10.0,21.6800003051758,20.1,-3.6,-0.2,53.7,11.3,-32.1,20.435,-4.653580000000001,-0.658954,-1.81636,5.74942,0.310435,50.0036,12.5237,-34.4102,0.0464625,0.284443,0.715218,261.8,4.4,52.1701,4.427230000000001,5.6,1.22452,354.231,4.58555,167.47299999999998,42.56399999999999,175.15900000000002,0.792185,-0.12204,246.048,1.21068,1.61497,-4.95818328857422,22.0050868988037,-1.4298422336578402,22.0,-1017760.0,3076.45,pp-ro,1,1,-1,-1
1570535408.6,2019-10-08,13:50:08.600,14.0,9.0,21.5499992370605,20.2,-3.3,0.5,53.8,9.0,-31.3,20.435,-4.653580000000001,-0.658954,-1.81636,5.74942,0.310435,50.0036,12.5237,-34.4102,0.0464625,0.284443,0.715218,261.8,4.4,52.1701,4.427230000000001,5.7,1.17299,336.705,4.58553,167.09400000000002,44.464,175.05900000000003,0.791579,-0.133221,246.055,1.2562,1.6578700000000002,-3.81635284423828,22.0050868988037,-0.765815138816833,22.0,-1016870.0,5045.38,pp-ro,1,1,-1,-1
1570535408.7,2019-10-08,13:50:08.700,14.0,11.0,21.510000228881804,20.2,-2.6,0.8,53.3,7.9,-30.1,20.9797,-3.89374,0.8802059999999999,-0.122146,2.28833,4.13706,51.66,8.26215,-32.1357,0.0915506,-0.108403,0.345407,261.8,4.4,52.1701,4.427230000000001,5.7,1.17465,342.379,4.58552,166.71400000000003,46.7441,174.959,0.790615,-0.146501,246.149,1.29428,1.7020099999999998,-2.76497650146484,22.0056018829346,-0.0998097956180569,22.0,-1016760.0,1968.93,pp-ro,1,1,-1,-1
1570535408.8,2019-10-08,13:50:08.800,14.0,12.0,21.270000457763697,20.6,-2.9,1.5,53.9,6.5,-28.3,20.9497,-3.34564,1.26807,8.20076,0.278412,5.838769999999999,51.9121,6.8434,-30.9405,0.0317778,0.199756,0.129423,261.8,4.4,52.1701,4.427230000000001,5.7,1.22064,360.859,4.58551,166.393,49.0241,174.759,0.789117,-0.159646,246.233,1.34342,1.72574,-1.8091812133789096,22.0050868988037,0.209164291620255,22.0,-1016640.0,1876.63,pp-ro,1,1,-1,-1
1570535408.9,2019-10-08,13:50:08.900,14.0,12.0,21.020000457763697,20.8,-3.0,1.6,54.0,6.0,-26.8,21.4526,-3.76797,1.94398,1.91526,2.38035,1.0692,51.4332,6.18602,-28.2123,-0.258176,-0.0606508,0.191239,261.8,4.4,52.1701,4.427230000000001,5.7,1.23671,366.701,4.5855,166.071,50.9242,174.459,0.787569,-0.170652,246.189,1.37625,1.7339099999999998,-0.7680511474609379,22.0050868988037,0.263132452964783,22.0,-1016300.0,3630.21,pp-ro,1,1,-1,-1
1570535409.0,2019-10-08,13:50:09.000,14.0,13.0,20.8500003814697,21.1,-3.0,2.1,53.9,5.5,-27.1,21.6529,-3.75279,1.96783,7.48515,1.79248,3.49401,51.1469,5.49877,-28.2022,-0.12039,-0.0900488999999999,0.078957,261.8,4.4,52.1701,4.427230000000001,5.7,1.22674,367.076,4.58549,165.72099999999998,52.8242,174.259,0.786326,-0.181676,246.211,1.3865299999999998,1.7587,-0.1143569946289059,22.0050868988037,0.607194244861603,22.0,-1015600.0,4676.2,pp-ro,1,1,-1,-1
1570535409.1,2019-10-08,13:50:09.100,14.0,13.0,20.6399993896484,21.4,-3.2,2.6,53.4,4.7,-27.4,22.166,-3.86775,2.4439900000000003,2.78391,-4.23261,7.68255,51.229,4.13304,-29.0739,-0.127881,-0.00818757,0.0829519,263.0,5.3,52.1701,4.427230000000001,5.7,1.25555,386.571,4.5855,165.399,55.1042,173.959,0.784313,-0.194707,246.283,1.40196,1.7776900000000002,0.1566925048828119,22.0056018829346,-35.0,22.0,-1015390.0,1538.22,pp-ro,1,1,-1,-1
1570535409.2,2019-10-08,13:50:09.200,14.0,13.0,20.6399993896484,21.4,-3.4,2.9,53.0,4.4,-27.7,22.166,-3.86775,2.4439900000000003,2.78391,-4.23261,7.68255,51.229,4.13304,-29.0739,-0.127881,-0.00818757,0.0829519,263.0,5.3,52.1701,4.427230000000001,5.7,1.27993,394.331,4.58552,165.019,57.3843,173.55900000000003,0.782087,-0.2077889999999999,246.266,1.41132,1.78982,0.548408508300781,22.0056018829346,-35.0,22.0,-1015290.0,1784.34,pp-ro,1,1,-1,-1
1570535409.3,2019-10-08,13:50:09.300,14.0,13.0,20.7199993133545,21.4,-3.5,3.0,52.5,3.4,-28.6,22.2766,-4.2182900000000005,2.93865,1.4529299999999998,0.357607,4.61524,50.4865,3.48597,-29.5903,0.184776,-0.241116,0.0751812999999999,263.0,5.3,52.1701,4.427230000000001,5.7,1.28824,392.052,4.58553,164.64,59.2843,173.15900000000002,0.780144,-0.218764,246.181,1.42036,1.79741,0.541595458984375,22.0056018829346,-35.0,22.0,-1014780.0,6337.48,pp-ro,1,1,-1,-1
1570535409.4,2019-10-08,13:50:09.400,14.0,13.0,20.8899993896484,21.4,-3.2,3.3,52.4,2.9,-30.1,22.2141,-4.34567,3.11817,-2.30402,0.347273,-0.130409,50.0259,2.92279,-29.8498,0.130403,-0.341154,-0.116302,263.0,5.3,52.1701,4.427230000000001,5.7,1.26442,387.34,4.58554,164.28900000000002,61.5644,172.759,0.777683,-0.2316889999999999,246.225,1.41727,1.82585,0.187339782714844,22.0056018829346,-35.0,22.0,-1013990.0,4399.32,pp-ro,1,1,-1,-1
1570535409.5,2019-10-08,13:50:09.500,14.0,12.0,21.0599994659424,21.4,-3.2,3.8,51.6,1.9,-31.1,22.3054,-4.15615,3.62947,-5.26305,3.74112,8.79038,50.1727,1.36733,-32.1042,0.204225,-0.089297,0.0207337,263.0,5.3,52.1701,4.427230000000001,5.7,1.2865799999999998,404.274,4.58556,163.93900000000002,63.8444,172.359,0.775141,-0.244538,246.292,1.4266,1.85055,-0.559822082519531,22.0050868988037,-35.0,22.0,-1013730.0,1661.28,pp-ro,1,1,-1,-1
1570535409.6,2019-10-08,13:50:09.600,14.0,12.0,21.1800003051758,21.3,-3.1,3.9,52.6,1.5,-30.7,21.9685,-4.109369999999999,3.88946,-1.84819,-3.79783,-0.59896,50.2164,1.54322,-31.3099,-0.0573629,0.192697,-0.0811128,263.0,5.3,52.1701,4.427230000000001,5.7,1.3093,408.089,4.58557,163.61700000000002,65.7444,171.959,0.772844,-0.255254,246.298,1.44431,1.86455,-1.64533233642578,22.0056018829346,-35.0,22.0,-1013610.0,2276.57,pp-ro,1,1,-1,-1
1570535409.7,2019-10-08,13:50:09.700,14.0,13.0,21.4300003051758,21.7,-3.0,4.1,53.1,1.8,-29.8,21.9685,-4.109369999999999,3.88946,-1.84819,-3.79783,-0.59896,50.2164,1.54322,-31.3099,-0.0573629,0.192697,-0.0811128,263.0,5.3,52.1701,4.427230000000001,5.7,1.30154,395.887,4.58558,163.325,68.0245,171.55900000000003,0.7700020000000001,-0.267841,246.445,1.4607,1.88239,-3.0960922241210898,22.0050868988037,-35.0,22.0,-1012950.0,8152.59,pp-ro,1,1,-1,-1
1570535409.8,2019-10-08,13:50:09.800,14.0,11.0,21.6299991607666,21.9,-3.1,4.7,53.4,0.4,-30.2,21.9712,-3.84543,4.15609,2.07074,5.07266,4.92012,50.1874,2.16717,-30.9285,0.125616,0.182227,-0.0312263,263.0,5.3,52.1701,4.427230000000001,5.7,1.26386,389.996,4.5856,163.033,69.9245,171.05900000000003,0.767215,-0.278376,246.435,1.48092,1.90436,-4.91893005371094,22.0056018829346,-35.0,22.0,-1012350.0,4676.2,pp-ro,1,1,-1,-1
1570535409.9,2019-10-08,13:50:09.900,14.0,10.0,21.8299999237061,21.8,-2.5,5.3,54.2,-0.2,-29.8,22.1008,-3.76249,5.314369999999999,-6.53475,5.07554,6.78525,51.1605,1.0850799999999998,-30.0673,-0.079186,-0.2820789999999999,0.183313,263.0,5.3,52.1701,4.427230000000001,5.7,1.29489,404.249,4.58561,162.71200000000002,72.5846,170.55900000000003,0.763584,-0.2928219999999999,246.645,1.50369,1.95214,-7.006317138671879,22.0056018829346,-35.0,22.0,-1012110.0,2368.87,pp-ro,1,1,-1,-1
1570535410.0,2019-10-08,13:50:10.000,14.0,12.0,22.0699996948242,22.0,-2.2,6.0,54.8,-2.1,-29.0,22.1008,-3.76249,5.314369999999999,-6.53475,5.07554,6.78525,51.1605,1.0850799999999998,-30.0673,-0.079186,-0.2820789999999999,0.183313,263.0,5.3,52.1701,4.427230000000001,5.7,1.3104,403.023,4.58562,162.44899999999998,74.8646,169.959,0.7598600000000001,-0.305076,246.739,1.54618,1.99008,-9.11418151855469,22.0050868988037,-35.0,22.0,-1011640.0,5445.31,pp-ro,1,1,-1,-1
1570535410.1,2019-10-08,13:50:10.100,14.0,10.0,22.3099994659424,22.4,-2.0,7.1,55.5,-5.0,-27.7,22.111,-2.94811,6.43794,1.77372,2.46053,7.85872,52.3673,-1.11962,-28.3083,0.23293,0.0515588,0.556871,264.8,6.2,52.1701,4.427230000000001,5.7,1.28547,400.207,4.58563,162.215,76.7647,169.359,0.756444,-0.315236,246.757,1.606,2.03246,-11.2374114990234,22.0056018829346,-35.0,22.0,-1010980.0,6306.72,pp-ro,1,1,-1,-1
1570535410.2,2019-10-08,13:50:10.200,14.0,10.0,22.510000228881804,22.5,-1.1,8.2,57.2,-6.9,-25.3,22.2471,-2.71945,6.830710000000001,-1.00555,4.904719999999999,11.2795,53.0005,-2.06961,-26.8048,0.282703,0.286761,0.594477,264.8,6.2,52.1701,4.427230000000001,5.7,1.30486,394.081,4.58564,162.069,79.0447,168.55900000000003,0.751707,-0.327025,246.833,1.66724,2.09788,-13.328216552734402,22.0050868988037,-35.0,22.0,-1010450.0,5660.67,pp-ro,1,1,-1,-1
1570535410.3,2019-10-08,13:50:10.300,14.0,12.0,22.5499992370605,22.7,-0.1,9.6,58.0,-10.2,-23.3,22.1325,-1.69415,8.65576,1.6827900000000002,13.442,14.7328,54.8674,-5.70624,-23.9186,0.225634,-0.00938636,0.581886,264.8,6.2,52.1701,4.427230000000001,5.7,1.2804799999999998,387.48,4.58565,161.981,81.7048,167.759,0.746292,-0.340431,247.096,1.74256,2.17187,-15.4258422851562,22.0050868988037,-35.0,22.0,-1009980.0,8552.53,pp-ro,1,1,-1,-1
1570535410.4,2019-10-08,13:50:10.400,14.0,11.0,22.3899993896484,22.5,1.0,11.3,58.8,-15.5,-21.9,22.1618,-0.5593319999999999,10.0283,-0.115349,9.61475,13.589,55.6185,-9.29004,-20.8387,0.222329,0.18674,0.758738,264.8,6.2,52.1701,4.427230000000001,5.7,1.26996,390.796,4.58565,162.069,83.6048,166.759,0.740735,-0.34952,247.112,1.83377,2.2539,-17.5422439575195,22.0050868988037,-35.0,22.0,-1009440.0,2091.99,pp-ro,1,1,-1,-1
1570535410.5,2019-10-08,13:50:10.500,14.0,10.0,22.2700004577637,21.9,2.4,13.2,59.7,-20.8,-19.7,22.1618,-0.5593319999999999,10.0283,-0.115349,9.61475,13.589,55.6185,-9.29004,-20.8387,0.222329,0.18674,0.758738,264.8,6.2,52.1701,4.427230000000001,5.7,1.29101,395.574,4.58566,162.185,85.8848,165.55900000000003,0.733985,-0.360279,247.164,1.93528,2.35223,-19.1261291503906,22.0056018829346,-35.0,22.0,-1009050.0,4953.08,pp-ro,1,1,-1,-1
1570535410.6,2019-10-08,13:50:10.600,14.0,12.0,22.190000534057603,21.1,4.1,14.6,60.2,-26.8,-16.8,22.1618,-0.5593319999999999,10.0283,-0.115349,9.61475,13.589,55.6185,-9.29004,-20.8387,0.222329,0.18674,0.758738,264.8,6.2,52.1701,4.427230000000001,5.7,1.27217,376.42,4.58567,162.477,87.7849,164.259,0.726953,-0.368641,247.156,2.0514900000000003,2.4477,-21.2493591308594,22.0050868988037,-35.0,22.0,-1008460.0,6306.72,pp-ro,1,1,-1,-1
1570535410.7,2019-10-08,13:50:10.700,14.0,11.0,22.149999618530305,20.4,5.7,15.9,60.5,-32.7,-11.2,21.1275,1.37854,12.6681,-6.40422,16.3933,15.0627,57.1767,-16.2279,-16.6206,0.221676,-0.0694628,0.974598,264.8,6.2,52.1701,4.427230000000001,5.7,1.24835,366.194,4.58568,162.944,90.0649,162.859,0.718684,-0.378231,247.357,2.19338,2.53482,-23.9153442382812,22.0050868988037,-35.0,22.0,-1008070.0,7629.59,pp-ro,1,1,-1,-1
1570535410.8,2019-10-08,13:50:10.800,14.0,12.0,22.2299995422363,19.4,7.8,17.7,58.9,-36.7,-5.1,19.5932,3.79311,14.4569,-17.8506,17.9752,6.68071,57.2553,-24.351,-9.94915,-0.131117,0.263303,0.939713,264.8,6.2,52.1701,4.427230000000001,5.7,1.20956,359.571,4.5856900000000005,163.616,91.965,161.259,0.709795,-0.385367,247.451,2.3109900000000003,2.64318,-26.0317459106445,22.0056018829346,-35.0,22.0,-1007570.0,3414.86,pp-ro,1,1,-1,-1
1570535410.9,2019-10-08,13:50:10.900,14.0,11.0,22.1100006103516,17.7,9.4,19.4,58.1,-42.6,-0.4,19.5932,3.79311,14.4569,-17.8506,17.9752,6.68071,57.2553,-24.351,-9.94915,-0.131117,0.263303,0.939713,264.8,6.2,52.1701,4.427230000000001,5.7,1.23117,350.36300000000006,4.5857,164.43400000000003,94.2451,159.659,0.700068,-0.393751,247.813,2.43467,2.74852,-27.607101440429695,22.0050868988037,-35.0,22.0,-1007260.0,4676.2,pp-ro,1,1,-1,-1
1570535411.0,2019-10-08,13:50:11.000,14.0,12.0,22.1399993896484,16.2,11.4,20.5,55.6,-48.7,5.6,17.1574,8.009780000000001,18.375,-9.94154,18.8605,20.5327,51.8358,-36.4113,7.0081,0.1220619999999999,0.362642,1.00579,264.8,6.2,52.1701,4.427230000000001,5.7,1.18629,354.06300000000005,4.58571,165.485,95.7651,157.858,0.690176,-0.397923,247.943,2.56481,2.84561,-30.1416625976562,22.0050868988037,-35.0,22.0,-1006590.0,5291.49,pp-ro,1,1,-1,-1
1570535411.1,2019-10-08,13:50:11.100,14.0,11.0,22.4200000762939,14.0,13.4,21.8,50.0,-54.5,15.2,16.2876,8.80033,18.911,-23.8762,11.0958,5.90226,49.6179,-38.996,10.8363,0.114973,0.191192,1.3171700000000002,267.2,6.1,52.1701,4.427230000000001,5.7,1.27162,378.687,4.58573,166.71200000000002,97.6652,155.958,0.679106,-0.403277,248.303,2.71475,2.95858,-31.8108825683594,22.0056018829346,-35.0,22.0,-1006450.0,4799.26,pp-ro,1,1,-1,-1
1570535411.2,2019-10-08,13:50:11.200,14.0,10.0,22.649999618530305,11.5,15.0,22.5,41.5,-59.5,27.1,11.9847,12.2087,20.6734,-28.1012,10.6281,11.5234,38.0425,-48.3695,29.6637,0.289566,0.311771,1.42346,267.2,6.1,52.1701,4.427230000000001,5.7,1.25777,377.963,4.58576,168.084,98.8052,153.958,0.668389,-0.4047929999999999,248.431,2.86006,3.06279,-33.1216888427734,22.0056018829346,-35.0,22.0,-1006080.0,6952.77,pp-ro,1,1,-1,-1
1570535411.3,2019-10-08,13:50:11.300,14.0,12.0,23.1399993896484,10.4,15.8,22.5,28.5,-63.4,44.4,9.49545,13.6192,20.9691,-21.4574,9.65299,-3.89357,28.5062,-52.0483,42.9384,-0.0610744,0.2418699999999999,1.48732,267.2,6.1,52.1701,4.427230000000001,5.7,1.25001,378.626,4.58579,169.60299999999998,99.9453,152.058,0.6576930000000001,-0.405891,248.749,3.02223,3.10964,-33.8795013427734,22.0061168670654,-23.0282897949219,22.0,-1005720.0,2461.16,pp-ro,1,1,-1,-1
1570535411.4,2019-10-08,13:50:11.400,14.0,13.0,23.3299999237061,7.6,17.6,22.8,12.1,-64.4,65.2,8.40874,14.3081,20.9644,-24.4109,21.4404,-3.2406200000000003,22.8242,-53.4088,50.215,0.301102,0.23751,1.56713,267.2,6.1,52.1701,4.427230000000001,5.7,1.27328,393.905,4.58582,171.297,100.705,150.058,0.646806,-0.404902,249.001,3.1850400000000003,3.22127,-34.697052001953104,22.0066318511963,-23.0306720733643,22.0,-1005380.0,4060.91,pp-ro,1,1,-1,-1
1570535411.5,2019-10-08,13:50:11.500,14.0,13.0,23.5499992370605,2.7,19.7,22.8,-4.9,-63.0,86.6,7.1307100000000005,15.109000000000002,21.158,-26.9522,13.4512,5.55149,16.4485,-53.7419,58.569,0.179044,0.598298,1.7419099999999998,267.2,6.1,52.1701,4.427230000000001,5.7,1.30486,410.975,4.58585,173.195,101.085,148.058,0.6359779999999999,-0.4017679999999999,249.271,3.35273,3.39569,-34.937698364257805,22.0061168670654,-23.0282897949219,22.0,-1005120.0,1845.87,pp-ro,1,1,-1,-1
1570535411.6,2019-10-08,13:50:11.600,14.0,14.0,23.7000007629395,-0.4,20.7,21.9,-17.2,-59.2,102.7,4.18401,16.4743,21.4285,-29.4745,15.0105,1.41403,3.79466,-53.3437,75.41,0.0880831,0.292477,1.4953299999999998,267.2,6.1,52.1701,4.427230000000001,5.9,1.33091,422.766,4.58588,175.06400000000002,101.465,146.25799999999998,0.625879,-0.398763,249.668,3.50446,3.50597,-34.941116333007805,22.0066318511963,-23.0306720733643,22.0,-1004660.0,5445.31,pp-ro,1,1,-1,-1
1570535411.7,2019-10-08,13:50:11.700,14.0,14.0,23.8400001525879,-4.0,21.4,20.9,-24.6,-53.4,115.5,-0.6707529999999999,17.8018,20.6217,-34.8208,8.83821,-8.21394,-12.7141,-49.1654,97.6479,0.178385,0.346816,1.54121,267.2,6.1,52.1701,4.427230000000001,5.9,1.3442,436.262,4.5859,177.167,101.465,144.358,0.615452,-0.393627,250.045,3.66395,3.6286,-34.563919067382805,22.007146835327102,-23.0330543518066,22.0,-1004290.0,2614.98,pp-ro,1,1,-1,-1
