time,date,time_of_day,airspeed_temperature,airspeed_angle_of_attack,airspeed_apparent_windspeed,kite_0_vx,kite_0_vy,kite_0_vz,kite_0_roll,kite_0_pitch,kite_0_yaw,kite_1_vx,kite_1_vy,kite_1_vz,kite_1_ax,kite_1_ay,kite_1_az,kite_1_roll,kite_1_pitch,kite_1_yaw,kite_1_roll_rate,kite_1_pitch_rate,kite_1_yaw_rate,ground_upwind_direction,ground_wind_velocity,ground_pos_latitude,ground_pos_longitude,ground_pos_altitude,ground_tether_reelout_speed,ground_tether_force,est_upwind_direction,kite_pos_east,kite_pos_north,kite_height,kite_elevation,kite_azimuth,kite_distance,kite_heading,kite_course,kite_actual_steering,kite_actual_depower,kite_set_steering,kite_set_depower,ground_mech_energy,ground_mech_power,flight_phase,flight_phase_index,phase,pattern,pattern_section
1570533128.8,2019-10-08,13:12:08.800,14.0,7.0,15.2399997711182,12.1,-0.3,2.8,20.5,-6.0,-47.1,10.9279,0.449872,3.3170900000000003,5.68898,10.6709,5.027419999999999,24.8011,7.385,-46.1187,0.1077279999999999,0.174277,0.967168,257.4,5.8,52.1701,4.427219999999999,0.3,-2.25955,99.6995,4.6447400000000005,48.3969,6.840489999999999,234.95,1.36569,-0.0728057,239.98,0.916629,1.73056,-34.968414306640604,22.003026962280305,-35.0,22.0,-917566.0,-6214.43,pp-riro,4,0,-1,-1
1570533128.9,2019-10-08,13:12:08.900,14.0,8.0,14.9499998092651,12.7,0.7,3.2,22.0,-7.5,-42.0,11.2532,0.948165,3.53407,7.903589999999999,9.74061,4.5045,25.5636,6.65895,-43.2845,0.0593515,0.120027,0.951128,269.9,6.2,52.1701,4.427219999999999,0.3,-2.2662,96.7571,4.64466,48.3677,7.98053,234.75,1.36493,-0.0958319,239.813,1.0342,1.83463,-34.971832275390604,22.0009689331055,-35.0,22.0,-918214.0,-6737.42,pp-riro,4,0,-1,-1
1570533129.0,2019-10-08,13:12:09.000,14.0,8.0,14.5900001525879,13.3,1.9,3.5,23.1,-9.6,-37.2,11.5696,1.41252,3.696930000000001,5.289969999999999,11.086,4.29574,26.4218,5.8903,-40.2764,0.308934,0.22593,1.05476,269.9,6.2,52.1701,4.427219999999999,0.3,-2.29058,91.3539,4.64463,48.4261,9.50058,234.45,1.36334,-0.125988,239.587,1.15579,1.94973,-34.9906158447266,22.0009689331055,-35.0,22.0,-918916.0,-8306.41,pp-riro,4,0,-1,-1
1570533129.1,2019-10-08,13:12:09.100,14.0,8.0,14.3999996185303,13.8,3.1,3.9,24.3,-11.3,-31.9,12.068,2.54586,4.0894,4.29657,11.6132,2.93269,27.6872,4.29305,-34.6588,0.188744,0.191829,0.952435,269.9,6.2,52.1701,4.427219999999999,0.3,-2.3349,88.947,4.64463,48.6306,10.6406,234.25,1.3614,-0.147644,239.481,1.27621,2.04986,-34.9906158447266,22.0009689331055,-35.0,22.0,-919903.0,-10367.6,pp-riro,4,0,-1,-1
1570533129.2,2019-10-08,13:12:09.200,14.0,8.0,14.2200002670288,14.2,4.3,4.3,25.0,-13.0,-26.8,12.7131,4.27684,4.63529,3.99453,9.66313,5.2491,29.3132,1.24861,-26.3728,0.160173,0.137149,0.981639,269.9,6.2,52.1701,4.427219999999999,0.3,-2.41026,90.9419,4.64462,48.9518,12.1607,233.95,1.35845,-0.175732,239.325,1.39943,2.14984,-34.9906158447266,22.0009689331055,-35.0,22.0,-921522.0,-11075.2,pp-riro,4,0,-1,-1
1570533129.3,2019-10-08,13:12:09.300,14.0,8.0,14.1499996185303,14.5,5.5,4.6,25.8,-14.5,-21.6,13.0481,5.406219999999999,5.04596,3.8618,12.2117,2.8186400000000003,30.2265,-0.690362,-20.9058,0.0523254,0.17627,0.984575,269.9,6.2,52.1701,4.427219999999999,0.3,-2.43741,89.8147,4.64461,49.3607,13.6807,233.65,1.35499,-0.202601,239.198,1.52199,2.2427,-34.9923248291016,22.0009689331055,-35.0,22.0,-922089.0,-11167.5,pp-riro,4,0,-1,-1
1570533129.4,2019-10-08,13:12:09.400,14.0,8.0,14.0299997329712,14.6,6.7,5.0,26.2,-16.6,-15.9,13.1444,5.95607,5.20643,1.73253,11.5308,2.58719,30.4907,-1.6843099999999998,-18.076,0.148387,0.1751859999999999,0.975272,269.9,6.2,52.1701,4.427219999999999,0.3,-2.49171,85.7259,4.6446,49.9448,14.8208,233.25,1.35105,-0.220684,238.997,1.64634,2.32733,-34.9974365234375,22.0009689331055,-35.0,22.0,-923298.0,-13382.6,pp-riro,4,0,-1,-1
1570533129.5,2019-10-08,13:12:09.500,14.0,8.0,14.0299997329712,14.7,8.0,5.4,26.6,-18.4,-10.8,13.2595,7.09771,5.55578,1.3922,12.9444,4.52345,31.0254,-3.60706,-12.4869,0.0619018,0.250323,0.967672,269.9,6.2,52.1701,4.427219999999999,0.3,-2.55654,84.3325,4.64459,50.6166,16.7209,232.85,1.34574,-0.251265,238.874,1.77095,2.42353,-35.0042724609375,22.0009689331055,-35.0,22.0,-924712.0,-15505.3,pp-riro,4,0,-1,-1
1570533129.6,2019-10-08,13:12:09.600,14.0,9.0,14.0900001525879,14.6,9.2,5.8,26.7,-20.4,-5.3,13.3067,8.8287,6.093319999999999,-0.670305,12.5602,5.20797,31.041,-6.57114,-3.9562,-0.0155664,0.151801,0.971436,269.9,6.2,52.1701,4.427219999999999,0.3,-2.6668,89.01299999999999,4.64458,51.4344,17.8609,232.35,1.34062,-0.266426,238.644,1.88723,2.50084,-35.0042724609375,22.0009689331055,-35.0,22.0,-926920.0,-13228.7,pp-riro,4,0,-1,-1
1570533129.7,2019-10-08,13:12:09.700,14.0,9.0,14.1499996185303,14.5,10.4,6.2,26.6,-22.0,0.2,13.2545,9.36462,6.26409,-0.110164,11.3049,1.38923,30.8869,-7.564939999999999,-1.07444,0.0713656999999999,0.250182,1.0469700000000002,269.9,6.2,52.1701,4.427219999999999,0.3,-2.72165,90.2944,4.64457,52.3398,19.381,231.75,1.33446,-0.286823,238.376,2.00595,2.57876,-35.0042724609375,22.0009689331055,-35.0,22.0,-928175.0,-13167.2,pp-riro,4,0,-1,-1
1570533129.8,2019-10-08,13:12:09.800,14.0,9.0,14.210000038147,14.2,11.7,6.7,26.5,-23.7,6.1,13.1053,10.4561,6.665789999999999,-1.62005,11.3397,3.99261,30.5981,-9.26665,4.80248,-0.00550145,0.2099909999999999,0.962594,269.9,6.2,52.1701,4.427219999999999,0.3,-2.7416,89.9659,4.64456,53.4497,21.2811,231.15,1.32686,-0.311088,238.202,2.13421,2.66721,-35.0042724609375,22.0009689331055,-35.0,22.0,-928752.0,-11536.7,pp-riro,4,0,-1,-1
1570533129.9,2019-10-08,13:12:09.900,14.0,9.0,14.2799997329712,13.9,12.8,7.0,25.8,-25.2,12.0,12.8693,11.5723,6.9938,-2.12827,9.78322,4.21421,29.9999,-10.9758,10.8422,0.0916164,0.263679,0.956652,281.5,6.3,52.1701,4.427219999999999,0.3,-2.78759,90.8336,4.64455,54.5887,22.4211,230.55,1.32021,-0.321886,237.983,2.24729,2.73016,-35.0042724609375,22.0009689331055,-35.0,22.0,-930059.0,-13905.5,pp-riro,4,0,-1,-1
1570533130.0,2019-10-08,13:12:10.000,14.0,9.0,14.3999996185303,13.5,14.1,7.4,25.1,-26.6,17.8,12.5664,12.6392,7.35929,-2.94656,14.0499,3.5105800000000005,29.2291,-12.452,16.7261,0.134315,0.2241469999999999,1.02499,281.5,6.3,52.1701,4.427219999999999,0.3,-2.84355,100.311,4.64461,55.8738,23.9412,229.95,1.31236,-0.337014,237.849,2.36108,2.80451,-35.0042724609375,22.0009689331055,-23.0044822692871,22.0,-931806.0,-9690.81,pp-riro,4,0,-1,-1
1570533130.1,2019-10-08,13:12:10.100,14.0,9.0,14.5799999237061,13.0,15.3,7.9,24.4,-27.7,23.8,12.2689,13.7245,7.701060000000001,-3.86663,10.3708,2.99178,28.2672,-13.7754,22.6878,0.166021,0.3210119999999999,1.00971,281.5,6.3,52.1701,4.427219999999999,0.3,-2.83746,108.276,4.64466,57.2758,25.4612,229.15,1.30379,-0.350559,237.568,2.47405,2.87405,-35.0025634765625,22.0009689331055,-23.0044822692871,22.0,-932264.0,-2430.39,pp-riro,4,0,-1,-1
1570533130.2,2019-10-08,13:12:10.200,14.0,10.0,14.7600002288818,12.4,16.5,8.5,23.4,-28.7,29.9,11.505999999999998,15.4298,8.39354,-4.18345,14.3593,4.243469999999999,26.6744,-15.4517,31.9314,0.152016,0.248201,1.01974,281.5,6.3,52.1701,4.427219999999999,0.3,-2.79812,114.486,4.6447400000000005,58.8237,26.6013,228.45,1.29538,-0.357005,237.397,2.58036,2.9371,-34.743133544921896,22.0009689331055,-23.0044822692871,22.0,-932202.0,1169.05,pp-riro,4,0,-1,-1
1570533130.3,2019-10-08,13:12:10.300,14.0,10.0,14.880000114440902,11.7,17.9,8.9,22.4,-29.8,36.0,10.9874,16.6255,8.86473,-6.69912,9.17866,5.45863,25.3014,-16.4868,37.9214,0.0971008,0.299038,0.947838,281.5,6.3,52.1701,4.427219999999999,0.3,-2.76986,118.199,4.6448,60.5177,28.1214,227.55,1.2855299999999998,-0.367376,237.133,2.68915,3.00794,-34.1065063476562,22.0009689331055,-23.0044822692871,22.0,-932039.0,3137.98,pp-riro,4,0,-1,-1
1570533130.4,2019-10-08,13:12:10.400,14.0,11.0,15.1800003051758,11.0,19.1,9.3,21.4,-30.3,42.3,10.61,17.1903,9.05969,-6.28865,11.9205,3.09005,24.6262,-17.0821,40.8595,-0.0114473999999999,0.2395949999999999,0.950961,281.5,6.3,52.1701,4.427219999999999,0.3,-2.67511,128.303,4.64487,62.3286,29.2614,226.65,1.27586,-0.371372,236.878,2.79247,3.06416,-33.1148681640625,22.0009689331055,-23.0044822692871,22.0,-931358.0,8491.0,pp-riro,4,0,-1,-1
1570533130.5,2019-10-08,13:12:10.500,14.0,10.0,15.5200004577637,10.2,20.3,9.7,20.0,-30.8,48.5,10.279000000000002,17.6922,9.20218,-6.61308,11.5947,1.0254299999999998,23.9187,-17.5721,43.8386,0.0554206,0.198274,0.961173,281.5,6.3,52.1701,4.427230000000001,0.1,-2.53991,138.739,4.64493,64.2562,30.0215,225.75,1.26639,-0.369585,236.629,2.88811,3.11522,-31.7750549316406,22.0009689331055,-23.0044822692871,22.0,-930091.0,13044.1,pp-riro,4,0,-1,-1
1570533130.6,2019-10-08,13:12:10.600,14.0,11.0,15.8000001907349,9.4,21.2,10.2,18.5,-31.6,54.9,9.63315,18.8095,9.5398,-6.22886,9.29315,3.35607,22.4085,-18.4522,49.9646,0.00939308,0.264829,0.966489,281.5,6.3,52.1701,4.427230000000001,0.1,-2.24126,151.654,4.64499,66.2423,31.5415,224.75,1.25526,-0.37696,236.422,2.99425,3.16647,-30.0682678222656,22.0009689331055,-23.0044822692871,22.0,-927469.0,19566.2,pp-riro,4,0,-1,-1
1570533130.7,2019-10-08,13:12:10.700,14.0,10.0,16.1900005340576,8.3,22.3,10.4,16.9,-32.2,61.8,8.424660000000001,20.1824,10.0519,-8.92118,9.87482,2.92418,19.6637,-20.0948,59.4171,-0.0558901,0.139502,1.0083,281.5,6.3,52.1701,4.427230000000001,0.1,-1.98306,158.236,4.64505,68.4329,32.3016,223.75,1.2446700000000002,-0.373691,236.2,3.09706,3.21949,-28.0935363769531,22.0009689331055,-23.0044822692871,22.0,-925425.0,20643.0,pp-riro,4,0,-1,-1
1570533130.8,2019-10-08,13:12:10.800,14.0,10.0,16.520000457763697,7.1,23.1,10.6,14.9,-32.3,68.3,7.46238,21.0997,10.225,-6.13122,8.11744,1.57504,17.8638,-21.1174,65.7255,0.167081,0.0919551,1.0795,281.5,6.3,52.1701,4.427230000000001,0.1,-1.84953,160.224,4.64512,70.6818,33.0616,222.65,1.2337,-0.370215,235.928,3.19258,3.26952,-26.3748092651367,22.0009689331055,-22.9615688323975,22.0,-924335.0,20458.4,pp-riro,4,0,-1,-1
1570533130.9,2019-10-08,13:12:10.900,14.0,10.0,16.879999160766598,5.7,23.8,10.7,12.8,-32.2,74.7,6.39085,21.9562,10.3965,-13.11,5.44245,1.90571,15.9162,-21.8242,71.874,0.072229,0.2304,0.863532,284.0,7.7,52.1701,4.427230000000001,0.1,-1.57636,162.233,4.64518,73.0476,33.8217,221.55,1.22229,-0.366378,235.721,3.28579,3.32377,-25.0128021240234,22.0009689331055,-22.272489547729503,22.0,-922449.0,18397.2,pp-riro,4,0,-1,-1
1570533131.0,2019-10-08,13:12:11.000,14.0,10.0,17.1399993896484,4.4,24.2,10.7,10.7,-32.2,80.6,5.176080000000001,22.5262,10.5048,-12.8098,7.765210000000001,-4.0696,13.9251,-22.2455,77.6527,-0.0445185,0.075061,0.8763139999999999,284.0,7.7,52.1701,4.427230000000001,0.1,-1.13531,155.947,4.64529,75.4133,34.5818,220.45,1.21085,-0.362851,235.545,3.37108,3.37097,-23.9204635620117,22.0009689331055,-21.741695404052702,22.0,-920265.0,12675.0,pp-riro,4,0,-1,-1
1570533131.1,2019-10-08,13:12:11.100,14.0,9.0,17.1900005340576,3.0,24.5,10.6,9.0,-31.8,85.9,3.92569,23.0231,10.4549,-14.9414,6.43786,0.368528,12.2014,-22.2771,83.0199,-0.0623976,0.0763995,0.69993,284.0,7.7,52.1701,4.427230000000001,0.1,-1.00788,153.222,4.6454,77.8083,34.9618,219.45,1.20006,-0.355306,235.446,3.44436,3.41735,-22.9510192871094,22.0009689331055,-21.1171054840088,22.0,-919714.0,10336.9,pp-riro,4,0,-1,-1
1570533131.2,2019-10-08,13:12:11.200,14.0,9.0,17.2399997711182,1.7,24.6,10.4,7.3,-31.0,91.0,3.28839,23.2099,10.36,-9.41852,1.84737,0.634554,11.4788,-22.2838,85.637,-0.0147497,0.185508,0.712328,284.0,7.7,52.1701,4.427230000000001,0.1,-0.7474569999999999,150.6,4.6455,80.3201,35.3419,218.35,1.18867,-0.3475789999999999,235.324,3.5156,3.45919,-22.1283493041992,22.0009689331055,-20.616521835327102,22.0,-918926.0,7045.07,pp-riro,4,0,-1,-1
1570533131.3,2019-10-08,13:12:11.300,14.0,8.0,17.2399997711182,0.6,24.7,10.2,5.9,-30.2,95.5,2.05899,23.3578,10.1904,-10.7101,3.62135,2.9717,9.84109,-21.9669,90.4643,-0.1534029999999999,0.2258099999999999,0.8120649999999999,284.0,7.7,52.1701,4.427230000000001,0.1,-0.519729,149.336,4.64561,82.7735,35.7219,217.35,1.17761,-0.340586,235.306,3.5788300000000004,3.49451,-21.452468872070305,22.0009689331055,-20.257854461669897,22.0,-918419.0,4522.38,pp-riro,4,0,-1,-1
1570533131.4,2019-10-08,13:12:11.400,14.0,8.0,17.2900009155273,0.0,24.7,10.1,5.2,-29.9,97.8,0.879324,23.4881,10.0232,-14.5716,2.29978,-0.959198,8.571760000000001,-21.363000000000003,94.9276,-0.0732443,0.192325,0.74556,284.0,7.7,52.1701,4.427230000000001,0.1,-0.282582,147.911,4.64572,84.0586,35.7219,216.85,1.17216,-0.335119,235.3,3.60925,3.51209,-20.7936553955078,22.0009689331055,-20.0372276306152,22.0,-918131.0,2368.87,pp-riro,4,0,-1,-1
1570533131.5,2019-10-08,13:12:11.500,14.0,8.0,17.2900009155273,-1.1,24.6,10.0,3.9,-28.9,102.1,-0.177865,23.4161,9.79788,-11.8271,-1.12422,2.34972,7.24176,-20.5048,99.1829,-0.0399126,0.191497,0.55592,284.0,7.7,52.1701,4.427230000000001,0.0,0.0592868,152.465,4.64583,87.7095,35.722,215.85,1.15734,-0.32015,235.713,3.6636,3.53947,-20.5308074951172,22.0009689331055,-19.8588275909424,22.0,-918067.0,-615.29,pp-riro,4,0,-1,-1
1570533131.6,2019-10-08,13:12:11.600,14.0,9.0,17.2900009155273,-2.1,24.5,9.9,2.5,-27.9,106.4,-1.22727,23.3702,9.59855,-11.8695,-2.22867,-1.1095700000000002,5.93635,-19.8935,103.492,0.0522865999999999,0.105493,0.659381,284.0,7.7,52.1701,4.427230000000001,0.0,0.1673329999999999,153.399,4.64594,89.0239,35.722,214.851,1.15089,-0.315091,235.291,3.72767,3.5725300000000004,-20.128005981445305,22.0009689331055,-19.397258758544897,22.0,-918156.0,-1722.81,pp-riro,4,0,-1,-1
1570533131.7,2019-10-08,13:12:11.700,14.0,8.0,17.2399997711182,-3.3,24.3,9.6,0.8,-27.3,110.5,-2.73521,23.1132,9.2463,-8.249880000000001,-0.456401,2.06428,3.6046,-18.7157,109.821,-0.129163,0.135447,0.644107,284.0,7.7,52.1701,4.427230000000001,0.0,0.331341,152.26,4.64605,91.4481,35.342,213.951,1.14111,-0.302394,235.344,3.78038,3.60783,-19.9470901489258,22.0009689331055,-18.8935222625732,22.0,-918249.0,922.935,pp-riro,4,0,-1,-1
1570533131.8,2019-10-08,13:12:11.800,14.0,9.0,17.2900009155273,-4.2,24.0,9.5,-0.5,-26.2,114.7,-3.26995,22.9553,9.11985,-10.4494,-2.97181,-1.726,2.9144400000000004,-18.3988,111.746,-0.293135,0.165048,0.456525,284.0,7.7,52.1701,4.427230000000001,0.0,0.210551,154.638,4.64616,93.8723,34.962,212.951,1.13111,-0.29024,235.334,3.8378,3.63185,-19.5459976196289,22.0009689331055,-18.6509819030762,22.0,-918086.0,369.174,pp-riro,4,0,-1,-1
1570533131.9,2019-10-08,13:12:11.900,14.0,8.0,17.3400001525879,-5.2,23.7,9.5,-1.9,-25.0,118.4,-3.70286,22.8227,9.07585,-15.2553,-4.1189,-3.5292800000000004,2.3025,-17.9923,113.574,0.0925194,-0.00946104,0.417856,284.7,6.4,52.1701,4.427230000000001,0.0,0.315273,172.56,4.64623,96.2965,34.5821,212.051,1.12123,-0.278599,235.445,3.8892,3.65975,-19.0049514770508,22.0009689331055,-18.3485355377197,22.0,-918213.0,-738.3480000000001,pp-riro,4,0,-1,-1
1570533132.0,2019-10-08,13:12:12.000,14.0,10.0,17.3899993896484,-6.2,23.4,9.5,-3.5,-23.9,122.2,-4.6329400000000005,22.5795,9.08274,-7.44198,-1.9443,-3.4565300000000003,0.476261,-17.1734,117.502,0.200544,0.240665,0.663385,284.7,6.4,52.1701,4.427230000000001,0.0,0.300867,182.526,4.64626,98.7207,33.8221,210.951,1.11141,-0.263941,235.351,3.93946,3.68524,-18.6994400024414,22.0009689331055,-18.0421199798584,22.0,-918105.0,1015.23,pp-riro,4,0,-1,-1
1570533132.1,2019-10-08,13:12:12.100,14.0,10.0,17.3899993896484,-7.2,23.0,9.5,-5.0,-23.1,125.9,-5.18404,22.4865,9.02113,-9.27272,-3.58658,-2.83188,-0.266769,-16.5152,119.458,0.0249129,0.18884,0.609024,284.7,6.4,52.1701,4.427230000000001,0.0,0.336882,189.846,4.6462900000000005,101.057,33.0621,209.951,1.10201,-0.250073,235.34,3.9874,3.71237,-18.390510559082,22.0009689331055,-17.7121887207031,22.0,-918093.0,553.761,pp-riro,4,0,-1,-1
1570533132.2,2019-10-08,13:12:12.200,14.0,10.0,17.379999160766598,-8.2,22.7,9.4,-6.8,-22.1,129.5,-7.1103,21.7554,8.948269999999999,-9.17045,-6.767939999999999,-0.46486,-3.95701,-15.1608,126.578,-0.1720819999999999,0.0486883,0.428971,284.7,6.4,52.1701,4.427230000000001,0.0,0.329679,194.112,4.64633,103.365,32.6821,208.951,1.0922,-0.240157,235.399,4.03869,3.74344,-18.0935287475586,22.0009689331055,-17.4212684631348,22.0,-918045.0,922.935,pp-riro,4,0,-1,-1
1570533132.3,2019-10-08,13:12:12.300,14.0,11.0,17.2800006866455,-9.2,22.5,9.3,-8.3,-20.8,132.6,-7.65039,21.6893,8.91465,-8.99189,-3.4839,-0.647911,-5.02104,-14.7505,128.185,-0.189866,0.0573423,0.55413,284.7,6.4,52.1701,4.427230000000001,0.0,0.343531,204.27,4.64636,105.614,31.9222,207.951,1.08299,-0.227478,235.408,4.08256,3.771,-17.7487640380859,22.0009689331055,-17.126783370971697,22.0,-918041.0,-153.822,pp-riro,4,0,-1,-1
1570533132.4,2019-10-08,13:12:12.400,14.0,11.0,17.3299999237061,-10.2,22.0,9.5,-10.0,-20.2,136.0,-9.08878,21.2309,8.87365,-7.320460000000001,-8.054839999999999,0.5011800000000001,-8.1717,-13.3021,133.216,-0.277545,0.0557186,0.588318,284.7,6.4,52.1701,4.427230000000001,0.0,0.371235,216.322,4.64636,107.863,30.4021,206.951,1.0745,-0.20872,235.345,4.121,3.79286,-17.3869247436523,22.0019989013672,-16.8014335632324,22.0,-917998.0,799.877,pp-riro,4,0,-1,-1
1570533132.5,2019-10-08,13:12:12.500,14.0,12.0,17.379999160766598,-11.2,21.7,9.5,-11.7,-19.7,139.2,-10.1414,20.8886,8.87762,-13.6729,-7.1341600000000005,0.177611,-10.4199,-13.1272,136.495,-0.278329,0.0389135,0.5058560000000001,284.7,6.4,52.1701,4.427230000000001,-0.2,0.406142,235.627,4.6464300000000005,109.995,29.6422,205.951,1.06555,-0.197218,235.358,4.16186,3.82094,-17.2367324829102,22.0025119781494,-16.5384731292725,22.0,-917959.0,123.058,pp-riro,4,0,-1,-1
1570533132.6,2019-10-08,13:12:12.600,14.0,11.0,17.6800003051758,-12.2,21.2,9.4,-13.4,-18.6,142.1,-11.1125,20.4725,8.85524,-2.6934,-0.375148,-1.0097200000000002,-12.4223,-12.3844,139.537,-0.150245,0.0309922,0.608978,284.7,6.4,52.1701,4.427230000000001,-0.2,0.415562,241.623,4.64646,112.127,28.5022,204.851,1.05669,-0.182979,235.263,4.20057,3.85002,-16.8834228515625,22.0025119781494,-16.2148551940918,22.0,-917917.0,799.877,pp-riro,4,0,-1,-1
1570533132.7,2019-10-08,13:12:12.700,14.0,12.0,17.9300003051758,-13.2,20.5,9.4,-14.9,-17.8,145.1,-11.1125,20.4725,8.85524,-2.6934,-0.375148,-1.0097200000000002,-12.4223,-12.3844,139.537,-0.150245,0.0309922,0.608978,284.7,6.4,52.1701,4.427230000000001,-0.2,0.428306,251.157,4.64649,114.317,27.3622,203.751,1.04753,-0.169021,235.227,4.23878,3.88109,-16.5813293457031,22.003026962280305,-15.8952388763428,22.0,-917855.0,522.996,pp-riro,4,0,-1,-1
1570533132.8,2019-10-08,13:12:12.800,14.0,12.0,18.2199993133545,-14.2,19.9,9.2,-16.3,-17.2,147.9,-12.5687,19.518,8.81875,-4.8425,-1.68082,-0.252155,-15.2042,-11.6388,143.90200000000002,-0.114532,-0.0606816,0.6751189999999999,284.7,6.4,52.1701,4.427230000000001,-0.2,0.4488069999999999,262.21,4.64653,116.362,25.8422,202.651,1.03911,-0.15266,235.107,4.27046,3.91132,-16.2980041503906,22.003026962280305,-15.5238790512085,22.0,-917730.0,984.464,pp-riro,4,0,-1,-1
1570533132.9,2019-10-08,13:12:12.900,14.0,11.0,18.3600006103516,-15.1,19.3,9.0,-17.4,-16.2,150.3,-13.6457,18.916,8.53785,-8.81756,-6.6856100000000005,-3.42846,-16.7294,-10.9924,146.408,-0.0190761,0.116371,0.335268,275.3,5.4,52.1701,4.427230000000001,-0.2,0.453793,267.04400000000004,4.64656,118.348,24.7022,201.651,1.03071,-0.139926,235.116,4.30276,3.9416,-15.9822463989258,22.003026962280305,-15.2368412017822,22.0,-917692.0,707.5830000000001,pp-riro,4,0,-1,-1
1570533133.0,2019-10-08,13:12:13.000,14.0,12.0,18.6000003814697,-16.0,18.4,8.8,-18.3,-15.4,152.6,-14.1094,18.5081,8.477030000000001,-10.0316,-7.25339,-4.27548,-17.3947,-10.6665,147.597,-0.181341,-0.0859489,0.531312,275.3,5.4,52.1701,4.427230000000001,-0.2,0.484822,282.332,4.64654,120.305,22.8022,200.551,1.02265,-0.121476,234.976,4.32727,3.97268,-15.6323623657227,22.0035419464111,-14.8359022140503,22.0,-917569.0,1076.76,pp-riro,4,0,-1,-1
1570533133.1,2019-10-08,13:12:13.100,14.0,12.0,18.7900009155273,-16.7,17.7,8.5,-18.9,-14.8,154.8,-15.3433,17.3583,8.22063,-5.18521,-7.210439999999999,-3.40246,-19.2029,-10.1574,151.171,-0.0885356,-0.125395,0.393124,275.3,5.4,52.1701,4.427230000000001,-0.2,0.490917,286.095,4.64652,122.087,21.2822,199.551,1.01505,-0.106728,234.901,4.35177,3.99923,-15.2295608520508,22.0035419464111,-14.5829105377197,22.0,-917517.0,984.464,pp-riro,4,0,-1,-1
1570533133.2,2019-10-08,13:12:13.200,14.0,12.0,19.159999847412102,-17.4,17.0,8.3,-19.0,-13.8,157.1,-16.0126,16.5453,8.02069,-6.040030000000001,-9.69971,-3.89752,-19.9308,-9.40414,153.38,-0.11775,-0.0149807,0.350479,275.3,5.4,52.1701,4.427230000000001,-0.2,0.505323,292.66700000000003,4.6465,123.81,19.3821,198.551,1.00778,-0.0893983999999999,234.791,4.3792800000000005,4.02241,-14.9974365234375,22.003026962280305,-14.3578395843506,22.0,-917412.0,1138.29,pp-riro,4,0,-1,-1
1570533133.3,2019-10-08,13:12:13.300,14.0,11.0,19.479999542236303,-18.2,16.2,8.1,-19.5,-13.1,159.3,-16.3902,16.2262,7.89733,-4.72436,-0.607851,-2.51609,-20.1488,-8.976339999999999,154.54,0.150601,0.0159096,0.518879,275.3,5.4,52.1701,4.427230000000001,-0.2,0.523054,303.409,4.64648,125.562,17.8621,197.651,1.0003,-0.0754101,234.842,4.40545,4.0536,-14.598052978515598,22.003026962280305,-14.0672998428345,22.0,-917241.0,1169.05,pp-riro,4,0,-1,-1
1570533133.4,2019-10-08,13:12:13.400,14.0,10.0,19.840000152587898,-18.7,15.5,7.9,-19.7,-12.2,161.4,-17.6975,14.796,7.458089999999999,-0.8547809999999999,-6.575360000000001,-4.77542,-21.1693,-7.72991,159.138,0.1432369999999999,-0.103782,0.4247039999999999,275.3,5.4,52.1701,4.427230000000001,-0.2,0.5352439999999999,310.598,4.64646,127.11,15.9621,196.651,0.993401,-0.0590039999999999,234.699,4.43013,4.07259,-14.3966522216797,22.003026962280305,-13.9695110321045,22.0,-917115.0,1230.58,pp-riro,4,0,-1,-1
1570533133.5,2019-10-08,13:12:13.500,14.0,10.0,20.0100002288818,-19.2,14.6,7.6,-19.8,-11.3,163.6,-17.6975,14.796,7.458089999999999,-0.8547809999999999,-6.575360000000001,-4.77542,-21.1693,-7.72991,159.138,0.1432369999999999,-0.103782,0.4247039999999999,275.3,5.4,52.1701,4.427230000000001,-0.6,0.540784,313.222,4.64644,128.658,14.0621,195.851,0.986844,-0.0429164,234.752,4.45665,4.09883,-14.0655364990234,22.003026962280305,-13.7352447509766,22.0,-917048.0,1322.87,pp-riro,4,0,-1,-1
1570533133.6,2019-10-08,13:12:13.600,14.0,10.0,20.2399997711182,-19.7,13.9,7.4,-20.1,-10.2,166.2,-17.6975,14.796,7.458089999999999,-0.8547809999999999,-6.575360000000001,-4.77542,-21.1693,-7.72991,159.138,0.1432369999999999,-0.103782,0.4247039999999999,275.3,5.4,52.1701,4.427230000000001,-0.6,0.547433,313.97700000000003,4.646380000000001,130.09,12.1621,194.951,0.980349,-0.0272596,234.685,4.49125,4.1193,-13.8692626953125,22.003026962280305,-13.649113655090302,22.0,-916885.0,1692.05,pp-riro,4,0,-1,-1
1570533133.7,2019-10-08,13:12:13.700,14.0,10.0,20.4899997711182,-19.9,13.1,7.0,-20.2,-9.0,168.5,-18.6697,12.7852,6.892530000000001,-4.78601,-8.94625,-4.1889400000000006,-21.8077,-5.41726,165.055,0.020927,-0.0790107,0.293517,275.3,5.4,52.1701,4.427230000000001,-0.6,0.5418930000000001,312.635,4.6464,131.433,10.262,194.151,0.974288,-0.0119029,234.68,4.52294,4.13949,-13.77197265625,22.0035419464111,-13.5694055557251,22.0,-916721.0,1722.81,pp-riro,4,0,-1,-1
1570533133.8,2019-10-08,13:12:13.800,14.0,9.0,20.7900009155273,-20.3,12.2,6.8,-20.3,-7.8,170.7,-18.8088,12.408,6.72253,-2.1590000000000003,-7.98757,-6.9931600000000005,-21.9573,-4.94032,166.377,-0.2162599999999999,-0.0512216999999999,0.218355,275.3,5.4,52.1701,4.427230000000001,-0.6,0.545771,316.97700000000003,4.646380000000001,132.66,8.36202,193.351,0.968529,0.00305016,234.634,4.5536,4.16441,-13.6490859985352,22.0035419464111,35.0,22.0,-916579.0,1261.34,pp-riro,4,0,-1,-1
1570533133.9,2019-10-08,13:12:13.900,14.0,9.0,21.0,-20.5,11.3,6.4,-20.6,-6.6,173.3,-19.2888,11.1598,6.34701,-1.60745,-6.39418,-2.089,-22.3873,-2.96816,169.885,-0.0248417,-0.032843,0.430791,275.9,5.9,52.1701,4.427230000000001,-0.6,0.558515,322.256,4.64636,133.828,6.462000000000001,192.551,0.96287,0.0177727,234.58,4.59029,4.18979,-13.58251953125,22.0035419464111,35.0,22.0,-916442.0,1384.4,pp-riro,4,0,-1,-1
1570533134.0,2019-10-08,13:12:14.000,14.0,10.0,21.2099990844727,-20.7,10.5,6.0,-20.8,-5.2,175.6,-19.4052,10.7039,6.19303,-3.27225,-12.4568,-3.40452,-22.5933,-2.33735,171.018,-0.105718,0.0113357999999999,0.332734,275.9,5.9,52.1701,4.427230000000001,-0.6,1.2173200000000002,310.733,4.64641,134.88,4.18196,191.851,0.957805,0.0350105,234.557,4.622730000000001,4.21127,-13.3862457275391,22.003026962280305,35.0,22.0,-919745.0,-28641.7,pp-riro,4,0,-1,-1
1570533134.1,2019-10-08,13:12:14.100,14.0,9.0,21.3700008392334,-20.8,9.8,4.9,-20.7,-3.8,177.6,-19.4546,10.3706,5.8876,-3.26935,-8.09915,-2.53158,-22.7679,-1.65061,172.176,-0.0179158,0.165598,0.379363,275.9,5.9,52.1701,4.427230000000001,-0.6,1.13254,278.146,4.64646,135.873,2.28193,191.351,0.953277,0.0491626,234.695,4.653519999999999,4.24643,-12.8434906005859,22.003026962280305,35.0,22.0,-917593.0,25596.1,pp-riro,4,0,-1,-1
1570533134.2,2019-10-08,13:12:14.200,14.0,11.0,21.4200000762939,-20.5,8.9,4.3,-20.7,-2.5,179.8,-19.7322,9.62926,5.04452,0.4118989999999999,-4.2092,-13.1398,-22.693,-0.627117,174.55,-0.0388509,0.0259447999999999,0.4741579999999999,275.9,5.9,52.1701,4.427230000000001,-0.6,1.00566,277.074,4.64651,136.80700000000002,0.381897,190.751,0.948616,0.063115,234.739,4.686380000000001,4.27123,-11.955963134765598,22.003026962280305,35.0,22.0,-917122.0,9413.93,pp-riro,4,0,-1,-1
1570533134.3,2019-10-08,13:12:14.300,14.0,9.0,21.25,-20.7,8.0,4.6,-21.4,-1.4,-177.9,-19.7322,9.62926,5.04452,0.4118989999999999,-4.2092,-13.1398,-22.693,-0.627117,174.55,-0.0388509,0.0259447999999999,0.4741579999999999,275.9,5.9,52.1701,4.427230000000001,-0.6,1.14806,319.4,4.64656,137.596,-1.51814,190.251,0.944618,0.0768893,234.799,4.71882,4.28599,-10.7134323120117,22.003026962280305,35.0,22.0,-917930.0,-7537.3,pp-riro,4,0,-1,-1
1570533134.4,2019-10-08,13:12:14.400,14.0,9.0,21.1200008392334,-20.3,7.3,4.1,-21.8,-0.1,-175.6,-19.5938,7.66114,4.4593300000000005,1.50534,-5.3038,0.849707,-24.1053,2.0276,-179.271,0.0231347999999999,0.0745736999999999,0.465506,275.9,5.9,52.1701,4.427230000000001,-0.6,1.13642,308.643,4.64661,138.297,-3.79819,189.851,0.941051,0.0932634,234.913,4.75125,4.30114,-9.10565185546875,22.003026962280305,35.0,22.0,-917031.0,6491.31,pp-riro,4,0,-1,-1
1570533134.5,2019-10-08,13:12:14.500,14.0,12.0,21.0400009155273,-20.1,6.6,3.5,-21.7,0.5,-174.0,-19.3483,6.9483,3.77429,-0.635946,-0.3317739999999999,-7.867719999999999,-23.9731,2.3588,-176.821,-0.160132,-0.0873328999999999,0.231876,275.9,5.9,52.1701,4.427230000000001,-0.8,1.1198,302.165,4.64666,138.969,-5.31821,189.451,0.937568,0.1040069999999999,235.016,4.77116,4.32867,-7.15309906005859,22.0035419464111,35.0,22.0,-916737.0,2522.69,pp-riro,4,0,-1,-1
1570533134.6,2019-10-08,13:12:14.600,14.0,11.0,20.8299999237061,-20.5,5.9,3.2,-21.7,1.1,-173.4,-19.5021,6.2102900000000005,3.27076,-3.94778,2.19376,-3.13083,-24.7802,2.71297,-175.767,-0.1400559999999999,0.0627586,0.314559,275.9,5.9,52.1701,4.427230000000001,-0.8,1.12811,309.079,4.64671,139.553,-7.598260000000001,189.151,0.934451,0.1201,235.183,4.77271,4.35447,-5.03498840332031,22.0035419464111,35.0,22.0,-916605.0,2491.92,pp-riro,4,0,-1,-1
1570533134.7,2019-10-08,13:12:14.700,14.0,8.0,20.7800006866455,-20.8,5.5,3.3,-22.8,1.0,-172.6,-20.3091,5.64455,3.13977,-7.67905,-1.06229,0.037952,-25.1402,2.68541,-174.755,-0.179064,-0.193634,0.101969,275.9,5.9,52.1701,4.427230000000001,-0.8,1.1513799999999998,326.688,4.64679,140.108,-9.87831,188.752,0.931062,0.136045,235.276,4.76996,4.35752,-2.93394470214844,22.004056930542003,35.0,22.0,-916429.0,1445.93,pp-riro,4,0,-1,-1
1570533134.8,2019-10-08,13:12:14.800,14.0,9.0,20.6100006103516,-20.6,5.3,3.7,-23.4,0.3,-172.4,-20.2861,5.30368,3.45542,1.90299,-0.158156,5.97877,-25.7707,1.62081,-173.75099999999998,-0.0219066,-0.280929,0.131136,275.9,5.9,52.1701,4.427230000000001,-0.8,1.1946,346.18800000000005,4.646809999999999,140.605,-11.7784,188.352,0.927861,0.149181,235.34,4.75481,4.3410400000000005,-0.8414382934570309,22.0035419464111,35.0,22.0,-916271.0,2030.46,pp-riro,4,0,-1,-1
1570533134.9,2019-10-08,13:12:14.900,14.0,9.0,20.6499996185303,-20.3,5.4,3.9,-24.3,-0.2,-172.8,-20.3793,5.17839,3.58462,-1.49165,5.90854,6.6486600000000005,-25.8745,1.08315,-173.433,0.0577308,-0.273987,0.135989,277.1,6.6,52.1701,4.427230000000001,-0.8,1.2018,333.796,4.64686,141.072,-14.0584,187.952,0.924553,0.164883,235.425,4.731319999999999,4.31535,1.26713562011719,22.0035419464111,35.0,22.0,-915887.0,4645.44,pp-riro,4,0,-1,-1
1570533135.0,2019-10-08,13:12:15.000,14.0,7.0,20.7000007629395,-20.0,5.7,4.4,-25.7,-0.3,-174.1,-20.2146,5.33113,3.71019,5.11083,8.04725,5.71917,-26.869,0.263326,-173.778,-0.199023,-0.0067301999999999,-0.333696,277.1,6.6,52.1701,4.427230000000001,-0.8,1.13753,304.499,4.64691,141.59799999999998,-15.5784,187.552,0.92122,0.1750799999999999,235.517,4.70396,4.27881,3.3671112060546897,22.003026962280305,35.0,22.0,-915216.0,6368.25,pp-riro,4,0,-1,-1
1570533135.1,2019-10-08,13:12:15.100,14.0,8.0,20.5300006866455,-19.8,6.0,5.1,-26.7,-1.4,-175.1,-20.1234,5.62617,4.27417,1.82199,1.19974,6.45797,-28.0227,-0.770704,-174.782,-0.0527302,-0.1123059999999999,-0.2313309999999999,277.1,6.6,52.1701,4.427230000000001,-0.8,1.10484,287.656,4.64698,142.124,-17.8585,187.052,0.91727,0.190443,235.598,4.66619,4.23452,5.480712890625,22.003026962280305,35.0,22.0,-914772.0,3876.33,pp-riro,4,0,-1,-1
1570533135.2,2019-10-08,13:12:15.200,14.0,10.0,20.3999996185303,-19.3,6.7,5.6,-27.8,-2.6,-176.9,-20.1234,5.62617,4.27417,1.82199,1.19974,6.45797,-28.0227,-0.770704,-174.782,-0.0527302,-0.1123059999999999,-0.2313309999999999,277.1,6.6,52.1701,4.427230000000001,-0.8,1.08101,277.013,4.6470400000000005,142.737,-19.3785,186.452,0.913008,0.200321,235.613,4.62069,4.18015,7.589202880859379,22.0025119781494,35.0,22.0,-914431.0,3199.51,pp-riro,4,0,-1,-1
1570533135.3,2019-10-08,13:12:15.300,14.0,9.0,20.1800003051758,-19.0,7.4,6.7,-29.0,-4.4,-179.0,-19.656,7.16797,6.066409999999999,2.38527,11.539,15.242,-31.1608,-5.30345,-178.479,-0.296636,-0.233023,-0.2386719999999999,277.1,6.6,52.1701,4.427230000000001,-0.8,1.07769,277.862,4.6471,143.35,-21.6586,185.852,0.908327,0.215276,235.71,4.56073,4.11116,9.69940185546875,22.0025119781494,35.0,22.0,-914161.0,2399.63,pp-riro,4,0,-1,-1
1570533135.4,2019-10-08,13:12:15.400,14.0,10.0,19.8700008392334,-18.6,8.3,7.7,-30.4,-7.0,178.6,-19.8026,7.522930000000001,6.689769999999999,-0.0694798,5.2613900000000005,12.156,-32.1256,-6.656060000000001,-179.24599999999998,-0.5214310000000001,-0.15871,-0.340869,277.1,6.6,52.1701,4.427230000000001,-0.8,1.08268,277.775,4.64716,144.11,-23.1786,185.152,0.903208,0.224737,235.767,4.4926,4.04177,11.8078842163086,22.0025119781494,35.0,22.0,-913926.0,2553.45,pp-riro,4,0,-1,-1
1570533135.5,2019-10-08,13:12:15.500,14.0,9.0,19.6499996185303,-17.9,9.3,8.8,-31.8,-9.9,175.8,-19.4419,8.52778,7.7582,1.77008,13.5308,13.963,-33.6059,-10.1041,179.321,-0.466657,-0.324302,-0.567541,277.1,6.6,52.1701,4.42724,-0.9,1.07714,278.375,4.64722,144.928,-25.0786,184.352,0.89738,0.2365489999999999,235.836,4.41421,3.95962,13.906158447265598,22.0025119781494,35.0,22.0,-913643.0,2707.28,pp-riro,4,0,-1,-1
1570533135.6,2019-10-08,13:12:15.600,14.0,8.0,19.3799991607666,-17.1,10.2,9.8,-32.1,-13.1,172.2,-18.8464,9.63793,9.06076,6.890210000000001,3.40806,16.3442,-34.2873,-13.9601,177.05200000000002,-0.14056,-0.322925,-0.689221,277.1,6.6,52.1701,4.42724,-0.9,1.08822,281.516,4.64728,145.833,-26.5986,183.452,0.891164,0.245551,235.859,4.32442,3.883680000000001,16.0248641967773,22.0025119781494,35.0,22.0,-913448.0,2184.28,pp-riro,4,0,-1,-1
1570533135.7,2019-10-08,13:12:15.700,14.0,9.0,19.0499992370605,-16.3,11.3,10.8,-32.0,-16.8,167.8,-18.6622,10.1276,9.65397,-5.9355,17.383,10.8047,-34.6361,-15.9881,175.493,-0.233208,-0.353944,-0.81365,277.1,6.6,52.1701,4.42724,-0.9,1.08268,277.756,4.64734,146.855,-28.4986,182.452,0.8840290000000001,0.25676,235.939,4.21772,3.80205,18.1350555419922,22.0025119781494,35.0,22.0,-913143.0,3230.27,pp-riro,4,0,-1,-1
1570533135.8,2019-10-08,13:12:15.800,14.0,11.0,18.8700008392334,-15.1,12.5,11.8,-31.0,-21.0,163.0,-17.9909,11.3767,10.8149,4.7857400000000005,11.4167,8.97638,-34.9261,-20.219,171.658,-0.335842,-0.333029,-1.10065,277.1,6.6,52.1701,4.42724,-0.9,1.07326,269.78,4.6474,148.053,-30.0186,181.452,0.8765280000000001,0.2650679999999999,236.105,4.104369999999999,3.71023,20.2571716308594,22.003026962280305,35.0,22.0,-912866.0,2861.1,pp-riro,4,0,-1,-1
1570533135.9,2019-10-08,13:12:15.900,14.0,10.0,18.770000457763697,-14.0,13.5,12.7,-29.2,-25.2,157.5,-16.4062,13.3467,12.5812,11.9714,10.4276,6.16982,-33.6432,-27.0021,164.511,-0.163363,-0.0896603,-1.14436,273.1,7.1,52.1701,4.42724,-0.9,1.05885,266.68,4.64746,149.309,-31.9186,180.252,0.868017,0.275569,236.226,3.98229,3.62877,22.3605575561523,22.003026962280305,35.0,22.0,-912519.0,3199.51,pp-riro,4,0,-1,-1
1570533136.0,2019-10-08,13:12:16.000,14.0,10.0,18.8700008392334,-12.3,14.6,13.8,-26.8,-29.8,150.2,-15.8206,14.0291,13.1227,17.7023,9.00211,13.7701,-32.9785,-29.0401,161.458,-0.0471013,0.0348599,-1.16414,273.1,7.1,52.1701,4.42724,-0.9,1.07547,274.884,4.6474400000000005,150.653,-33.0586,179.05200000000002,0.859716,0.280956,236.323,3.84012,3.52846,24.4656372070312,22.003026962280305,35.0,22.0,-912285.0,1692.05,pp-riro,4,0,-1,-1
1570533136.1,2019-10-08,13:12:16.100,14.0,11.0,19.1000003814697,-10.2,15.3,14.4,-22.6,-33.9,141.6,-13.0493,15.7135,14.951,22.6944,-0.334713,6.22085,-29.7161,-37.0026,151.92700000000002,-0.3731239999999999,-0.2067989999999999,-1.47766,273.1,7.1,52.1701,4.42724,-0.9,1.08157,275.198,4.647419999999999,152.142,-34.1986,177.752,0.850677,0.286068,236.458,3.6903,3.42798,26.580940246582,22.0025119781494,35.0,22.0,-912148.0,2522.69,pp-riro,4,0,-1,-1
1570533136.2,2019-10-08,13:12:16.200,14.0,10.0,19.2399997711182,-7.7,16.4,15.1,-18.5,-37.1,132.7,-10.6349,16.7975,15.6883,32.6,11.1133,7.49297,-26.0769,-42.2782,143.577,-0.213136,-0.5103850000000001,-1.29482,273.1,7.1,52.1701,4.42724,-0.9,1.0655,265.482,4.6474,153.661,-35.3386,176.452,0.8415459999999999,0.291028,236.634,3.54851,3.3046800000000003,28.6860198974609,22.0025119781494,35.0,22.0,-911836.0,3137.98,pp-riro,4,0,-1,-1
1570533136.3,2019-10-08,13:12:16.300,14.0,10.0,19.2399997711182,-5.1,17.1,15.7,-13.3,-39.2,123.4,-10.6349,16.7975,15.6883,32.6,11.1133,7.49297,-26.0769,-42.2782,143.577,-0.213136,-0.5103850000000001,-1.29482,273.1,7.1,52.1701,4.42724,-0.9,1.0427799999999998,251.067,4.64738,155.267,-35.7185,175.05200000000002,0.832405,0.291111,236.7,3.41577,3.1894400000000003,30.620788574218803,22.0019989013672,35.0,22.0,-911475.0,3691.74,pp-riro,4,0,-1,-1
1570533136.4,2019-10-08,13:12:16.400,14.0,11.0,18.9599990844727,-3.9,17.2,16.0,-7.8,-40.6,113.1,-7.90217,18.0389,16.4202,30.5138,12.0065,-0.779436,-21.5143,-46.7183,133.879,-0.688477,-0.178388,-1.3634700000000002,273.1,7.1,52.1701,4.42724,-0.9,1.02505,248.867,4.64736,156.93200000000002,-36.0985,173.65200000000002,0.8230930000000001,0.291111,236.825,3.27581,3.13928,32.201324462890604,22.0025119781494,23.0116176605225,22.0,-911192.0,2245.81,pp-riro,4,0,-1,-1
1570533136.5,2019-10-08,13:12:16.500,14.0,13.0,18.6700000762939,0.3,17.4,16.2,-2.2,-41.1,103.0,-3.49329,19.0878,17.1626,25.0924,6.882969999999999,1.83657,-12.0545,-50.6211,117.327,-0.838485,-0.109726,-1.49242,273.1,7.1,52.1701,4.42724,-0.9,1.03447,253.508,4.64734,158.597,-36.4784,172.15200000000002,0.8135020000000001,0.291112,236.897,3.14221,2.9643200000000003,33.4343872070312,22.0025119781494,23.0116176605225,22.0,-911077.0,892.17,pp-ro,1,1,-1,-1
1570533136.6,2019-10-08,13:12:16.600,14.0,12.0,18.3899993896484,1.7,17.5,16.2,1.0,-41.5,97.9,-1.82656,19.0591,17.3252,30.6914,3.74263,-2.287,-8.394169999999999,-51.2486,111.262,-0.4037199999999999,-0.0901461,-1.40072,273.1,7.1,52.1701,4.42724,-0.9,1.03613,242.377,4.64732,159.502,-36.4784,171.352,0.808476,0.28989,236.925,3.07646,2.90693,34.3029937744141,22.0025119781494,23.0116176605225,22.0,-910826.0,3660.97,pp-ro,1,1,-1,-1
1570533136.7,2019-10-08,13:12:16.700,14.0,12.0,18.1900005340576,4.1,17.6,16.0,6.4,-41.2,88.0,2.56506,19.4488,17.1293,26.8574,-0.0733391,4.39507,1.86627,-52.4378,93.6727,-0.428171,-0.1120869999999999,-1.34103,273.1,7.1,52.1701,4.42724,-0.9,0.995686,233.818,4.64731,161.255,-36.0983,169.852,0.799144,0.285302,236.972,2.9504200000000003,2.81052,34.817337036132805,22.0025119781494,23.0116176605225,22.0,-910426.0,3199.51,pp-ro,1,1,-1,-1
1570533136.8,2019-10-08,13:12:16.800,14.0,11.0,17.9500007629395,6.2,16.8,15.6,12.7,-40.2,77.4,5.2758,19.1188,16.9251,22.5659,-0.689398,0.976113,9.19124,-52.0845,81.3876,-0.254787,-0.0243473,-0.913301,273.1,7.1,52.1701,4.42724,-0.9,1.01619,250.403,4.64729,162.94899999999998,-35.7183,168.452,0.790274,0.280879,237.074,2.81324,2.72292,34.974029541015604,22.0025119781494,23.0116176605225,22.0,-910417.0,-769.112,pp-ro,1,1,-1,-1
1570533136.9,2019-10-08,13:12:16.900,14.0,8.0,18.2399997711182,8.1,15.9,14.8,18.6,-38.4,66.5,7.67545,18.5106,16.4323,30.4405,-16.4659,-8.43384,16.4116,-50.5921,68.9194,-0.337433,0.230739,-1.17593,266.9,6.3,52.1701,4.42724,-0.9,1.01785,227.93400000000003,4.6473,164.643,-34.9582,167.05200000000002,0.7816390000000001,0.274332,237.141,2.66921,2.63595,34.829254150390604,22.0025119781494,23.0116176605225,22.0,-909985.0,5999.08,pp-ro,1,1,-1,-1
1570533137.0,2019-10-08,13:12:17.000,14.0,10.0,18.4300003051758,9.9,15.3,13.5,24.4,-36.2,56.6,8.70278,17.7982,15.8665,23.4081,-8.1441,-18.4313,20.3132,-50.0122,62.5874,-0.770564,-0.437745,-1.5597,266.9,6.3,52.1701,4.42724,-0.9,0.977955,211.96400000000003,4.64731,166.19099999999997,-33.8181,165.852,0.774237,0.26583,237.213,2.53553,2.5444400000000003,34.2706298828125,22.0025119781494,23.0116176605225,22.0,-909697.0,5168.43,pp-ro,1,1,-1,-1
1570533137.1,2019-10-08,13:12:17.100,14.0,8.0,18.659999847412102,11.4,14.3,12.3,28.1,-32.9,48.7,9.70887,17.5058,15.3155,15.0597,7.68152,-2.39665,24.1474,-48.7897,56.554,-0.748961,-0.0200764,-1.34623,266.9,6.3,52.1701,4.42724,-0.9,0.94194,203.528,4.64733,167.709,-33.058,164.852,0.767281,0.25969,237.477,2.41316,2.45621,33.3424072265625,22.0025119781494,21.5990810394287,22.0,-909474.0,1476.7,pp-ro,1,1,-1,-1
1570533137.2,2019-10-08,13:12:17.200,14.0,9.0,18.4699993133545,12.6,13.3,11.2,31.0,-28.9,41.5,10.7459,16.9675,14.3915,17.0536,-2.2143,-22.5649,27.0809,-46.5818,50.7082,0.0425983,-0.378527,-1.42516,266.9,6.3,52.1701,4.42724,-0.9,0.96632,214.914,4.64734,169.17,-31.9179,163.852,0.760695,0.25154,237.665,2.29066,2.3781,32.0633544921875,22.0019989013672,20.226161956787102,22.0,-909443.0,276.88,pp-ro,1,1,-1,-1
1570533137.3,2019-10-08,13:12:17.300,14.0,11.0,18.0799999237061,13.7,12.4,10.1,33.7,-24.8,35.2,14.0179,14.5418,11.8163,6.14309,-10.074,-7.8792,34.665,-38.1831,34.2127,-0.3241469999999999,0.162254,-1.36066,266.9,6.3,52.1701,4.42724,-0.9,0.970752,205.85,4.64735,170.484,-30.3978,162.952,0.755001,0.241494,237.786,2.17643,2.30275,31.2867126464844,22.0025119781494,18.8651714324951,22.0,-909263.0,2461.16,pp-ro,1,1,-1,-1
1570533137.4,2019-10-08,13:12:17.400,14.0,11.0,17.5900001525879,14.4,11.3,8.9,35.3,-20.5,30.0,15.1194,13.4044,10.4408,10.0137,-14.4049,-11.5792,36.687,-32.9153,27.5702,-0.175374,0.289023,-1.18034,266.9,6.3,52.1701,4.42724,-0.9,0.917006,183.406,4.64736,171.71099999999998,-29.2578,162.153,0.749637,0.2337969999999999,237.979,2.06925,2.22948,28.970458984375,22.0025119781494,17.5564765930176,22.0,-908820.0,2122.75,pp-ro,1,1,-1,-1
1570533137.5,2019-10-08,13:12:17.500,14.0,12.0,17.4400005340576,15.5,10.5,7.6,36.2,-16.3,25.2,16.4502,11.7013,8.1996,17.4679,-13.6275,-10.1692,38.2947,-24.8891,20.6631,-0.33057,0.0660356,-1.10693,266.9,6.3,52.1701,4.42724,-1.0,0.915344,188.415,4.64737,172.908,-28.1177,161.453,0.744644,0.226227,238.232,1.96631,2.14245,26.3407974243164,22.0025119781494,15.9637718200684,22.0,-908711.0,799.877,pp-ro,1,1,-1,-1
1570533137.6,2019-10-08,13:12:17.600,14.0,11.0,17.4400005340576,16.4,9.7,6.6,37.9,-12.4,21.0,17.5329,10.7013,7.04524,9.27368,-16.4854,-6.09421,38.709,-20.1705,16.0605,-0.214405,0.336859,-0.8390489999999999,266.9,6.3,52.1701,4.42724,-1.0,0.925872,195.957,4.64738,173.959,-26.2176,160.85299999999998,0.740676,0.214596,238.375,1.87585,2.07276,24.2459335327148,22.0025119781494,14.6549425125122,22.0,-908703.0,153.822,pp-ro,1,1,-1,-1
1570533137.7,2019-10-08,13:12:17.700,14.0,12.0,17.479999542236303,17.1,9.0,5.7,38.9,-9.2,16.7,17.5329,10.7013,7.04524,9.27368,-16.4854,-6.09421,38.709,-20.1705,16.0605,-0.214405,0.336859,-0.8390489999999999,266.9,6.3,52.1701,4.42724,-1.0,0.970752,212.541,4.6474,174.982,-24.6975,160.35299999999998,0.7368899999999999,0.2052159999999999,238.624,1.79092,2.01261,22.1374435424805,22.0019989013672,13.5501546859741,22.0,-908648.0,1045.99,pp-ro,1,1,-1,-1
1570533137.8,2019-10-08,13:12:17.800,14.0,11.0,17.2800006866455,17.8,8.3,4.5,40.1,-5.4,12.5,17.8946,10.1239,6.44539,5.75325,-9.8064,-9.27777,38.8973,-17.7473,14.0762,0.2615639999999999,0.265019,-0.971695,266.9,6.3,52.1701,4.42724,-1.0,0.96909,211.92,4.64741,175.916,-22.7974,159.953,0.733762,0.1938619999999999,238.854,1.7005,1.94366,21.0848999023438,22.0019989013672,12.2358140945435,22.0,-908533.0,2184.28,pp-ro,1,1,-1,-1
1570533137.9,2019-10-08,13:12:17.900,14.0,11.0,16.9200000762939,18.1,7.5,3.7,41.2,-2.5,8.6,19.0139,8.6888,4.68435,1.22963,-12.9038,-9.68896,39.9988,-11.3743,8.22528,0.0299267,0.193435,-0.971843,272.1,4.4,52.1701,4.42724,-1.0,0.959117,210.703,4.647419999999999,176.792,-21.2774,159.553,0.730612,0.184751,239.093,1.62352,1.89219,19.0104751586914,22.0019989013672,11.2903232574463,22.0,-908348.0,1507.46,pp-ro,1,1,-1,-1
1570533138.0,2019-10-08,13:12:18.000,14.0,10.0,16.5499992370605,18.2,6.7,2.7,42.3,0.2,5.2,19.4189,7.238989999999999,3.16011,-0.7938069999999999,-13.2631,-12.8251,41.2128,-6.1226,2.32364,0.215435,-0.00339164,-0.992378,272.1,4.4,52.1701,4.42724,-1.0,0.96909,213.689,4.6475,177.581,-18.9973,159.153,0.7279,0.171501,239.218,1.55767,1.83854,17.0637817382812,22.0019989013672,10.2658958435059,22.0,-908237.0,1199.82,pp-ro,1,1,-1,-1
1570533138.1,2019-10-08,13:12:18.100,14.0,11.0,16.4500007629395,18.4,6.2,2.0,43.3,2.8,2.6,19.3852,6.78938,2.7196,0.680913,-7.33759,-12.5795,41.4212,-4.292,0.648212,0.158602,0.0667916,-0.7514149999999999,272.1,4.4,52.1701,4.42724,-1.0,0.939724,192.433,4.6475800000000005,178.31099999999998,-17.4772,158.85299999999998,0.725377,0.16255,239.446,1.49953,1.79929,14.8616180419922,22.0019989013672,9.54887866973877,22.0,-907852.0,3476.39,pp-ro,1,1,-1,-1
1570533138.2,2019-10-08,13:12:18.200,14.0,11.0,16.2900009155273,18.4,5.6,1.3,44.4,4.6,0.0,19.4588,6.46063,2.27475,0.908118,-8.642710000000001,-9.53246,42.0196,-2.48237,-0.526266,0.123231,0.228848,-0.569558,272.1,4.4,52.1701,4.42724,-1.0,0.924763,196.614,4.64767,178.953,-15.5772,158.553,0.723154,0.151592,239.595,1.45319,1.7603799999999998,13.1925430297852,22.0019989013672,8.82044982910156,22.0,-907690.0,861.4060000000001,pp-ro,1,1,-1,-1
1570533138.3,2019-10-08,13:12:18.300,14.0,10.0,16.120000839233402,18.6,5.0,0.8,45.9,6.6,-2.5,19.5195,5.14064,0.956556,3.45386,-3.53491,-5.4155,44.1341,3.21691,-5.45456,0.336879,-0.00212564,-0.6584180000000001,272.1,4.4,52.1701,4.42724,-1.0,0.940832,206.302,4.64775,179.537,-13.6771,158.253,0.721035,0.140716,239.718,1.40541,1.7259099999999998,12.4329376220703,22.0025119781494,8.181943893432619,22.0,-907705.0,-276.88,pp-ro,1,1,-1,-1
1570533138.4,2019-10-08,13:12:18.400,14.0,11.0,16.0699996948242,18.8,4.3,0.3,46.7,8.9,-4.5,19.783,4.45828,0.4236399999999999,2.20856,-13.7959,-3.32882,44.8972,6.25253,-7.277419999999999,0.0779487,0.0834455,-0.523595,272.1,4.4,52.1701,4.42724,-1.0,0.974631,215.203,4.64783,180.03400000000002,-11.777,158.053,0.7194149999999999,0.129923,239.858,1.35952,1.68813,10.7672653198242,22.0025119781494,7.45944452285767,22.0,-907645.0,1415.17,pp-ro,1,1,-1,-1
1570533138.5,2019-10-08,13:12:18.500,14.0,9.0,16.0699996948242,18.8,3.5,0.0,47.9,10.0,-6.6,19.7386,4.01051,0.290747,-2.8017,-9.87786,-7.06758,45.2807,7.328069999999999,-8.56794,-0.0613677,-0.199641,-0.584935,272.1,4.4,52.1701,4.42724,-1.2,0.965766,213.532,4.647930000000001,180.501,-9.87696,157.953,0.7181350000000001,0.1191609999999999,240.057,1.32811,1.65621,9.62615966796875,22.0025119781494,6.84256219863892,22.0,-907362.0,1692.05,pp-ro,1,1,-1,-1
1570533138.6,2019-10-08,13:12:18.600,14.0,10.0,16.120000839233402,19.1,3.0,-0.5,49.1,11.2,-8.0,19.5944,3.3138400000000003,-0.216826,-2.34676,-9.5017,-5.00875,46.5972,8.95761,-10.2766,0.0533369,0.137723,-0.187612,272.1,4.4,52.1701,4.42724,-1.2,0.968536,215.736,4.64799,180.852,-7.9769,157.753,0.716806,0.108516,240.11900000000003,1.30345,1.62483,8.39308166503906,22.0025119781494,6.24369382858276,22.0,-907295.0,1322.87,pp-ro,1,1,-1,-1
1570533138.7,2019-10-08,13:12:18.700,14.0,10.0,16.1800003051758,19.0,2.4,-0.5,49.9,12.3,-9.6,19.5944,3.3138400000000003,-0.216826,-2.34676,-9.5017,-5.00875,46.5972,8.95761,-10.2766,0.0533369,0.137723,-0.187612,272.1,4.4,52.1701,4.42724,-1.2,0.979064,223.296,4.64807,181.173,-6.07684,157.653,0.715816,0.0978845,240.24,1.27781,1.61161,7.53981018066406,22.0025119781494,5.99571418762207,22.0,-907178.0,1169.05,pp-ro,1,1,-1,-1
1570533138.8,2019-10-08,13:12:18.800,14.0,11.0,16.120000839233402,19.3,1.8,-0.7,50.8,12.7,-11.6,19.8416,2.78415,-0.708534,2.56719,-2.7124900000000003,-3.47201,47.3588,10.7095,-11.4916,0.0232382,0.0669441,-0.377007,272.1,4.4,52.1701,4.42724,-1.2,0.997902,233.578,4.64816,181.436,-3.796780000000001,157.553,0.714954,0.0851971,240.325,1.25798,1.59078,6.74784851074219,22.0019989013672,5.587372779846191,22.0,-907088.0,799.877,pp-ro,1,1,-1,-1
1570533138.9,2019-10-08,13:12:18.900,14.0,11.0,16.120000839233402,19.6,1.4,-1.1,51.8,13.7,-12.9,20.1324,1.48315,-1.0457,1.99931,-4.27237,-2.97678,49.1051,13.0092,-14.4664,0.0199854,-0.0174889999999999,-0.397553,271.6,5.6,52.1701,4.42724,-1.2,1.01231,237.041,4.64824,181.611,-2.27673,157.453,0.714232,0.0767275,240.373,1.23571,1.56697,6.12790679931641,22.0019989013672,5.1273493766784695,22.0,-906940.0,1907.4,pp-ro,1,1,-1,-1
1570533139.0,2019-10-08,13:12:19.000,14.0,12.0,16.2900009155273,19.8,0.6,-1.4,52.0,13.8,-14.3,20.2787,0.981679,-1.4060700000000002,2.62706,-4.63952,-1.73778,49.6835,13.9113,-15.6726,0.19122,-0.186935,-0.218878,271.6,5.6,52.1701,4.42724,-1.2,1.00843,241.591,4.64829,181.728,0.00332696,157.453,0.713953,0.0640924,240.451,1.22659,1.53723,5.596527099609379,22.0019989013672,4.518603324890139,22.0,-906727.0,1753.58,pp-ro,1,1,-1,-1
1570533139.1,2019-10-08,13:12:19.100,14.0,12.0,16.5499992370605,19.8,0.0,-1.6,52.5,13.4,-15.8,20.3505,0.2484579999999999,-1.61179,2.24719,-7.30857,-5.10585,49.7578,13.9563,-17.2193,-0.0823575,-0.263332,-0.177111,271.6,5.6,52.1701,4.42724,-1.2,1.03281,255.868,4.64834,181.757,2.28338,157.35299999999998,0.7135199999999999,0.0515147,240.418,1.22268,1.51797,5.150299072265621,22.0025119781494,4.13254165649414,22.0,-906675.0,338.409,pp-ro,1,1,-1,-1
1570533139.2,2019-10-08,13:12:19.200,14.0,13.0,16.7099990844727,19.5,-0.3,-1.6,52.5,13.4,-16.6,20.2057,-0.574746,-1.82265,-1.66612,-4.18771,-3.93016,50.23,14.3258,-18.4587,0.112764,-0.0155145,-0.1477119999999999,271.6,5.6,52.1701,4.42724,-1.2,1.05774,264.931,4.64839,181.727,4.18343,157.35299999999998,0.713508,0.041011,240.421,1.22034,1.5138200000000002,4.88971710205078,22.0025119781494,4.03265571594238,22.0,-906506.0,2338.1,pp-ro,1,1,-1,-1
1570533139.3,2019-10-08,13:12:19.300,14.0,14.0,16.6599998474121,19.5,-0.7,-1.8,52.8,13.7,-17.6,20.2057,-0.574746,-1.82265,-1.66612,-4.18771,-3.93016,50.23,14.3258,-18.4587,0.112764,-0.0155145,-0.1477119999999999,271.6,5.6,52.1701,4.42724,-1.2,1.05386,259.367,4.64844,181.698,6.083469999999999,157.454,0.713757,0.0305089999999999,240.505,1.21185,1.49961,4.295326232910161,22.0025119781494,3.7186508178710898,22.0,-906289.0,2307.34,pp-ro,1,1,-1,-1
1570533139.4,2019-10-08,13:12:19.400,14.0,13.0,16.6599998474121,19.3,-1.0,-1.8,52.4,14.2,-18.7,20.2581,-0.8750120000000001,-1.93005,3.00493,-3.83409,-3.3349800000000003,50.2125,14.7018,-19.2679,0.016564,0.0731767,0.0231304,271.6,5.6,52.1701,4.42724,-1.2,1.0378,249.128,4.64849,181.61,7.983519999999999,157.454,0.713795,0.0199968,240.495,1.19967,1.4954,4.063697814941411,22.0019989013672,3.61982011795044,22.0,-905957.0,3476.39,pp-ro,1,1,-1,-1
1570533139.5,2019-10-08,13:12:19.500,14.0,12.0,16.7600002288818,19.1,-1.4,-1.9,52.1,14.2,-19.5,20.2581,-0.8750120000000001,-1.93005,3.00493,-3.83409,-3.3349800000000003,50.2125,14.7018,-19.2679,0.016564,0.0731767,0.0231304,271.6,5.6,52.1701,4.42724,-1.4,1.0173,240.342,4.64853,181.46400000000003,10.2636,157.654,0.7145090000000001,0.007379,240.602,1.19871,1.4851299999999998,3.7435073852539102,22.0025119781494,3.35850405693054,22.0,-905606.0,1507.46,pp-ro,1,1,-1,-1
1570533139.6,2019-10-08,13:12:19.600,14.0,12.0,16.870000839233402,18.7,-1.7,-2.1,51.8,14.5,-19.8,19.8272,-1.59704,-1.99883,-0.486933,-1.26997,-3.25901,49.4848,14.9281,-21.782,-0.0635284,-0.175422,-0.126107,271.6,5.6,52.1701,4.42724,-1.4,1.01619,236.006,4.64858,181.318,11.7836,157.754,0.71497,-0.00106832,240.627,1.197,1.46977,3.5902252197265603,22.0019989013672,3.01610565185547,22.0,-905493.0,2184.28,pp-ro,1,1,-1,-1
1570533139.7,2019-10-08,13:12:19.700,14.0,12.0,16.9699993133545,18.5,-2.0,-2.2,51.3,14.2,-20.2,19.3557,-2.05221,-2.18891,-3.68103,-1.67442,-2.16538,49.223,15.4387,-21.9539,-0.16756,-0.00496636,0.0815681,271.6,5.6,52.1701,4.42724,-1.4,0.994024,225.172,4.648630000000001,181.114,13.6836,157.85399999999998,0.715477,-0.0116302,240.639,1.20314,1.46078,3.2802505493164102,22.0025119781494,2.79802274703979,22.0,-905180.0,3137.98,pp-ro,1,1,-1,-1
1570533139.8,2019-10-08,13:12:19.800,14.0,11.0,17.229999542236303,18.4,-2.2,-2.5,50.8,14.1,-20.6,19.1172,-2.3134,-2.29549,-3.52421,-3.23173,-2.88701,48.7795,15.524,-22.2514,-0.317892,-0.0741021,0.000726751,271.6,5.6,52.1701,4.42724,-1.4,0.979064,222.935,4.648680000000001,180.88,15.5837,158.054,0.716321,-0.0222127999999999,240.71,1.20675,1.4479,2.95664978027344,22.0025119781494,2.4809706211090097,22.0,-904980.0,1292.11,pp-ro,1,1,-1,-1
1570533139.9,2019-10-08,13:12:19.900,14.0,11.0,17.5300006866455,18.7,-2.5,-2.8,50.5,14.0,-21.0,19.1335,-2.67946,-2.56156,1.22705,-6.187880000000001,-1.55509,48.2497,15.3699,-22.4937,0.035297,-0.135174,0.0809181,270.6,5.5,52.1701,4.42724,-1.4,0.994578,230.859,4.6487300000000005,180.617,17.4837,158.254,0.71719,-0.0328185999999999,240.775,1.2103700000000002,1.43576,2.8425445556640603,22.0025119781494,2.17758250236511,22.0,-904864.0,1353.64,pp-ro,1,1,-1,-1
1570533140.0,2019-10-08,13:12:20.000,14.0,10.0,17.6299991607666,18.8,-2.7,-2.7,50.2,14.1,-21.9,19.1335,-2.67946,-2.56156,1.22705,-6.187880000000001,-1.55509,48.2497,15.3699,-22.4937,0.035297,-0.135174,0.0809181,270.6,5.5,52.1701,4.42724,-1.4,1.01452,249.865,4.64877,180.325,19.3838,158.454,0.718083,-0.0434422,240.833,1.20565,1.4409999999999998,2.5751495361328103,22.0019989013672,2.22051095962524,22.0,-904766.0,799.877,pp-ro,1,1,-1,-1
1570533140.1,2019-10-08,13:12:20.100,14.0,11.0,17.6299991607666,19.1,-3.0,-2.8,50.0,14.3,-22.9,19.5395,-2.93514,-2.70417,0.254454,-5.25427,5.29807,47.8879,15.2132,-22.7172,0.0937894,-0.0313704,-0.0840506,270.6,5.5,52.1701,4.42724,-1.4,1.05996,274.902,4.6488,180.00400000000002,21.2838,158.654,0.7189979999999999,-0.0540863,240.885,1.19851,1.43743,2.24815368652344,22.003026962280305,2.08592891693115,22.0,-904801.0,-615.29,pp-ro,1,1,-1,-1
1570533140.2,2019-10-08,13:12:20.200,14.0,11.0,17.5300006866455,19.3,-3.1,-2.9,50.5,14.8,-23.8,19.9218,-3.49013,-2.69238,3.27457,0.420935,-0.884,47.1925,15.3636,-24.3043,0.0944597,-0.0879306,-0.2028869999999999,270.6,5.5,52.1701,4.42724,-1.4,1.10872,298.643,4.64883,179.68200000000002,23.1838,158.85399999999998,0.719858,-0.0647416999999999,240.952,1.18876,1.43954,2.19875335693359,22.003026962280305,2.06964802742004,22.0,-904552.0,2430.39,pp-ro,1,1,-1,-1
1570533140.3,2019-10-08,13:12:20.300,14.0,11.0,17.6299991607666,19.6,-3.3,-2.4,50.9,15.4,-25.7,20.3652,-3.74131,-2.71925,3.53124,-4.074669999999999,1.11406,47.3404,15.8793,-25.2748,0.152095,0.0139043999999999,-0.107574,270.6,5.5,52.1701,4.42724,-1.4,1.11481,303.399,4.64886,179.30200000000002,25.4639,159.054,0.7206739999999999,-0.0775281999999999,241.031,1.1675,1.46347,2.15106964111328,22.003026962280305,2.49637150764465,22.0,-904472.0,1538.22,pp-ro,1,1,-1,-1
1570533140.4,2019-10-08,13:12:20.400,14.0,11.0,17.8299999237061,19.5,-3.3,-2.3,51.0,16.2,-27.7,20.5132,-3.92482,-2.42377,6.37626,-0.241706,5.92433,47.5925,16.0483,-26.0933,0.0531255999999999,-0.272522,-0.30734,270.6,5.5,52.1701,4.42724,-1.4,1.13809,307.519,4.64889,178.952,27.3639,159.154,0.721176,-0.0882368,241.045,1.14114,1.47325,2.01311492919922,22.003026962280305,2.66588068008423,22.0,-904126.0,3291.8,pp-ro,1,1,-1,-1
1570533140.5,2019-10-08,13:12:20.500,14.0,9.0,18.3700008392334,19.3,-3.7,-2.7,51.1,17.1,-28.4,20.4411,-4.08161,-2.12378,-0.6733140000000001,-1.0590000000000002,1.68921,47.9444,17.3603,-29.1903,0.165922,-0.048233,-0.309373,270.6,5.5,52.1701,4.42725,-1.5,1.11592,297.261,4.64892,178.572,29.2639,159.254,0.721701,-0.0989526999999999,241.053,1.12892,1.45038,2.18853759765625,22.003026962280305,2.18358302116394,22.0,-903718.0,4122.44,pp-ro,1,1,-1,-1
1570533140.6,2019-10-08,13:12:20.600,14.0,7.0,18.6499996185303,19.0,-4.3,-2.9,51.4,17.3,-28.9,20.4411,-4.08161,-2.12378,-0.6733140000000001,-1.0590000000000002,1.68921,47.9444,17.3603,-29.1903,0.165922,-0.048233,-0.309373,270.6,5.5,52.1701,4.42725,-1.5,1.10816,294.088,4.64896,178.134,31.164,159.454,0.722638,-0.109745,241.099,1.12778,1.42731,2.55471801757812,22.003026962280305,1.6637117862701398,22.0,-903418.0,2799.57,pp-ro,1,1,-1,-1
1570533140.7,2019-10-08,13:12:20.700,14.0,11.0,19.020000457763697,18.9,-4.6,-3.0,51.7,17.2,-29.2,20.036,-4.40656,-2.4934,-4.14812,-4.27555,-6.78159,47.9696,18.3161,-30.0217,-0.0127676,0.00866587,-0.1140559999999999,270.6,5.5,52.1701,4.42725,-1.5,1.10872,294.829,4.64899,177.87099999999998,32.304,159.555,0.723111,-0.11624,241.121,1.12983,1.41704,2.6194305419921897,22.003026962280305,1.43190085887909,22.0,-903284.0,2676.51,pp-ro,1,1,-1,-1
1570533140.8,2019-10-08,13:12:20.800,14.0,10.0,19.2999992370605,18.6,-4.5,-2.9,51.7,17.2,-30.4,19.5029,-5.18026,-2.79264,-3.5813300000000003,0.898848,-2.3737,48.6981,18.549,-30.9868,0.0599146,-0.158449,-0.0500869,270.6,5.5,52.1701,4.42725,-1.5,1.10761,292.983,4.64902,177.141,34.964,159.955,0.724964,-0.131489,241.219,1.1259,1.43,2.5342788696289102,22.003026962280305,1.55877089500427,22.0,-903027.0,2522.69,pp-ro,1,1,-1,-1
1570533140.9,2019-10-08,13:12:20.900,14.0,8.0,19.5699996948242,18.7,-4.4,-2.8,51.6,17.7,-30.9,19.4685,-5.2010000000000005,-2.78554,-1.02629,-1.24734,-0.5296029999999999,48.7258,18.8059,-31.2542,0.0724963,0.0283803,-0.161164,270.2,4.7,52.1701,4.42725,-1.5,1.10539,297.013,4.64905,176.907,36.104,160.055,0.725287,-0.137967,241.282,1.11818,1.44263,2.0590972900390603,22.0035419464111,1.80097675323486,22.0,-902588.0,2861.1,pp-ro,1,1,-1,-1
1570533141.0,2019-10-08,13:12:21.000,14.0,10.0,19.659999847412102,18.8,-4.7,-2.7,51.7,18.2,-31.7,19.5629,-5.08526,-2.5918400000000004,2.94962,0.991037,4.55234,48.7189,19.5692,-32.1013,-0.240044,-0.0051744999999999,-0.203074,270.2,4.7,52.1701,4.42725,-1.5,1.1126,305.152,4.64907,176.44,37.6241,160.355,0.726622,-0.146767,241.372,1.10848,1.44409,1.423828125,22.003026962280305,1.72438418865204,22.0,-902509.0,1507.46,pp-ro,1,1,-1,-1
1570533141.1,2019-10-08,13:12:21.100,14.0,10.0,19.75,18.9,-5.1,-2.6,51.5,18.6,-32.4,19.6145,-5.419919999999999,-2.56323,2.65011,-2.70279,0.434192,48.3396,19.9835,-33.0614,0.1698599999999999,-0.0960266999999999,-0.0998366,270.2,4.7,52.1701,4.42725,-1.5,1.1513799999999998,323.806,4.64909,175.885,39.9041,160.555,0.727384,-0.159794,241.466,1.10408,1.44526,1.28417205810547,22.003026962280305,1.7192603349685702,22.0,-902464.0,430.703,pp-ro,1,1,-1,-1
1570533141.2,2019-10-08,13:12:21.200,14.0,11.0,19.8799991607666,18.8,-5.4,-2.7,51.3,18.6,-33.1,19.4062,-5.87121,-2.53261,-5.12889,-1.71387,2.88558,48.1507,20.2004,-34.1372,-0.0383181,-0.0439259,-0.111592,270.2,4.7,52.1701,4.42725,-1.5,1.17465,330.168,4.64912,175.33,41.8041,160.755,0.728306,-0.1707769999999999,241.517,1.10321,1.43806,1.4851379394531203,22.0035419464111,1.5237963199615498,22.0,-902153.0,4183.97,pp-ro,1,1,-1,-1
1570533141.3,2019-10-08,13:12:21.300,14.0,11.0,20.0599994659424,18.6,-5.7,-2.8,51.2,18.6,-33.5,19.2912,-6.12239,-2.64057,-1.88651,-7.573589999999999,0.228363,47.8103,20.1082,-34.7043,0.0570704,-0.0686548,0.0126013,270.2,4.7,52.1701,4.42725,-1.5,1.17576,332.99,4.64914,174.74599999999998,43.3242,161.055,0.729807,-0.179764,241.561,1.10451,1.42808,1.708251953125,22.003026962280305,1.19208097457886,22.0,-901706.0,2184.28,pp-ro,1,1,-1,-1
1570533141.4,2019-10-08,13:12:21.400,14.0,10.0,20.2399997711182,18.6,-6.0,-2.7,51.1,18.6,-34.0,19.1553,-6.40731,-2.59599,-1.97591,-4.47328,4.32472,47.4653,20.148,-35.2611,0.00788343,0.135068,-0.110618,270.2,4.7,52.1701,4.42725,-1.5,1.1813,334.56199999999995,4.64916,174.16099999999997,45.6042,161.255,0.730433,-0.192858,241.692,1.10743,1.43128,1.6094665527343797,22.003026962280305,-35.0,22.0,-901537.0,3384.09,pp-ro,1,1,-1,-1
1570533141.5,2019-10-08,13:12:21.500,14.0,11.0,20.3299999237061,18.5,-6.0,-2.5,50.7,18.0,-35.0,19.1524,-6.60435,-2.51067,1.10341,-5.93881,-2.25992,47.5027,20.0426,-35.4931,-0.053296,-0.1049549999999999,-0.134994,270.2,4.7,52.1701,4.42725,-1.6,1.16911,326.875,4.64918,173.519,47.1242,161.555,0.7319899999999999,-0.201963,241.722,1.1090799999999998,1.44336,1.27906036376953,22.003026962280305,-35.0,22.0,-900960.0,3814.8,pp-ro,1,1,-1,-1
1570533141.6,2019-10-08,13:12:21.600,14.0,10.0,20.3299999237061,18.4,-6.0,-2.4,50.8,18.0,-35.4,19.1049,-6.62585,-2.34425,2.80212,-1.88613,1.11459,47.4888,19.8783,-35.786,-0.0292894,-0.1048019999999999,0.0102101,270.2,4.7,52.1701,4.42725,-1.6,1.16025,322.533,4.6492,172.87599999999998,49.4043,161.755,0.732625,-0.2151699999999999,241.851,1.11327,1.45441,0.827728271484375,22.003026962280305,-35.0,22.0,-900561.0,4060.91,pp-ro,1,1,-1,-1
1570533141.7,2019-10-08,13:12:21.700,14.0,10.0,20.3700008392334,18.5,-6.0,-2.2,50.9,17.9,-36.0,19.1049,-6.62585,-2.34425,2.80212,-1.88613,1.11459,47.4888,19.8783,-35.786,-0.0292894,-0.1048019999999999,0.0102101,270.2,4.7,52.1701,4.42725,-1.6,1.15526,321.702,4.64922,172.263,50.9243,161.955,0.733695,-0.224255,241.862,1.11351,1.46956,0.015327453613281,22.003026962280305,-35.0,22.0,-900373.0,3537.92,pp-ro,1,1,-1,-1
1570533141.8,2019-10-08,13:12:21.800,14.0,9.0,20.409999847412102,18.5,-6.1,-2.0,51.3,17.7,-36.5,18.9951,-6.569610000000001,-2.2857,-3.3241,-3.40302,1.60197,47.3857,19.834,-36.3001,-0.191363,-0.0621915999999999,-0.183666,270.2,4.7,52.1701,4.42725,-1.6,1.1569200000000002,322.467,4.64924,171.62,52.8243,162.155,0.7344930000000001,-0.235438,241.947,1.11759,1.48148,-1.15377807617188,22.0035419464111,-35.0,22.0,-900106.0,2491.92,pp-ro,1,1,-1,-1
1570533141.9,2019-10-08,13:12:21.900,14.0,10.0,20.5400009155273,18.7,-6.0,-1.8,51.4,17.2,-36.9,18.9999,-6.702789999999999,-1.96582,-2.33666,-1.45065,2.94887,47.7334,20.1786,-36.6407,0.280677,-0.00973914,0.0956511,274.6,4.9,52.1701,4.42725,-1.6,1.16191,323.43,4.64926,170.977,54.7243,162.355,0.735229,-0.246628,242.048,1.12654,1.50245,-2.68134307861328,22.0035419464111,-35.0,22.0,-899743.0,3722.5,pp-ro,1,1,-1,-1
1570533142.0,2019-10-08,13:12:22.000,14.0,10.0,20.6700000762939,19.0,-6.1,-1.6,52.0,16.5,-37.0,19.1829,-6.53589,-1.46805,2.27932,-7.208019999999999,1.02817,48.5305,19.6601,-36.9282,0.125801,0.0484168,0.16923,274.6,4.9,52.1701,4.42725,-1.6,1.16967,332.97900000000004,4.649290000000001,170.30599999999998,56.6244,162.556,0.735978,-0.257874,242.146,1.14156,1.51835,-4.56562805175781,22.003026962280305,-35.0,22.0,-899344.0,2122.75,pp-ro,1,1,-1,-1
1570533142.1,2019-10-08,13:12:22.100,14.0,10.0,20.9200000762939,19.3,-6.0,-1.1,52.7,15.1,-36.8,19.3786,-6.47728,-1.01456,0.184028,3.5344300000000004,8.94242,49.2389,18.8264,-36.5066,0.0346037,-0.0481261,0.214611,274.6,4.9,52.1701,4.42725,-1.6,1.18186,338.732,4.64931,169.692,58.5244,162.756,0.7365109999999999,-0.269019,242.301,1.16876,1.55109,-6.66666412353516,22.0035419464111,-35.0,22.0,-899222.0,2307.34,pp-ro,1,1,-1,-1
1570533142.2,2019-10-08,13:12:22.200,14.0,10.0,21.1700000762939,19.7,-5.8,-0.5,53.5,13.5,-35.9,19.5048,-6.3869,-0.735633,-0.6677390000000001,1.77267,6.26327,49.7906,18.3884,-35.8842,0.140914,0.0262531999999999,0.197455,274.6,4.9,52.1701,4.42725,-1.6,1.19349,344.219,4.64932,169.079,60.4244,162.856,0.736676,-0.280158,242.406,1.20692,1.591,-8.77965545654297,22.003026962280305,-35.0,22.0,-898928.0,3353.33,pp-ro,1,1,-1,-1
