time,date,time_of_day,airspeed_temperature,airspeed_angle_of_attack,airspeed_apparent_windspeed,kite_0_vx,kite_0_vy,kite_0_vz,kite_0_roll,kite_0_pitch,kite_0_yaw,kite_1_vx,kite_1_vy,kite_1_vz,kite_1_ax,kite_1_ay,kite_1_az,kite_1_roll,kite_1_pitch,kite_1_yaw,kite_1_roll_rate,kite_1_pitch_rate,kite_1_yaw_rate,ground_upwind_direction,ground_wind_velocity,ground_pos_latitude,ground_pos_longitude,ground_pos_altitude,ground_tether_reelout_speed,ground_tether_force,est_upwind_direction,kite_pos_east,kite_pos_north,kite_height,kite_elevation,kite_azimuth,kite_distance,kite_heading,kite_course,kite_actual_steering,kite_actual_depower,kite_set_steering,kite_set_depower,ground_mech_energy,ground_mech_power,flight_phase,flight_phase_index,phase,pattern,pattern_section
1570538272.2,2019-10-08,14:37:52.200,15.0,8.0,15.5500001907349,11.7,-3.3,2.5,19.0,-4.1,-66.8,10.7766,-2.09341,3.1686400000000003,10.8253,7.7064,3.00457,22.4122,9.66415,-66.1499,0.243367,0.188764,0.8785440000000001,227.7,5.3,52.1701,4.42724,2.0,-2.51941,103.751,4.39136,53.0117,11.0207,239.739,1.34867,0.116059,245.777,0.6310899999999999,1.54789,-34.6202392578125,22.0411338806152,-35.0,22.0,-333584.0,-2676.51,pp-riro,4,0,-1,-1
1570538272.3,2019-10-08,14:37:52.300,15.0,8.0,15.369999885559098,12.7,-2.5,2.9,20.8,-5.5,-61.6,11.7452,-1.28494,3.53,8.359010000000001,7.06367,3.62706,24.455,8.4677,-60.3229,0.208461,0.200788,1.02433,217.4,5.2,52.1701,4.42724,2.0,-2.50445,106.805,4.39122,52.6904,12.1607,239.539,1.34877,0.0943462,245.567,0.749491,1.65166,-34.941116333007805,22.016416549682603,-35.0,22.0,-333991.0,-4183.97,pp-riro,4,0,-1,-1
1570538272.4,2019-10-08,14:37:52.400,15.0,8.0,15.140000343322802,13.7,-1.6,3.3,22.4,-7.0,-56.5,11.7452,-1.28494,3.53,8.359010000000001,7.06367,3.62706,24.455,8.4677,-60.3229,0.208461,0.200788,1.02433,217.4,5.2,52.1701,4.42724,2.0,-2.46345,106.245,4.39105,52.4567,13.6808,239.33900000000003,1.34805,0.0662178,245.402,0.873239,1.7582400000000002,-34.970123291015604,22.003026962280305,-35.0,22.0,-334052.0,246.116,pp-riro,4,0,-1,-1
1570538272.5,2019-10-08,14:37:52.500,15.0,9.0,14.960000038147,14.6,-0.5,3.7,23.8,-8.9,-51.1,12.6934,-0.476774,3.99253,8.32206,8.55585,2.32,26.0268,6.95743,-54.5253,-0.000932201,0.172663,1.00439,217.4,5.2,52.1701,4.42724,2.0,-2.4424,96.3824,4.39089,52.3399,14.8208,239.039,1.34704,0.0455606,245.15,0.996141,1.86066,-34.970123291015604,22.0009689331055,-35.0,22.0,-334421.0,-5722.19,pp-riro,4,0,-1,-1
1570538272.6,2019-10-08,14:37:52.600,15.0,8.0,14.7200002670288,15.3,0.6,4.0,25.1,-10.8,-45.8,12.6934,-0.476774,3.99253,8.32206,8.55585,2.32,26.0268,6.95743,-54.5253,-0.000932201,0.172663,1.00439,217.4,5.2,52.1701,4.42724,2.0,-2.46179,91.2159,4.39072,52.3107,16.7209,238.83900000000003,1.34479,0.0122858999999999,245.072,1.1303299999999998,1.96541,-34.9940185546875,22.0009689331055,-35.0,22.0,-335249.0,-9998.46,pp-riro,4,0,-1,-1
1570538272.7,2019-10-08,14:37:52.700,15.0,8.0,14.6599998474121,16.0,1.7,4.3,26.5,-12.6,-40.3,14.4113,2.23272,4.88685,6.21115,9.4227,4.53448,29.6648,2.13546,-39.994,0.1537369999999999,0.1658589999999999,1.0466,217.4,5.2,52.1701,4.42724,2.0,-2.48672,91.0603,4.39056,52.3983,17.8609,238.539,1.34276,-0.00668395,244.878,1.25298,2.04914,-34.9940185546875,22.0009689331055,-35.0,22.0,-335727.0,-9321.64,pp-riro,4,0,-1,-1
1570538272.8,2019-10-08,14:37:52.800,15.0,8.0,14.539999961853,16.3,2.3,4.8,27.0,-13.3,-37.9,15.0679,3.23633,5.2336,5.8744,10.0698,3.41026,30.8577,0.0389107,-34.3669,0.2117909999999999,0.234758,1.08579,217.4,5.2,52.1701,4.42724,2.0,-2.53548,93.1671,4.39039,52.4859,18.621,238.439,1.34134,-0.0189280999999999,244.856,1.31021,2.09873,-34.9957275390625,22.0009689331055,-35.0,22.0,-336777.0,-9475.46,pp-riro,4,0,-1,-1
1570538272.9,2019-10-08,14:37:52.900,15.0,8.0,14.4799995422363,16.9,3.5,5.0,27.6,-15.3,-32.5,15.5817,4.297619999999999,5.70953,4.1637,12.2925,7.255339999999999,31.6529,-1.85852,-28.751,0.0882649,0.2514619999999999,1.00021,217.4,5.2,52.1701,4.42724,2.0,-2.57316,93.2994,4.390219999999999,52.7195,20.521,238.039,1.33746,-0.0490398,244.669,1.44279,2.1888,-34.9974365234375,22.0009689331055,-35.0,22.0,-337723.0,-10183.0,pp-riro,4,0,-1,-1
1570538273.0,2019-10-08,14:37:53.000,15.0,9.0,14.2299995422363,17.3,4.8,5.5,28.2,-17.3,-27.1,15.9861,5.42209,6.1283,3.02508,10.4135,5.83282,32.1047,-3.89775,-23.1195,0.238894,0.167663,0.957743,217.4,5.2,52.1701,4.42724,2.0,-2.63134,89.4046,4.39006,53.1284,22.0411,237.639,1.33332,-0.0709241999999999,244.501,1.56665,2.27641,-34.9991455078125,22.0009689331055,-35.0,22.0,-339337.0,-10890.6,pp-riro,4,0,-1,-1
1570538273.1,2019-10-08,14:37:53.100,15.0,8.0,14.2299995422363,17.6,6.0,5.8,28.7,-19.0,-21.9,16.1124,5.9917,6.36949,3.96677,11.5769,5.15916,32.3548,-5.01184,-20.4108,0.2140929999999999,0.189142,0.922868,217.4,5.2,52.1701,4.42724,2.0,-2.66237,88.6351,4.38989,53.5957,23.9412,237.139,1.32814,-0.0976093,244.296,1.6898099999999998,2.35828,-34.9991455078125,22.0009689331055,-35.0,22.0,-339936.0,-11905.9,pp-riro,4,0,-1,-1
1570538273.2,2019-10-08,14:37:53.200,15.0,9.0,14.2299995422363,17.8,7.3,6.2,28.8,-20.6,-16.3,16.1124,5.9917,6.36949,3.96677,11.5769,5.15916,32.3548,-5.01184,-20.4108,0.2140929999999999,0.189142,0.922868,217.4,5.2,52.1701,4.42724,2.0,-2.74215,92.3809,4.38973,54.209,25.4612,236.639,1.32291,-0.116441,244.1,1.81053,2.43578,-34.9974365234375,22.0009689331055,-35.0,22.0,-341834.0,-11475.2,pp-riro,4,0,-1,-1
1570538273.3,2019-10-08,14:37:53.300,15.0,9.0,14.4200000762939,18.0,8.4,6.6,28.9,-22.6,-10.7,16.467,8.26142,7.02007,1.76312,9.96726,3.86829,32.3742,-9.09232,-9.23205,0.172276,0.213531,1.01825,213.0,4.9,52.1701,4.42724,2.0,-2.76875,95.041,4.38957,54.9684,27.3613,236.139,1.31641,-0.139038,243.991,1.93571,2.50407,-34.9974365234375,22.0009689331055,-35.0,22.0,-342436.0,-11382.9,pp-riro,4,0,-1,-1
1570538273.4,2019-10-08,14:37:53.400,15.0,10.0,14.6000003814697,18.0,9.7,7.1,28.3,-24.2,-4.8,16.6644,9.3684,7.41835,-0.633309,12.0355,4.13646,31.9018,-10.9506,-3.2761,0.0958182,0.237678,1.0118,213.0,4.9,52.1701,4.42724,2.0,-2.79645,100.732,4.3894,55.8446,29.2614,235.539,1.30926,-0.159638,243.831,2.06068,2.5805,-34.9974365234375,22.0009689331055,-35.0,22.0,-343371.0,-8983.23,pp-riro,4,0,-1,-1
1570538273.5,2019-10-08,14:37:53.500,15.0,10.0,14.7200002670288,17.9,11.0,7.5,28.0,-25.9,1.2,16.6718,9.9288,7.61741,1.56566,11.6555,3.6384,31.458,-11.8174,-0.245668,0.137964,0.3200949999999999,1.01952,213.0,4.9,52.1701,4.42724,2.0,-2.7947900000000003,105.795,4.38924,56.8084,31.1615,234.939,1.3017,-0.178648,243.71,2.18444,2.6534,-34.9974365234375,22.0009689331055,-35.0,22.0,-343780.0,-3291.8,pp-riro,4,0,-1,-1
1570538273.6,2019-10-08,14:37:53.600,15.0,10.0,14.960000038147,17.7,12.4,7.9,27.0,-27.3,7.3,16.4354,12.3404,8.37406,-1.80485,12.8231,2.08041,29.2005,-15.084,12.271,0.0665276,0.2852429999999999,1.03265,213.0,4.9,52.1701,4.42724,2.0,-2.7682,110.851,4.389069999999999,57.9475,32.6815,234.239,1.29407,-0.190195,243.503,2.30003,2.72212,-34.9974365234375,22.0009689331055,-35.0,22.0,-343918.0,-61.529,pp-riro,4,0,-1,-1
1570538273.7,2019-10-08,14:37:53.700,15.0,9.0,15.140000343322802,17.5,13.9,8.4,26.2,-28.7,13.8,16.3455,13.0155,8.54733,-1.68428,11.380999999999998,4.95251,28.6028,-15.806,15.4271,-0.0836773999999999,0.310303,1.07252,213.0,4.9,52.1701,4.42724,2.0,-2.71888,118.374,4.3889,59.2034,34.5816,233.539,1.28524,-0.205169,243.396,2.42335,2.79392,-34.9974365234375,22.0009689331055,-23.0044822692871,22.0,-343764.0,3476.39,pp-riro,4,0,-1,-1
1570538273.8,2019-10-08,14:37:53.800,15.0,10.0,15.4300003051758,17.0,15.3,8.9,25.0,-30.1,20.1,16.1967,13.6129,8.76277,-2.6751,11.2492,5.368469999999999,27.8806,-16.3993,18.665,0.117848,0.3159369999999999,1.00999,213.0,4.9,52.1701,4.42724,1.9,-2.62857,127.125,4.38875,60.6053,36.1017,232.739,1.2765,-0.213606,243.195,2.53569,2.86076,-34.9496459960938,22.0009689331055,-23.0044822692871,22.0,-343107.0,6645.13,pp-riro,4,0,-1,-1
1570538273.9,2019-10-08,14:37:53.900,15.0,10.0,15.7700004577637,16.6,16.7,9.3,23.6,-31.3,26.6,15.9778,14.292,8.99813,-1.90967,15.0595,2.83331,27.0738,-16.9833,21.936,-0.0912733999999999,0.219013,1.10981,213.0,4.9,52.1701,4.42724,1.9,-2.50501,136.43,4.38857,62.1533,37.6217,231.83900000000003,1.26711,-0.220571,242.956,2.64731,2.91972,-34.5195465087891,22.0009689331055,-23.0044822692871,22.0,-341909.0,12859.6,pp-riro,4,0,-1,-1
1570538274.0,2019-10-08,14:37:54.000,15.0,10.0,16.1000003814697,15.9,18.2,9.8,22.4,-32.0,33.5,15.3062,16.184,9.66944,-5.217980000000001,11.6358,4.81205,24.5908,-18.6858,31.8213,0.196696,0.25265,1.06401,213.0,4.9,52.1701,4.42724,1.9,-2.3216,147.35299999999998,4.3884,63.9057,39.5218,230.83900000000003,1.25611,-0.229876,242.76,2.76421,2.98911,-33.7276000976562,22.0009689331055,-23.0044822692871,22.0,-340399.0,17105.1,pp-riro,4,0,-1,-1
1570538274.1,2019-10-08,14:37:54.100,15.0,10.0,16.4300003051758,15.1,19.6,10.3,20.8,-32.4,40.3,15.0282,16.8771,9.83493,-6.0481300000000005,12.057,4.373069999999999,23.6902,-19.1673,35.1366,0.0857656,0.255578,1.01289,213.0,4.9,52.1701,4.42724,1.9,-2.10219,157.211,4.38823,65.7165,41.0419,229.939,1.24579,-0.234102,242.642,2.87298,3.05075,-32.580642700195305,22.0009689331055,-23.0044822692871,22.0,-338421.0,20673.7,pp-riro,4,0,-1,-1
1570538274.2,2019-10-08,14:37:54.200,15.0,11.0,16.7999992370605,14.2,20.9,10.8,19.1,-32.9,47.1,13.5657,19.4296,10.7265,-10.4146,13.3297,5.37286,20.0075,-20.8429,48.1839,0.13176,0.227123,0.966793,213.0,4.9,52.1701,4.42724,1.9,-1.67,172.891,4.38806,67.7318,42.942,228.83900000000003,1.23372,-0.240719,242.485,2.98295,3.11234,-31.0820922851562,22.0009689331055,-22.9345436096191,22.0,-335198.0,21627.4,pp-riro,4,0,-1,-1
1570538274.3,2019-10-08,14:37:54.300,15.0,11.0,17.0100002288818,13.1,22.2,11.0,17.5,-33.1,53.9,13.1049,20.05,10.9217,-7.25979,11.2203,2.78362,18.8647,-21.3146,51.5176,-0.0670743,0.15363,1.05703,241.5,6.9,52.1701,4.42724,1.9,-1.51375,178.229,4.387980000000001,69.7763,44.0821,227.83900000000003,1.22325,-0.239036,242.327,3.08428,3.16955,-29.2302398681641,22.0009689331055,-22.213941574096697,22.0,-334024.0,21381.3,pp-riro,4,0,-1,-1
1570538274.4,2019-10-08,14:37:54.400,15.0,11.0,17.3199996948242,12.0,23.3,11.3,15.8,-33.0,60.2,13.1049,20.05,10.9217,-7.25979,11.2203,2.78362,18.8647,-21.3146,51.5176,-0.0670743,0.15363,1.05703,241.5,6.9,52.1701,4.42724,1.9,-0.931967,187.469,4.38797,71.9668,45.6021,226.739,1.21136,-0.2403829999999999,242.218,3.17997,3.22359,-28.2215423583984,22.0009689331055,-21.7117900848389,22.0,-331381.0,15874.5,pp-riro,4,0,-1,-1
1570538274.5,2019-10-08,14:37:54.500,15.0,10.0,17.520000457763697,10.7,24.3,11.5,13.8,-33.0,66.2,12.6079,20.6491,11.0718,-11.1513,12.9033,3.41897,17.9102,-21.6761,54.7363,0.0107313999999999,0.191679,0.8762,241.5,6.9,52.1701,4.42724,1.9,-0.73693,188.808,4.38796,74.2741,46.7422,225.539,1.19972,-0.237271,242.011,3.26689,3.27645,-25.9447021484375,22.0009689331055,-21.1216926574707,22.0,-330735.0,12244.3,pp-riro,4,0,-1,-1
1570538274.6,2019-10-08,14:37:54.600,15.0,10.0,17.770000457763697,9.4,24.9,11.5,11.7,-32.9,72.1,9.25789,23.6231,11.5319,-20.3129,13.2895,3.52706,12.188,-23.4715,72.6,-0.106018,0.0542577,0.751273,241.5,6.9,52.1701,4.42724,1.9,-0.299759,187.318,4.38795,76.6691,47.5022,224.439,1.18869,-0.230251,241.883,3.34866,3.31934,-24.012634277343803,22.0009689331055,-20.6161060333252,22.0,-330045.0,5137.67,pp-riro,4,0,-1,-1
1570538274.7,2019-10-08,14:37:54.700,15.0,10.0,17.8700008392334,8.0,25.5,11.2,9.8,-32.7,77.8,9.25789,23.6231,11.5319,-20.3129,13.2895,3.52706,12.188,-23.4715,72.6,-0.106018,0.0542577,0.751273,241.5,6.9,52.1701,4.42724,1.9,0.298096,175.30200000000002,4.38794,79.1225,48.2623,223.33900000000003,1.17745,-0.223271,241.806,3.4273300000000004,3.36605,-22.7086486816406,22.0009689331055,-20.0604476928711,22.0,-330318.0,-5014.61,pp-riro,4,0,-1,-1
1570538274.8,2019-10-08,14:37:54.800,15.0,8.0,18.020000457763697,6.7,25.7,11.0,8.3,-31.8,83.0,8.61806,23.9635,11.4254,-15.0071,4.60921,-0.3456639999999999,11.2363,-23.6357,75.5703,-0.102563,0.21364,0.866419,241.5,6.9,52.1701,4.42725,1.8,0.3618159999999999,170.399,4.38793,81.6635,49.4024,222.239,1.16515,-0.219597,241.867,3.5030900000000003,3.40806,-21.6265563964844,22.0009689331055,-19.7515563964844,22.0,-330302.0,307.645,pp-riro,4,0,-1,-1
1570538274.9,2019-10-08,14:37:54.900,15.0,8.0,18.0100002288818,5.3,25.9,11.0,6.4,-31.3,88.2,6.05818,24.6246,10.8665,-10.1348,0.454267,-2.43768,7.74937,-23.2924,85.9564,0.126351,0.242662,0.8248059999999999,241.5,6.9,52.1701,4.42725,1.8,0.262081,169.391,4.3879,84.2045,50.1624,221.139,1.15359,-0.212775,241.887,3.5753699999999995,3.45039,-20.7202606201172,22.0009689331055,-19.3366718292236,22.0,-330033.0,1722.81,pp-riro,4,0,-1,-1
1570538275.0,2019-10-08,14:37:55.000,15.0,9.0,18.1100006103516,4.1,26.1,11.1,4.9,-30.2,92.8,5.40716,24.7412,10.8956,-5.99594,1.30257,4.4185,6.916,-23.0106,88.5526,-0.0168895999999999,0.238677,0.93881,241.5,6.9,52.1701,4.42725,1.8,0.314719,192.861,4.387919999999999,86.7747,50.5425,220.039,1.14265,-0.202948,241.871,3.63866,3.48295,-19.998291015625,22.0009689331055,-19.027250289917,22.0,-330194.0,-2614.98,pp-riro,4,0,-1,-1
1570538275.1,2019-10-08,14:37:55.100,15.0,10.0,18.1100006103516,2.8,26.1,11.2,3.0,-29.4,97.6,3.61602,24.9051,11.034,-8.487689999999999,3.96242,-1.53028,3.98611,-21.6211,95.7336,0.033324,0.0750295,0.7290399999999999,241.5,6.9,52.1701,4.42725,1.8,0.380101,208.257,4.38791,89.4033,50.9225,218.939,1.1314799999999998,-0.193272,241.91,3.70434,3.51778,-19.7013092041016,22.0009689331055,-18.7066669464111,22.0,-330110.0,2091.99,pp-riro,4,0,-1,-1
1570538275.2,2019-10-08,14:37:55.200,15.0,10.0,18.2099990844727,1.5,26.3,11.1,1.0,-28.5,102.2,2.9464900000000003,25.0564,10.993,-10.444,2.21525,-1.85611,3.06756,-21.1884,98.1785,-0.163318,0.234864,0.77603,241.5,6.9,52.1701,4.42725,1.8,0.365694,212.793,4.3879,92.0028,50.9226,217.83900000000003,1.12107,-0.181028,241.891,3.76571,3.5527300000000004,-19.2370758056641,22.0009689331055,-18.297992706298803,22.0,-330033.0,30.7645,pp-riro,4,0,-1,-1
1570538275.3,2019-10-08,14:37:55.300,15.0,11.0,18.2999992370605,0.3,26.6,11.2,-0.7,-27.4,106.4,2.32871,25.0785,10.9476,-3.30049,-1.12593,-0.649142,2.03124,-20.9256,100.386,-0.229213,0.131895,0.860434,245.2,7.9,52.1701,4.42725,1.8,0.380101,223.879,4.38791,94.6898,51.3026,216.739,1.10964,-0.172049,242.02,3.82527,3.58601,-18.8274459838867,22.0009689331055,-18.0798511505127,22.0,-330000.0,584.525,pp-riro,4,0,-1,-1
1570538275.4,2019-10-08,14:37:55.400,15.0,12.0,18.4400005340576,-0.9,26.5,11.4,-2.8,-26.4,110.7,0.535501,25.4505,10.8415,-12.026,0.239823,0.710569,-1.3933799999999998,-19.725,106.904,0.0531003,0.230953,0.722485,245.2,7.9,52.1701,4.42725,1.8,0.410575,243.439,4.38794,97.3184,51.3027,215.539,1.09886,-0.160694,241.991,3.88421,3.61484,-18.363204956054695,22.0009689331055,-17.878118515014602,22.0,-329986.0,-61.529,pp-riro,4,0,-1,-1
1570538275.5,2019-10-08,14:37:55.500,15.0,11.0,18.729999542236303,-2.3,26.5,11.4,-5.1,-25.3,114.7,-0.0844374,25.4045,10.8923,-3.46049,-2.23214,2.90265,-2.73068,-19.1518,108.992,-0.1779069999999999,0.146242,0.7614310000000001,245.2,7.9,52.1701,4.42725,1.8,0.441604,254.155,4.38797,100.093,51.3027,214.33900000000003,1.08754,-0.149217,242.057,3.93953,3.6519,-18.1191329956055,22.0019989013672,-17.564886093139602,22.0,-329922.0,1015.23,pp-riro,4,0,-1,-1
1570538275.6,2019-10-08,14:37:55.600,15.0,12.0,19.0100002288818,-3.7,26.4,11.3,-7.0,-23.8,118.6,-2.04751,25.4352,10.8533,-13.6251,-1.29144,1.57771,-5.99177,-18.0391,114.839,-0.167036,0.218022,0.5592590000000001,245.2,7.9,52.1701,4.42725,1.8,0.4476989999999999,262.905,4.388,102.78,50.9227,213.039,1.07689,-0.1356099999999999,241.955,3.99474,3.6877,-17.8784790039062,22.0019989013672,-17.212570190429698,22.0,-329840.0,615.29,pp-riro,4,0,-1,-1
1570538275.7,2019-10-08,14:37:55.700,15.0,11.0,19.2900009155273,-5.1,26.3,11.3,-8.9,-22.7,122.2,-2.04751,25.4352,10.8533,-13.6251,-1.29144,1.57771,-5.99177,-18.0391,114.839,-0.167036,0.218022,0.5592590000000001,245.2,7.9,52.1701,4.42725,1.8,0.47097,274.322,4.388,105.409,50.5428,211.83900000000003,1.06655,-0.122723,241.953,4.04391,3.72315,-17.636116027832,22.0019989013672,-16.8906879425049,22.0,-329775.0,799.877,pp-riro,4,0,-1,-1
1570538275.8,2019-10-08,14:37:55.800,15.0,11.0,19.5599994659424,-6.5,26.0,11.3,-10.9,-21.4,125.6,-5.55673,25.0681,10.7552,-16.1092,-2.90337,-4.90505,-12.2178,-15.4616,123.731,-0.286508,0.0993332,0.414735,245.2,7.9,52.1701,4.42725,1.7,0.492579,291.54,4.38805,108.154,50.1628,210.539,1.05555,-0.1099369999999999,241.951,4.09194,3.75901,-17.2947616577148,22.0025119781494,-16.6354961395264,22.0,-329691.0,738.3480000000001,pp-riro,4,0,-1,-1
1570538275.9,2019-10-08,14:37:55.900,15.0,12.0,19.7800006866455,-7.9,25.5,11.2,-12.5,-20.6,129.0,-6.79742,24.6529,10.6604,-7.25369,-2.34387,2.59556,-14.3526,-14.3064,127.156,-0.0614966,-0.0434463,0.561013,245.2,7.9,52.1701,4.42725,1.7,0.528595,308.012,4.38808,110.724,49.4028,209.239,1.04562,-0.095358,241.829,4.13502,3.79533,-16.8987884521484,22.0025119781494,-16.291240692138697,22.0,-329637.0,615.29,pp-riro,4,0,-1,-1
1570538276.0,2019-10-08,14:37:56.000,15.0,12.0,20.090000152587898,-9.3,25.2,11.0,-14.2,-19.3,132.0,-8.29195,24.3491,10.5055,-10.1552,-0.193846,-3.0009200000000003,-16.2951,-13.5416,130.131,-0.247389,0.241476,0.707105,245.2,7.9,52.1701,4.42725,1.7,0.551866,322.318,4.3881,113.265,48.2628,207.939,1.03621,-0.0785192,241.654,4.174519999999999,3.82982,-16.6325302124023,22.003026962280305,-15.931755065918,22.0,-329500.0,1538.22,pp-riro,4,0,-1,-1
1570538276.1,2019-10-08,14:37:56.100,15.0,12.0,20.3999996185303,-10.7,24.7,11.0,-15.7,-17.8,135.0,-8.29195,24.3491,10.5055,-10.1552,-0.193846,-3.0009200000000003,-16.2951,-13.5416,130.131,-0.247389,0.241476,0.707105,245.2,7.9,52.1701,4.42725,1.7,0.575692,338.085,4.38813,115.894,47.5029,206.639,1.02588,-0.0647366,241.635,4.21853,3.86597,-16.328727722168,22.0035419464111,-15.7066164016724,22.0,-329411.0,707.5830000000001,pp-riro,4,0,-1,-1
1570538276.2,2019-10-08,14:37:56.200,15.0,11.0,20.7399997711182,-12.0,24.1,10.7,-16.8,-17.0,137.8,-9.60716,23.7685,10.4355,-14.0829,-8.94163,1.3229,-17.9723,-12.2416,132.986,-0.13167,0.00745859,0.410651,245.2,7.9,52.1701,4.42725,1.7,0.610045,352.548,4.38818,118.318,46.3629,205.439,1.01684,-0.0492467,241.565,4.25264,3.90201,-16.001022338867198,22.0035419464111,-15.38978099823,22.0,-329266.0,1876.63,pp-riro,4,0,-1,-1
1570538276.3,2019-10-08,14:37:56.300,15.0,11.0,21.0799999237061,-13.3,23.4,10.4,-17.5,-15.7,140.5,-11.0632,23.2374,10.3107,-16.1953,-6.3341400000000005,-4.78153,-19.4585,-11.5686,136.121,0.0902023,-0.0436176999999999,0.741536,243.3,8.0,52.1701,4.42725,1.7,0.623897,365.693,4.38815,120.743,44.8429,204.239,1.00815,-0.0313684,241.46,4.28786,3.93751,-15.6972198486328,22.0035419464111,-15.0520620346069,22.0,-329105.0,1292.11,pp-riro,4,0,-1,-1
1570538276.4,2019-10-08,14:37:56.400,15.0,11.0,21.3700008392334,-14.5,22.5,10.2,-18.3,-14.8,143.8,-11.0632,23.2374,10.3107,-16.1953,-6.3341400000000005,-4.78153,-19.4585,-11.5686,136.121,0.0902023,-0.0436176999999999,0.741536,243.3,8.0,52.1701,4.42725,1.7,0.654371,378.716,4.38812,123.138,43.7029,203.039,0.998978,-0.0168032,241.449,4.331119999999999,3.97436,-15.3370895385742,22.003026962280305,-14.8319120407104,22.0,-328951.0,1938.16,pp-riro,4,0,-1,-1
1570538276.5,2019-10-08,14:37:56.500,15.0,10.0,21.690000534057603,-15.5,21.7,9.8,-19.1,-13.6,146.8,-13.9918,21.221,9.65203,-6.74734,-7.126339999999999,-5.87199,-22.1943,-9.51951,143.855,-0.1050359999999999,-0.0346749,0.4206149999999999,243.3,8.0,52.1701,4.42725,1.7,0.667669,385.75,4.38814,125.387,42.1829,201.83900000000003,0.99061,-0.00027509,241.33,4.37127,4.00598,-15.1766510009766,22.0035419464111,-14.6619844436646,22.0,-328745.0,2122.75,pp-riro,4,0,-1,-1
1570538276.6,2019-10-08,14:37:56.600,15.0,9.0,21.9799995422363,-16.4,20.7,9.3,-19.5,-12.7,149.7,-13.9918,21.221,9.65203,-6.74734,-7.126339999999999,-5.87199,-22.1943,-9.51951,143.855,-0.1050359999999999,-0.0346749,0.4206149999999999,243.3,8.0,52.1701,4.42725,1.7,0.673764,388.217,4.38813,127.489,40.2829,200.739,0.98322,0.0182145,241.189,4.40573,4.03845,-14.833587646484402,22.0035419464111,35.0,22.0,-328374.0,2614.98,pp-riro,4,0,-1,-1
1570538276.7,2019-10-08,14:37:56.700,15.0,9.0,22.25,-17.1,19.7,8.8,-19.5,-11.3,152.6,-14.9251,20.3238,9.2472,-11.5458,-16.3761,-4.36311,-22.6841,-8.420539999999999,146.734,0.182239,0.0407064,0.492127,243.3,8.0,52.1701,4.42725,1.7,0.673764,389.426,4.38812,129.622,38.7629,199.739,0.975432,0.0336889,241.246,4.4475,4.069319999999999,-14.6646194458008,22.003026962280305,35.0,22.0,-328241.0,2491.92,pp-riro,4,0,-1,-1
1570538276.8,2019-10-08,14:37:56.800,15.0,9.0,22.5699996948242,-17.6,18.9,8.2,-19.9,-10.3,155.0,-15.9625,18.8496,8.53792,-0.273364,-9.85607,-4.30386,-23.4062,-7.13519,151.279,0.162638,-0.187514,0.511836,243.3,8.0,52.1701,4.42725,1.9,1.11703,391.007,4.38813,131.52,36.8629,198.739,0.96866,0.0509889,241.15,4.47693,4.09275,-14.3249664306641,22.003026962280305,35.0,22.0,-330536.0,-25934.5,pp-riro,4,0,-1,-1
1570538276.9,2019-10-08,14:37:56.900,15.0,9.0,22.719999313354503,-17.5,17.9,7.3,-20.2,-8.6,157.8,-16.2706,18.2282,8.333219999999999,-6.33894,-11.083,-4.793830000000001,-23.4793,-6.930219999999999,152.888,0.0425570999999999,-0.23998,0.496213,243.3,8.0,52.1701,4.42725,1.9,1.4179,366.619,4.3881,133.33100000000002,35.3429,197.83900000000003,0.961943,0.0651714,241.177,4.52166,4.11303,-13.6320190429688,22.003026962280305,35.0,22.0,-330763.0,22242.7,pp-riro,4,0,-1,-1
1570538277.0,2019-10-08,14:37:57.000,15.0,9.0,22.7999992370605,-17.5,16.8,6.8,-20.6,-7.2,160.4,-16.4202,16.9883,7.05957,-0.839882,-9.93266,-11.2675,-23.6474,-5.63037,157.444,0.0896974,-0.170593,0.648366,243.3,8.0,52.1701,4.42725,1.9,1.1513799999999998,344.599,4.38809,135.142,33.4429,197.039,0.955685,0.0817057,241.259,4.55882,4.1312,-12.5840606689453,22.003026962280305,35.0,22.0,-328949.0,-2891.86,pp-riro,4,0,-1,-1
1570538277.1,2019-10-08,14:37:57.100,15.0,9.0,22.719999313354503,-17.9,15.8,6.7,-20.8,-5.7,162.2,-16.4494,15.9802,6.53175,1.74003,-9.81867,-0.292826,-23.8889,-4.37336,160.139,-0.23742,0.0447510999999999,0.337429,243.3,8.0,52.1701,4.42725,1.9,1.21067,362.65,4.38808,136.719,31.5428,196.33900000000003,0.950315,0.0975607,241.321,4.58638,4.15289,-11.1862106323242,22.003026962280305,35.0,22.0,-329174.0,-3937.85,pp-riro,4,0,-1,-1
1570538277.2,2019-10-08,14:37:57.200,15.0,10.0,22.5599994659424,-18.1,15.1,6.3,-21.3,-4.8,164.1,-16.7787,15.0235,6.45965,1.71995,-7.56608,3.03438,-24.0759,-3.61988,162.765,-0.0718593,-0.235908,0.508035,243.3,8.0,52.1701,4.42725,1.9,1.25666,374.021,4.38807,138.267,29.6428,195.639,0.944927,0.113123,241.394,4.60963,4.16973,-9.41457366943359,22.0035419464111,35.0,22.0,-328435.0,6922.01,pp-riro,4,0,-1,-1
1570538277.3,2019-10-08,14:37:57.300,15.0,9.0,22.4099998474121,-18.1,14.9,6.1,-21.9,-3.3,165.8,-16.7787,15.0235,6.45965,1.71995,-7.56608,3.03438,-24.0759,-3.61988,162.765,-0.0718593,-0.235908,0.508035,244.5,8.4,52.1701,4.42725,1.9,1.24669,370.02,4.38805,139.786,28.1228,194.939,0.939277,0.1258,241.52,4.63862,4.168419999999999,-7.34767150878906,22.0035419464111,35.0,22.0,-328130.0,5691.43,pp-riro,4,0,-1,-1
1570538277.4,2019-10-08,14:37:57.400,15.0,10.0,22.2900009155273,-18.3,14.1,6.2,-22.5,-2.9,167.2,-17.0845,14.1649,5.878830000000001,-3.27515,-9.98917,0.0135637,-24.4716,-2.82541,166.044,-0.320322,-0.00690205,0.299827,244.5,8.4,52.1701,4.42725,1.9,1.2561,378.943,4.38805,141.188,25.8428,194.139,0.934156,0.143298,241.437,4.64825,4.17681,-5.23468017578125,22.0035419464111,35.0,22.0,-327513.0,3476.39,pp-riro,4,0,-1,-1
1570538277.5,2019-10-08,14:37:57.500,15.0,11.0,22.0499992370605,-18.1,13.8,6.4,-23.7,-2.9,168.0,-17.418,13.3704,5.97268,1.17262,-0.585202,1.50861,-26.0019,-3.13562,169.84,-0.232814,-0.182248,0.301034,244.5,8.4,52.1701,4.42725,1.9,1.26608,381.686,4.38802,142.531,24.3228,193.439,0.928909,0.155349,241.506,4.649719999999999,4.16504,-3.13534545898438,22.0035419464111,35.0,22.0,-327285.0,4337.79,pp-riro,4,0,-1,-1
1570538277.6,2019-10-08,14:37:57.600,15.0,11.0,21.8799991607666,-17.8,13.6,6.5,-24.9,-4.0,168.9,-17.3498,13.2607,6.04334,0.960157,-0.915964,5.2761,-26.181,-3.4908300000000003,170.50400000000002,-0.129167,-0.202006,0.173799,244.5,8.4,52.1701,4.42725,1.9,1.25444,369.36300000000006,4.388,143.875,22.4228,192.639,0.923542,0.169781,241.48,4.63909,4.14827,-1.02577209472656,22.004056930542003,35.0,22.0,-326442.0,6060.6,pp-riro,4,0,-1,-1
1570538277.7,2019-10-08,14:37:57.700,15.0,11.0,21.600000381469695,-17.5,13.5,6.7,-25.6,-4.0,168.5,-17.4351,13.1911,6.1322,3.4573,1.22331,1.07936,-26.6727,-4.31003,170.993,-0.369745,-0.30103,0.0170897,244.5,8.4,52.1701,4.42725,1.9,1.22951,362.957,4.38799,145.16,20.5227,192.239,0.919271,0.183954,241.761,4.62218,4.12683,1.07978820800781,22.004056930542003,35.0,22.0,-325806.0,6152.9,pp-riro,4,0,-1,-1
1570538277.8,2019-10-08,14:37:57.800,15.0,11.0,21.3899993896484,-17.0,13.5,7.2,-27.2,-4.5,168.2,-17.2657,13.0953,6.33121,7.65492,-3.85001,4.70784,-27.7906,-5.31347,170.878,-0.674022,-0.145277,-0.0739725,244.5,8.4,52.1701,4.42724,2.1,1.22674,352.802,4.38797,145.832,19.3827,191.439,0.91558,0.1922839999999999,241.436,4.60607,4.09517,3.16954803466797,22.0035419464111,35.0,22.0,-325393.0,4153.21,pp-riro,4,0,-1,-1
1570538277.9,2019-10-08,14:37:57.900,15.0,11.0,21.0599994659424,-16.4,13.5,7.7,-28.6,-6.0,167.0,-17.2657,13.0953,6.33121,7.65492,-3.85001,4.70784,-27.7906,-5.31347,170.878,-0.674022,-0.145277,-0.0739725,244.5,8.4,52.1701,4.42724,2.1,1.21843,343.756,4.38795,147.11700000000002,17.8627,190.639,0.910004,0.203611,241.466,4.56455,4.05772,5.28485107421875,22.003026962280305,35.0,22.0,-325045.0,6522.07,pp-riro,4,0,-1,-1
1570538278.0,2019-10-08,14:37:58.000,15.0,12.0,20.6299991607666,-15.7,13.8,8.3,-29.6,-8.5,166.0,-16.4687,13.467,7.60115,5.48678,7.482539999999999,8.54617,-30.5688,-8.95688,170.243,-0.286747,-0.4257359999999999,-0.3030199999999999,244.5,8.4,52.1701,4.42724,2.1,1.17355,329.066,4.38793,148.373,16.7227,189.739,0.904071,0.212213,241.443,4.51724,4.0095,6.8687744140625,22.003026962280305,35.0,22.0,-324417.0,5260.73,pp-riro,4,0,-1,-1
1570538278.1,2019-10-08,14:37:58.100,15.0,12.0,20.2900009155273,-14.8,14.2,9.2,-31.0,-9.7,163.5,-15.5153,14.201,8.78111,6.30739,12.4105,9.51782,-32.5024,-11.1714,166.692,-0.621378,0.174616,-0.79365,244.5,8.4,52.1701,4.42724,2.1,1.1630200000000002,316.907,4.387919999999999,149.687,14.8227,188.83900000000003,0.8981620000000001,0.225769,241.425,4.459630000000001,3.94219,9.49501800537109,22.0025119781494,35.0,22.0,-324012.0,4245.5,pp-riro,4,0,-1,-1
1570538278.2,2019-10-08,14:37:58.200,15.0,13.0,20.0300006866455,-13.5,15.1,10.2,-30.7,-13.3,157.9,-15.5153,14.201,8.78111,6.30739,12.4105,9.51782,-32.5024,-11.1714,166.692,-0.621378,0.174616,-0.79365,244.5,8.4,52.1701,4.42724,2.1,1.12867,294.198,4.3879,151.79,12.9227,187.33900000000003,0.888072,0.239558,241.46,4.334630000000001,3.84929,11.0857543945312,22.0025119781494,35.0,22.0,-323411.0,6091.37,pp-riro,4,0,-1,-1
1570538278.3,2019-10-08,14:37:58.300,15.0,12.0,19.8500003814697,-13.1,15.3,10.6,-30.5,-15.0,156.2,-15.5153,14.201,8.78111,6.30739,12.4105,9.51782,-32.5024,-11.1714,166.692,-0.621378,0.174616,-0.79365,249.0,8.2,52.1701,4.42724,2.1,1.09265,293.23900000000003,4.3879,152.491,11.7827,186.83900000000003,0.884817,0.2473769999999999,241.456,4.28775,3.81804,13.1874313354492,22.0019989013672,35.0,22.0,-322968.0,3230.27,pp-riro,4,0,-1,-1
1570538278.4,2019-10-08,14:37:58.400,15.0,13.0,19.6700000762939,-12.2,15.8,12.0,-30.7,-18.9,152.3,-13.8953,16.07,11.3552,10.6031,9.88296,15.2489,-33.7531,-20.1534,159.11700000000002,0.0665781999999999,-0.332594,-0.7579100000000001,249.0,8.2,52.1701,4.42724,2.1,1.12257,294.83,4.38791,153.952,10.6427,185.739,0.877531,0.2554599999999999,241.481,4.18875,3.74735,15.8238983154297,22.0025119781494,35.0,22.0,-322853.0,1815.1,pp-riro,4,0,-1,-1
1570538278.5,2019-10-08,14:37:58.500,15.0,12.0,19.3999996185303,-10.4,16.4,12.5,-29.8,-24.4,144.8,-13.3827,16.373,12.1292,10.602,3.76784,10.281,-33.6589,-22.2725,157.47899999999998,-0.186384,-0.329437,-0.92724,249.0,8.2,52.1701,4.42724,2.1,1.08157,278.71,4.387919999999999,156.23,9.12272,184.038,0.8661030000000001,0.2661429999999999,241.581,4.02594,3.65502,17.399299621582,22.0025119781494,35.0,22.0,-322124.0,4214.73,pp-riro,4,0,-1,-1
1570538278.6,2019-10-08,14:37:58.600,15.0,11.0,19.020000457763697,-8.8,17.2,13.4,-28.8,-26.1,142.5,-10.6891,17.6993,13.466,8.30465,12.7106,9.39424,-33.0148,-29.1987,151.011,-0.0601827999999999,-0.110981,-0.959814,249.0,8.2,52.1701,4.42724,2.1,1.08323,275.403,4.38793,156.989,8.36272,183.538,0.862506,0.27124,241.665,3.97545,3.56715,20.0562057495117,22.0019989013672,35.0,22.0,-321844.0,3168.74,pp-riro,4,0,-1,-1
1570538278.7,2019-10-08,14:37:58.700,15.0,11.0,18.7000007629395,-7.4,17.6,14.3,-26.5,-29.0,136.2,-9.33302,18.6522,14.7809,20.6508,5.34693,9.77823,-31.7083,-33.0076,145.129,0.0789539,-0.222525,-1.24609,249.0,8.2,52.1701,4.42724,2.1,1.08046,286.329,4.38794,158.654,7.60275,182.238,0.8539040000000001,0.276565,241.743,3.86183,3.49412,22.169807434082,22.0019989013672,35.0,22.0,-321543.0,2307.34,pp-riro,4,0,-1,-1
1570538278.8,2019-10-08,14:37:58.800,15.0,12.0,18.6499996185303,-5.3,17.8,15.5,-23.7,-32.4,129.2,-7.48318,19.2781,15.819,15.9403,6.46329,10.2009,-29.7742,-36.9713,138.48,-0.102423,-0.047931,-1.12722,249.0,8.2,52.1701,4.42724,2.6,1.09819,293.673,4.38795,160.377,6.84278,180.838,0.8448399999999999,0.2817969999999999,241.806,3.73735,3.39454,24.2731857299805,22.0019989013672,35.0,22.0,-321517.0,492.232,pp-riro,4,0,-1,-1
1570538278.9,2019-10-08,14:37:58.900,15.0,11.0,18.7399997711182,-3.2,17.9,16.1,-20.2,-36.0,121.8,-7.48318,19.2781,15.819,15.9403,6.46329,10.2009,-29.7742,-36.9713,138.48,-0.102423,-0.047931,-1.12722,249.0,8.2,52.1701,4.42724,2.6,1.12146,285.065,4.38796,162.071,6.46283,179.438,0.8358129999999999,0.284572,241.882,3.61218,3.30332,26.3799743652344,22.0019989013672,35.0,22.0,-321235.0,4337.79,pp-riro,4,0,-1,-1
1570538279.0,2019-10-08,14:37:59.000,15.0,11.0,18.8799991607666,-0.9,18.1,16.2,-15.9,-38.5,113.5,-7.48318,19.2781,15.819,15.9403,6.46329,10.2009,-29.7742,-36.9713,138.48,-0.102423,-0.047931,-1.12722,249.0,8.2,52.1701,4.42724,2.6,1.05941,260.508,4.38797,163.82399999999998,6.46288,178.03799999999998,0.826567,0.284987,242.028,3.4887,3.208,28.491867065429695,22.0019989013672,35.0,22.0,-320609.0,5876.02,pp-riro,4,0,-1,-1
1570538279.1,2019-10-08,14:37:59.100,15.0,11.0,18.8299999237061,1.1,17.7,16.7,-10.4,-40.4,104.3,-1.31216,19.9572,17.5465,22.6368,2.49732,8.02298,-19.8451,-46.1586,118.201,-0.402871,-0.0363645,-1.23209,249.0,8.2,52.1701,4.42724,2.6,1.05497,266.658,4.387980000000001,165.518,6.462940000000001,176.53799999999998,0.817226,0.285379,242.082,3.36016,3.12482,30.464111328125,22.0009689331055,35.0,22.0,-320259.0,1199.82,pp-riro,4,0,-1,-1
1570538279.2,2019-10-08,14:37:59.200,15.0,12.0,18.5,3.1,17.1,17.0,-3.9,-41.7,93.5,0.961525,19.7202,18.1685,16.0764,8.50475,2.47853,-14.187,-48.7855,108.089,-0.305206,-0.482755,-1.22778,249.0,8.2,52.1701,4.42724,2.6,1.0655,267.461,4.38799,167.21200000000002,6.4629900000000005,175.03799999999998,0.8078890000000001,0.285769,242.157,3.21603,3.04116,32.0718688964844,22.0009689331055,23.0044822692871,22.0,-320180.0,1507.46,pp-riro,4,0,-1,-1
1570538279.3,2019-10-08,14:37:59.300,15.0,14.0,18.4500007629395,5.4,16.4,16.6,3.0,-42.0,82.1,3.49514,19.1952,18.5144,25.8096,-7.82972,-5.25577,-7.643839999999999,-51.4483,96.8971,-0.4580399999999999,-0.118058,-1.43763,248.9,7.6,52.1701,4.42724,2.6,1.05664,251.653,4.38801,168.87599999999998,6.84306,173.53799999999998,0.798602,0.28388,242.243,3.06923,2.94272,33.339019775390604,22.0009689331055,23.0044822692871,22.0,-319824.0,4491.62,pp-ro,1,1,-1,-1
1570538279.4,2019-10-08,14:37:59.400,15.0,14.0,18.2600002288818,7.6,15.8,16.2,9.1,-41.7,71.5,6.1308,18.6851,18.1757,23.6902,-5.76273,-7.29325,1.14651,-52.9201,83.6824,0.0301269999999999,-0.254056,-1.31838,248.9,7.6,52.1701,4.42724,2.6,1.00234,239.359,4.3880300000000005,170.424,7.22312,172.138,0.7899520000000001,0.282013,242.33900000000003,2.93326,2.84729,34.241668701171896,22.0009689331055,23.0044822692871,22.0,-319242.0,2215.04,pp-ro,1,1,-1,-1
1570538279.5,2019-10-08,14:37:59.500,15.0,12.0,18.159999847412102,9.8,15.1,16.3,15.1,-40.1,61.3,7.46992,18.331,17.8327,27.0788,-0.261133,-0.8393120000000001,4.94407,-53.1939,77.0002,0.0956824,0.0311868,-1.29662,248.9,7.6,52.1701,4.42724,2.6,1.01065,248.321,4.38804,171.94299999999998,7.98319,170.638,0.781051,0.27795,242.375,2.7989,2.75791,34.781570434570305,22.0009689331055,23.0044822692871,22.0,-319220.0,430.703,pp-ro,1,1,-1,-1
1570538279.6,2019-10-08,14:37:59.600,15.0,14.0,17.9599990844727,12.0,13.9,16.0,20.9,-38.0,51.5,11.3152,17.2181,17.7878,27.2442,-12.4914,-0.0355077,16.7353,-51.8674,57.9716,-0.472923,-0.289671,-1.47274,248.9,7.6,52.1701,4.42724,2.6,1.06273,269.326,4.38806,173.37400000000002,9.12327,169.138,0.7723399999999999,0.271757,242.383,2.66622,2.66106,34.974029541015604,22.0009689331055,23.0044822692871,22.0,-319212.0,615.29,pp-ro,1,1,-1,-1
1570538279.7,2019-10-08,14:37:59.700,15.0,15.0,17.8099994659424,13.9,12.7,15.1,26.2,-35.7,42.2,13.8787,15.9647,17.3857,19.253,-17.0698,-3.64411,24.0654,-49.6907,45.8984,-0.263235,-0.170312,-1.36215,248.9,7.6,52.1701,4.42724,2.6,1.07381,268.793,4.38808,174.718,10.2633,167.638,0.763862,0.265638,242.351,2.53675,2.56604,34.9110107421875,22.0009689331055,23.0044822692871,22.0,-318810.0,3261.04,pp-ro,1,1,-1,-1
1570538279.8,2019-10-08,14:37:59.800,15.0,15.0,17.659999847412102,15.2,11.5,14.1,31.2,-32.9,33.2,14.8745,15.3754,16.9187,22.7321,5.12125,-1.27762,27.4239,-48.3652,40.1634,-0.651072,-0.100696,-1.36414,248.9,7.6,52.1701,4.42724,3.2,1.06384,262.868,4.38809,175.97299999999998,11.4034,166.238,0.755912,0.259585,242.347,2.40553,2.48729,34.456268310546896,22.0009689331055,22.6572914123535,22.0,-318613.0,3784.03,pp-ro,1,1,-1,-1
1570538279.9,2019-10-08,14:37:59.900,15.0,15.0,17.3600006103516,16.5,10.2,13.0,35.1,-29.2,25.4,16.7669,13.9128,15.8416,10.3719,-12.2696,-4.17624,33.3076,-44.3872,29.9793,-0.503153,-0.00651642,-1.53428,248.9,7.6,52.1701,4.42724,3.2,1.0427799999999998,251.331,4.38812,177.083,13.3035,164.938,0.7485,0.24928,242.363,2.2808,2.40464,33.6404724121094,22.0009689331055,21.2142105102539,22.0,-318238.0,3507.15,pp-ro,1,1,-1,-1
1570538280.0,2019-10-08,14:38:00.000,15.0,13.0,17.0,17.2,8.7,11.6,37.9,-25.3,19.0,18.9918,11.5611,13.671,13.5444,-20.0505,-14.7478,38.726,-37.8266,17.3597,-0.296503,0.0564339,-1.24826,248.9,7.6,52.1701,4.42724,3.2,1.00954,234.262,4.38813,178.076,14.4436,163.738,0.741842,0.243332,242.343,2.1653,2.32192,32.465301513671896,22.0009689331055,19.7775897979736,22.0,-317773.0,3107.21,pp-ro,1,1,-1,-1
1570538280.1,2019-10-08,14:38:00.100,15.0,13.0,16.6800003051758,17.9,7.7,10.2,40.6,-20.8,12.9,18.9918,11.5611,13.671,13.5444,-20.0505,-14.7478,38.726,-37.8266,17.3597,-0.296503,0.0564339,-1.24826,248.9,7.6,52.1701,4.42724,3.2,1.004,232.793,4.38814,179.011,15.9636,162.638,0.735542,0.235305,242.386,2.04567,2.24766,30.9290618896484,22.0009689331055,18.4878520965576,22.0,-317639.0,2553.45,pp-ro,1,1,-1,-1
1570538280.2,2019-10-08,14:38:00.200,15.0,13.0,16.8400001525879,18.7,6.9,9.1,42.5,-16.3,7.4,20.7683,8.89917,10.5389,14.556,-8.13299,-12.9305,42.7636,-27.4068,4.955509999999999,-0.040357,0.334019,-1.18832,248.9,7.6,52.1701,4.42724,3.2,1.0067700000000002,240.395,4.38816,179.828,18.2437,161.738,0.7299399999999999,0.223126,242.55,1.93406,2.18459,29.0487976074219,22.0009689331055,17.376958847045902,22.0,-317449.0,1692.05,pp-ro,1,1,-1,-1
1570538280.3,2019-10-08,14:38:00.300,15.0,15.0,17.25,19.9,5.7,8.0,44.1,-11.4,2.2,21.9444,7.69948,9.33713,13.9305,-18.301,-21.0613,43.6534,-21.848000000000003,0.143666,-0.629055,0.00480433,-1.03503,246.5,7.4,52.1701,4.42724,3.2,1.06439,274.061,4.38815,180.588,20.1438,160.938,0.724857,0.213148,242.732,1.81813,2.1004,26.4259567260742,22.0019989013672,15.843729019165002,22.0,-317392.0,30.7645,pp-ro,1,1,-1,-1
1570538280.4,2019-10-08,14:38:00.400,15.0,15.0,17.5,20.4,4.7,6.8,45.7,-7.5,-2.6,22.7992,6.09055,8.09717,-1.15622,-9.04661,-13.1808,44.7093,-16.8485,-4.7253300000000005,-0.325526,0.0765436,-1.1512,246.5,7.4,52.1701,4.42724,3.2,1.10429,297.262,4.38814,181.23,22.0439,160.238,0.720357,0.203205,242.913,1.71894,2.03329,24.3379058837891,22.003026962280305,14.6357460021973,22.0,-317252.0,1630.52,pp-ro,1,1,-1,-1
1570538280.5,2019-10-08,14:38:00.500,15.0,15.0,17.8999996185303,20.9,4.2,5.7,47.6,-3.1,-7.2,22.7992,6.09055,8.09717,-1.15622,-9.04661,-13.1808,44.7093,-16.8485,-4.7253300000000005,-0.325526,0.0765436,-1.1512,246.5,7.4,52.1701,4.42724,3.2,1.13919,314.409,4.38813,181.843,24.3239,159.53799999999998,0.715759,0.1912819999999999,243.128,1.61643,1.98453,23.2853622436523,22.0025119781494,13.7974109649658,22.0,-317117.0,1415.17,pp-ro,1,1,-1,-1
1570538280.6,2019-10-08,14:38:00.600,15.0,14.0,18.1399993896484,21.7,3.2,4.8,49.1,0.9,-11.6,22.7992,6.09055,8.09717,-1.15622,-9.04661,-13.1808,44.7093,-16.8485,-4.7253300000000005,-0.325526,0.0765436,-1.1512,246.5,7.4,52.1701,4.42724,3.2,1.16524,332.75300000000004,4.38812,182.34,26.224,158.938,0.711867,0.181426,243.304,1.51993,1.92278,20.6420822143555,22.003026962280305,12.6863746643066,22.0,-316876.0,2399.63,pp-ro,1,1,-1,-1
1570538280.7,2019-10-08,14:38:00.700,15.0,13.0,18.479999542236303,22.0,2.2,3.9,50.2,4.7,-15.9,24.3151,3.3594800000000005,5.0974900000000005,9.86008,-13.7196,-4.445790000000001,47.1676,-4.2952,-16.2595,0.431222,0.0043125,-0.984153,246.5,7.4,52.1701,4.42724,3.2,1.18241,343.219,4.38811,182.778,28.5041,158.438,0.708245,0.169568,243.563,1.42856,1.86917,18.6357879638672,22.003026962280305,11.7268676757812,22.0,-316780.0,1753.58,pp-ro,1,1,-1,-1
1570538280.8,2019-10-08,14:38:00.800,15.0,13.0,18.8500003814697,21.9,1.1,2.5,51.4,8.3,-19.7,24.3151,3.3594800000000005,5.0974900000000005,9.86008,-13.7196,-4.445790000000001,47.1676,-4.2952,-16.2595,0.431222,0.0043125,-0.984153,246.5,7.4,52.1701,4.42725,3.6,1.21344,353.983,4.3881,183.07,30.4041,157.938,0.7051109999999999,0.15971,243.687,1.3444,1.79709,16.7452926635742,22.003026962280305,10.390634536743198,22.0,-316537.0,3168.74,pp-ro,1,1,-1,-1
1570538280.9,2019-10-08,14:38:00.900,15.0,13.0,19.2199993133545,22.1,-0.1,1.2,52.1,11.6,-22.4,24.2522,0.8917309999999999,2.54571,-7.014539999999999,-16.6677,-20.1197,48.8715,4.61684,-23.9494,-0.1358859999999999,0.155869,-0.88103,246.5,7.4,52.1701,4.42725,3.6,1.22397,363.786,4.38808,183.274,33.0642,157.53799999999998,0.70212,0.145824,243.928,1.27967,1.72515,14.980842590332,22.003026962280305,9.0473108291626,22.0,-316137.0,4091.68,pp-ro,1,1,-1,-1
1570538281.0,2019-10-08,14:38:01.000,15.0,13.0,19.7199993133545,22.3,-1.6,0.0,52.6,13.8,-24.9,24.2312,-0.400264,1.08111,8.81455,-18.9781,-14.4506,49.3187,8.65804,-26.605,0.172927,0.0238461,-0.8629209999999999,246.5,7.4,52.1701,4.42725,3.6,1.27771,401.057,4.38807,183.274,35.3442,157.338,0.700388,0.133813,244.11900000000003,1.23052,1.64763,13.3049468994141,22.0035419464111,7.54876708984375,22.0,-315867.0,922.935,pp-ro,1,1,-1,-1
1570538281.1,2019-10-08,14:38:01.100,15.0,13.0,20.0799999237061,22.1,-2.9,-1.0,53.0,15.5,-27.1,24.1748,-1.92529,-0.322179,4.670719999999999,-14.0467,-10.7559,49.7414,11.3992,-29.1479,0.363886,-0.221371,-0.618107,246.5,7.4,52.1701,4.42725,3.6,1.3104,416.509,4.38806,183.216,37.2443,157.138,0.6989390000000001,0.1237849999999999,244.228,1.19013,1.58153,11.6937789916992,22.004571914672898,6.275024890899661,22.0,-315790.0,1507.46,pp-ro,1,1,-1,-1
1570538281.2,2019-10-08,14:38:01.200,15.0,13.0,20.5499992370605,22.0,-4.0,-2.1,53.3,16.9,-29.1,24.1748,-1.92529,-0.322179,4.670719999999999,-14.0467,-10.7559,49.7414,11.3992,-29.1479,0.363886,-0.221371,-0.618107,246.5,7.4,52.1701,4.42725,3.6,1.35861,448.258,4.38806,182.953,39.9043,157.138,0.6981729999999999,0.10958,244.451,1.1587,1.52129,9.75559997558594,22.004571914672898,5.08530282974243,22.0,-315476.0,3384.09,pp-ro,1,1,-1,-1
1570538281.3,2019-10-08,14:38:01.300,15.0,13.0,20.979999542236303,22.0,-5.1,-3.0,53.4,18.3,-31.5,24.0215,-2.47253,-0.9609,-3.02175,-10.1394,-14.2321,49.8517,12.6501,-29.9799,0.18144,0.0482223,-0.427401,250.4,7.0,52.1701,4.42725,3.6,1.44172,485.312,4.38802,182.661,42.1844,157.238,0.697923,0.0974083,244.68,1.12152,1.46884,9.01983642578125,22.0050868988037,4.03424119949341,22.0,-314977.0,4706.97,pp-ro,1,1,-1,-1
1570538281.4,2019-10-08,14:38:01.400,15.0,12.0,21.4300003051758,21.6,-6.1,-3.6,53.0,19.3,-33.9,23.586,-5.501,-3.58605,-0.7063,-8.924669999999999,-9.58375,49.6943,17.7445,-35.2788,-0.0498041,-0.163148,-0.553883,250.4,7.0,52.1701,4.42725,3.6,1.45391,496.477,4.387980000000001,182.222,44.0844,157.338,0.6982079999999999,0.0870233,244.752,1.08828,1.42454,7.58579254150391,22.0050868988037,3.12476682662964,22.0,-314362.0,5660.67,pp-ro,1,1,-1,-1
1570538281.5,2019-10-08,14:38:01.500,15.0,12.0,21.9599990844727,21.1,-6.7,-4.3,53.0,20.6,-35.7,23.3547,-6.04766,-3.99581,1.92244,-12.2895,-2.624,49.5106,18.5445,-36.2462,0.019957,-0.0473541,-0.607292,250.4,7.0,52.1701,4.42725,3.6,1.46721,496.714,4.38795,181.697,46.7445,157.53799999999998,0.6984819999999999,0.0726306,244.984,1.06087,1.38805,6.24712371826172,22.0050868988037,2.37206149101257,22.0,-314086.0,5506.84,pp-ro,1,1,-1,-1
1570538281.6,2019-10-08,14:38:01.600,15.0,11.0,22.510000228881804,20.8,-7.3,-4.8,52.9,21.5,-37.6,22.4983,-7.00777,-5.03028,-9.46685,-8.51503,-6.1556,49.0986,21.0088,-39.0254,0.0809554,0.00127357,-0.287707,250.4,7.0,52.1701,4.42725,3.6,1.44394,486.893,4.387919999999999,181.054,49.0245,157.838,0.699522,0.0600361,245.146,1.03618,1.35978,4.71089172363281,22.0050868988037,1.74742448329926,22.0,-312856.0,7537.3,pp-ro,1,1,-1,-1
1570538281.7,2019-10-08,14:38:01.700,15.0,11.0,22.9799995422363,20.5,-7.7,-5.2,52.3,22.4,-39.4,22.0715,-7.56448,-5.49936,-5.69767,-3.905780000000001,-8.58387,48.729,22.3975,-40.648,0.00802825,-0.119121,-0.4268079999999999,250.4,7.0,52.1701,4.42725,3.6,1.4428299999999998,484.322,4.3878900000000005,180.382,50.9245,158.138,0.700829,0.0493467,245.232,1.0114299999999998,1.33853,3.63790893554688,22.0050868988037,1.24975347518921,22.0,-312148.0,7568.06,pp-ro,1,1,-1,-1
1570538281.8,2019-10-08,14:38:01.800,15.0,11.0,23.3600006103516,20.2,-7.9,-5.5,52.1,23.1,-40.2,22.0715,-7.56448,-5.49936,-5.69767,-3.905780000000001,-8.58387,48.729,22.3975,-40.648,0.00802825,-0.119121,-0.4268079999999999,250.4,7.0,52.1701,4.42725,4.0,1.43784,486.3130000000001,4.38786,179.65200000000002,53.2046,158.53799999999998,0.702253,0.0366077,245.438,1.00205,1.32654,2.62283325195312,22.004571914672898,0.930267989635468,22.0,-311763.0,7168.13,pp-ro,1,1,-1,-1
1570538281.9,2019-10-08,14:38:01.900,15.0,11.0,23.7299995422363,20.1,-8.4,-5.8,52.4,23.2,-41.1,21.9073,-7.73958,-5.66642,-4.68612,-5.8634,-8.09815,48.5408,22.9974,-41.284,-0.14717,-0.0309468,-0.287455,250.4,7.0,52.1701,4.42725,4.0,1.45779,497.58,4.38783,178.922,55.1046,158.938,0.70389,0.0258008,245.583,0.997583,1.30992,1.7712631225585902,22.0050868988037,0.505126714706421,22.0,-311266.0,5229.96,pp-ro,1,1,-1,-1
1570538282.0,2019-10-08,14:38:02.000,15.0,10.0,23.9899997711182,20.0,-8.8,-5.8,52.6,23.8,-41.5,21.0416,-8.71365,-6.0523,-0.387782,-0.346657,0.158528,48.3724,24.3728,-43.4805,0.1741589999999999,-0.0869481,-0.263789,250.4,7.0,52.1701,4.42725,4.0,1.47885,509.74300000000005,4.38779,178.075,57.7646,159.438,0.705455,0.0109203999999999,245.902,0.99546,1.30828,1.14110565185547,22.0050868988037,0.3842034041881559,22.0,-310710.0,5568.37,pp-ro,1,1,-1,-1
1570538282.1,2019-10-08,14:38:02.100,15.0,11.0,24.2099990844727,19.9,-9.0,-5.8,52.7,23.4,-42.2,21.0416,-8.71365,-6.0523,-0.387782,-0.346657,0.158528,48.3724,24.3728,-43.4805,0.1741589999999999,-0.0869481,-0.263789,250.4,7.0,52.1701,4.42725,4.0,1.49547,511.43,4.38776,177.227,60.0446,159.838,0.70692,-0.00203493,246.096,1.00082,1.31007,0.647193908691406,22.0050868988037,0.337072104215622,22.0,-309974.0,7998.77,pp-ro,1,1,-1,-1
1570538282.2,2019-10-08,14:38:02.200,15.0,11.0,24.25,19.9,-9.2,-5.9,52.8,23.0,-42.8,20.8287,-9.21375,-6.00916,-1.06975,-4.01612,3.768780000000001,48.5091,24.3656,-44.2981,0.12815,0.0925338,-0.000243479,250.4,7.0,52.1701,4.42725,4.0,1.49491,514.604,4.38773,176.293,61.5647,160.238,0.709184,-0.0113183,246.06,1.00488,1.30838,0.483688354492188,22.0050868988037,0.1644875258207319,22.0,-308922.0,6060.6,pp-ro,1,1,-1,-1
1570538282.3,2019-10-08,14:38:02.300,15.0,11.0,24.1800003051758,19.5,-9.5,-5.8,53.3,22.8,-43.5,20.7083,-9.64872,-5.94654,-7.53356,-0.123118,-2.2146,48.7405,24.389,-44.8411,-0.013895,-0.1338859999999999,-0.0784968,254.9,8.2,52.1701,4.42725,4.0,1.49935,516.047,4.38774,175.329,63.8447,160.738,0.711101,-0.0245675,246.279,1.00794,1.30532,0.323600769042969,22.0050868988037,-0.0135041745379569,22.0,-308551.0,7475.77,pp-ro,1,1,-1,-1
1570538282.4,2019-10-08,14:38:02.400,15.0,11.0,24.100000381469695,19.3,-9.5,-5.5,53.6,22.8,-44.2,20.339,-9.77883,-5.72551,3.6193,-4.16228,0.243294,48.8188,23.6869,-45.7588,0.00667144,-0.199796,-0.193713,254.9,8.2,52.1701,4.42725,4.0,1.50489,517.543,4.38776,174.423,65.7447,161.138,0.712831,-0.0358301,246.397,1.00725,1.31836,0.1055984497070309,22.0050868988037,0.1386812627315519,22.0,-307479.0,6891.25,pp-ro,1,1,-1,-1
1570538282.5,2019-10-08,14:38:02.500,15.0,11.0,24.030000686645497,19.2,-9.6,-5.5,53.6,22.6,-44.5,20.026,-9.88741,-5.46531,-5.53734,-2.65295,3.80341,48.7913,23.1316,-46.8146,-0.0941773,-0.122251,-0.13432,254.9,8.2,52.1701,4.42725,4.0,1.49048,514.8009999999999,4.38778,173.898,67.2647,161.338,0.713309,-0.0444756,246.566,1.0119200000000002,1.31954,0.023841857910156,22.0050868988037,0.138655081391335,22.0,-306633.0,8460.23,pp-ro,1,1,-1,-1
1570538282.6,2019-10-08,14:38:02.600,15.0,11.0,23.9899997711182,19.0,-9.7,-5.2,53.4,21.7,-44.9,20.026,-9.88741,-5.46531,-5.53734,-2.65295,3.80341,48.7913,23.1316,-46.8146,-0.0941773,-0.122251,-0.13432,254.9,8.2,52.1701,4.42725,4.0,1.49381,514.924,4.38781,172.93400000000003,68.7847,161.738,0.715444,-0.0539836999999999,246.57,1.02445,1.32932,0.073234558105469,22.0050868988037,0.190190523862839,22.0,-306294.0,6368.25,pp-ro,1,1,-1,-1
1570538282.7,2019-10-08,14:38:02.700,15.0,11.0,23.9599990844727,18.8,-9.7,-4.9,53.4,21.4,-45.3,20.026,-9.88741,-5.46531,-5.53734,-2.65295,3.80341,48.7913,23.1316,-46.8146,-0.0941773,-0.122251,-0.13432,254.9,8.2,52.1701,4.42725,4.0,1.4927,514.621,4.38783,171.97,71.0648,162.138,0.716765,-0.0673067,246.805,1.03228,1.3439,0.136253356933594,22.0056018829346,0.401121377944946,22.0,-305560.0,7875.71,pp-ro,1,1,-1,-1
1570538282.8,2019-10-08,14:38:02.800,15.0,13.0,23.9200000762939,18.6,-9.7,-4.7,53.9,21.0,-45.3,19.777,-9.936,-5.05247,-3.23521,-2.0158400000000003,-1.3771,48.838,21.6374,-48.1474,-0.174101,0.0111276,-0.117668,254.9,8.2,52.1701,4.42725,4.3,1.48882,503.555,4.38785,170.94799999999998,72.5848,162.438,0.7186279999999999,-0.0769955,246.734,1.04356,1.35291,0.246955871582031,22.0056018829346,0.449982345104218,22.0,-304820.0,8060.3,pp-ro,1,1,-1,-1
1570538282.9,2019-10-08,14:38:02.900,15.0,11.0,23.8099994659424,18.6,-9.8,-4.4,53.9,20.3,-45.8,19.777,-9.936,-5.05247,-3.23521,-2.0158400000000003,-1.3771,48.838,21.6374,-48.1474,-0.174101,0.0111276,-0.117668,254.9,8.2,52.1701,4.42725,4.3,1.45502,497.675,4.38787,169.984,74.8648,162.738,0.719488,-0.0903456,246.947,1.05515,1.36951,0.3917236328125,22.0056018829346,0.737667679786682,22.0,-303849.0,8552.53,pp-ro,1,1,-1,-1
1570538283.0,2019-10-08,14:38:03.000,15.0,12.0,23.6599998474121,18.2,-9.7,-3.9,53.0,19.2,-47.3,19.2583,-10.4378,-4.006480000000001,-1.08251,-0.1569849999999999,4.480659999999999,49.4786,18.9798,-49.4211,0.170985,-0.404685,0.0158687,254.9,8.2,52.1701,4.42725,4.3,1.47441,503.686,4.3879,168.407,77.5248,163.238,0.721933,-0.106929,247.017,1.06192,1.39202,0.534782409667969,22.0056018829346,1.01442754268646,22.0,-303383.0,4706.97,pp-ro,1,1,-1,-1
1570538283.1,2019-10-08,14:38:03.100,15.0,12.0,23.5200004577637,17.8,-9.6,-3.5,52.7,18.4,-47.7,19.2583,-10.4378,-4.006480000000001,-1.08251,-0.1569849999999999,4.480659999999999,49.4786,18.9798,-49.4211,0.170985,-0.404685,0.0158687,254.9,8.2,52.1701,4.42725,4.3,1.4755200000000002,502.459,4.387919999999999,167.44299999999998,79.4248,163.438,0.722725,-0.118439,247.098,1.07466,1.40805,0.783447265625,22.0056018829346,1.2945613861084,22.0,-302632.0,8183.35,pp-ro,1,1,-1,-1
1570538283.2,2019-10-08,14:38:03.200,15.0,12.0,23.219999313354503,17.6,-9.7,-3.4,52.6,17.9,-47.7,19.2583,-10.4378,-4.006480000000001,-1.08251,-0.1569849999999999,4.480659999999999,49.4786,18.9798,-49.4211,0.170985,-0.404685,0.0158687,254.9,8.2,52.1701,4.42725,4.3,1.45391,489.566,4.38794,166.917,80.1848,163.638,0.723726,-0.1233869999999999,247.12,1.08406,1.40822,1.08489990234375,22.0056018829346,1.21839046478271,22.0,-301447.0,7968.0,pp-ro,1,1,-1,-1
1570538283.3,2019-10-08,14:38:03.300,15.0,13.0,22.9099998474121,17.2,-9.8,-3.1,52.5,17.6,-47.8,19.2583,-10.4378,-4.006480000000001,-1.08251,-0.1569849999999999,4.480659999999999,49.4786,18.9798,-49.4211,0.170985,-0.404685,0.0158687,257.0,8.3,52.1701,4.42725,4.3,1.44449,480.572,4.38797,165.895,82.0849,163.838,0.724563,-0.135065,247.188,1.09444,1.41583,1.27735900878906,22.0050868988037,1.32755291461945,22.0,-301025.0,7844.94,pp-ro,1,1,-1,-1
1570538283.4,2019-10-08,14:38:03.400,15.0,13.0,22.4899997711182,16.7,-9.5,-2.8,52.0,16.8,-48.0,19.0553,-10.3634,-3.75104,-10.6541,6.63108,5.66335,49.5626,18.5256,-49.9121,-0.0310669,-0.215429,0.0913799999999999,257.0,8.3,52.1701,4.42725,4.3,1.36637,433.768,4.38801,164.872,83.6049,164.03799999999998,0.7257939999999999,-0.1449079999999999,247.146,1.10848,1.43077,1.27565002441406,22.0050868988037,1.53759384155273,22.0,-299579.0,10244.6,pp-ro,1,1,-1,-1
1570538283.5,2019-10-08,14:38:03.500,15.0,15.0,22.1700000762939,16.6,-9.2,-2.7,52.3,16.5,-48.5,17.6908,-10.0757,-2.72213,1.6985599999999998,-2.4486,2.35145,50.3506,16.9069,-49.9042,0.0422453,0.0474365,-0.0339700999999999,257.0,8.3,52.1701,4.42725,4.3,1.337,420.239,4.38805,163.908,85.5049,164.238,0.726367,-0.156492,247.288,1.11404,1.44825,1.4119033813476598,22.0050868988037,1.8762739896774296,22.0,-299181.0,7783.42,pp-ro,1,1,-1,-1
1570538283.6,2019-10-08,14:38:03.600,15.0,14.0,21.7700004577637,16.5,-9.3,-2.5,52.0,16.5,-49.1,17.6908,-10.0757,-2.72213,1.6985599999999998,-2.4486,2.35145,50.3506,16.9069,-49.9042,0.0422453,0.0474365,-0.0339700999999999,257.0,8.3,52.1701,4.42725,4.3,1.30874,407.894,4.38809,163.003,87.0249,164.438,0.727217,-0.166092,247.352,1.11336,1.45745,1.6809997558593797,22.0050868988037,2.01323509216309,22.0,-298496.0,6645.13,pp-ro,1,1,-1,-1
1570538283.7,2019-10-08,14:38:03.700,15.0,14.0,21.4899997711182,16.1,-9.3,-2.4,51.6,17.0,-49.2,17.2702,-9.94368,-2.35618,-1.57415,-0.313835,-0.708843,49.7685,16.8934,-51.6478,0.162802,0.0924442,0.00193158,257.0,8.3,52.1701,4.42725,4.3,1.30985,419.491,4.38813,162.01,88.9249,164.638,0.727737,-0.177733,247.509,1.11397,1.46032,1.8155517578125,22.0050868988037,2.07704734802246,22.0,-298125.0,2491.92,pp-ro,1,1,-1,-1
1570538283.8,2019-10-08,14:38:03.800,15.0,14.0,21.159999847412102,15.6,-9.4,-2.6,51.7,16.8,-50.0,17.2702,-9.94368,-2.35618,-1.57415,-0.313835,-0.708843,49.7685,16.8934,-51.6478,0.162802,0.0924442,0.00193158,257.0,8.3,52.1701,4.42725,4.6,1.33368,405.98800000000006,4.38817,161.046,90.4449,164.938,0.728923,-0.187498,247.63,1.11345,1.44456,1.9943771362304696,22.004571914672898,-35.0,22.0,-297627.0,7844.94,pp-ro,1,1,-1,-1
1570538283.9,2019-10-08,14:38:03.900,15.0,14.0,21.0300006866455,15.5,-9.6,-2.7,50.6,16.7,-51.7,16.7384,-10.2383,-2.612,-0.00192676,-0.856987,-1.67123,48.5294,16.1981,-53.834,0.0319625,-0.313,-0.1570349999999999,257.0,8.3,52.1701,4.42725,4.6,1.27051,393.602,4.38821,160.082,91.9649,165.238,0.730061,-0.197273,247.765,1.10087,1.43909,2.06591033935547,22.004571914672898,-35.0,22.0,-296738.0,7537.3,pp-ro,1,1,-1,-1
1570538284.0,2019-10-08,14:38:04.000,15.0,14.0,20.8199996948242,14.9,-9.6,-2.4,49.9,16.2,-53.0,16.7384,-10.2383,-2.612,-0.00192676,-0.856987,-1.67123,48.5294,16.1981,-53.834,0.0319625,-0.313,-0.1570349999999999,257.0,8.3,52.1701,4.42725,4.6,1.29766,408.519,4.38825,159.031,93.865,165.53799999999998,0.730835,-0.2090719999999999,248.001,1.09929,1.44443,1.8802719116210904,22.004571914672898,-35.0,22.0,-296570.0,984.464,pp-ro,1,1,-1,-1
1570538284.1,2019-10-08,14:38:04.100,15.0,14.0,20.6499996185303,14.3,-9.2,-2.2,49.3,15.7,-53.7,16.7384,-10.2383,-2.612,-0.00192676,-0.856987,-1.67123,48.5294,16.1981,-53.834,0.0319625,-0.313,-0.1570349999999999,257.0,8.3,52.1701,4.42725,4.6,1.3192700000000002,404.969,4.3882900000000005,158.096,95.005,165.838,0.732326,-0.2170099999999999,248.038,1.10219,1.45461,1.29779815673828,22.004571914672898,-35.0,22.0,-296130.0,5752.96,pp-ro,1,1,-1,-1
1570538284.2,2019-10-08,14:38:04.200,15.0,15.0,20.4400005340576,14.3,-9.1,-2.1,49.8,16.2,-54.0,15.2235,-9.77456,-2.12716,-0.5833,2.50694,4.76667,48.4822,15.7294,-55.9456,-0.290434,-0.1153329999999999,-0.2536239999999999,257.0,8.3,52.1701,4.42725,4.6,1.27439,380.496,4.38834,157.191,96.525,166.03799999999998,0.732884,-0.226642,248.183,1.09915,1.46833,0.3678817749023439,22.004571914672898,-35.0,22.0,-295316.0,8121.83,pp-ro,1,1,-1,-1
1570538284.3,2019-10-08,14:38:04.300,15.0,14.0,20.2199993133545,14.1,-9.1,-1.9,49.6,16.1,-54.6,15.2235,-9.77456,-2.12716,-0.5833,2.50694,4.76667,48.4822,15.7294,-55.9456,-0.290434,-0.1153329999999999,-0.2536239999999999,253.0,7.6,52.1701,4.42725,4.6,1.22508,354.91900000000004,4.38831,156.197,98.045,166.338,0.733895,-0.236478,248.352,1.09984,1.47855,-0.942138671875,22.004571914672898,-35.0,22.0,-294670.0,5968.31,pp-ro,1,1,-1,-1
1570538284.4,2019-10-08,14:38:04.400,15.0,14.0,20.090000152587898,14.3,-9.0,-1.8,49.9,16.2,-54.8,15.0511,-9.67894,-1.86608,-0.850133,-4.41057,4.02775,48.4053,16.7355,-56.4439,-0.142534,-0.0838193,-0.0489482,253.0,7.6,52.1701,4.42725,4.6,1.17687,326.131,4.38828,155.292,99.185,166.638,0.73521,-0.244294,248.438,1.10159,1.4963799999999998,-2.6045379638671897,22.004056930542003,-35.0,22.0,-293868.0,5506.84,pp-ro,1,1,-1,-1
1570538284.5,2019-10-08,14:38:04.500,15.0,15.0,19.909999847412102,14.6,-8.9,-1.7,51.1,15.8,-54.3,15.0511,-9.67894,-1.86608,-0.850133,-4.41057,4.02775,48.4053,16.7355,-56.4439,-0.142534,-0.0838193,-0.0489482,253.0,7.6,52.1701,4.42725,4.6,1.15914,322.219,4.388240000000001,153.91899999999998,101.845,166.938,0.735298,-0.260391,248.861,1.12374,1.52195,-4.61511993408203,22.004056930542003,-35.0,22.0,-293595.0,5260.73,pp-ro,1,1,-1,-1
1570538284.6,2019-10-08,14:38:04.600,15.0,13.0,19.8199996948242,14.9,-9.1,-1.5,51.6,15.7,-54.2,15.2165,-9.3599,-1.52966,-4.27761,-4.93018,8.275319999999999,49.4068,17.6196,-55.4448,-0.1930869999999999,0.408485,-0.00131574,253.0,7.6,52.1701,4.42725,4.6,1.18241,340.404,4.3882,153.452,102.225,167.03799999999998,0.736079,-0.263473,248.796,1.12828,1.53355,-6.721282958984379,22.004056930542003,-35.0,22.0,-293298.0,1076.76,pp-ro,1,1,-1,-1
1570538284.7,2019-10-08,14:38:04.700,15.0,13.0,19.7800006866455,15.4,-9.2,-0.8,52.1,13.5,-54.3,15.7106,-9.53019,-0.660104,4.81697,-0.329129,-2.15199,50.7063,15.7525,-54.5356,0.351394,-0.350055,0.591395,253.0,7.6,52.1701,4.42725,4.6,1.19959,347.272,4.38817,152.488,104.125,167.238,0.735965,-0.274895,249.125,1.16191,1.5784200000000002,-8.83085632324219,22.004571914672898,-35.0,22.0,-293151.0,2861.1,pp-ro,1,1,-1,-1
1570538284.8,2019-10-08,14:38:04.800,15.0,13.0,19.8700008392334,16.0,-8.9,0.0,52.9,10.9,-53.6,16.1814,-9.19857,0.134171,4.0993900000000005,3.77769,6.33301,51.6186,13.8375,-53.6777,0.159216,0.219786,0.498709,253.0,7.6,52.1701,4.42725,4.8,1.21289,357.775,4.38813,151.553,105.645,167.338,0.736009,-0.284507,249.262,1.20923,1.6388200000000002,-10.9404296875,22.004571914672898,-35.0,22.0,-292826.0,3137.98,pp-ro,1,1,-1,-1
1570538284.9,2019-10-08,14:38:04.900,15.0,13.0,20.0,16.5,-8.4,0.9,54.0,8.3,-52.4,16.5447,-8.72552,1.26252,2.16894,7.046939999999999,14.1551,53.2287,11.3669,-51.8125,-0.0691792,-0.0389582,0.350278,253.0,7.6,52.1701,4.42725,4.8,1.22674,358.588,4.3881,150.648,107.165,167.338,0.735646,-0.294039,249.362,1.26299,1.70605,-13.039764404296902,22.004571914672898,-35.0,22.0,-292275.0,4891.55,pp-ro,1,1,-1,-1
1570538285.0,2019-10-08,14:38:05.000,15.0,12.0,20.1800003051758,17.3,-8.1,2.4,55.6,4.3,-50.9,16.5447,-8.72552,1.26252,2.16894,7.046939999999999,14.1551,53.2287,11.3669,-51.8125,-0.0691792,-0.0389582,0.350278,253.0,7.6,52.1701,4.42725,4.8,1.21787,354.166,4.38806,149.77200000000002,108.685,167.138,0.73458,-0.303419,249.358,1.33856,1.79092,-15.1476364135742,22.004571914672898,-35.0,22.0,-292016.0,4737.73,pp-ro,1,1,-1,-1
1570538285.1,2019-10-08,14:38:05.100,15.0,12.0,20.3099994659424,17.7,-7.2,3.6,57.1,-0.1,-48.4,17.0868,-8.14029,2.56769,6.212330000000001,8.50278,12.58,54.8126,8.28412,-49.8882,0.1469099999999999,0.0812679,0.792237,253.0,7.6,52.1701,4.42725,4.8,1.20458,343.829,4.38802,148.983,110.205,166.838,0.732982,-0.312521,249.351,1.43191,1.87665,-17.2555084228516,22.004571914672898,-35.0,22.0,-291544.0,4983.85,pp-ro,1,1,-1,-1
1570538285.2,2019-10-08,14:38:05.200,15.0,11.0,20.3999996185303,18.2,-5.9,5.0,58.8,-4.2,-45.3,17.0868,-8.14029,2.56769,6.212330000000001,8.50278,12.58,54.8126,8.28412,-49.8882,0.1469099999999999,0.0812679,0.792237,253.0,7.6,52.1701,4.42725,4.8,1.15803,312.581,4.38799,148.311,112.485,166.438,0.7295699999999999,-0.324498,249.701,1.53099,1.98417,-19.3821487426758,22.004056930542003,-35.0,22.0,-290782.0,5383.79,pp-ro,1,1,-1,-1
1570538285.3,2019-10-08,14:38:05.300,15.0,11.0,20.5699996948242,19.0,-5.1,6.7,61.5,-10.4,-42.8,18.1663,-5.27371,5.9531,8.46575,4.5947,16.1521,60.335,-2.0540700000000003,-40.0619,0.482656,0.1506819999999999,1.08326,256.6,8.2,52.1701,4.42725,4.8,1.13864,306.676,4.38797,147.69799999999998,114.385,165.938,0.7262930000000001,-0.334549,249.868,1.6497700000000002,2.07693,-21.51220703125,22.0035419464111,-35.0,22.0,-290470.0,5783.72,pp-ro,1,1,-1,-1
1570538285.4,2019-10-08,14:38:05.400,15.0,12.0,20.8600006103516,19.5,-3.7,8.5,63.2,-14.6,-39.1,18.5785,-4.41038,7.61746,2.71185,5.21817,18.0247,61.8259,-7.29408,-35.9384,0.0819477,0.232816,1.07068,256.6,8.2,52.1701,4.42725,4.8,1.12811,316.918,4.38796,147.201,116.285,165.238,0.722129,-0.344174,249.988,1.75503,2.18656,-23.6149520874023,22.004056930542003,-35.0,22.0,-290218.0,830.6410000000001,pp-ro,1,1,-1,-1
1570538285.5,2019-10-08,14:38:05.500,15.0,11.0,21.2000007629395,19.6,-2.2,10.6,63.9,-19.6,-34.0,18.6553,-2.73531,9.40604,-8.659889999999999,15.9283,16.2378,62.2974,-12.5616,-31.6879,0.32183,0.258057,1.38175,256.6,8.2,52.1701,4.42725,4.8,1.19516,336.706,4.38795,146.88,118.185,164.438,0.717264,-0.353127,250.163,1.8848,2.30207,-25.7262344360352,22.004056930542003,-35.0,22.0,-290002.0,3691.74,pp-ro,1,1,-1,-1
1570538285.6,2019-10-08,14:38:05.600,15.0,11.0,21.5699996948242,19.5,-0.3,12.9,64.8,-25.7,-28.9,18.5471,-1.94111,10.4319,-3.94327,17.302,21.2515,62.4176,-15.3829,-29.0822,0.240898,0.338277,1.32185,256.6,8.2,52.1701,4.42725,4.8,1.18518,336.72,4.38794,146.705,120.085,163.338,0.711163,-0.361511,250.24400000000003,2.02683,2.4290000000000003,-27.8323974609375,22.004056930542003,-35.0,22.0,-289715.0,5445.31,pp-ro,1,1,-1,-1
1570538285.7,2019-10-08,14:38:05.700,15.0,11.0,21.7700004577637,19.2,1.8,14.9,64.5,-32.4,-24.4,18.4997,-1.17334,11.4964,0.802128,18.6536,20.1532,62.1198,-18.3383,-26.1984,0.25616,0.394601,1.41295,256.6,8.2,52.1701,4.42725,4.8,1.17355,329.56800000000004,4.38794,146.704,121.985,162.138,0.70438,-0.369204,250.382,2.16739,2.5486,-29.8890533447266,22.004056930542003,-35.0,22.0,-289404.0,2430.39,pp-ro,1,1,-1,-1
1570538285.8,2019-10-08,14:38:05.800,15.0,12.0,21.8099994659424,18.1,4.0,16.8,64.4,-40.0,-20.6,17.9665,1.84559,14.3993,-8.520380000000001,15.026,12.4323,60.2283,-27.6544,-17.0205,-0.0642528,0.3899849999999999,1.49078,256.6,8.2,52.1701,4.42725,4.9,1.16357,320.78,4.38794,146.938,123.885,160.638,0.6962,-0.376036,250.485,2.30948,2.67463,-31.6163177490234,22.0035419464111,-35.0,22.0,-288940.0,5783.72,pp-ro,1,1,-1,-1
1570538285.9,2019-10-08,14:38:05.900,15.0,12.0,21.8099994659424,16.7,6.3,18.1,62.7,-47.5,-14.7,16.808,3.99066,15.9721,-15.1129,19.3734,11.9064,57.8639,-34.6569,-9.9672,0.290406,0.23886,1.59859,256.6,8.2,52.1701,4.42725,4.9,1.14584,322.86,4.387919999999999,147.376,125.785,159.138,0.687612,-0.382053,250.732,2.46415,2.79585,-32.9749145507812,22.004056930542003,-35.0,22.0,-288584.0,2338.1,pp-ro,1,1,-1,-1
