time,date,time_of_day,airspeed_temperature,airspeed_angle_of_attack,airspeed_apparent_windspeed,kite_0_vx,kite_0_vy,kite_0_vz,kite_0_roll,kite_0_pitch,kite_0_yaw,kite_1_vx,kite_1_vy,kite_1_vz,kite_1_ax,kite_1_ay,kite_1_az,kite_1_roll,kite_1_pitch,kite_1_yaw,kite_1_roll_rate,kite_1_pitch_rate,kite_1_yaw_rate,ground_upwind_direction,ground_wind_velocity,ground_pos_latitude,ground_pos_longitude,ground_pos_altitude,ground_tether_reelout_speed,ground_tether_force,est_upwind_direction,kite_pos_east,kite_pos_north,kite_height,kite_elevation,kite_azimuth,kite_distance,kite_heading,kite_course,kite_actual_steering,kite_actual_depower,kite_set_steering,kite_set_depower,ground_mech_energy,ground_mech_power,flight_phase,flight_phase_index,phase,pattern,pattern_section
1570537757.8,2019-10-08,14:29:17.800,15.0,9.0,15.0799999237061,11.1,-3.0,3.3,17.1,-7.4,-59.4,9.79944,-2.33392,3.67321,7.743010000000001,7.7893,0.947075,20.2501,7.255789999999999,-60.6102,0.154314,0.172663,0.934121,244.7,7.0,52.1701,4.427219999999999,-2.1,-3.04856,106.946,4.3623400000000006,31.5734,6.46035,244.289,1.43963,0.148226,246.406,0.751849,1.54673,-34.548553466796896,22.0169315338135,-35.0,22.0,-572405.0,-3168.74,pp-riro,4,0,-1,-1
1570537757.9,2019-10-08,14:29:17.900,15.0,9.0,14.9099998474121,12.0,-2.0,3.5,17.9,-8.9,-54.1,9.79944,-2.33392,3.67321,7.743010000000001,7.7893,0.947075,20.2501,7.255789999999999,-60.6102,0.154314,0.172663,0.934121,244.7,7.0,52.1701,4.427219999999999,-2.1,-3.00036,101.861,4.36228,31.2813,7.600389999999999,243.989,1.43962,0.1117609999999999,246.104,0.885092,1.6807900000000002,-34.9206390380859,22.003026962280305,-35.0,22.0,-572772.0,-4245.5,pp-riro,4,0,-1,-1
1570537758.0,2019-10-08,14:29:18.000,15.0,9.0,14.609999656677198,12.8,-1.0,3.6,18.9,-9.9,-48.8,10.2157,-1.90866,3.83969,8.0689,8.5008,3.43416,20.8422,6.766560000000001,-57.739,0.1320319999999999,0.14344,0.961019,244.7,7.0,52.1701,4.427219999999999,-2.1,-2.9998,95.9138,4.36222,31.0769,9.12044,243.689,1.43867,0.0646761,245.832,1.02824,1.81243,-34.975250244140604,22.0009689331055,-35.0,22.0,-573026.0,-5076.14,pp-riro,4,0,-1,-1
1570537758.1,2019-10-08,14:29:18.100,15.0,9.0,14.4200000762939,13.6,0.0,3.8,20.0,-11.2,-43.7,12.0694,0.607617,4.37373,7.753260000000001,11.4651,0.686683,23.8214,3.43466,-43.8127,0.0364668,0.160521,0.929247,244.7,7.0,52.1701,4.427219999999999,-2.1,-3.02141,89.436,4.36216,31.0184,10.2605,243.389,1.43736,0.0307712,245.572,1.15514,1.92254,-34.973541259765604,22.0009689331055,-35.0,22.0,-574156.0,-12921.1,pp-riro,4,0,-1,-1
1570537758.2,2019-10-08,14:29:18.200,15.0,9.0,14.2399997711182,14.3,1.2,4.2,20.7,-12.7,-38.9,12.4303,1.05434,4.49728,6.656839999999999,10.2136,2.1869,24.2016,2.70872,-41.0842,0.185901,0.145063,0.924269,248.1,6.7,52.1701,4.427219999999999,-2.1,-3.06795,93.5775,4.3621,31.0476,11.4005,243.08900000000003,1.43557,-0.00162404,245.329,1.27565,2.03822,-34.973541259765604,22.0009689331055,-35.0,22.0,-575554.0,-14151.7,pp-riro,4,0,-1,-1
1570537758.3,2019-10-08,14:29:18.300,15.0,9.0,14.109999656677198,14.8,2.3,4.6,21.2,-14.2,-33.9,12.4303,1.05434,4.49728,6.656839999999999,10.2136,2.1869,24.2016,2.70872,-41.0842,0.185901,0.145063,0.924269,248.1,6.7,52.1701,4.427219999999999,-2.1,-3.10231,94.8269,4.36206,31.1937,12.9206,242.789,1.43262,-0.0423669,245.126,1.40808,2.14894,-34.978668212890604,22.0009689331055,-35.0,22.0,-576667.0,-10152.3,pp-riro,4,0,-1,-1
1570537758.4,2019-10-08,14:29:18.400,15.0,9.0,13.9799995422363,15.2,3.5,4.8,21.6,-15.6,-28.9,13.7929,3.8708,5.4688300000000005,3.38976,11.2785,2.89852,26.1507,-1.29546,-27.3615,0.207118,0.161423,0.979638,248.1,6.7,52.1701,4.427219999999999,-2.1,-3.13334,89.4686,4.362019999999999,31.4565,14.4406,242.389,1.42896,-0.0800034,244.848,1.53696,2.25641,-34.9889068603516,22.0009689331055,-35.0,22.0,-577837.0,-12398.1,pp-riro,4,0,-1,-1
1570537758.5,2019-10-08,14:29:18.500,15.0,9.0,13.9200000762939,15.5,4.7,5.0,22.4,-16.9,-23.6,14.0953,5.04968,5.69051,2.7488200000000003,11.1312,-0.91608,26.6485,-2.93436,-22.1123,0.0849193999999999,0.169169,0.934923,248.1,6.7,52.1701,4.427219999999999,-2.1,-3.22254,86.7747,4.36198,31.807,15.5807,241.99,1.42547,-0.105091,244.568,1.65778,2.34747,-34.9906158447266,22.0009689331055,-35.0,22.0,-580312.0,-18335.6,pp-riro,4,0,-1,-1
1570537758.6,2019-10-08,14:29:18.600,15.0,9.0,13.789999961853,15.8,5.9,5.3,22.6,-18.1,-18.3,14.3962,6.13781,5.9680800000000005,3.11748,12.9389,3.4892800000000004,27.0678,-4.391719999999999,-16.7054,0.121182,0.189766,0.8478020000000001,248.1,6.7,52.1701,4.427219999999999,-2.1,-3.28183,90.6599,4.36195,32.3035,17.4808,241.59,1.41992,-0.145573,244.366,1.7934,2.4489,-35.0076751708984,22.0009689331055,-35.0,22.0,-582086.0,-17135.8,pp-riro,4,0,-1,-1
1570537758.7,2019-10-08,14:29:18.700,15.0,9.0,13.8500003814697,16.1,7.1,5.7,22.8,-19.3,-12.9,14.5344,6.65847,6.13384,2.02718,10.6087,3.67289,27.2235,-5.21806,-13.9787,0.151029,0.204114,0.925348,248.1,6.7,52.1701,4.427219999999999,-2.1,-3.31618,92.6997,4.36191,32.9169,19.0008,241.19,1.4145,-0.173051,244.166,1.91709,2.53286,-35.0076751708984,22.0009689331055,-35.0,22.0,-582908.0,-15659.1,pp-riro,4,0,-1,-1
1570537758.8,2019-10-08,14:29:18.800,15.0,9.0,13.9799995422363,16.1,8.4,6.0,22.9,-20.7,-7.6,14.72,7.16212,6.32595,1.70419,9.42712,3.36315,27.1943,-5.88921,-11.2152,0.0358432,0.237776,0.963346,248.1,6.7,52.1701,4.427219999999999,-2.2,-3.37048,93.4646,4.36187,33.6178,20.9009,240.69,1.40779,-0.205715,243.923,2.04414,2.6286400000000003,-35.0042724609375,22.0009689331055,-35.0,22.0,-584930.0,-12798.0,pp-riro,4,0,-1,-1
1570537758.9,2019-10-08,14:29:18.900,15.0,10.0,14.1700000762939,16.2,9.7,6.2,22.8,-21.9,-2.1,14.72,7.16212,6.32595,1.70419,9.42712,3.36315,27.1943,-5.88921,-11.2152,0.0358432,0.237776,0.963346,248.1,6.7,52.1701,4.427219999999999,-2.2,-3.38267,94.2996,4.36183,34.4648,22.0409,240.19,1.40209,-0.218431,243.649,2.15348,2.69751,-35.0076751708984,22.0009689331055,-35.0,22.0,-585542.0,-12059.7,pp-riro,4,0,-1,-1
1570537759.0,2019-10-08,14:29:19.000,15.0,9.0,14.359999656677198,16.1,11.0,6.5,22.6,-23.2,3.9,14.8014,8.917539999999999,6.729089999999999,0.565509,13.7538,3.34534,27.0418,-8.00267,-2.7223900000000003,0.12272,0.2145639999999999,0.914846,248.1,6.7,52.1701,4.427219999999999,-2.2,-3.4103800000000004,104.49,4.36179,35.4871,23.941,239.59,1.39399,-0.242902,243.384,2.28223,2.77933,-35.0059814453125,22.0009689331055,-35.0,22.0,-587163.0,-8860.17,pp-riro,4,0,-1,-1
1570537759.1,2019-10-08,14:29:19.100,15.0,10.0,14.539999961853,15.9,12.3,6.9,22.3,-24.4,9.6,14.7539,11.2642,7.309810000000001,-0.718777,13.2603,2.65112,26.1318,-10.7494,8.81226,0.103177,0.227378,0.97933,248.1,6.7,52.1701,4.427219999999999,-2.2,-3.39154,110.586,4.36175,36.5678,25.4611,238.99,1.38647,-0.257598,243.108,2.395,2.8508400000000003,-35.0059814453125,22.0009689331055,-23.0044822692871,22.0,-587341.0,307.645,pp-riro,4,0,-1,-1
1570537759.2,2019-10-08,14:29:19.200,15.0,9.0,14.6599998474121,15.7,13.6,7.2,21.9,-24.9,12.5,14.7539,11.2642,7.309810000000001,-0.718777,13.2603,2.65112,26.1318,-10.7494,8.81226,0.103177,0.227378,0.97933,244.7,6.7,52.1701,4.427219999999999,-2.2,-3.3499800000000004,112.278,4.36171,37.7945,27.3612,238.69,1.37775,-0.275942,243.207,2.46279,2.92182,-35.0059814453125,22.0009689331055,-22.3130226135254,22.0,-587114.0,1322.87,pp-riro,4,0,-1,-1
1570537759.3,2019-10-08,14:29:19.300,15.0,10.0,14.8400001525879,15.2,14.9,7.5,20.9,-26.3,21.6,14.5887,12.4744,7.59249,-1.67498,12.2337,1.96585,25.3371,-11.864,15.0888,0.0612238,0.263606,1.0058200000000002,244.7,6.7,52.1701,4.427219999999999,-2.2,-3.31286,112.55,4.36166,39.1672,28.8812,237.69,1.36885,-0.28465,242.62,2.62372,2.98928,-34.778976440429695,22.0009689331055,-21.4515171051025,22.0,-587056.0,1076.76,pp-riro,4,0,-1,-1
1570537759.4,2019-10-08,14:29:19.400,15.0,9.0,15.0200004577637,15.0,16.2,7.7,20.6,-26.8,24.8,13.8489,14.9118,8.16555,-5.83678,14.0897,3.07913,23.427,-14.0208,27.2752,0.0741935,0.200617,1.00719,244.7,6.7,52.1701,4.427219999999999,-2.2,-3.258,115.394,4.36161,40.686,30.0213,237.29,1.36085,-0.284944,242.617,2.67783,3.03571,-34.178192138671896,22.0009689331055,-20.784353256225604,22.0,-586801.0,3261.04,pp-riro,4,0,-1,-1
1570537759.5,2019-10-08,14:29:19.500,15.0,9.0,15.3100004196167,14.2,17.5,7.9,19.5,-27.5,33.7,13.6523,15.5062,8.26287,-7.33878,9.74936,3.49398,22.8471,-14.463,30.3191,0.226582,0.341861,0.978943,244.7,6.7,52.1701,4.427219999999999,-2.2,-3.12724,128.35299999999998,4.36156,42.3216,31.9214,236.19,1.35002,-0.29539,242.066,2.83287,3.10791,-33.2189788818359,22.0025119781494,-19.9505996704102,22.0,-585775.0,7998.77,pp-riro,4,0,-1,-1
1570537759.6,2019-10-08,14:29:19.600,15.0,10.0,15.6499996185303,13.6,18.8,8.3,18.5,-27.8,40.5,13.3968,16.1326,8.419319999999999,-5.1161,11.6965,1.65142,22.3611,-14.934,33.3533,0.0114314,0.236985,0.996611,244.7,6.7,52.1701,4.427219999999999,-2.2,-2.99648,140.454,4.36151,44.1324,33.0614,235.39,1.34068,-0.292069,241.763,2.93958,3.15741,-31.9081726074219,22.0025119781494,-19.1921615600586,22.0,-584255.0,16612.8,pp-riro,4,0,-1,-1
1570537759.7,2019-10-08,14:29:19.700,15.0,8.0,16.1599998474121,12.9,20.3,8.5,17.8,-28.1,46.4,12.675,17.8695,8.75105,-6.41804,11.9974,3.65729,20.5106,-16.0289,42.6559,-0.0163666,0.227055,0.943175,244.7,6.7,52.1701,4.427219999999999,-2.2,-2.79313,157.264,4.36145,46.0309,34.5815,234.59,1.33013,-0.293378,241.552,3.0354,3.2157,-31.1196441650391,22.0025119781494,-18.4221363067627,22.0,-582013.0,25503.8,pp-riro,4,0,-1,-1
1570537759.8,2019-10-08,14:29:19.800,15.0,10.0,16.370000839233402,12.3,21.0,8.7,17.2,-28.0,49.4,12.1101,19.1552,9.03519,-5.419169999999999,11.8997,3.07031,19.0187,-16.8722,48.6724,0.0569239,0.203223,0.990536,244.7,6.7,52.1701,4.427219999999999,-2.2,-2.6701200000000003,164.519,4.3614,47.0823,35.3415,234.19,1.32452,-0.2929199999999999,241.476,3.08275,3.24949,-28.7608795166016,22.003026962280305,-17.9322681427002,22.0,-580563.0,29380.1,pp-riro,4,0,-1,-1
1570537759.9,2019-10-08,14:29:19.900,15.0,11.0,16.5900001525879,11.1,22.0,9.0,16.3,-28.4,54.9,11.1631,20.4927,9.34688,-10.9189,12.9809,2.75773,17.7797,-17.634,54.8124,0.152462,0.2254219999999999,0.962207,244.7,6.7,52.1701,4.427219999999999,-2.2,-2.35263,170.417,4.36135,49.156000000000006,36.4816,233.29,1.31418,-0.287426,241.188,3.165,3.30306,-27.1735763549805,22.0035419464111,-17.0940551757812,22.0,-577163.0,32271.9,pp-riro,4,0,-1,-1
1570537760.0,2019-10-08,14:29:20.000,15.0,10.0,16.75,10.0,22.9,8.9,15.0,-28.3,60.3,10.5956,20.9624,9.42117,-11.2158,12.2539,4.58283,17.0002,-18.1112,57.5748,0.135845,0.1146269999999999,0.880093,244.7,6.7,52.1701,4.427219999999999,-2.2,-2.0357,166.199,4.3613,51.3758,37.2416,232.39,1.30424,-0.2761699999999999,240.897,3.23998,3.34511,-24.5451431274414,22.0035419464111,-16.334449768066403,22.0,-574407.0,27565.0,pp-riro,4,0,-1,-1
1570537760.1,2019-10-08,14:29:20.100,15.0,9.0,17.0100002288818,8.5,24.0,8.9,13.6,-27.9,65.9,9.52782,21.9211,9.40765,-11.7374,9.09248,-3.95862,15.823,-18.811,62.8603,0.185716,0.0908527,0.92969,244.7,6.7,52.1701,4.427219999999999,-2.2,-1.57636,156.69299999999998,4.36125,53.7707,38.7617,231.39,1.2918,-0.273454,240.697,3.32579,3.41011,-22.435569763183604,22.003026962280305,-15.434552192688,22.0,-571293.0,17320.4,pp-riro,4,0,-1,-1
1570537760.2,2019-10-08,14:29:20.200,15.0,9.0,17.1599998474121,8.1,24.5,8.8,12.5,-27.3,71.0,7.624639999999999,23.4041,9.22503,-11.6252,14.3456,-1.5475,13.38,-19.5061,72.5914,0.028374,0.0092074,0.662606,243.5,6.5,52.1701,4.427219999999999,-2.2,-1.44338,157.641,4.3612,56.1073,39.5217,230.59,1.28152,-0.262477,240.586,3.39658,3.42015,-20.506912231445305,22.003026962280305,-15.3519906997681,22.0,-570490.0,15166.9,pp-riro,4,0,-1,-1
1570537760.3,2019-10-08,14:29:20.300,15.0,9.0,17.270000457763697,6.9,25.0,8.9,11.2,-27.0,75.5,7.624639999999999,23.4041,9.22503,-11.6252,14.3456,-1.5475,13.38,-19.5061,72.5914,0.028374,0.0092074,0.662606,243.5,6.5,52.1701,4.427219999999999,-2.2,-1.02173,161.71,4.36113,58.5607,40.2818,229.69,1.27069,-0.251271,240.436,3.45732,3.45649,-18.7898941040039,22.003026962280305,-14.7665843963623,22.0,-568535.0,12121.2,pp-riro,4,0,-1,-1
1570537760.4,2019-10-08,14:29:20.400,15.0,10.0,17.3199996948242,5.7,25.1,8.9,9.7,-26.8,80.1,7.144819999999999,23.7849,9.22874,-11.9332,7.9052,3.78794,12.6274,-19.4104,75.0475,0.129422,0.183066,0.684139,243.5,6.5,52.1701,4.427219999999999,-2.2,-0.748011,153.054,4.36107,61.1309,41.0418,228.69,1.25931,-0.2399329999999999,240.251,3.5191800000000004,3.48876,-17.059226989746097,22.003026962280305,-14.2912244796753,22.0,-567635.0,7906.47,pp-riro,4,0,-1,-1
1570537760.5,2019-10-08,14:29:20.500,15.0,7.0,17.520000457763697,4.8,25.2,8.6,8.4,-26.0,84.0,5.41708,24.1361,9.12863,-9.92901,-1.63664,-0.0398085,10.8531,-19.3471,81.6565,-0.0261890999999999,0.254398,0.778317,243.5,6.5,52.1701,4.427219999999999,-2.2,-0.603396,148.234,4.36102,63.6428,41.8019,227.79,1.2482,-0.229785,240.179,3.57257,3.51323,-16.4686813354492,22.003026962280305,-14.0024337768555,22.0,-567327.0,5906.78,pp-riro,4,0,-1,-1
1570537760.6,2019-10-08,14:29:20.600,15.0,8.0,17.6200008392334,4.1,25.3,8.4,7.3,-24.6,87.9,4.26751,24.351,8.59566,-4.21892,-0.00271045,-1.48856,9.06687,-18.707,87.4311,0.164935,0.2430369999999999,0.6259140000000001,243.5,6.5,52.1701,4.427219999999999,-2.2,-0.390074,141.25799999999998,4.36096,66.1546,42.1819,226.89,1.23787,-0.216198,240.073,3.62501,3.52724,-15.4377899169922,22.003026962280305,-13.8092279434204,22.0,-566958.0,2984.16,pp-riro,4,0,-1,-1
1570537760.7,2019-10-08,14:29:20.700,15.0,5.0,17.6700000762939,3.2,25.3,8.5,6.0,-23.9,91.5,4.26751,24.351,8.59566,-4.21892,-0.00271045,-1.48856,9.06687,-18.707,87.4311,0.164935,0.2430369999999999,0.6259140000000001,243.5,6.5,52.1701,4.427219999999999,-2.2,-0.106938,140.24200000000002,4.3609,68.6664,42.562,226.09,1.22761,-0.203418,240.09,3.67187,3.54732,-14.6321868896484,22.003026962280305,-13.521357536315902,22.0,-566776.0,615.29,pp-riro,4,0,-1,-1
1570537760.8,2019-10-08,14:29:20.800,15.0,6.0,17.3600006103516,2.4,25.2,8.4,4.5,-23.5,94.6,3.18375,24.5726,8.55735,-8.19337,-2.05143,-0.183065,6.95868,-18.0425,92.8398,0.106201,0.1942019999999999,0.6155579999999999,243.5,6.5,52.1701,4.427219999999999,-2.2,-0.020501,142.981,4.36083,71.2074,42.942,225.19,1.21707,-0.191104,240.052,3.71047,3.565,-13.959716796875,22.003026962280305,-13.3169345855713,22.0,-566776.0,0.0,pp-riro,4,0,-1,-1
1570537760.9,2019-10-08,14:29:20.900,15.0,7.0,17.1599998474121,1.5,25.1,8.3,3.3,-22.4,97.3,2.77171,24.5037,8.56625,-15.1716,-1.54089,-0.996796,6.43222,-17.9371,94.3928,0.0726936,-0.0315318,0.237118,243.5,6.5,52.1701,4.427219999999999,-2.2,0.171766,148.062,4.36078,73.7192,42.942,224.39,1.20747,-0.175851,240.062,3.74286,3.58408,-13.6183624267578,22.003026962280305,-12.9703330993652,22.0,-566880.0,-1445.93,pp-riro,4,0,-1,-1
1570537761.0,2019-10-08,14:29:21.000,15.0,8.0,16.8400001525879,0.7,25.1,8.3,2.3,-21.6,99.7,2.77171,24.5037,8.56625,-15.1716,-1.54089,-0.996796,6.43222,-17.9371,94.3928,0.0726936,-0.0315318,0.237118,243.5,6.5,52.1701,4.427219999999999,-2.2,0.273163,149.863,4.36072,76.23100000000001,43.3221,223.49,1.19692,-0.165117,240.075,3.77378,3.60385,-13.4442749023438,22.003026962280305,-12.7899913787842,22.0,-566840.0,2645.75,pp-riro,4,0,-1,-1
1570537761.1,2019-10-08,14:29:21.100,15.0,8.0,16.6800003051758,0.0,25.2,8.4,0.9,-21.2,102.1,0.7159989999999999,24.5514,8.31598,-11.4252,-0.171224,0.513115,3.28706,-16.2415,100.837,0.0728026,0.0767253,0.270723,243.5,6.5,52.1701,4.427219999999999,-2.2,0.24435,163.834,4.36065,78.8889,43.3221,222.49,1.1864,-0.150456,240.005,3.79973,3.61591,-13.0483016967773,22.003026962280305,-12.6669034957886,22.0,-566883.0,-1538.22,pp-riro,4,0,-1,-1
1570537761.2,2019-10-08,14:29:21.200,15.0,9.0,16.629999160766598,-0.8,25.3,8.8,0.0,-20.6,103.9,0.00359022,24.679,8.48537,1.09859,-1.4005,1.4265,1.6359,-15.72,102.981,0.0987957,0.0178619,0.210938,251.6,6.0,52.1701,4.427219999999999,-2.2,0.341869,184.556,4.3606,81.4299,43.3222,221.59,1.17636,-0.137145,240.021,3.81842,3.63066,-12.7922821044922,22.003026962280305,-12.5158977508545,22.0,-566917.0,738.3480000000001,pp-riro,4,0,-1,-1
1570537761.3,2019-10-08,14:29:21.300,15.0,10.0,16.4099998474121,-1.6,25.4,9.2,-1.2,-20.6,106.1,-0.8837430000000001,24.7696,8.775910000000001,-2.17797,2.22588,3.58705,0.482664,-15.7193,105.124,-0.123092,0.0856621,0.204587,251.6,6.0,52.1701,4.427219999999999,-2.2,0.3169349999999999,187.389,4.36057,83.9709,43.3222,220.59,1.1661,-0.124494,239.975,3.84135,3.64554,-12.6915893554688,22.003026962280305,-12.4069395065308,22.0,-566834.0,1507.46,pp-riro,4,0,-1,-1
1570537761.4,2019-10-08,14:29:21.400,15.0,10.0,16.4099998474121,-2.3,25.4,9.4,-2.7,-20.8,108.1,-0.8837430000000001,24.7696,8.775910000000001,-2.17797,2.22588,3.58705,0.482664,-15.7193,105.124,-0.123092,0.0856621,0.204587,251.6,6.0,52.1701,4.427219999999999,-2.2,0.32303,186.891,4.36057,86.5704,42.9422,219.49,1.15606,-0.1086569999999999,239.822,3.85719,3.65491,-12.4645843505859,22.0035419464111,-12.3193197250366,22.0,-566837.0,-215.351,pp-riro,4,0,-1,-1
1570537761.5,2019-10-08,14:29:21.500,15.0,10.0,16.3600006103516,-3.1,25.5,9.8,-4.2,-21.1,110.3,-2.08564,24.8487,9.14562,-8.60491,1.72383,6.01243,-1.9228,-15.9959,108.058,-0.307212,-0.1076849999999999,0.278217,251.6,6.0,52.1701,4.427219999999999,-2.2,0.325246,195.591,4.36056,89.1114,42.5622,218.39,1.14612,-0.0937603,239.68,3.87635,3.6669,-12.3690032958984,22.003026962280305,-12.2154092788696,22.0,-566743.0,369.174,pp-riro,4,0,-1,-1
1570537761.6,2019-10-08,14:29:21.600,15.0,10.0,16.4099998474121,-4.0,25.4,10.2,-5.6,-21.3,112.4,-3.29889,24.9454,9.57528,-8.81069,-1.03619,1.24059,-4.3914800000000005,-16.4749,111.162,-0.22313,0.00364923,0.39849,251.6,6.0,52.1701,4.427219999999999,-2.2,0.351842,197.93400000000003,4.360530000000001,91.7985,42.5623,217.19,1.13481,-0.0822879,239.604,3.89725,3.68545,-12.2939071655273,22.003026962280305,-12.1823081970215,22.0,-566725.0,369.174,pp-riro,4,0,-1,-1
1570537761.7,2019-10-08,14:29:21.700,15.0,10.0,16.520000457763697,-4.7,25.1,10.5,-7.0,-22.0,114.6,-3.68457,24.8808,9.7389,-7.885910000000001,-2.0646,4.26855,-5.136880000000001,-16.6461,112.162,-0.19555,-0.124117,0.1886509999999999,251.6,6.0,52.1701,4.427219999999999,-2.2,0.34741,196.299,4.360530000000001,94.3395,42.1823,215.99,1.12454,-0.0686068,239.439,3.91471,3.6961,-12.2102737426758,22.003026962280305,-12.2024726867676,22.0,-566672.0,1045.99,pp-riro,4,0,-1,-1
1570537761.8,2019-10-08,14:29:21.800,15.0,10.0,16.620000839233402,-5.3,24.9,10.6,-8.8,-22.6,116.8,-4.50181,24.6374,10.0296,-4.79881,-4.3514,5.9067,-6.72377,-17.2045,114.353,-0.2185349999999999,-0.2198909999999999,0.469261,251.6,6.0,52.1701,4.42721,-2.0,0.326355,189.206,4.36051,96.9097,41.0423,214.69,1.11502,-0.0487333,239.098,3.92694,3.69918,-12.148834228515598,22.003026962280305,-12.1597490310669,22.0,-566598.0,553.761,pp-riro,4,0,-1,-1
1570537761.9,2019-10-08,14:29:21.900,15.0,9.0,16.8299999237061,-5.9,24.6,10.6,-10.0,-22.5,118.9,-4.50181,24.6374,10.0296,-4.79881,-4.3514,5.9067,-6.72377,-17.2045,114.353,-0.2185349999999999,-0.2198909999999999,0.469261,251.6,6.0,52.1701,4.42721,-2.0,0.3258,187.031,4.3605,99.3923,40.6623,213.49,1.10474,-0.0364445999999999,238.978,3.94815,3.71049,-12.174430847168,22.003026962280305,-12.2549123764038,22.0,-566545.0,553.761,pp-riro,4,0,-1,-1
1570537762.0,2019-10-08,14:29:22.000,15.0,8.0,17.0900001525879,-6.6,24.4,10.8,-10.9,-22.3,120.5,-6.02956,24.0666,10.2432,-9.74891,-1.54834,2.22359,-10.2841,-18.3413,119.06,-0.0642056,-0.0776646,0.2276099999999999,251.6,6.0,52.1701,4.42721,-2.0,0.320814,187.64,4.36048,101.846,39.9024,212.39,1.09521,-0.0215063,238.903,3.96011,3.72087,-12.1590728759766,22.003026962280305,-12.2626085281372,22.0,-566492.0,430.703,pp-riro,4,0,-1,-1
1570537762.1,2019-10-08,14:29:22.100,15.0,8.0,17.3999996185303,-7.2,23.8,10.9,-11.9,-22.5,122.3,-6.68967,23.7347,10.3935,-9.44165,-4.81659,1.38694,-11.2803,-18.1955,120.782,0.0656419,-0.0293130999999999,0.2635699999999999,251.6,6.0,52.1701,4.42721,-2.0,0.328017,188.35,4.360469999999999,104.328,39.5224,211.09,1.0846,-0.0102025,238.758,3.97558,3.73432,-12.2171020507812,22.003026962280305,-12.4303112030029,22.0,-566454.0,430.703,pp-riro,4,0,-1,-1
1570537762.2,2019-10-08,14:29:22.200,15.0,8.0,17.6000003814697,-7.8,23.4,10.7,-12.2,-22.6,123.7,-7.20173,23.1228,10.4043,-3.83343,-3.6615,-0.0922069,-11.9708,-18.3809,122.481,0.0941039,-0.0152942,0.234229,252.3,7.4,52.1701,4.42721,-2.0,0.325246,188.828,4.36046,106.665,38.7624,209.99,1.07531,0.00336857,238.696,3.98369,3.74802,-12.2324600219727,22.003026962280305,35.0,22.0,-566398.0,522.996,pp-riro,4,0,-1,-1
1570537762.3,2019-10-08,14:29:22.300,15.0,8.0,17.7000007629395,-8.3,23.0,10.6,-12.6,-22.6,125.1,-7.8135,22.7465,10.253,-4.31337,-3.82536,-0.395983,-12.4968,-18.4926,123.85,-0.2469,0.0393908,0.206236,252.3,7.4,52.1701,4.42721,-2.0,0.328017,189.449,4.36039,109.001,37.6224,208.79,1.0662,0.0196424,238.517,3.990180000000001,3.75539,-12.4253311157227,22.003026962280305,35.0,22.0,-566350.0,461.467,pp-riro,4,0,-1,-1
1570537762.4,2019-10-08,14:29:22.400,15.0,7.0,17.8999996185303,-9.0,22.8,10.7,-12.7,-22.1,126.1,-8.081669999999999,22.6021,10.2729,-8.24837,-2.8677900000000003,3.76499,-12.6514,-18.3749,124.364,-0.0629964,-0.022906,0.143025,252.3,7.4,52.1701,4.42721,-2.0,0.641073,200.762,4.36033,111.309,36.8624,207.69,1.05684,0.03222,238.503,3.99734,3.76949,-12.454345703125,22.0035419464111,35.0,22.0,-567436.0,-13874.8,pp-riro,4,0,-1,-1
1570537762.5,2019-10-08,14:29:22.500,15.0,8.0,17.9500007629395,-9.5,22.5,10.6,-12.8,-22.0,127.4,-8.387939999999999,22.4631,10.3214,-11.4632,-0.261918,0.744887,-12.6669,-18.3598,124.934,-0.0358656,-0.0547951,0.148274,252.3,7.4,52.1701,4.42721,-2.0,0.8953969999999999,199.21400000000003,4.36024,113.616,36.1025,206.49,1.04721,0.0444178,238.433,4.00657,3.78009,-12.1317596435547,22.003026962280305,35.0,22.0,-568404.0,-19135.5,pp-riro,4,0,-1,-1
1570537762.6,2019-10-08,14:29:22.600,15.0,8.0,18.0,-9.6,22.1,10.3,-13.0,-22.3,128.8,-9.25551,22.0206,10.1625,-0.296251,-3.33428,-1.7163700000000002,-12.8664,-17.9704,126.975,-0.108546,-0.0643248,0.176529,252.3,7.4,52.1701,4.42721,-2.0,0.994578,174.917,4.36021,115.836,34.9625,205.391,1.03842,0.0590433,238.381,4.01234,3.77825,-11.4336929321289,22.003026962280305,35.0,22.0,-567955.0,15166.9,pp-riro,4,0,-1,-1
1570537762.7,2019-10-08,14:29:22.700,15.0,7.0,17.9899997711182,-9.7,22.1,10.2,-13.0,-21.4,130.1,-9.19096,21.7203,9.82616,1.84817,-8.28683,0.361083,-12.9695,-18.1747,128.351,0.2054079999999999,-0.104363,0.221575,252.3,7.4,52.1701,4.42721,-2.0,0.8017569999999999,170.295,4.36015,118.056,33.8225,204.291,1.02955,0.0731842,238.361,4.025869999999999,3.77077,-10.37548828125,22.0035419464111,35.0,22.0,-567391.0,-984.464,pp-riro,4,0,-1,-1
1570537762.8,2019-10-08,14:29:22.800,15.0,7.0,18.090000152587898,-10.2,21.9,11.0,-13.1,-20.7,131.3,-9.39755,21.5937,9.89776,-7.81187,5.31874,5.13432,-13.4967,-18.0295,129.757,-0.0909556,-0.0573291999999999,0.189988,252.3,7.4,52.1701,4.42721,-1.6,0.990145,211.348,4.3600900000000005,120.246,33.0625,203.191,1.02033,0.0839715,238.409,4.03951,3.77172,-8.95375061035156,22.003026962280305,35.0,22.0,-568100.0,-3968.62,pp-riro,4,0,-1,-1
1570537762.9,2019-10-08,14:29:22.900,15.0,8.0,18.1399993896484,-10.5,21.7,11.2,-13.7,-20.4,132.7,-9.97418,21.4981,10.5628,-7.34893,-3.34818,1.80082,-13.9285,-17.5783,131.489,-0.0781052,-0.0668783,0.0426635,252.3,7.4,52.1701,4.42721,-1.6,0.974077,225.844,4.36003,122.408,31.9225,202.091,1.0115,0.0972508999999999,238.418,4.05104,3.77049,-7.18040466308594,22.003026962280305,35.0,22.0,-567645.0,3845.56,pp-riro,4,0,-1,-1
1570537763.0,2019-10-08,14:29:23.000,15.0,9.0,18.2399997711182,-10.8,21.5,11.0,-13.9,-20.1,133.8,-9.97418,21.4981,10.5628,-7.34893,-3.34818,1.80082,-13.9285,-17.5783,131.489,-0.0781052,-0.0668783,0.0426635,252.3,7.4,52.1701,4.42721,-1.6,0.991253,215.072,4.35997,124.511,31.1625,200.891,1.00226,0.107176,238.393,4.06105,3.77694,-5.09984588623047,22.003026962280305,35.0,22.0,-567584.0,1538.22,pp-riro,4,0,-1,-1
1570537763.1,2019-10-08,14:29:23.100,15.0,9.0,18.3299999237061,-11.2,21.3,11.4,-14.2,-20.4,133.9,-9.97418,21.4981,10.5628,-7.34893,-3.34818,1.80082,-13.9285,-17.5783,131.489,-0.0781052,-0.0668783,0.0426635,252.3,7.4,52.1701,4.42721,-1.6,0.96909,225.606,4.35991,126.643,29.6425,199.791,0.993712,0.122553,238.397,4.04721,3.77499,-2.99198150634766,22.0035419464111,35.0,22.0,-567236.0,-892.17,pp-riro,4,0,-1,-1
1570537763.2,2019-10-08,14:29:23.200,15.0,8.0,18.3299999237061,-11.3,21.2,11.7,-14.3,-20.9,133.4,-10.9798,21.1339,10.7721,-3.91029,-2.38768,7.56955,-15.4976,-18.8652,134.29,-0.0972601999999999,-0.1600859999999999,-0.0489158,249.7,6.4,52.1701,4.42721,-1.6,1.02284,236.291,4.35985,128.746,28.8826,198.591,0.984358,0.131855,238.428,4.02818,3.76813,-0.8892288208007809,22.0035419464111,35.0,22.0,-567182.0,2184.28,pp-riro,4,0,-1,-1
1570537763.3,2019-10-08,14:29:23.300,15.0,6.0,18.3299999237061,-11.0,20.7,11.9,-14.5,-21.5,132.6,-10.9798,21.1339,10.7721,-3.91029,-2.38768,7.56955,-15.4976,-18.8652,134.29,-0.0972601999999999,-0.1600859999999999,-0.0489158,249.7,6.4,52.1701,4.42721,-1.6,1.01286,237.794,4.359780000000001,130.819,27.7426,197.391,0.975343,0.143642,238.425,4.00208,3.75139,1.21774291992188,22.003026962280305,35.0,22.0,-566985.0,3999.38,pp-riro,4,0,-1,-1
1570537763.4,2019-10-08,14:29:23.400,15.0,9.0,18.520000457763697,-10.8,20.9,12.3,-15.0,-22.3,131.2,-10.9908,21.0283,11.5719,-4.46347,3.20719,5.99161,-16.5251,-22.4166,133.207,-0.180044,-0.209835,-0.343711,249.7,6.4,52.1701,4.42721,-1.6,1.01342,229.907,4.3597,132.893,26.2226,196.091,0.966285,0.157871,238.327,3.96386,3.72586,3.31261444091797,22.003026962280305,35.0,22.0,-566719.0,2338.1,pp-riro,4,0,-1,-1
1570537763.5,2019-10-08,14:29:23.500,15.0,9.0,18.75,-10.1,20.8,13.0,-15.5,-23.2,130.0,-10.9908,21.0283,11.5719,-4.46347,3.20719,5.99161,-16.5251,-22.4166,133.207,-0.180044,-0.209835,-0.343711,249.7,6.4,52.1701,4.42721,-1.6,0.998456,226.21400000000003,4.35963,135.054,25.4626,194.791,0.956358,0.166415,238.393,3.93265,3.68779,5.41770172119141,22.003026962280305,35.0,22.0,-566489.0,4153.21,pp-riro,4,0,-1,-1
1570537763.6,2019-10-08,14:29:23.600,15.0,10.0,19.0300006866455,-9.3,20.7,13.3,-16.0,-24.5,128.3,-10.9195,21.1825,11.8299,2.27955,5.88143,2.52488,-16.955,-22.9084,132.63299999999998,-0.2178,-0.0433938,-0.223406,249.7,6.4,52.1701,4.42721,-1.6,0.974077,215.228,4.35955,137.128,24.3226,193.491,0.946926,0.177292,238.4,3.88952,3.64862,7.52618408203125,22.0035419464111,35.0,22.0,-566267.0,1692.05,pp-riro,4,0,-1,-1
1570537763.7,2019-10-08,14:29:23.700,15.0,9.0,18.9899997711182,-8.5,20.6,13.5,-16.0,-25.3,126.0,-9.4603,21.1293,12.8579,9.90225,0.863058,5.30366,-18.1488,-25.7973,129.954,-0.308598,-0.283917,-0.276644,249.7,6.4,52.1701,4.42721,-1.6,0.964657,206.911,4.3594800000000005,139.143,23.1826,192.191,0.937636,0.187819,238.402,3.84221,3.61034,9.63637542724609,22.003026962280305,35.0,22.0,-566027.0,2768.8,pp-riro,4,0,-1,-1
1570537763.8,2019-10-08,14:29:23.800,15.0,9.0,18.8500003814697,-7.7,20.5,14.1,-16.4,-27.0,123.1,-9.03206,21.1908,12.9628,11.8106,4.78766,0.1827369999999999,-18.2122,-26.7805,129.141,-0.12908,-0.171237,-0.1705799999999999,249.7,6.4,52.1701,4.42721,-1.2,0.951359,206.841,4.3594,141.217,22.4227,190.691,0.927402,0.19552,238.344,3.78252,3.57,11.7465744018555,22.003026962280305,35.0,22.0,-565732.0,1415.17,pp-riro,4,0,-1,-1
1570537763.9,2019-10-08,14:29:23.900,15.0,9.0,18.6100006103516,-6.4,20.3,14.6,-16.3,-28.9,119.7,-9.03206,21.1908,12.9628,11.8106,4.78766,0.1827369999999999,-18.2122,-26.7805,129.141,-0.12908,-0.171237,-0.1705799999999999,249.7,6.4,52.1701,4.42721,-1.2,0.958562,213.768,4.35933,143.262,21.6627,189.391,0.917743,0.202988,238.458,3.71546,3.51282,13.846549987793,22.003026962280305,35.0,22.0,-565689.0,861.4060000000001,pp-riro,4,0,-1,-1
1570537764.0,2019-10-08,14:29:24.000,15.0,10.0,18.3199996948242,-5.1,20.2,15.1,-15.3,-30.5,115.6,-7.427160000000001,21.3113,14.1187,12.5907,-5.00785,9.72645,-18.8362,-31.6869,124.015,-0.5145350000000001,-0.1033869999999999,-0.555337,249.7,6.4,52.1701,4.42721,-1.2,1.00898,234.935,4.35925,145.248,21.2827,187.891,0.907563,0.207644,238.438,3.64385,3.45671,15.9601440429688,22.0035419464111,35.0,22.0,-565639.0,769.112,pp-riro,4,0,-1,-1
1570537764.1,2019-10-08,14:29:24.100,15.0,10.0,18.1700000762939,-3.7,20.3,15.7,-13.9,-32.1,109.9,-5.96844,21.3002,14.7568,15.9045,1.57352,7.59186,-18.382,-34.0266,120.148,-0.35035,0.0300760999999999,-0.6945180000000001,249.7,6.4,52.1701,4.42721,-1.2,1.01563,233.826,4.35914,147.292,20.9028,186.391,0.897183,0.212276,238.481,3.55085,3.39561,18.0652313232422,22.0035419464111,35.0,22.0,-565504.0,2491.92,pp-riro,4,0,-1,-1
1570537764.2,2019-10-08,14:29:24.200,15.0,10.0,18.0300006866455,-1.9,20.2,16.2,-12.0,-34.1,104.0,-3.74957,21.6898,16.0484,16.4173,4.6847,7.4932,-16.7179,-37.5345,112.832,-0.3489239999999999,-0.238878,-0.978891,249.4,6.6,52.1701,4.42721,-1.2,0.992916,229.758,4.3591,149.30700000000002,20.5228,184.991,0.887158,0.216688,238.611,3.45497,3.321,20.180534362793,22.003026962280305,35.0,22.0,-565189.0,2768.8,pp-riro,4,0,-1,-1
1570537764.3,2019-10-08,14:29:24.300,15.0,12.0,18.0699996948242,-1.1,20.1,16.5,-8.7,-36.9,97.3,-1.81769,21.8022,16.6582,17.2528,1.34417,7.81945,-15.1645,-41.1044,107.326,-0.1101859999999999,-0.508423,-0.936819,249.4,6.6,52.1701,4.42721,-1.2,1.01231,247.797,4.35904,151.264,20.5229,183.391,0.8766219999999999,0.218502,238.609,3.35055,3.28781,22.295837402343803,22.003026962280305,35.0,22.0,-565129.0,0.0,pp-riro,4,0,-1,-1
1570537764.4,2019-10-08,14:29:24.400,15.0,12.0,18.020000457763697,1.9,19.5,17.4,-4.3,-38.7,88.8,-1.81769,21.8022,16.6582,17.2528,1.34417,7.81945,-15.1645,-41.1044,107.326,-0.1101859999999999,-0.508423,-0.936819,249.4,6.6,52.1701,4.42721,-1.2,1.08268,281.517,4.358969999999999,153.221,20.5229,181.791,0.866087,0.220238,238.633,3.22912,3.16853,24.3975143432617,22.0035419464111,23.0163822174072,22.0,-565089.0,707.5830000000001,pp-riro,4,0,-1,-1
1570537764.5,2019-10-08,14:29:24.500,15.0,12.0,18.0699996948242,2.9,19.2,17.4,-2.1,-39.6,84.7,2.58401,21.3097,18.21,12.7303,-7.040369999999999,0.470881,-6.93889,-47.035,91.5923,-0.154686,-0.4311859999999999,-1.33314,249.4,6.6,52.1701,4.42721,-1.2,1.09542,279.795,4.3589,154.156,20.523000000000003,181.091,0.861231,0.221138,238.703,3.1723,3.12852,26.5025939941406,22.004056930542003,23.018762588501,22.0,-564793.0,3907.09,pp-ro,1,1,-1,-1
1570537764.6,2019-10-08,14:29:24.600,15.0,12.0,18.1700000762939,6.5,17.7,17.2,5.7,-40.7,71.1,5.31219,20.8257,18.3623,25.748,-4.682259999999999,-1.99096,-1.33625,-49.472,81.2994,-0.366836,-0.316338,-1.1626299999999998,249.4,6.6,52.1701,4.42721,-1.2,1.07049,274.209,4.35883,156.96,20.9031,178.59099999999998,0.845412,0.221163,238.679,2.9923,2.97993,28.4049987792969,22.0035419464111,23.0163822174072,22.0,-564402.0,3384.09,pp-ro,1,1,-1,-1
1570537764.7,2019-10-08,14:29:24.700,15.0,12.0,18.3099994659424,7.6,17.0,16.9,8.3,-40.8,66.7,5.31219,20.8257,18.3623,25.748,-4.682259999999999,-1.99096,-1.33625,-49.472,81.2994,-0.366836,-0.316338,-1.1626299999999998,249.4,6.6,52.1701,4.42721,-1.2,1.07437,272.768,4.35876,157.836,21.2831,177.791,0.8403079999999999,0.219592,238.694,2.9363200000000003,2.93079,29.9463500976562,22.0035419464111,23.0163822174072,22.0,-564218.0,1784.34,pp-ro,1,1,-1,-1
1570537764.8,2019-10-08,14:29:24.800,15.0,11.0,18.5499992370605,9.6,16.0,16.4,13.7,-39.7,57.5,9.23903,19.1588,17.7919,20.248,-7.6122,-2.69198,8.62915,-50.4098,65.1847,-0.340627,0.329307,-1.31171,249.4,6.6,52.1701,4.42721,-0.8,1.07658,268.582,4.35869,159.501,22.0432,176.291,0.83065,0.216365,238.757,2.81516,2.84245,31.1385498046875,22.004056930542003,23.018762588501,22.0,-564056.0,2830.33,pp-ro,1,1,-1,-1
1570537764.9,2019-10-08,14:29:24.900,15.0,10.0,18.590000152587898,11.1,14.4,15.7,19.7,-37.6,47.6,10.4514,18.5114,17.5478,18.5323,-12.9461,1.49459,11.6151,-49.4468,59.8865,-0.34457,0.100101,-1.12414,249.4,6.6,52.1701,4.42721,-0.8,1.04666,257.04200000000003,4.358619999999999,161.136,22.8032,174.69099999999997,0.820795,0.213182,238.75,2.6781900000000003,2.75861,31.9833068847656,22.003026962280305,23.0139999389648,22.0,-563651.0,4368.56,pp-ro,1,1,-1,-1
1570537765.0,2019-10-08,14:29:25.000,15.0,10.0,18.590000152587898,12.3,12.8,14.3,24.6,-35.2,38.6,13.1097,16.1454,16.2035,15.6406,-21.0627,-6.24182,22.2702,-47.7441,43.0457,-0.21804,-0.231429,-1.39786,249.4,6.6,52.1701,4.42721,-0.8,1.03059,245.779,4.35856,162.53799999999998,24.3233,173.391,0.8121659999999999,0.205288,238.903,2.55185,2.67414,32.463592529296896,22.0035419464111,23.0163822174072,22.0,-563425.0,1999.69,pp-ro,1,1,-1,-1
1570537765.1,2019-10-08,14:29:25.100,15.0,11.0,18.5,13.5,11.4,13.2,28.7,-31.3,30.8,14.8216,14.4811,14.8015,16.3581,-20.3154,-11.6317,27.4202,-44.3026,33.3166,-0.664116,-0.03161,-1.3243,249.4,6.6,52.1701,4.42721,-0.8,1.0012299999999998,234.395,4.35849,163.82299999999998,25.0834,172.291,0.8047979999999999,0.201968,239.063,2.42174,2.5867,32.5947265625,22.0035419464111,22.080945968627898,22.0,-562946.0,2891.86,pp-ro,1,1,-1,-1
1570537765.2,2019-10-08,14:29:25.200,15.0,11.0,18.3999996185303,14.7,9.8,12.2,31.7,-27.1,23.6,17.1453,11.9749,13.0272,9.83607,-18.0902,-3.1126400000000003,33.1752,-37.3983,20.1101,-0.420718,-0.120505,-1.29201,247.7,5.8,52.1701,4.42721,-0.8,1.01065,245.556,4.35842,164.991,26.6034,171.19099999999997,0.797423,0.194103,239.241,2.29555,2.49389,32.4039916992188,22.0035419464111,20.4623069763184,22.0,-562843.0,430.703,pp-ro,1,1,-1,-1
1570537765.3,2019-10-08,14:29:25.300,15.0,12.0,18.2000007629395,15.8,8.2,11.2,34.1,-22.9,16.7,17.1453,11.9749,13.0272,9.83607,-18.0902,-3.1126400000000003,33.1752,-37.3983,20.1101,-0.420718,-0.120505,-1.29201,247.7,5.8,52.1701,4.42721,-0.8,1.03281,253.628,4.35834,165.984,28.1235,170.19099999999997,0.7908350000000001,0.186212,239.388,2.17005,2.39968,32.1519165039062,22.0035419464111,18.787618637085,22.0,-562827.0,307.645,pp-ro,1,1,-1,-1
1570537765.4,2019-10-08,14:29:25.400,15.0,13.0,18.0599994659424,16.6,6.6,10.0,36.7,-18.6,9.8,17.9361,10.9923,12.4536,14.7887,-13.0697,-11.955,34.3359,-35.2931,16.1491,-0.44985,0.0520597,-1.17181,247.7,5.8,52.1701,4.42721,-0.8,1.05165,257.91700000000003,4.35825,166.831,29.6436,169.291,0.784945,0.178286,239.522,2.04135,2.3054,31.126632690429695,22.004056930542003,17.0870494842529,22.0,-562635.0,2584.22,pp-ro,1,1,-1,-1
1570537765.5,2019-10-08,14:29:25.500,15.0,14.0,17.8600006103516,17.2,5.2,8.7,38.1,-14.6,4.0,19.572,8.2319,10.4312,9.71682,-11.4693,-12.0633,37.3522,-28.0515,5.745419999999999,-0.439251,-0.0151007,-1.40143,247.7,5.8,52.1701,4.42721,-0.8,1.03059,249.65,4.35816,167.56099999999998,31.5436,168.391,0.779161,0.168152,239.64,1.92992,2.21675,29.5427093505859,22.0035419464111,15.4792413711548,22.0,-562202.0,2276.57,pp-ro,1,1,-1,-1
1570537765.6,2019-10-08,14:29:25.600,15.0,13.0,17.659999847412102,17.5,3.9,7.4,39.6,-10.7,-1.7,19.9755,7.27503,9.71636,4.00967,-26.4959,-11.6842,37.8927,-25.8283,2.6241,-0.276156,-0.00471112,-1.18224,247.7,5.8,52.1701,4.42721,-0.8,1.03226,248.095,4.35809,168.174,33.0637,167.69099999999997,0.7744770000000001,0.160176,239.783,1.81857,2.13223,27.8838424682617,22.004056930542003,13.9315786361694,22.0,-562106.0,1907.4,pp-ro,1,1,-1,-1
1570537765.7,2019-10-08,14:29:25.700,15.0,13.0,17.6100006103516,17.8,2.7,6.2,40.1,-6.8,-6.8,20.876,3.95335,6.73336,7.50157,-17.9157,-17.9794,39.502,-16.3879,-9.27157,-0.189958,0.0643036999999999,-1.09609,247.7,5.8,52.1701,4.42721,-0.8,1.01508,239.881,4.3580000000000005,168.671,34.9638,166.991,0.769877,0.149992,239.913,1.7155200000000002,2.05163,25.870735168457,22.003026962280305,12.4446039199829,22.0,-561689.0,2553.45,pp-ro,1,1,-1,-1
1570537765.8,2019-10-08,14:29:25.800,15.0,12.0,17.5599994659424,17.7,1.6,5.0,40.8,-3.2,-11.5,20.8759,3.0552200000000003,6.00747,-3.14017,-20.4036,-17.2055,39.7183,-14.1111,-11.7894,-0.237673,-0.0622898,-1.19445,247.7,5.8,52.1701,4.42721,-0.7,1.0112,235.165,4.35792,169.197,37.2438,166.491,0.765514,0.137804,240.278,1.62212,1.97885,23.765647888183604,22.0035419464111,11.0930442810059,22.0,-561569.0,2122.75,pp-ro,1,1,-1,-1
1570537765.9,2019-10-08,14:29:25.900,15.0,13.0,17.6100006103516,17.4,0.7,3.7,41.3,0.1,-15.6,20.515,1.7197099999999998,4.55266,-5.14055,-20.74,-18.5393,40.0919,-9.64286,-16.3105,0.206351,-0.0163589,-0.906383,247.7,5.8,52.1701,4.42721,-0.7,0.995132,222.462,4.35784,169.313,38.3839,165.991,0.7629670000000001,0.131619,240.194,1.53543,1.9032,21.660568237304695,22.0035419464111,9.65304756164551,22.0,-561258.0,3660.97,pp-ro,1,1,-1,-1
1570537766.0,2019-10-08,14:29:26.000,15.0,12.0,17.4599990844727,16.9,-0.1,2.5,41.3,3.5,-19.3,19.6883,0.116565,2.51856,-8.53456,-8.35205,-5.14562,40.3208,-3.23246,-22.0642,-0.140473,0.101545,-0.847326,247.7,5.8,52.1701,4.42721,-0.7,0.965211,209.794,4.35775,169.518,40.2839,165.59099999999998,0.759957,0.121326,240.373,1.45516,1.83401,19.550369262695305,22.003026962280305,8.33514022827148,22.0,-560968.0,2553.45,pp-ro,1,1,-1,-1
1570537766.1,2019-10-08,14:29:26.100,15.0,12.0,17.4099998474121,16.6,-0.8,1.6,41.8,6.3,-22.1,19.3014,-0.417838,1.88848,-7.660439999999999,-8.001389999999999,-5.63901,40.222,-1.45284,-23.8526,0.350064,0.1451849999999999,-0.750339,247.7,5.8,52.1701,4.42721,-0.7,0.953022,203.54,4.35767,169.605,42.184,165.391,0.757825,0.110948,240.623,1.39345,1.77538,17.4367752075195,22.003026962280305,7.188453197479251,22.0,-560768.0,1845.87,pp-ro,1,1,-1,-1
1570537766.2,2019-10-08,14:29:26.200,15.0,12.0,17.25,16.3,-1.2,0.7,41.9,9.1,-25.0,19.3014,-0.417838,1.88848,-7.660439999999999,-8.001389999999999,-5.63901,40.222,-1.45284,-23.8526,0.350064,0.1451849999999999,-0.750339,247.0,5.0,52.1701,4.42721,-0.7,0.950251,201.984,4.3575800000000005,169.634,43.70399999999999,165.19099999999997,0.756076,0.1026509999999999,240.778,1.32926,1.72512,16.3859329223633,22.003026962280305,6.209768772125241,22.0,-560600.0,1753.58,pp-ro,1,1,-1,-1
1570537766.3,2019-10-08,14:29:26.300,15.0,12.0,17.2000007629395,16.1,-1.9,0.0,42.3,11.5,-27.5,18.1417,-1.76633,-0.147298,-8.30543,-6.817080000000001,-2.17085,40.4819,6.42332,-28.8527,-0.1145349999999999,0.1348619999999999,-0.710285,247.0,5.0,52.1701,4.42721,-0.7,0.948035,204.088,4.35746,169.605,45.6041,165.09099999999998,0.754478,0.0922559,241.041,1.27657,1.67062,14.2893600463867,22.003026962280305,5.125452041625981,22.0,-560442.0,1507.46,pp-ro,1,1,-1,-1
1570537766.4,2019-10-08,14:29:26.400,15.0,12.0,17.1000003814697,15.8,-2.6,-0.5,42.6,13.4,-30.2,17.7158,-2.54083,-0.901578,-2.16323,-8.61287,-4.56877,40.4702,9.19441,-31.4855,-0.172638,0.0968734,-0.61526,247.0,5.0,52.1701,4.42721,-0.7,0.960779,211.43400000000003,4.35734,169.488,47.1241,164.991,0.753358,0.0838616,241.182,1.22648,1.62208,11.67333984375,22.003026962280305,4.15275239944458,22.0,-560336.0,953.699,pp-ro,1,1,-1,-1
1570537766.5,2019-10-08,14:29:26.500,15.0,13.0,16.8899993896484,15.4,-2.8,-1.0,43.0,14.9,-32.2,17.301,-3.1507,-1.43471,-1.2408,-3.15403,0.341156,40.8526,11.5105,-33.5553,0.0210769,0.269656,-0.5122140000000001,247.0,5.0,52.1701,4.42721,-0.7,0.976293,216.758,4.35722,169.313,49.0241,164.991,0.752366,0.0733326,241.438,1.19136,1.59384,9.72834777832031,22.0035419464111,3.56581687927246,22.0,-560210.0,1384.4,pp-ro,1,1,-1,-1
1570537766.6,2019-10-08,14:29:26.600,15.0,12.0,16.6800003051758,15.1,-3.3,-1.4,43.4,16.2,-34.0,16.7181,-3.49062,-1.90866,-10.196,-4.69508,-6.2857400000000005,41.0839,13.9607,-35.1251,-0.0128338,0.163374,-0.424285,247.0,5.0,52.1701,4.42721,-0.7,0.969644,211.273,4.35709,169.05,50.5442,164.991,0.751866,0.0647658,241.567,1.15985,1.5560200000000002,7.88895416259766,22.0035419464111,2.77579617500305,22.0,-560005.0,2215.04,pp-ro,1,1,-1,-1
1570537766.7,2019-10-08,14:29:26.700,15.0,11.0,16.3600006103516,15.1,-3.7,-1.7,44.2,17.1,-35.6,16.3624,-3.98288,-2.20284,-5.66302,-4.16867,-0.993623,42.028,15.7798,-36.6828,0.113015,0.147107,-0.133713,247.0,5.0,52.1701,4.42721,-0.7,0.946927,199.171,4.35697,168.75799999999998,52.0642,165.09099999999998,0.75171,0.0561687,241.754,1.1357,1.5311,6.27437591552734,22.0035419464111,2.22453045845032,22.0,-559650.0,2338.1,pp-ro,1,1,-1,-1
1570537766.8,2019-10-08,14:29:26.800,15.0,11.0,16.2000007629395,14.8,-4.0,-1.9,45.0,17.6,-36.7,16.0336,-4.309,-2.47995,-5.15287,-1.24501,4.2052,42.7148,17.3221,-37.8657,0.21734,0.0991856,-0.269784,247.0,5.0,52.1701,4.42721,-0.6,0.941386,204.351,4.35685,168.407,53.5842,165.09099999999998,0.751371,0.0474876,241.842,1.1225,1.51034,4.85736083984375,22.0035419464111,1.76709973812103,22.0,-559496.0,1045.99,pp-ro,1,1,-1,-1
1570537766.9,2019-10-08,14:29:26.900,15.0,11.0,15.9200000762939,14.9,-4.3,-2.3,46.1,18.5,-37.5,15.7413,-4.6011,-2.68902,-5.16006,-0.927453,0.0363892,43.211000000000006,18.5947,-38.6879,0.0954439,0.0465386999999999,-0.270775,247.0,5.0,52.1701,4.42721,-0.6,0.95413,209.545,4.356730000000001,168.05700000000002,55.1043,165.291,0.751598,0.0388192,242.076,1.10809,1.48708,3.3807373046875,22.0035419464111,1.2264611721038798,22.0,-559492.0,61.529,pp-ro,1,1,-1,-1
1570537767.0,2019-10-08,14:29:27.000,15.0,11.0,15.7600002288818,14.8,-4.8,-2.2,47.1,18.4,-38.5,15.6735,-4.7960400000000005,-2.781,0.613915,-3.46931,0.4761729999999999,43.7685,18.8768,-39.1567,0.210228,0.0496163,-0.223214,247.0,5.0,52.1701,4.42721,-0.6,0.975739,216.941,4.3566,167.61900000000003,57.0043,165.391,0.751374,0.0279728,242.28,1.10484,1.4774200000000002,2.39461517333984,22.003026962280305,0.9695569276809692,22.0,-559377.0,1692.05,pp-ro,1,1,-1,-1
1570537767.1,2019-10-08,14:29:27.100,15.0,11.0,15.6499996185303,14.8,-5.3,-2.3,47.6,17.6,-40.0,15.6367,-5.00166,-2.81348,-3.14623,-5.05702,-2.06252,44.235,19.1102,-39.2608,0.3391409999999999,-0.0487672,0.0532018,247.0,5.0,52.1701,4.42721,-0.6,0.979064,222.483,4.35648,167.093,58.5243,165.59099999999998,0.75198,0.0190112,242.416,1.10257,1.45963,1.61457824707031,22.003026962280305,0.511115729808807,22.0,-559206.0,1476.7,pp-ro,1,1,-1,-1
1570537767.2,2019-10-08,14:29:27.200,15.0,10.0,15.6999998092651,14.7,-5.4,-2.3,48.7,17.5,-40.7,15.6367,-5.00166,-2.81348,-3.14623,-5.05702,-2.06252,44.235,19.1102,-39.2608,0.3391409999999999,-0.0487672,0.0532018,246.5,7.6,52.1701,4.42721,-0.6,1.0012299999999998,231.541,4.35636,166.567,60.0443,165.69099999999997,0.7522439999999999,0.0100498,242.49400000000003,1.1015700000000002,1.45987,1.32164001464844,22.003026962280305,0.433943927288055,22.0,-559050.0,1015.23,pp-ro,1,1,-1,-1
1570537767.3,2019-10-08,14:29:27.300,15.0,10.0,15.7600002288818,14.8,-5.7,-2.1,49.7,17.2,-41.6,15.4453,-5.81536,-2.73067,0.7263850000000001,1.0974,2.5491900000000003,46.0578,18.6108,-41.2969,0.317446,-0.12012,-0.0549433,246.5,7.6,52.1701,4.42721,-0.6,1.00621,230.374,4.35628,166.012,61.5644,165.891,0.752843,0.00098601,242.632,1.10053,1.466,0.8038787841796879,22.003026962280305,0.4501147866249079,22.0,-558943.0,1999.69,pp-ro,1,1,-1,-1
1570537767.4,2019-10-08,14:29:27.400,15.0,10.0,16.0900001525879,14.8,-5.9,-2.1,50.3,16.8,-42.0,15.4453,-5.81536,-2.73067,0.7263850000000001,1.0974,2.5491900000000003,46.0578,18.6108,-41.2969,0.317446,-0.12012,-0.0549433,246.5,7.6,52.1701,4.42721,-0.6,0.987929,224.498,4.35621,165.428,63.0844,165.991,0.7531770000000001,-0.00813525,242.691,1.10683,1.46475,0.497314453125,22.003026962280305,0.3347761929035189,22.0,-558670.0,2707.28,pp-ro,1,1,-1,-1
1570537767.5,2019-10-08,14:29:27.500,15.0,7.0,16.520000457763697,14.2,-6.1,-1.6,50.8,15.7,-42.9,15.5374,-6.25134,-2.42375,-3.1792,-2.46601,0.607241,47.6636,17.9667,-42.5033,0.138037,-0.213444,-0.00272924,246.5,7.6,52.1701,4.42721,-0.6,0.983496,221.747,4.35613,164.815,64.6044,166.19099999999997,0.753846,-0.0173176,242.811,1.11534,1.47356,0.458145141601562,22.003026962280305,0.3949528634548189,22.0,-558498.0,1568.99,pp-ro,1,1,-1,-1
1570537767.6,2019-10-08,14:29:27.600,15.0,7.0,17.0,13.7,-6.1,-1.5,50.4,15.0,-43.0,15.5374,-6.25134,-2.42375,-3.1792,-2.46601,0.607241,47.6636,17.9667,-42.5033,0.138037,-0.213444,-0.00272924,246.5,7.6,52.1701,4.42721,-0.6,0.978509,211.823,4.35606,164.201,66.1244,166.19099999999997,0.7538699999999999,-0.0265012,242.805,1.129,1.47344,0.37469482421875,22.003026962280305,0.3205880224704739,22.0,-558279.0,2430.39,pp-ro,1,1,-1,-1
1570537767.7,2019-10-08,14:29:27.700,15.0,8.0,17.2999992370605,13.1,-5.6,-1.5,50.8,14.8,-42.3,15.5374,-6.25134,-2.42375,-3.1792,-2.46601,0.607241,47.6636,17.9667,-42.5033,0.138037,-0.213444,-0.00272924,246.5,7.6,52.1701,4.42721,-0.6,0.925872,171.968,4.355980000000001,163.559,67.6444,166.291,0.754229,-0.0357485,242.858,1.14659,1.48617,0.298049926757812,22.0025119781494,0.477550327777863,22.0,-557852.0,5014.61,pp-ro,1,1,-1,-1
1570537767.8,2019-10-08,14:29:27.800,15.0,7.0,17.2999992370605,12.7,-5.2,-1.4,51.0,14.4,-41.7,14.8046,-6.54988,-1.91207,-8.03779,-1.05267,0.555747,48.4234,16.7595,-43.4496,0.149073,-0.0348466,0.028423,246.5,7.6,52.1701,4.4272,-0.4,0.841651,135.45600000000002,4.3559,163.004,68.7844,166.391,0.754734,-0.0428264,242.874,1.16376,1.5039,0.325302124023438,22.0019989013672,0.7385162115097049,22.0,-557456.0,3445.62,pp-ro,1,1,-1,-1
1570537767.9,2019-10-08,14:29:27.900,15.0,7.0,17.1499996185303,12.7,-5.3,-1.4,50.5,13.9,-41.3,14.8046,-6.54988,-1.91207,-8.03779,-1.05267,0.555747,48.4234,16.7595,-43.4496,0.149073,-0.0348466,0.028423,246.5,7.6,52.1701,4.4272,-0.4,0.814501,129.659,4.35583,162.507,69.9245,166.491,0.755062,-0.0497789,242.935,1.17962,1.50434,0.584182739257812,22.0019989013672,0.666610062122345,22.0,-557339.0,492.232,pp-ro,1,1,-1,-1
1570537768.0,2019-10-08,14:29:28.000,15.0,6.0,16.7399997711182,12.4,-5.4,-1.2,50.0,13.1,-41.4,13.5124,-5.56429,-1.71361,1.46628,4.96243,-0.501737,49.9115,16.3686,-42.7747,0.0396372,0.162868,-0.0418911,246.5,7.6,52.1701,4.4272,-0.4,0.8477459999999999,148.67600000000002,4.35575,161.923,71.4445,166.592,0.755159,-0.0588975,243.056,1.19454,1.50957,0.76470947265625,22.0025119781494,0.690012753009796,22.0,-557355.0,-153.822,pp-ro,1,1,-1,-1
1570537768.1,2019-10-08,14:29:28.100,15.0,5.0,16.2600002288818,12.3,-5.3,-1.1,49.5,12.3,-40.8,12.8992,-5.71089,-1.33163,-2.34166,-2.13051,1.25756,49.083,14.0043,-42.4898,0.0364153,-0.131685,0.115851,246.5,7.6,52.1701,4.4272,-0.4,0.8693549999999999,155.691,4.35568,161.368,72.5845,166.692,0.75558,-0.0659824,243.093,1.21662,1.52191,0.7527923583984379,22.0025119781494,0.844821572303772,22.0,-557307.0,984.464,pp-ro,1,1,-1,-1
1570537768.2,2019-10-08,14:29:28.200,15.0,9.0,16.0400009155273,12.4,-5.1,-1.0,49.3,11.3,-40.3,12.8992,-5.71089,-1.33163,-2.34166,-2.13051,1.25756,49.083,14.0043,-42.4898,0.0364153,-0.131685,0.115851,246.8,8.0,52.1701,4.4272,-0.4,0.8715719999999999,161.201,4.35559,160.755,73.7245,166.792,0.756125,-0.0731952999999999,243.098,1.24005,1.54382,0.7306442260742191,22.0019989013672,1.1774309873580902,22.0,-557213.0,707.5830000000001,pp-ro,1,1,-1,-1
1570537768.3,2019-10-08,14:29:28.300,15.0,9.0,15.8199996948242,12.6,-5.5,-0.8,49.0,11.1,-39.9,12.8992,-5.71089,-1.33163,-2.34166,-2.13051,1.25756,49.083,14.0043,-42.4898,0.0364153,-0.131685,0.115851,246.8,8.0,52.1701,4.4272,-0.4,0.8782209999999999,164.593,4.3554900000000005,160.2,75.2445,166.792,0.75574,-0.0822083,243.198,1.25377,1.54732,0.808990478515625,22.0025119781494,1.20429456233978,22.0,-557197.0,307.645,pp-ro,1,1,-1,-1
1570537768.4,2019-10-08,14:29:28.400,15.0,10.0,15.869999885559098,12.8,-5.7,-0.5,48.6,11.0,-40.1,12.8992,-5.71089,-1.33163,-2.34166,-2.13051,1.25756,49.083,14.0043,-42.4898,0.0364153,-0.131685,0.115851,246.8,8.0,52.1701,4.4272,-0.4,0.8915190000000001,169.023,4.35539,159.586,76.3845,166.792,0.755926,-0.0894133999999999,243.15,1.25766,1.56367,1.10193634033203,22.0025119781494,1.45372271537781,22.0,-557133.0,892.17,pp-ro,1,1,-1,-1
1570537768.5,2019-10-08,14:29:28.500,15.0,11.0,15.7600002288818,13.0,-5.7,-0.5,48.1,9.9,-40.7,13.4315,-6.242319999999999,-0.6615989999999999,0.104551,-1.85185,2.60012,47.5422,12.3228,-41.5093,-0.0856268,-0.217454,-0.0333328,246.8,8.0,52.1701,4.4272,-0.4,0.889302,168.84400000000002,4.35529,158.944,77.5246,166.792,0.756159,-0.0966963,243.09,1.26905,1.57301,1.35059356689453,22.0019989013672,1.55678164958954,22.0,-556918.0,1538.22,pp-ro,1,1,-1,-1
1570537768.6,2019-10-08,14:29:28.600,15.0,10.0,15.5900001525879,13.2,-5.9,-0.3,48.0,9.4,-41.0,13.5607,-6.31567,-0.568344,4.14677,-0.354917,0.173898,46.9464,11.296,-42.3295,-0.142688,-0.0790006,0.0520422,246.8,8.0,52.1701,4.4272,-0.4,0.893181,174.204,4.35519,158.33,79.4246,166.792,0.7553340000000001,-0.1077549999999999,243.303,1.27942,1.58629,1.45619201660156,22.0025119781494,1.80349123477936,22.0,-556843.0,492.232,pp-ro,1,1,-1,-1
1570537768.7,2019-10-08,14:29:28.700,15.0,12.0,15.4799995422363,13.2,-6.1,0.0,47.5,8.6,-41.5,13.7996,-6.4601,-0.407763,2.50197,-3.93545,2.9940900000000004,46.8046,10.6725,-42.3924,-0.075112,-0.171644,-0.00451321,246.8,8.0,52.1701,4.4272,-0.4,0.9026,175.812,4.35508,157.629,80.5646,166.692,0.755346,-0.115186,243.154,1.2884799999999998,1.59795,1.55155944824219,22.0025119781494,1.9717618227005,22.0,-556815.0,522.996,pp-ro,1,1,-1,-1
1570537768.8,2019-10-08,14:29:28.800,15.0,10.0,15.3100004196167,13.2,-6.0,0.0,47.6,8.0,-42.1,13.7996,-6.4601,-0.407763,2.50197,-3.93545,2.9940900000000004,46.8046,10.6725,-42.3924,-0.075112,-0.171644,-0.00451321,246.8,8.0,52.1701,4.4272,-0.1,0.904262,168.7,4.35498,156.987,82.0846,166.692,0.754987,-0.124376,243.246,1.29511,1.60861,1.74060821533203,22.0025119781494,2.14110517501831,22.0,-556659.0,2122.75,pp-ro,1,1,-1,-1
1570537768.9,2019-10-08,14:29:28.900,15.0,10.0,15.0799999237061,13.1,-5.7,0.2,48.1,7.8,-42.6,13.7239,-6.741510000000001,-0.0281903,2.60068,3.06216,1.14753,46.8042,9.54698,-43.0602,0.0732406,-0.195536,-0.029787,246.8,8.0,52.1701,4.4272,-0.1,0.867693,155.145,4.3548800000000005,156.373,83.2246,166.592,0.754718,-0.131583,243.17,1.29661,1.63495,1.95520782470703,22.0019989013672,2.6333808898925803,22.0,-556392.0,2430.39,pp-ro,1,1,-1,-1
1570537769.0,2019-10-08,14:29:29.000,15.0,9.0,15.0200004577637,13.1,-5.7,0.3,47.7,7.6,-43.0,13.7213,-6.32843,0.189871,-2.6002400000000003,-2.63338,-0.862484,46.6117,9.17854,-44.1698,0.00834794,-0.0235247,-0.0690421,246.8,8.0,52.1701,4.4272,-0.1,0.859382,152.118,4.35478,155.731,84.3646,166.49200000000002,0.754494,-0.138869,243.082,1.2994,1.64511,2.21578979492188,22.0019989013672,2.79743504524231,22.0,-556314.0,461.467,pp-ro,1,1,-1,-1
1570537769.1,2019-10-08,14:29:29.100,15.0,10.0,14.960000038147,13.0,-5.9,0.4,47.9,7.3,-43.4,13.7213,-6.32843,0.189871,-2.6002400000000003,-2.63338,-0.862484,46.6117,9.17854,-44.1698,0.00834794,-0.0235247,-0.0690421,246.8,8.0,52.1701,4.4272,-0.1,0.8521790000000001,138.747,4.35468,155.11700000000002,85.8846,166.392,0.753653,-0.147954,243.154,1.30475,1.64575,2.58026123046875,22.0019989013672,2.82444643974304,22.0,-556107.0,2307.34,pp-ro,1,1,-1,-1
1570537769.2,2019-10-08,14:29:29.200,15.0,10.0,14.8999996185303,12.8,-5.6,0.5,48.0,6.6,-43.7,13.5665,-6.49799,0.490986,-3.35105,2.44981,0.931061,46.9181,8.74155,-44.9014,-0.0554303,-0.131642,0.0769408999999999,246.8,7.0,52.1701,4.4272,-0.1,0.816717,127.196,4.35458,154.504,87.0247,166.392,0.753596,-0.1551529999999999,243.169,1.31492,1.6657799999999998,2.7267303466796897,22.0019989013672,3.17121529579163,22.0,-555899.0,1722.81,pp-ro,1,1,-1,-1
1570537769.3,2019-10-08,14:29:29.300,15.0,12.0,14.8999996185303,12.9,-5.4,0.6,48.1,6.0,-43.9,13.5665,-6.49799,0.490986,-3.35105,2.44981,0.931061,46.9181,8.74155,-44.9014,-0.0554303,-0.131642,0.0769408999999999,246.8,7.0,52.1701,4.4272,-0.1,0.810068,126.988,4.35452,153.94899999999998,88.1647,166.292,0.75307,-0.162227,243.159,1.32501,1.68681,2.8323211669921897,22.0025119781494,3.59417223930359,22.0,-555872.0,492.232,pp-ro,1,1,-1,-1
1570537769.4,2019-10-08,14:29:29.400,15.0,8.0,14.7200002670288,12.9,-5.3,0.7,48.7,5.9,-43.7,13.2925,-5.951230000000001,0.6955399999999999,3.66987,2.51191,-0.266268,48.2237,7.002210000000001,-45.4349,-0.00297908,-0.0530423999999999,-0.0882482,246.8,7.0,52.1701,4.4272,-0.1,0.8283530000000001,133.434,4.35446,153.657,89.3047,166.292,0.7521800000000001,-0.168551,243.39,1.33328,1.7009999999999998,2.97879791259766,22.0019989013672,3.93333530426025,22.0,-555879.0,92.2935,pp-ro,1,1,-1,-1
1570537769.5,2019-10-08,14:29:29.500,15.0,6.0,14.6000003814697,12.9,-5.4,0.9,48.8,6.1,-43.5,13.2925,-5.951230000000001,0.6955399999999999,3.66987,2.51191,-0.266268,48.2237,7.002210000000001,-45.4349,-0.00297908,-0.0530423999999999,-0.0882482,246.8,7.0,52.1701,4.4272,-0.1,0.835556,136.611,4.3544,153.102,90.4447,166.192,0.751606,-0.175602,243.393,1.33824,1.7115599999999995,3.4216079711914102,22.0025119781494,4.16102123260498,22.0,-555793.0,1076.76,pp-ro,1,1,-1,-1
1570537769.6,2019-10-08,14:29:29.600,15.0,7.0,14.539999961853,12.9,-5.5,0.9,49.2,6.3,-43.4,13.4253,-5.95696,0.87311,0.8869440000000001,-3.22377,2.29798,48.477,7.334960000000001,-45.2102,-0.0765343999999999,0.108455,0.00537004,246.8,7.0,52.1701,4.4272,-0.1,0.833894,137.58700000000002,4.3543400000000005,152.518,91.5847,166.092,0.751078,-0.18273,243.384,1.34201,1.71182,3.91211700439453,22.0019989013672,4.18079662322998,22.0,-555715.0,646.054,pp-ro,1,1,-1,-1
1570537769.7,2019-10-08,14:29:29.700,15.0,10.0,14.4799995422363,12.8,-5.6,0.9,49.3,6.1,-43.4,13.4253,-5.95696,0.87311,0.8869440000000001,-3.22377,2.29798,48.477,7.334960000000001,-45.2102,-0.0765343999999999,0.108455,0.00537004,246.8,7.0,52.1701,4.4272,-0.1,0.843867,141.88299999999998,4.35428,151.933,93.1047,165.99200000000002,0.7499680000000001,-0.191671,243.527,1.35086,1.71167,4.153968811035161,22.0019989013672,-35.0,22.0,-555624.0,861.4060000000001,pp-ro,1,1,-1,-1
1570537769.8,2019-10-08,14:29:29.800,15.0,10.0,14.4200000762939,12.9,-5.6,1.1,49.6,5.9,-43.4,13.39,-6.051159999999999,0.925689,-2.17636,-1.3207799999999998,0.746911,48.5647,7.52853,-45.1461,-0.000231655,0.0218648,-0.0512115999999999,246.8,7.0,52.1701,4.4272,0.2,0.8449760000000001,143.67700000000002,4.35422,151.349,94.2447,165.892,0.749382,-0.1988049999999999,243.534,1.35839,1.7285,4.17610168457031,22.0025119781494,-35.0,22.0,-555581.0,861.4060000000001,pp-ro,1,1,-1,-1
1570537769.9,2019-10-08,14:29:29.900,15.0,10.0,14.539999961853,12.9,-5.7,1.1,49.9,5.9,-43.4,13.17,-6.13373,0.970549,-0.748149,-0.38522,-2.92798,48.9232,7.066319999999999,-45.553,0.194732,-0.108332,0.0978202,246.8,7.0,52.1701,4.4272,0.2,0.8499620000000001,145.89600000000002,4.35416,150.736,95.3847,165.792,0.748839,-0.2059869999999999,243.529,1.36344,1.72881,3.92404174804688,22.0025119781494,-35.0,22.0,-555514.0,646.054,pp-ro,1,1,-1,-1
1570537770.0,2019-10-08,14:29:30.000,15.0,11.0,14.539999961853,13.0,-5.9,1.2,50.1,5.8,-43.8,13.3678,-6.37265,1.19955,1.40209,-1.23464,0.0244891,49.5751,7.18213,-45.4468,0.07032,0.0724727,-0.0722114,246.8,7.0,52.1701,4.4272,0.2,0.851625,144.939,4.3541,149.80100000000002,97.6648,165.592,0.746993,-0.219467,243.72,1.36937,1.73555,3.31431579589844,22.0019989013672,-35.0,22.0,-555424.0,984.464,pp-ro,1,1,-1,-1
1570537770.1,2019-10-08,14:29:30.100,15.0,12.0,14.4799995422363,13.0,-5.9,1.3,50.3,5.7,-44.0,13.4075,-6.42552,1.24406,2.99567,-0.850894,-0.959699,49.7254,7.341489999999999,-45.4632,0.0126738999999999,-0.00854041,-0.0791077,246.8,7.0,52.1701,4.4272,0.2,0.8505159999999999,149.52700000000002,4.35404,149.509,98.0448,165.592,0.747095,-0.22208,243.694,1.37006,1.74245,2.33330535888672,22.0019989013672,-35.0,22.0,-555287.0,584.525,pp-ro,1,1,-1,-1
1570537770.2,2019-10-08,14:29:30.200,15.0,11.0,14.359999656677198,13.0,-6.0,1.5,50.3,5.0,-44.5,13.4075,-6.42552,1.24406,2.99567,-0.850894,-0.959699,49.7254,7.341489999999999,-45.4632,0.0126738999999999,-0.00854041,-0.0791077,251.3,6.5,52.1701,4.4272,0.2,0.857165,154.678,4.35397,148.89600000000002,99.9448,165.392,0.744991,-0.232786,243.954,1.38046,1.75521,0.998046875,22.0025119781494,-35.0,22.0,-555282.0,92.2935,pp-ro,1,1,-1,-1
1570537770.3,2019-10-08,14:29:30.300,15.0,11.0,14.359999656677198,13.3,-6.2,1.5,50.5,4.2,-45.0,13.4241,-6.5479,1.47722,-1.18309,1.14569,1.80414,49.8965,6.99235,-45.7805,0.127632,-0.0595451,0.134224,251.3,6.5,52.1701,4.4272,0.2,0.881545,163.67700000000002,4.35391,148.224,101.085,165.292,0.7444609999999999,-0.240044,243.947,1.38972,1.7557900000000002,-0.6895370483398441,22.0025119781494,-35.0,22.0,-555275.0,246.116,pp-ro,1,1,-1,-1
1570537770.4,2019-10-08,14:29:30.400,15.0,11.0,14.4200000762939,13.4,-6.2,1.9,50.9,3.9,-45.0,13.6788,-6.64618,1.61771,3.2892900000000003,4.6846,5.68939,50.1947,6.75621,-45.793,0.0626920999999999,0.0737733999999999,0.124792,251.3,6.5,52.1701,4.4272,0.2,0.883761,162.313,4.35385,147.611,102.225,165.092,0.743468,-0.247153,243.914,1.39856,1.7815900000000002,-2.7240142822265603,22.0019989013672,-35.0,22.0,-555071.0,1538.22,pp-ro,1,1,-1,-1
1570537770.5,2019-10-08,14:29:30.500,15.0,11.0,14.6000003814697,13.7,-6.2,2.1,51.1,3.1,-45.0,13.6788,-6.64618,1.61771,3.2892900000000003,4.6846,5.68939,50.1947,6.75621,-45.793,0.0626920999999999,0.0737733999999999,0.124792,251.3,6.5,52.1701,4.4272,0.2,0.8771120000000001,159.537,4.35375,146.968,103.745,164.892,0.7419100000000001,-0.256036,244.033,1.41506,1.8012,-4.833587646484379,22.0019989013672,-35.0,22.0,-554993.0,1538.22,pp-ro,1,1,-1,-1
1570537770.6,2019-10-08,14:29:30.600,15.0,9.0,14.6599998474121,14.1,-6.2,2.5,51.5,2.2,-45.0,13.9992,-6.617260000000001,2.17553,4.11568,1.90827,1.5325,50.3918,6.7643,-44.8195,0.1220509999999999,-0.0578818999999999,0.0844053999999999,251.3,6.5,52.1701,4.4272,0.2,0.869909,160.718,4.35372,146.355,104.885,164.692,0.7408600000000001,-0.263148,244.017,1.43157,1.82939,-6.93975067138672,22.0019989013672,-35.0,22.0,-554893.0,738.3480000000001,pp-ro,1,1,-1,-1
1570537770.7,2019-10-08,14:29:30.700,15.0,9.0,14.8400001525879,14.3,-6.1,2.9,51.9,0.6,-45.1,13.9992,-6.617260000000001,2.17553,4.11568,1.90827,1.5325,50.3918,6.7643,-44.8195,0.1220509999999999,-0.0578818999999999,0.0844053999999999,251.3,6.5,52.1701,4.4272,0.2,0.890965,171.49900000000002,4.35366,145.683,106.405,164.49200000000002,0.739297,-0.272105,244.138,1.45727,1.86001,-9.05615234375,22.0025119781494,-35.0,22.0,-554884.0,30.7645,pp-ro,1,1,-1,-1
1570537770.8,2019-10-08,14:29:30.800,15.0,9.0,15.359999656677198,14.6,-6.2,3.4,52.4,-1.3,-44.8,14.124,-6.5639,2.3636,3.75936,0.746119,2.51556,50.5941,6.49872,-44.5794,0.00265981,-0.0396291,0.161822,251.3,6.5,52.1701,4.4272,0.4,0.903708,173.51,4.3536,145.069,107.925,164.192,0.737264,-0.280833,244.238,1.49163,1.8863,-11.1691436767578,22.0019989013672,-35.0,22.0,-554736.0,1322.87,pp-ro,1,1,-1,-1
1570537770.9,2019-10-08,14:29:30.900,15.0,9.0,15.7600002288818,14.8,-5.8,3.8,53.0,-3.0,-43.8,14.124,-6.5639,2.3636,3.75936,0.746119,2.51556,50.5941,6.49872,-44.5794,0.00265981,-0.0396291,0.161822,251.3,6.5,52.1701,4.4272,0.4,0.890965,167.53099999999998,4.35354,144.45600000000002,109.445,163.792,0.7348899999999999,-0.289522,244.282,1.53177,1.92813,-13.275299072265598,22.0025119781494,-35.0,22.0,-554557.0,1845.87,pp-ro,1,1,-1,-1
1570537771.0,2019-10-08,14:29:31.000,15.0,9.0,16.3099994659424,15.2,-5.4,4.5,53.8,-5.2,-42.6,14.5535,-6.42017,3.31385,0.39979,2.32348,3.64219,51.4644,4.1042,-43.1841,-0.118658,0.0791015,0.417813,251.3,6.5,52.1701,4.4272,0.4,0.885978,167.665,4.35348,143.872,110.965,163.49200000000002,0.7327199999999999,-0.29807,244.422,1.58068,1.98243,-15.384880065918,22.0025119781494,-35.0,22.0,-554434.0,1045.99,pp-ro,1,1,-1,-1
1570537771.1,2019-10-08,14:29:31.100,15.0,9.0,16.629999160766598,15.7,-5.0,5.3,54.7,-7.7,-41.3,15.0437,-5.3982,4.74395,4.0875,5.86231,8.56358,53.0822,-0.165132,-39.2468,0.187867,0.0606149,0.416955,251.3,6.5,52.1701,4.4272,0.4,0.888748,169.637,4.35342,143.346,112.485,162.99200000000002,0.7297819999999999,-0.306377,244.474,1.63461,2.03809,-17.491043090820302,22.0025119781494,-35.0,22.0,-554394.0,799.877,pp-ro,1,1,-1,-1
1570537771.2,2019-10-08,14:29:31.200,15.0,8.0,16.9400005340576,16.0,-4.5,6.3,55.6,-10.5,-39.9,15.4728,-4.96587,5.5963400000000005,2.04695,5.57568,5.64255,53.6275,-2.08664,-37.1748,0.14712,0.109956,0.534355,254.8,6.4,52.1701,4.4272,0.4,0.8976129999999999,175.49,4.35336,142.82,113.625,162.49200000000002,0.727454,-0.313009,244.361,1.69246,2.10128,-19.6108551025391,22.0025119781494,-35.0,22.0,-554311.0,707.5830000000001,pp-ro,1,1,-1,-1
1570537771.3,2019-10-08,14:29:31.300,15.0,9.0,17.25,16.4,-3.8,7.2,56.8,-14.0,-38.3,15.5689,-4.63663,6.03146,0.955232,5.7773900000000005,8.15355,54.1549,-3.33071,-35.9002,0.196894,0.101714,0.652622,254.8,6.4,52.1701,4.4272,0.4,0.913682,183.084,4.35336,142.411,115.525,161.892,0.723254,-0.3225099999999999,244.614,1.76394,2.1676900000000003,-21.7221374511719,22.003026962280305,-35.0,22.0,-554244.0,676.819,pp-ro,1,1,-1,-1
