time,date,time_of_day,airspeed_temperature,airspeed_angle_of_attack,airspeed_apparent_windspeed,kite_0_vx,kite_0_vy,kite_0_vz,kite_0_roll,kite_0_pitch,kite_0_yaw,kite_1_vx,kite_1_vy,kite_1_vz,kite_1_ax,kite_1_ay,kite_1_az,kite_1_roll,kite_1_pitch,kite_1_yaw,kite_1_roll_rate,kite_1_pitch_rate,kite_1_yaw_rate,ground_upwind_direction,ground_wind_velocity,ground_pos_latitude,ground_pos_longitude,ground_pos_altitude,ground_tether_reelout_speed,ground_tether_force,est_upwind_direction,kite_pos_east,kite_pos_north,kite_height,kite_elevation,kite_azimuth,kite_distance,kite_heading,kite_course,kite_actual_steering,kite_actual_depower,kite_set_steering,kite_set_depower,ground_mech_energy,ground_mech_power,flight_phase,flight_phase_index,phase,pattern,pattern_section
1570535022.0,2019-10-08,13:43:42.000,14.0,8.0,15.2399997711182,12.3,-1.7,2.5,19.7,-3.8,-56.5,11.3934,-0.917261,3.15468,8.97635,10.5407,3.28327,23.0705,10.4545,-55.6932,0.1597849999999999,0.101202,0.937248,261.3,3.8,52.1701,4.42716,-2.6,-2.41081,106.598,4.53372,55.3192,1.14035,237.313,1.34173,0.158056,243.678,0.626742,1.50273,-34.4546813964844,22.0267143249512,-35.0,22.0,-1162120.0,-461.467,pp-riro,4,0,-1,-1
1570535022.1,2019-10-08,13:43:42.100,14.0,8.0,14.9499998092651,13.1,-0.7,2.9,21.2,-5.4,-51.6,12.2278,0.116269,3.50464,6.32983,12.4249,3.5182,24.96,9.13217,-49.8765,0.0873958,0.212228,0.987136,261.3,3.8,52.1701,4.42716,-2.6,-2.39253,104.019,4.53378,55.1439,2.6604,237.113,1.34204,0.130403,243.455,0.746286,1.61585,-34.884796142578104,22.007661819458,-35.0,22.0,-1162210.0,-1845.87,pp-riro,4,0,-1,-1
1570535022.2,2019-10-08,13:43:42.200,14.0,8.0,14.710000038147,13.9,0.3,3.2,22.9,-6.9,-46.4,12.2278,0.116269,3.50464,6.32983,12.4249,3.5182,24.96,9.13217,-49.8765,0.0873958,0.212228,0.987136,261.3,3.8,52.1701,4.42716,-2.6,-2.38754,97.3518,4.5338400000000005,55.1147,4.18046,236.913,1.34159,0.102876,243.275,0.8711139999999999,1.7173200000000002,-34.970123291015604,22.0009689331055,-35.0,22.0,-1163090.0,-7168.13,pp-riro,4,0,-1,-1
1570535022.3,2019-10-08,13:43:42.300,14.0,8.0,14.5299997329712,14.6,1.4,3.5,24.5,-8.1,-41.3,12.93,1.22031,3.83518,9.41169,11.5806,4.77731,26.8873,7.582510000000001,-44.0642,0.16612,0.134551,0.963792,261.3,3.8,52.1701,4.42716,-2.6,-2.40139,96.132,4.533919999999999,55.1439,5.70052,236.713,1.34074,0.0754608,243.118,0.992963,1.81715,-34.973541259765604,22.0009689331055,-35.0,22.0,-1163870.0,-8183.35,pp-riro,4,0,-1,-1
1570535022.4,2019-10-08,13:43:42.400,14.0,8.0,14.4700002670288,15.1,2.5,3.9,25.7,-9.6,-36.0,13.4906,2.29191,4.18857,5.92092,13.7152,1.65261,28.3944,6.003830000000001,-38.5113,0.185584,0.211682,1.00873,261.3,3.8,52.1701,4.42716,-2.6,-2.42411,96.9521,4.53395,55.3191,6.840560000000001,236.413,1.33925,0.0554049999999999,242.895,1.11191,1.906,-34.973541259765604,22.0009689331055,-35.0,22.0,-1164710.0,-8367.94,pp-riro,4,0,-1,-1
1570535022.5,2019-10-08,13:43:42.500,14.0,8.0,14.4099998474121,15.6,3.6,4.3,26.9,-12.1,-30.6,14.2148,3.86031,4.77639,4.444780000000001,11.4916,1.2102700000000002,30.3445,3.20756,-29.9052,0.101787,0.0981098,1.0365,261.3,3.8,52.1701,4.42716,-2.6,-2.43852,97.7013,4.534009999999999,55.582,8.360619999999999,236.113,1.33709,0.0290788,242.711,1.24271,1.99451,-34.9957275390625,22.0009689331055,-35.0,22.0,-1165120.0,-7445.01,pp-riro,4,0,-1,-1
1570535022.6,2019-10-08,13:43:42.600,14.0,8.0,14.3400001525879,16.1,4.8,4.8,27.7,-14.2,-25.3,14.2148,3.86031,4.77639,4.444780000000001,11.4916,1.2102700000000002,30.3445,3.20756,-29.9052,0.101787,0.0981098,1.0365,261.3,3.8,52.1701,4.42716,-2.5,-2.45126,98.4675,4.53409,55.9617,9.88068,235.813,1.3343200000000002,0.00359003,242.563,1.36931,2.0828,-34.9974365234375,22.0009689331055,-35.0,22.0,-1165640.0,-5383.79,pp-riro,4,0,-1,-1
1570535022.7,2019-10-08,13:43:42.700,14.0,9.0,14.3400001525879,16.3,6.1,5.1,28.4,-16.2,-19.8,14.9036,6.07889,5.578069999999999,1.45539,14.7421,5.12784,31.9695,-1.33218,-18.1242,0.0981274999999999,0.158616,1.08921,261.3,3.8,52.1701,4.42716,-2.5,-2.46234,97.4025,4.53413,56.4582,11.4007,235.413,1.33084,-0.0209851,242.357,1.49757,2.17306,-34.9974365234375,21.998908996582,-35.0,22.0,-1166280.0,-7598.83,pp-riro,4,0,-1,-1
1570535022.8,2019-10-08,13:43:42.800,14.0,9.0,14.3400001525879,16.4,7.4,5.5,28.8,-18.1,-14.0,15.0074,7.31177,5.91536,-0.359689,10.4671,5.92831,32.3741,-3.4768,-12.2527,0.158072,0.238076,1.0445,261.3,3.8,52.1701,4.42716,-2.5,-2.47786,94.6992,4.53418,57.1007,13.3008,235.013,1.32631,-0.0506205999999999,242.216,1.6348,2.26647,-34.9974365234375,21.9983940124512,-35.0,22.0,-1167100.0,-8183.35,pp-riro,4,0,-1,-1
1570535022.9,2019-10-08,13:43:42.900,14.0,9.0,14.4700002670288,16.5,8.7,5.9,29.0,-20.1,-8.6,15.1088,8.49253,6.30923,0.332474,10.0153,3.31686,32.4852,-5.53948,-6.43665,0.0910265,0.261042,1.02855,261.3,3.8,52.1701,4.42716,-2.5,-2.53105,93.7684,4.53425,57.8309,14.8209,234.513,1.32152,-0.0727366,241.993,1.75734,2.34776,-34.9991455078125,21.9983940124512,-35.0,22.0,-1168510.0,-10398.4,pp-riro,4,0,-1,-1
1570535023.0,2019-10-08,13:43:43.000,14.0,9.0,14.460000038147,16.4,10.1,6.4,29.2,-22.2,-2.7,15.0707,9.72187,6.71683,-2.51018,12.0643,5.33361,32.3616,-7.59782,-0.307263,0.0729753,0.2579599999999999,1.04676,269.2,3.2,52.1701,4.42716,-2.5,-2.56263,99.1713,4.5343,58.7655,16.721,234.013,1.31541,-0.0990916999999999,241.858,1.89182,2.43881,-34.9991455078125,21.997879028320305,-35.0,22.0,-1169370.0,-9106.29,pp-riro,4,0,-1,-1
1570535023.1,2019-10-08,13:43:43.100,14.0,9.0,14.5299997329712,16.3,10.7,6.7,28.9,-23.8,2.9,15.0707,9.72187,6.71683,-2.51018,12.0643,5.33361,32.3616,-7.59782,-0.307263,0.0729753,0.2579599999999999,1.04676,269.2,3.2,52.1701,4.42716,-2.5,-2.56152,102.073,4.53437,59.7877,18.241,233.413,1.30913,-0.1181099999999999,241.638,2.01045,2.48606,-34.9974365234375,21.997879028320305,-35.0,22.0,-1169730.0,-6614.37,pp-riro,4,0,-1,-1
1570535023.2,2019-10-08,13:43:43.200,14.0,9.0,14.6499996185303,16.0,12.8,7.4,28.7,-25.3,8.8,14.8396,11.5782,7.43337,-2.91198,10.9674,5.18093,31.7185,-10.4878,8.505180000000001,0.1270119999999999,0.315431,1.05134,269.2,3.2,52.1701,4.42716,-2.5,-2.55543,105.232,4.53443,60.956,20.1411,232.813,1.30174,-0.141172,241.502,2.13593,2.59869,-34.9974365234375,21.9983940124512,-35.0,22.0,-1170140.0,-4583.91,pp-riro,4,0,-1,-1
1570535023.3,2019-10-08,13:43:43.300,14.0,10.0,14.890000343322802,15.6,14.2,7.8,28.1,-27.0,14.7,14.5665,12.8707,7.86595,-2.45909,12.0309,2.8478,31.1286,-12.1637,14.5805,0.1691609999999999,0.318874,1.01245,269.2,3.2,52.1701,4.42716,-2.5,-2.5316,108.327,4.5345,62.2995,21.6612,232.113,1.29393,-0.1567319999999999,241.303,2.25368,2.67433,-34.9991455078125,21.9983940124512,-35.0,22.0,-1170320.0,-1199.82,pp-riro,4,0,-1,-1
1570535023.4,2019-10-08,13:43:43.400,14.0,9.0,15.1800003051758,15.2,15.6,8.3,27.3,-28.4,20.8,14.5665,12.8707,7.86595,-2.45909,12.0309,2.8478,31.1286,-12.1637,14.5805,0.1691609999999999,0.318874,1.01245,269.2,3.2,52.1701,4.42716,-2.5,-2.49503,113.835,4.53457,63.7307,22.8012,231.413,1.28624,-0.165765,241.109,2.36556,2.74027,-34.9991455078125,21.9983940124512,-23.0,22.0,-1170450.0,-399.9380000000001,pp-riro,4,0,-1,-1
1570535023.5,2019-10-08,13:43:43.500,14.0,10.0,15.4700002670288,14.6,16.9,8.8,26.6,-29.6,27.1,13.6715,15.3183,8.77326,-7.49856,9.1382,6.001930000000001,29.3924,-15.0744,26.9321,0.0417626,0.266104,0.991126,269.2,3.2,52.1701,4.42716,-2.5,-2.42466,122.709,4.53464,65.3078,24.7013,230.713,1.27692,-0.183813,241.048,2.48638,2.81442,-34.9974365234375,21.9983940124512,-23.0,22.0,-1170080.0,5660.67,pp-riro,4,0,-1,-1
1570535023.6,2019-10-08,13:43:43.600,14.0,10.0,15.75,14.1,18.2,9.3,25.2,-30.9,33.6,13.1276,16.561,9.22078,-7.21748,14.3876,5.769909999999999,28.19,-16.4385,33.2712,0.180104,0.353722,1.08331,269.2,3.2,52.1701,4.427169999999999,-2.4,-2.23351,136.751,4.53471,67.0018,25.8414,229.813,1.26793,-0.190385,240.772,2.59845,2.8711,-34.976959228515604,21.9983940124512,-23.0,22.0,-1168710.0,11013.7,pp-riro,4,0,-1,-1
1570535023.7,2019-10-08,13:43:43.700,14.0,10.0,15.9799995422363,13.3,19.5,9.7,23.8,-32.1,40.5,12.5191,17.7138,9.59897,-7.46095,10.2406,4.43628,26.3186,-17.7194,39.9983,-0.0786851,0.246848,1.05318,269.2,3.2,52.1701,4.427169999999999,-2.4,-2.06451,147.941,4.53477,68.8127,27.7415,228.913,1.25737,-0.2055989999999999,240.637,2.72209,2.94192,-34.6168212890625,21.9994239807129,-23.0,22.0,-1167290.0,15413.0,pp-riro,4,0,-1,-1
1570535023.8,2019-10-08,13:43:43.800,14.0,9.0,16.3600006103516,12.9,20.2,9.9,23.1,-32.6,44.3,12.5191,17.7138,9.59897,-7.46095,10.2406,4.43628,26.3186,-17.7194,39.9983,-0.0786851,0.246848,1.05318,269.2,3.2,52.1701,4.427169999999999,-2.4,-1.95646,154.779,4.53484,69.8349,28.1215,228.413,1.25241,-0.205271,240.5,2.7812,2.96975,-33.8880310058594,21.9994239807129,-23.0,22.0,-1166390.0,17351.2,pp-riro,4,0,-1,-1
1570535023.9,2019-10-08,13:43:43.900,14.0,10.0,16.8400001525879,11.8,21.4,10.4,21.1,-33.7,51.6,11.4194,19.4646,10.1573,-7.417210000000001,11.7133,5.52998,23.4697,-19.8371,50.2646,0.217884,0.318215,1.12599,269.2,3.2,52.1701,4.427169999999999,-2.4,-1.53647,170.044,4.53491,71.9378,29.2616,227.414,1.2417200000000002,-0.208841,240.30900000000003,2.89738,3.0331200000000003,-32.802520751953104,21.9994239807129,-23.0,22.0,-1163540.0,19597.0,pp-riro,4,0,-1,-1
1570535024.0,2019-10-08,13:43:44.000,14.0,10.0,17.2999992370605,10.4,22.6,10.7,19.1,-34.2,58.8,11.4194,19.4646,10.1573,-7.417210000000001,11.7133,5.52998,23.4697,-19.8371,50.2646,0.217884,0.318215,1.12599,263.8,3.5,52.1701,4.427169999999999,-2.4,-1.38077,172.862,4.53498,74.1283,30.4016,226.414,1.23068,-0.211788,240.172,3.00878,3.10285,-31.361999511718803,21.9994239807129,-22.497371673584,22.0,-1162600.0,18674.0,pp-riro,4,0,-1,-1
1570535024.1,2019-10-08,13:43:44.100,14.0,10.0,17.7600002288818,8.9,23.5,10.8,17.4,-34.4,65.4,8.446710000000001,22.0308,10.904000000000002,-14.0341,11.4137,-1.08509,18.2033,-22.4819,67.0884,0.237005,0.111271,0.8800540000000001,263.8,3.5,52.1701,4.427169999999999,-2.4,-0.8510709999999999,173.287,4.53498,76.3773,31.9217,225.314,1.21871,-0.218476,240.039,3.1131,3.17274,-29.564773559570305,21.9994239807129,-21.8195209503174,22.0,-1160350.0,12582.7,pp-riro,4,0,-1,-1
1570535024.2,2019-10-08,13:43:44.200,14.0,8.0,18.1000003814697,7.3,24.3,10.9,15.2,-34.2,71.5,6.900980000000001,22.9276,10.9501,-17.8961,6.17621,1.37056,16.5042,-23.0149,72.8621,0.0373088,0.21933,0.800297,263.8,3.5,52.1701,4.427169999999999,-2.4,-0.683738,171.062,4.5349900000000005,78.743,32.6818,224.314,1.20758,-0.216008,239.969,3.20155,3.23498,-27.0865325927734,21.9994239807129,-21.0272521972656,22.0,-1159870.0,9352.4,pp-riro,4,0,-1,-1
1570535024.3,2019-10-08,13:43:44.300,14.0,8.0,18.25,5.7,24.6,11.0,13.5,-34.1,77.5,6.21519,23.1992,10.9807,-14.3597,5.605090000000001,2.67178,15.7362,-23.1998,75.718,0.13355,0.166983,0.848826,263.8,3.5,52.1701,4.427169999999999,-2.4,-0.341315,164.62099999999998,4.535,81.2257,33.0618,223.21400000000003,1.19644,-0.209162,239.823,3.28445,3.28726,-25.3370895385742,21.9994239807129,-20.3346767425537,22.0,-1159310.0,4430.09,pp-riro,4,0,-1,-1
1570535024.4,2019-10-08,13:43:44.400,14.0,6.0,18.2900009155273,4.3,24.6,10.7,11.4,-33.6,83.2,4.80235,23.3311,10.996,-13.0977,5.92284,-1.29795,14.0182,-23.6293,81.1276,0.102701,0.0977122,0.827034,263.8,3.5,52.1701,4.427169999999999,-2.4,0.080896,144.077,4.535,83.6206,33.8219,222.114,1.18504,-0.2069639999999999,239.731,3.3671900000000003,3.33566,-24.1218643188477,21.9994239807129,-19.8697624206543,22.0,-1159220.0,-861.4060000000001,pp-riro,4,0,-1,-1
1570535024.5,2019-10-08,13:43:44.500,14.0,6.0,18.2900009155273,3.3,24.5,10.4,9.4,-32.4,89.0,4.80235,23.3311,10.996,-13.0977,5.92284,-1.29795,14.0182,-23.6293,81.1276,0.102701,0.0977122,0.827034,263.8,3.5,52.1701,4.427169999999999,-2.4,0.176198,135.29399999999998,4.53501,86.0448,34.5819,221.114,1.1736799999999998,-0.204771,239.773,3.45329,3.37008,-22.3672943115234,21.9994239807129,-19.6970901489258,22.0,-1159300.0,-1384.4,pp-riro,4,0,-1,-1
1570535024.6,2019-10-08,13:43:44.600,14.0,7.0,18.340000152587898,2.0,24.4,10.0,7.8,-31.0,94.6,2.60834,23.0708,10.2051,-16.0804,0.564964,-2.3768,11.1659,-23.1411,91.5639,0.230684,0.283732,0.69724,263.8,3.5,52.1701,4.427169999999999,-2.3,0.198916,121.99,4.535019999999999,88.5566,34.962,220.114,1.16256,-0.198644,239.822,3.53473,3.4134,-21.1793823242188,21.9994239807129,-19.248844146728494,22.0,-1159230.0,1692.05,pp-riro,4,0,-1,-1
1570535024.7,2019-10-08,13:43:44.700,14.0,5.0,18.3899993896484,0.9,24.2,10.0,6.3,-30.4,99.6,2.60834,23.0708,10.2051,-16.0804,0.564964,-2.3768,11.1659,-23.1411,91.5639,0.230684,0.283732,0.69724,263.8,3.5,52.1701,4.427169999999999,-2.3,0.176198,127.267,4.53503,90.9808,34.962,219.21400000000003,1.15242,-0.189514,239.905,3.6029,3.44551,-20.278205871582,21.9994239807129,-18.9111595153809,22.0,-1159230.0,-61.529,pp-riro,4,0,-1,-1
1570535024.8,2019-10-08,13:43:44.800,14.0,9.0,18.340000152587898,-0.1,24.1,10.1,4.6,-29.6,104.3,1.51983,22.9215,9.94794,-5.64225,-2.8728,-1.7098400000000002,9.41734,-22.0868,96.7467,0.0794773,0.316573,0.827449,263.8,3.5,52.1701,4.427169999999999,-2.3,0.25654,151.359,4.53503,93.4634,34.9621,218.21400000000003,1.14189,-0.180601,239.948,3.66774,3.4744300000000004,-19.5698928833008,21.9994239807129,-18.680627822876,22.0,-1159300.0,-553.761,pp-riro,4,0,-1,-1
1570535024.9,2019-10-08,13:43:44.900,14.0,8.0,18.3799991607666,-1.1,23.9,10.1,3.4,-28.3,108.8,-1.02408,22.5129,9.90508,-6.7017,-5.5059,0.0964192,5.5667,-19.6134,108.811,-0.112295,0.179848,0.767359,263.8,3.5,52.1701,4.427169999999999,-2.3,0.277595,161.536,4.53504,95.8876,34.9621,217.21400000000003,1.13154,-0.172283,239.997,3.73283,3.5045800000000003,-19.0356750488281,21.9994239807129,-18.4474487304688,22.0,-1159270.0,461.467,pp-riro,4,0,-1,-1
1570535025.0,2019-10-08,13:43:45.000,14.0,9.0,18.2399997711182,-2.2,24.0,10.0,1.4,-27.4,113.2,-1.5749799999999998,22.6297,9.79799,-8.78603,3.4267800000000004,-1.14108,4.52036,-19.5797,110.845,-0.0834322,0.0530929999999999,0.456327,238.4,3.6,52.1701,4.427169999999999,-2.3,0.279258,163.463,4.53505,98.3118,34.9621,216.314,1.12135,-0.164331,240.165,3.79541,3.5397300000000005,-18.6738357543945,21.9994239807129,-18.1314029693604,22.0,-1159250.0,276.88,pp-riro,4,0,-1,-1
1570535025.1,2019-10-08,13:43:45.100,14.0,10.0,17.9899997711182,-3.3,24.2,9.9,0.1,-26.1,116.9,-2.6838900000000003,22.9316,9.66712,-12.8826,2.71761,0.364012,2.53393,-18.7751,114.82,-0.1643099999999999,0.308345,0.574652,238.4,3.6,52.1701,4.427169999999999,-2.3,0.297542,182.824,4.53493,100.736,34.5822,215.314,1.11143,-0.153232,240.216,3.84757,3.5714900000000003,-18.3802719116211,21.9994239807129,-17.807054519653303,22.0,-1159230.0,0.0,pp-riro,4,0,-1,-1
1570535025.2,2019-10-08,13:43:45.200,14.0,10.0,17.6900005340576,-4.6,23.7,10.3,-2.0,-26.0,120.6,-3.86966,22.8411,9.76608,-7.982310000000001,-3.76124,2.94448,0.437392,-17.840999999999998,118.699,-0.0755919,0.00888791,0.691152,238.4,3.6,52.1701,4.427169999999999,-2.3,0.34741,206.11,4.53482,103.248,33.8222,214.314,1.1016,-0.138993,240.28,3.89043,3.60576,-18.2232513427734,21.9994239807129,-17.369348526001,22.0,-1159260.0,-246.116,pp-riro,4,0,-1,-1
1570535025.3,2019-10-08,13:43:45.300,14.0,10.0,17.6900005340576,-5.5,23.4,10.0,-3.8,-25.6,124.0,-4.411630000000001,22.6908,9.95218,-3.07115,2.82681,1.2481799999999998,-0.760463,-17.953,120.623,0.150475,-0.275538,0.986767,238.4,3.6,52.1701,4.427169999999999,-2.3,0.371235,211.682,4.5347,105.614,33.4422,213.21400000000003,1.09161,-0.128971,240.277,3.93401,3.63414,-17.9194412231445,21.9994239807129,-17.184757232665998,22.0,-1159210.0,892.17,pp-riro,4,0,-1,-1
1570535025.4,2019-10-08,13:43:45.400,14.0,11.0,17.9899997711182,-6.5,23.1,9.9,-6.2,-24.1,127.1,-4.89532,22.4179,9.9128,-9.81352,-4.42443,-4.04674,-1.83466,-18.1497,122.244,-0.418835,-0.1683,0.572937,238.4,3.6,52.1701,4.427169999999999,-2.3,0.357383,204.029,4.534590000000001,107.95,33.0623,212.21400000000003,1.08187,-0.119399,240.377,3.98086,3.66544,-17.4961624145508,21.9994239807129,-16.957391738891598,22.0,-1159130.0,738.3480000000001,pp-riro,4,0,-1,-1
1570535025.5,2019-10-08,13:43:45.500,14.0,12.0,18.1399993896484,-7.4,22.6,10.0,-8.7,-23.5,130.6,-6.26577,22.0164,9.46642,-12.224,-3.74934,-1.16046,-5.13189,-16.9238,126.874,-0.201128,0.0437036,0.538616,238.4,3.6,52.1701,4.427169999999999,-2.3,0.343531,203.081,4.53447,110.316,32.3023,211.114,1.0722,-0.1069339999999999,240.379,4.025440000000001,3.69033,-17.2776947021484,21.9994239807129,-16.8078575134277,22.0,-1159020.0,584.525,pp-riro,4,0,-1,-1
1570535025.6,2019-10-08,13:43:45.600,14.0,10.0,18.3299999237061,-8.3,22.2,9.8,-10.7,-22.3,133.5,-7.09133,21.5416,9.63308,-5.52221,-4.48048,1.28033,-7.631539999999999,-16.4214,129.738,-0.313795,0.00233661,0.467731,238.4,3.6,52.1701,4.427169999999999,-2.1,0.351842,209.509,4.53436,112.594,31.5423,210.014,1.06277,-0.0951062,240.371,4.06617,3.71841,-16.8953704833984,21.9994239807129,-16.617826461792,22.0,-1159010.0,246.116,pp-riro,4,0,-1,-1
1570535025.7,2019-10-08,13:43:45.700,14.0,9.0,18.229999542236303,-9.4,21.9,9.7,-12.7,-21.1,136.6,-7.09133,21.5416,9.63308,-5.52221,-4.48048,1.28033,-7.631539999999999,-16.4214,129.738,-0.313795,0.00233661,0.467731,238.4,3.6,52.1701,4.427169999999999,-2.1,0.379546,220.837,4.5342400000000005,114.785,30.4023,208.914,1.05395,-0.0807688,240.302,4.10813,3.74977,-16.755416870117198,21.9994239807129,-16.288009643554698,22.0,-1158980.0,399.9380000000001,pp-riro,4,0,-1,-1
1570535025.8,2019-10-08,13:43:45.800,14.0,12.0,18.1800003051758,-10.6,21.3,9.8,-14.4,-20.3,139.1,-7.97288,21.0821,9.35278,-8.69943,-6.8781300000000005,-0.433547,-9.97787,-15.7361,132.605,-0.443237,0.0408344,0.453225,238.4,3.6,52.1701,4.427169999999999,-2.1,0.39229,230.985,4.53412,117.034,29.6423,207.814,1.0445,-0.0697991,240.338,4.14122,3.78853,-16.6547241210938,21.9994239807129,-15.9590177536011,22.0,-1158930.0,522.996,pp-riro,4,0,-1,-1
1570535025.9,2019-10-08,13:43:45.900,14.0,9.0,18.0300006866455,-11.6,20.7,9.6,-15.9,-19.5,142.0,-7.97288,21.0821,9.35278,-8.69943,-6.8781300000000005,-0.433547,-9.97787,-15.7361,132.605,-0.443237,0.0408344,0.453225,238.4,3.6,52.1701,4.427169999999999,-2.1,0.426089,249.509,4.53395,119.166,28.5023,206.71400000000003,1.0357299999999998,-0.0563295999999999,240.299,4.1783,3.821930000000001,-16.3884582519531,21.9994239807129,-15.661078453064,22.0,-1158860.0,522.996,pp-riro,4,0,-1,-1
1570535026.0,2019-10-08,13:43:46.000,14.0,9.0,17.9300003051758,-12.6,20.1,9.4,-17.1,-18.5,144.7,-8.52241,20.9049,9.26636,-15.2308,-2.17644,-1.07881,-11.1289,-15.3048,134.02,-0.293729,0.0571202,0.520936,257.8,3.1,52.1701,4.427169999999999,-2.1,0.436617,254.009,4.53389,121.21,27.3624,205.614,1.02719,-0.0435259,240.245,4.21469,3.85622,-16.0897750854492,21.9994239807129,-15.3726377487183,22.0,-1158830.0,615.29,pp-riro,4,0,-1,-1
1570535026.1,2019-10-08,13:43:46.100,14.0,9.0,18.0300006866455,-13.7,19.5,9.4,-17.9,-17.7,147.3,-12.3514,18.8429,9.11693,-18.1066,-8.16525,-1.0573,-17.2213,-12.4537,143.641,-0.119916,0.0140714,0.442046,257.8,3.1,52.1701,4.427169999999999,-2.1,0.453793,262.847,4.53383,123.167,25.8423,204.514,1.01916,-0.0282577,240.133,4.24606,3.88911,-15.748420715332,21.9994239807129,-15.0533542633057,22.0,-1158710.0,799.877,pp-riro,4,0,-1,-1
1570535026.2,2019-10-08,13:43:46.200,14.0,10.0,18.3700008392334,-14.6,18.8,9.3,-18.8,-17.0,150.2,-12.9321,18.552,9.14302,-9.90784,-8.35743,-2.56978,-17.7535,-11.9511,145.004,-0.208805,-0.128153,0.394173,257.8,3.1,52.1701,4.427169999999999,-2.1,0.460442,265.735,4.53376,125.095,24.7024,203.414,1.0108700000000002,-0.0163355,240.076,4.28374,3.92132,-15.4650955200195,21.9994239807129,-14.8707456588745,22.0,-1158610.0,1015.23,pp-riro,4,0,-1,-1
1570535026.3,2019-10-08,13:43:46.300,14.0,10.0,18.7000007629395,-15.3,18.1,9.1,-19.4,-15.8,153.2,-14.1168,17.4358,8.962760000000001,-5.89,-6.07064,-4.07644,-19.1261,-11.2527,149.384,0.0532969,-0.0609395,0.411677,257.8,3.1,52.1701,4.427169999999999,-2.1,0.461551,266.683,4.53371,127.023,22.8023,202.21400000000003,1.00276,0.00102821,239.886,4.322830000000001,3.94435,-15.0947265625,21.9994239807129,35.0,22.0,-1158550.0,1045.99,pp-riro,4,0,-1,-1
1570535026.4,2019-10-08,13:43:46.400,14.0,10.0,19.0699996948242,-15.9,17.5,8.9,-19.5,-14.4,155.9,-14.7356,16.8026,8.76665,-3.72275,-3.89333,-5.13089,-20.1491,-10.3944,152.127,-0.0514226999999999,-0.1052099999999999,0.6187729999999999,257.8,3.1,52.1701,4.427169999999999,-2.1,0.464875,268.497,4.53365,128.775,21.6623,201.21400000000003,0.995137,0.0120847,239.874,4.36494,3.96827,-14.8609008789062,21.9994239807129,35.0,22.0,-1158450.0,1076.76,pp-riro,4,0,-1,-1
1570535026.5,2019-10-08,13:43:46.500,14.0,10.0,19.3500003814697,-16.6,16.6,8.7,-19.8,-13.7,158.6,-15.3692,16.0355,8.69975,-8.430769999999999,-5.914630000000001,-4.41132,-20.7485,-9.48012,154.982,0.139573,-0.107306,0.4801229999999999,257.8,3.1,52.1701,4.427169999999999,-2.1,0.6211260000000001,268.803,4.533580000000001,130.44,20.1423,200.114,0.987735,0.0255654,239.721,4.39864,3.99961,-14.690216064453098,21.9994239807129,35.0,22.0,-1159080.0,-14797.7,pp-riro,4,0,-1,-1
1570535026.6,2019-10-08,13:43:46.600,14.0,9.0,19.5699996948242,-16.8,15.8,7.9,-20.0,-13.2,161.4,-15.3692,16.0355,8.69975,-8.430769999999999,-5.914630000000001,-4.41132,-20.7485,-9.48012,154.982,0.139573,-0.107306,0.4801229999999999,257.8,3.1,52.1701,4.427169999999999,-2.0,1.18186,239.205,4.533519999999999,132.046,18.2423,199.21400000000003,0.98109,0.0415849,239.699,4.42984,4.02332,-14.2157363891602,21.9994239807129,35.0,22.0,-1160860.0,14151.7,pp-riro,4,0,-1,-1
1570535026.7,2019-10-08,13:43:46.700,14.0,8.0,19.7999992370605,-16.6,15.1,7.1,-19.8,-11.8,163.4,-15.3692,16.0355,8.69975,-8.430769999999999,-5.914630000000001,-4.41132,-20.7485,-9.48012,154.982,0.139573,-0.107306,0.4801229999999999,257.8,3.1,52.1701,4.427169999999999,-2.0,1.00898,225.774,4.53346,133.565,16.7223,198.314,0.974468,0.0543773,239.683,4.46096,4.037640000000001,-13.3811264038086,21.9994239807129,35.0,22.0,-1159650.0,22888.8,pp-riro,4,0,-1,-1
1570535026.8,2019-10-08,13:43:46.800,14.0,7.0,20.020000457763697,-16.8,14.4,7.0,-20.1,-9.8,164.8,-15.8743,14.9145,7.78751,1.44506,-6.923839999999999,-12.2983,-20.7822,-8.34837,159.259,0.0922125,-0.1710819999999999,0.432896,257.8,3.1,52.1701,4.427169999999999,-2.0,0.964103,229.448,4.5334,135.055,14.8223,197.514,0.968253,0.0696776,239.732,4.4876,4.04999,-12.1863784790039,21.9994239807129,35.0,22.0,-1159850.0,-8214.12,pp-riro,4,0,-1,-1
1570535026.9,2019-10-08,13:43:46.900,14.0,8.0,20.020000457763697,-16.7,13.6,7.1,-20.3,-8.9,167.1,-15.9162,13.6024,6.91707,-1.31215,-2.55882,-4.52177,-21.5875,-6.964119999999999,163.66,0.091113,0.1826,0.399597,257.8,3.1,52.1701,4.427169999999999,-2.0,1.02062,249.46400000000003,4.53334,136.398,13.3023,196.814,0.962546,0.0818345,239.828,4.51905,4.0555,-10.653694152832,21.9994239807129,35.0,22.0,-1159570.0,3784.03,pp-riro,4,0,-1,-1
1570535027.0,2019-10-08,13:43:47.000,14.0,9.0,20.0599994659424,-16.6,13.3,6.7,-20.5,-8.0,169.2,-15.9162,13.6024,6.91707,-1.31215,-2.55882,-4.52177,-21.5875,-6.964119999999999,163.66,0.091113,0.1826,0.399597,244.1,3.5,52.1701,4.427169999999999,-2.0,1.0283799999999998,234.603,4.53327,137.683,11.4023,196.014,0.956843,0.0964883999999999,239.80900000000003,4.545669999999999,4.05655,-8.74722290039062,21.9994239807129,35.0,22.0,-1159400.0,2799.57,pp-riro,4,0,-1,-1
1570535027.1,2019-10-08,13:43:47.100,14.0,8.0,20.020000457763697,-16.8,13.0,6.6,-20.8,-6.7,170.4,-15.87,12.5804,6.40531,-4.17373,-6.92156,0.0968361,-22.0106,-4.6209,168.856,-0.0827921,0.103015,0.205673,244.1,3.5,52.1701,4.427169999999999,-2.0,1.00344,233.008,4.53315,138.969,10.2623,195.315,0.951101,0.10553,239.928,4.56825,4.06542,-6.64106750488281,21.9994239807129,35.0,22.0,-1159140.0,5137.67,pp-riro,4,0,-1,-1
1570535027.2,2019-10-08,13:43:47.200,14.0,9.0,19.9699993133545,-17.0,12.7,6.7,-21.3,-5.7,171.2,-15.87,12.5804,6.40531,-4.17373,-6.92156,0.0968361,-22.0106,-4.6209,168.856,-0.0827921,0.103015,0.205673,244.1,3.5,52.1701,4.427169999999999,-2.0,1.00621,242.99,4.53302,140.195,8.36223,194.615,0.945684,0.119794,239.999,4.578069999999999,4.0658,-4.53148651123047,21.9994239807129,35.0,22.0,-1159040.0,-338.409,pp-riro,4,0,-1,-1
1570535027.3,2019-10-08,13:43:47.300,14.0,10.0,19.8799991607666,-17.0,12.6,6.8,-22.0,-5.1,171.9,-16.3086,12.3852,6.4667900000000005,-6.40163,-5.77149,0.184194,-22.5236,-4.22876,170.188,0.0141721,-0.172086,0.2600719999999999,244.1,3.5,52.1701,4.427169999999999,-2.0,1.04666,259.034,4.53289,141.422,6.842219999999999,193.815,0.939872,0.13109,240.023,4.58487,4.0574,-2.42191314697266,21.9994239807129,35.0,22.0,-1158830.0,2430.39,pp-riro,4,0,-1,-1
1570535027.4,2019-10-08,13:43:47.400,14.0,10.0,19.7900009155273,-17.0,12.6,7.0,-22.8,-4.7,171.9,-16.4808,12.2687,6.58418,-1.59486,1.61703,1.95481,-23.8424,-4.26474,171.627,-0.280095,-0.0647243,0.000781928,244.1,3.5,52.1701,4.427169999999999,-2.0,1.04777,258.778,4.53276,142.62,4.9422,193.115,0.934394,0.144986,240.121,4.5779,4.04211,-0.32769775390625,21.9994239807129,35.0,22.0,-1158620.0,2030.46,pp-riro,4,0,-1,-1
1570535027.5,2019-10-08,13:43:47.500,14.0,10.0,19.7000007629395,-17.2,12.8,7.5,-23.9,-5.2,171.7,-16.5938,12.3935,6.65976,0.667664,5.97874,2.31247,-24.3017,-4.28958,171.83700000000002,-0.0520649,-0.0855341,0.0843637,244.1,3.5,52.1701,4.427169999999999,-2.0,1.04888,261.151,4.53264,143.876,3.42219,192.215,0.92811,0.155908,240.122,4.5612,4.02347,1.778076171875,21.9994239807129,35.0,22.0,-1158490.0,2307.34,pp-riro,4,0,-1,-1
1570535027.6,2019-10-08,13:43:47.600,14.0,10.0,19.6100006103516,-17.2,13.0,8.1,-25.0,-6.1,170.8,-16.5938,12.3935,6.65976,0.667664,5.97874,2.31247,-24.3017,-4.28958,171.83700000000002,-0.0520649,-0.0855341,0.0843637,244.1,3.5,52.1701,4.427169999999999,-1.9,1.0655,274.74,4.53251,145.132,1.90218,191.415,0.922023,0.166775,240.221,4.53077,3.99766,3.87805938720703,21.9994239807129,35.0,22.0,-1158330.0,1292.11,pp-riro,4,0,-1,-1
1570535027.7,2019-10-08,13:43:47.700,14.0,11.0,19.520000457763697,-16.9,13.3,8.8,-26.7,-7.4,169.6,-17.3257,13.0686,7.9991,1.91396,7.29857,9.18167,-27.9767,-7.29057,171.25799999999998,0.0125617,-0.131382,-0.4346649999999999,244.1,3.5,52.1701,4.427169999999999,-1.9,1.09376,283.91,4.53238,146.329,0.00215707,190.415,0.915575,0.179994,240.146,4.49015,3.957230000000001,5.98995208740234,21.9994239807129,35.0,22.0,-1158060.0,2491.92,pp-riro,4,0,-1,-1
1570535027.8,2019-10-08,13:43:47.800,14.0,11.0,19.520000457763697,-16.7,13.6,9.6,-27.8,-9.0,167.8,-17.3257,13.0686,7.9991,1.91396,7.29857,9.18167,-27.9767,-7.29057,171.25799999999998,0.0125617,-0.131382,-0.4346649999999999,244.1,3.5,52.1701,4.427169999999999,-1.9,1.0932,281.376,4.53225,147.702,-1.51785,189.415,0.908481,0.190412,240.2,4.44043,3.92089,8.09844207763672,21.9994239807129,35.0,22.0,-1157890.0,3199.51,pp-riro,4,0,-1,-1
1570535027.9,2019-10-08,13:43:47.900,14.0,10.0,19.4699993133545,-15.9,14.4,10.5,-29.1,-11.3,165.6,-17.0943,13.8644,9.17486,3.36019,2.26468,9.17795,-30.0179,-9.81411,168.868,-0.259848,-0.266598,-0.593983,244.1,3.5,52.1701,4.427169999999999,-1.9,1.07824,276.933,4.53212,149.016,-3.41786,188.315,0.901246,0.203196,240.167,4.37622,3.85211,10.2035293579102,21.9994239807129,35.0,22.0,-1157540.0,3353.33,pp-riro,4,0,-1,-1
1570535028.0,2019-10-08,13:43:48.000,14.0,10.0,19.5599994659424,-15.2,15.0,11.4,-29.9,-14.3,162.9,-16.9938,14.1636,9.64257,1.6544,5.19275,9.25322,-30.7037,-11.2554,168.111,-0.400559,-0.342458,-0.524645,253.8,4.7,52.1701,4.427169999999999,-1.9,1.08101,280.796,4.532,150.418,-4.93786,187.115,0.89343,0.213207,240.129,4.30044,3.79462,12.313720703125,21.9994239807129,35.0,22.0,-1157340.0,1630.52,pp-riro,4,0,-1,-1
1570535028.1,2019-10-08,13:43:48.100,14.0,10.0,19.6499996185303,-14.2,15.7,12.5,-30.4,-17.4,159.2,-16.9938,14.1636,9.64257,1.6544,5.19275,9.25322,-30.7037,-11.2554,168.111,-0.400559,-0.342458,-0.524645,253.8,4.7,52.1701,4.427169999999999,-1.9,1.0970799999999998,288.719,4.53205,151.908,-6.45786,185.915,0.885283,0.222828,240.171,4.21091,3.72413,14.4273147583008,21.9994239807129,35.0,22.0,-1157110.0,2768.8,pp-riro,4,0,-1,-1
1570535028.2,2019-10-08,13:43:48.200,14.0,10.0,19.7800006866455,-13.0,16.5,13.4,-30.5,-20.5,155.3,-15.4417,16.135,12.4156,8.15746,10.5102,10.0641,-33.4795,-20.402,162.356,-0.118958,-0.256083,-0.8340489999999999,253.8,4.7,52.1701,4.427169999999999,-1.9,1.10429,292.749,4.5321,153.42700000000002,-7.59785,184.715,0.877064,0.229798,240.24400000000003,4.12177,3.65199,16.525588989257802,21.9994239807129,35.0,22.0,-1156890.0,2030.46,pp-riro,4,0,-1,-1
1570535028.3,2019-10-08,13:43:48.300,14.0,11.0,19.9200000762939,-12.4,16.9,13.9,-30.5,-22.2,152.8,-15.4417,16.135,12.4156,8.15746,10.5102,10.0641,-33.4795,-20.402,162.356,-0.118958,-0.256083,-0.8340489999999999,253.8,4.7,52.1701,4.427169999999999,-1.9,1.10983,292.184,4.53215,155.091,-8.73783,184.015,0.869704,0.2365239999999999,240.814,4.06631,3.61354,18.6408920288086,21.9994239807129,35.0,22.0,-1156620.0,3107.21,pp-riro,4,0,-1,-1
1570535028.4,2019-10-08,13:43:48.400,14.0,10.0,19.9599990844727,-10.9,17.9,15.0,-29.4,-25.6,148.1,-13.6812,17.6802,14.2138,12.5544,9.71651,7.982360000000001,-33.8199,-26.1149,156.597,0.119643,-0.38783,-0.976852,253.8,4.7,52.1701,4.427169999999999,-1.9,1.10761,299.307,4.5322,156.785,-10.2578,182.615,0.8602989999999999,0.245527,240.905,3.96427,3.5279800000000003,20.7510833740234,21.9994239807129,35.0,22.0,-1156310.0,2461.16,pp-riro,4,0,-1,-1
1570535028.5,2019-10-08,13:43:48.500,14.0,10.0,20.0499992370605,-9.1,18.6,16.2,-27.5,-29.4,141.9,-11.4477,19.2862,16.2006,22.9296,11.9397,17.7719,-32.5234,-32.4408,149.378,-0.0496245,-0.180175,-0.95816,253.8,4.7,52.1701,4.427169999999999,-1.9,1.14363,313.908,4.53224,157.691,-10.6378,181.015,0.8530270000000001,0.247502,240.304,3.84643,3.44394,22.8663864135742,21.9994239807129,35.0,22.0,-1156050.0,2614.98,pp-riro,4,0,-1,-1
1570535028.6,2019-10-08,13:43:48.600,14.0,10.0,20.1800003051758,-7.0,19.5,17.1,-24.9,-33.0,135.1,-9.45319,20.306,17.3808,21.4794,10.7778,11.6572,-30.7129,-36.8409,143.27200000000002,-0.4657979999999999,-0.173592,-1.14293,253.8,4.7,52.1701,4.42718,-2.0,1.14695,317.173,4.53229,160.495,-11.7777,179.515,0.839945,0.253347,241.087,3.723030000000001,3.3499,24.9731750488281,21.9994239807129,35.0,22.0,-1155880.0,3230.27,pp-riro,4,0,-1,-1
1570535028.7,2019-10-08,13:43:48.700,14.0,11.0,20.2600002288818,-4.6,19.9,18.1,-21.1,-36.3,127.7,-5.68271,21.4598,19.0645,25.3721,8.123569999999999,14.3706,-26.2107,-43.3373,132.565,-0.374114,-0.133527,-1.20452,253.8,4.7,52.1701,4.42718,-2.0,1.15415,323.664,4.5323400000000005,161.371,-11.7777,177.815,0.832519,0.252902,240.411,3.60295,3.25688,27.0782623291016,21.9994239807129,35.0,22.0,-1155620.0,2430.39,pp-riro,4,0,-1,-1
1570535028.8,2019-10-08,13:43:48.800,14.0,11.0,20.3500003814697,-2.2,20.3,18.6,-16.4,-39.3,119.1,-4.46875,21.6818,19.4343,16.4403,5.64506,3.61929,-24.042,-45.299,128.363,-0.6628890000000001,-0.139017,-1.35604,253.8,4.7,52.1701,4.42718,-2.0,1.17133,328.24800000000005,4.53239,163.386,-12.1576,176.115,0.8214959999999999,0.25427,240.54,3.47278,3.16649,29.183349609375,21.9994239807129,35.0,22.0,-1155340.0,3076.45,pp-riro,4,0,-1,-1
1570535028.9,2019-10-08,13:43:48.900,14.0,11.0,20.3899993896484,0.4,20.4,18.9,-10.6,-41.5,109.0,-4.46875,21.6818,19.4343,16.4403,5.64506,3.61929,-24.042,-45.299,128.363,-0.6628890000000001,-0.139017,-1.35604,253.8,4.7,52.1701,4.42718,-2.0,1.17133,333.14,4.53244,165.31400000000002,-12.1576,174.415,0.810834,0.253357,240.618,3.33405,3.0734,31.0261535644531,21.9994239807129,35.0,22.0,-1154850.0,2553.45,pp-riro,4,0,-1,-1
1570535029.0,2019-10-08,13:43:49.000,14.0,11.0,20.3899993896484,3.1,20.2,19.2,-3.4,-42.9,97.9,-0.0250057,22.2863,20.263,28.1596,3.6414,1.94991,-15.2626,-50.1751,113.126,-0.0279662,-0.134876,-1.17621,261.9,4.9,52.1701,4.42718,-2.0,1.1802,335.69699999999995,4.53249,167.271,-12.1575,172.715,0.800093,0.252451,240.74400000000003,3.1894400000000003,2.97839,32.533416748046896,21.9994239807129,23.0,22.0,-1154700.0,2738.04,pp-riro,4,0,-1,-1
1570535029.1,2019-10-08,13:43:49.100,14.0,12.0,20.4300003051758,5.9,19.8,19.0,4.6,-43.4,85.3,2.98627,22.3477,20.6341,35.1385,2.5888,4.32675,-6.83937,-52.6904,99.7489,-0.0217695,0.309487,-1.30755,261.9,4.9,52.1701,4.42718,-2.0,1.18574,339.75300000000004,4.53253,169.315,-11.7774,170.915,0.788894,0.249326,240.87,3.03171,2.87997,33.674530029296896,21.9994239807129,23.0,22.0,-1154330.0,4030.15,pp-ro,1,1,-1,-1
1570535029.2,2019-10-08,13:43:49.200,14.0,13.0,20.5100002288818,8.6,19.2,18.7,12.7,-42.6,73.2,2.98627,22.3477,20.6341,35.1385,2.5888,4.32675,-6.83937,-52.6904,99.7489,-0.0217695,0.309487,-1.30755,261.9,4.9,52.1701,4.42718,-2.0,1.19405,346.046,4.53256,171.243,-11.3973,169.315,0.778633,0.246284,241.084,2.87949,2.78385,34.449462890625,21.9994239807129,23.0,22.0,-1154050.0,2491.92,pp-ro,1,1,-1,-1
1570535029.3,2019-10-08,13:43:49.300,14.0,13.0,20.5100002288818,11.3,18.5,18.3,20.7,-40.5,61.3,10.9811,21.2403,20.0818,33.1938,-20.0422,-9.70761,19.026,-52.0128,62.1717,0.050489,-0.160679,-1.4609299999999998,261.9,4.9,52.1701,4.42718,-2.0,1.2212,367.561,4.5326,173.112,-10.2572,167.615,0.7683909999999999,0.238972,241.18,2.7257,2.69023,34.878662109375,21.9994239807129,23.0,22.0,-1153580.0,2645.75,pp-ro,1,1,-1,-1
1570535029.4,2019-10-08,13:43:49.400,14.0,13.0,20.5499992370605,14.0,17.1,17.5,28.1,-37.2,49.4,10.9811,21.2403,20.0818,33.1938,-20.0422,-9.70761,19.026,-52.0128,62.1717,0.050489,-0.160679,-1.4609299999999998,261.9,4.9,52.1701,4.42718,-2.0,1.23837,377.185,4.53264,174.952,-8.73714,165.915,0.758271,0.229652,241.272,2.56176,2.58737,34.958694458007805,21.9994239807129,23.0,22.0,-1153510.0,1261.34,pp-ro,1,1,-1,-1
1570535029.5,2019-10-08,13:43:49.500,14.0,14.0,20.5,17.4,14.8,15.4,36.7,-30.9,34.4,12.5543,20.8,19.7319,26.3763,-9.00623,-2.38046,24.0892,-50.7476,54.9674,-0.3889309999999999,0.0702309,-1.66861,261.9,4.9,52.1701,4.42718,-2.0,1.2594299999999998,373.919,4.53267,177.405,-7.59702,163.615,0.744525,0.222514,241.454,2.32595,2.42872,34.723663330078104,21.9994239807129,21.6690483093262,22.0,-1152870.0,6552.84,pp-ro,1,1,-1,-1
1570535029.6,2019-10-08,13:43:49.600,14.0,13.0,20.5499992370605,18.3,13.9,14.5,38.6,-28.7,30.3,17.0701,18.2769,17.9413,20.2043,-20.475,-10.4927,35.2399,-44.6192,36.3034,-0.694994,0.269265,-1.49601,261.9,4.9,52.1701,4.42718,-2.0,1.24004,365.98800000000006,4.53271,178.106,-6.07696,163.015,0.740898,0.2137869999999999,241.522,2.25948,2.37938,34.0730590820312,21.9994239807129,20.7731533050537,22.0,-1152570.0,6214.43,pp-ro,1,1,-1,-1
1570535029.7,2019-10-08,13:43:49.700,14.0,12.0,20.4599990844727,20.0,12.5,12.9,41.9,-23.3,23.0,17.0701,18.2769,17.9413,20.2043,-20.475,-10.4927,35.2399,-44.6192,36.3034,-0.694994,0.269265,-1.49601,261.9,4.9,52.1701,4.42718,-2.0,1.22452,360.061,4.53274,179.479,-4.17686,161.815,0.7335550000000001,0.202913,241.69,2.11868,2.28648,33.0648040771484,21.9994239807129,19.1528148651123,22.0,-1152100.0,4091.68,pp-ro,1,1,-1,-1
1570535029.8,2019-10-08,13:43:49.800,14.0,13.0,20.5,21.7,10.6,11.3,44.3,-18.2,16.2,22.5641,13.4721,13.156,13.9476,-20.4931,-15.4099,44.0197,-29.941,13.9733,-0.274025,-0.0750779999999999,-1.39083,261.9,4.9,52.1701,4.42718,-2.0,1.24059,374.704,4.532780000000001,180.676,-2.27677,160.815,0.727264,0.19221,241.89,1.98442,2.18225,31.6988830566406,21.9994239807129,17.2734661102295,22.0,-1151600.0,2276.57,pp-ro,1,1,-1,-1
1570535029.9,2019-10-08,13:43:49.900,14.0,13.0,20.3199996948242,22.4,8.8,9.3,46.0,-12.7,9.7,24.3407,11.3361,11.2705,13.424,-20.3042,-23.2961,45.4927,-24.3272,6.944789999999999,-0.0173064,0.113973,-1.16143,261.9,4.9,52.1701,4.42718,-2.0,1.25555,377.555,4.53282,181.844,0.00333124,159.915,0.72132,0.179572,242.157,1.84805,2.0897900000000003,29.9753112792969,21.9994239807129,15.6158924102783,22.0,-1151460.0,2676.51,pp-ro,1,1,-1,-1
1570535030.0,2019-10-08,13:43:50.000,14.0,13.0,20.3700008392334,23.1,7.1,7.4,47.4,-7.8,4.5,24.9978,9.21375,8.94626,7.00356,-24.0716,-20.7977,46.252,-18.0388,1.01191,0.00611375,0.00550914,-1.43287,269.8,4.8,52.1701,4.42718,-2.0,1.25278,375.822,4.53286,182.721,2.28342,159.315,0.717037,0.167035,242.432,1.7330299999999998,1.99649,28.987487792968803,21.9994239807129,13.8817863464355,22.0,-1150940.0,5506.84,pp-ro,1,1,-1,-1
1570535030.1,2019-10-08,13:43:50.100,14.0,13.0,20.3199996948242,23.4,5.6,5.5,48.0,-3.0,-0.4,25.7292,7.23296,6.873480000000001,1.84148,-19.5091,-18.4156,46.4966,-12.2387,-4.26954,0.394627,-0.0454162,-1.34382,269.8,4.8,52.1701,4.42718,-2.0,1.23394,362.261,4.53292,183.538,4.56351,158.715,0.7128439999999999,0.154607,242.688,1.6221,1.90991,26.882400512695305,21.9994239807129,12.2885293960571,22.0,-1150220.0,5660.67,pp-ro,1,1,-1,-1
1570535030.2,2019-10-08,13:43:50.200,14.0,13.0,20.3600006103516,23.5,4.2,3.7,48.4,1.7,-4.9,25.6588,5.64452,4.669580000000001,1.2444,-11.8208,-12.8206,46.7654,-6.91195,-8.84295,-0.103913,0.258217,-1.15392,269.8,4.8,52.1701,4.42718,-2.0,1.22341,362.47,4.53299,184.151,6.84358,158.315,0.709758,0.142249,242.945,1.51676,1.82697,24.790939331054695,21.9994239807129,10.7284870147705,22.0,-1149950.0,5168.43,pp-ro,1,1,-1,-1
1570535030.3,2019-10-08,13:43:50.300,14.0,12.0,20.3600006103516,23.5,2.8,2.3,48.7,5.8,-9.1,25.6005,4.74029,3.77179,-7.1586,-22.8034,-17.1674,46.3723,-4.096480000000001,-10.6274,-0.107472,0.1040069999999999,-1.1218,269.8,4.8,52.1701,4.42718,-2.0,1.22895,362.847,4.53306,184.677,9.12366,158.015,0.707152,0.129961,243.224,1.4228,1.75381,22.1510696411133,21.9994239807129,9.35068988800049,22.0,-1149660.0,2799.57,pp-ro,1,1,-1,-1
1570535030.4,2019-10-08,13:43:50.400,14.0,11.0,20.4500007629395,23.0,1.9,0.8,49.1,9.7,-12.8,25.2009,2.68191,1.20878,-5.63631,-6.84847,-15.5448,46.2378,3.3169699999999995,-16.292,-0.0928915,0.0836463,-1.05828,269.8,4.8,52.1701,4.42718,-2.0,1.23006,363.076,4.53313,185.057,11.4037,157.815,0.705179,0.117709,243.478,1.3374,1.69085,20.0425796508789,21.9994239807129,8.15511131286621,22.0,-1149170.0,5229.96,pp-ro,1,1,-1,-1
1570535030.5,2019-10-08,13:43:50.500,14.0,13.0,20.3600006103516,22.9,0.7,-0.5,49.1,13.6,-16.4,25.2009,2.68191,1.20878,-5.63631,-6.84847,-15.5448,46.2378,3.3169699999999995,-16.292,-0.0928915,0.0836463,-1.05828,269.8,4.8,52.1701,4.42718,-2.0,1.24779,375.475,4.53321,185.349,13.6838,157.615,0.7033689999999999,0.10549,243.688,1.25355,1.62169,17.9306793212891,21.9994239807129,6.83502388000488,22.0,-1148740.0,2430.39,pp-ro,1,1,-1,-1
1570535030.6,2019-10-08,13:43:50.600,14.0,14.0,20.3600006103516,22.7,-0.3,-1.5,49.2,17.0,-20.2,24.7813,1.41982,-0.409681,-1.85034,-8.322280000000001,-15.5794,45.9202,8.248610000000001,-19.8436,0.0469211999999999,0.0137397,-0.978413,269.8,4.8,52.1701,4.42718,-1.9,1.25888,381.03,4.53328,185.524,15.9639,157.515,0.702112,0.0932764,243.896,1.1745,1.5672,15.8221893310547,21.9994239807129,5.78826189041138,22.0,-1148530.0,3876.33,pp-ro,1,1,-1,-1
1570535030.7,2019-10-08,13:43:50.700,14.0,12.0,20.2800006866455,22.2,-1.3,-2.8,49.2,19.9,-24.0,24.1941,-0.457464,-2.53353,-0.954915,-9.40725,-11.9467,45.6693,14.4653,-25.377,-0.0616568,0.14139,-0.8919090000000001,269.8,4.8,52.1701,4.42718,-1.9,1.28769,402.444,4.53335,185.553,18.2439,157.516,0.7014819999999999,0.0810293,244.078,1.10245,1.50017,13.7239227294922,21.9994239807129,4.46511697769165,22.0,-1148070.0,2461.16,pp-ro,1,1,-1,-1
1570535030.8,2019-10-08,13:43:50.800,14.0,13.0,20.3199996948242,21.8,-2.6,-3.9,49.4,22.5,-27.1,23.0267,-2.17604,-4.40322,-18.3343,-18.5626,-13.285,45.4351,20.103,-29.9584,0.191513,0.000422745,-0.561195,269.8,4.8,52.1701,4.42718,-1.9,1.32315,422.154,4.53342,185.407,20.904,157.616,0.701441,0.0666988999999999,244.24400000000003,1.04401,1.43184,12.1297760009766,21.9994239807129,3.08883905410767,22.0,-1147720.0,3599.45,pp-ro,1,1,-1,-1
1570535030.9,2019-10-08,13:43:50.900,14.0,13.0,20.4899997711182,21.5,-3.7,-4.9,49.2,24.2,-30.0,22.9347,-2.87578,-5.0279300000000005,-0.5967439999999999,-14.3571,-8.16424,45.2283,21.4721,-31.4941,-0.0212572999999999,0.0303486,-0.714481,269.8,4.8,52.1701,4.42718,-1.9,1.33423,430.365,4.5334900000000005,185.202,22.804,157.816,0.702015,0.0563870999999999,244.388,0.99683,1.37085,10.0451354980469,21.9994239807129,1.83262872695923,22.0,-1147540.0,3445.62,pp-ro,1,1,-1,-1
1570535031.0,2019-10-08,13:43:51.000,14.0,12.0,20.8299999237061,21.0,-4.6,-5.8,49.0,25.4,-33.2,22.9347,-2.87578,-5.0279300000000005,-0.5967439999999999,-14.3571,-8.16424,45.2283,21.4721,-31.4941,-0.0212572999999999,0.0303486,-0.714481,276.6,4.2,52.1701,4.42718,-1.9,1.3647,440.57,4.53356,184.793,25.0841,158.116,0.70325,0.0439489,244.496,0.953917,1.31758,7.589202880859379,21.9994239807129,0.69473934173584,22.0,-1147200.0,4214.73,pp-ro,1,1,-1,-1
1570535031.1,2019-10-08,13:43:51.100,14.0,11.0,21.2099990844727,20.6,-5.5,-6.4,49.1,26.7,-35.5,22.5433,-3.4653,-5.55781,-9.65008,-7.71604,-7.948289999999999,45.1569,22.8828,-32.783,0.178024,0.00644153,-0.656267,276.6,4.2,52.1701,4.42718,-1.9,1.37302,454.293,4.53364,184.384,27.3641,158.516,0.70472,0.0314141999999999,244.691,0.920198,1.27564,6.662689208984379,21.9994239807129,-0.2297432124614719,22.0,-1146690.0,4645.44,pp-ro,1,1,-1,-1
1570535031.2,2019-10-08,13:43:51.200,14.0,11.0,21.6599998474121,20.3,-6.4,-6.9,49.0,27.5,-37.8,21.2375,-5.72792,-7.560980000000001,-1.12222,-5.19336,-0.161648,44.86,27.4213,-38.9148,0.00602877,-0.110043,-0.3116489999999999,276.6,4.2,52.1701,4.42718,-1.9,1.42842,473.361,4.53373,183.829,29.2641,159.016,0.706963,0.0207952,244.818,0.891259,1.23794,4.833518981933589,21.9994239807129,-1.11655700206757,22.0,-1146100.0,5506.84,pp-ro,1,1,-1,-1
1570535031.3,2019-10-08,13:43:51.300,14.0,11.0,22.0599994659424,19.7,-6.8,-7.2,48.7,28.0,-39.9,20.9652,-6.21555,-7.75346,-5.83737,-9.70353,-7.13674,44.5563,27.8205,-40.0883,0.00509336,-0.0652591,-0.390841,276.6,4.2,52.1701,4.42718,-1.9,1.4217799999999998,470.685,4.53381,183.158,31.5442,159.516,0.709285,0.00802778,244.923,0.869524,1.2147,3.1644439697265603,21.9994239807129,-1.7230659723281898,22.0,-1145700.0,7691.12,pp-ro,1,1,-1,-1
1570535031.4,2019-10-08,13:43:51.400,14.0,11.0,22.5400009155273,19.6,-7.3,-7.5,48.9,28.5,-41.0,20.7226,-6.43077,-7.96788,1.05694,-6.34454,-10.2257,44.5435,28.4825,-40.913,-0.0292355,-0.0079951,-0.457485,276.6,4.2,52.1701,4.42718,-1.9,1.4068200000000002,461.444,4.53389,182.486,33.4442,160.116,0.712017,-0.00276323,245.065,0.858094,1.19773,1.32505035400391,21.9994239807129,-2.23535585403442,22.0,-1145010.0,7106.6,pp-ro,1,1,-1,-1
1570535031.5,2019-10-08,13:43:51.500,14.0,11.0,22.8099994659424,19.4,-7.8,-7.6,49.1,28.6,-42.0,19.9857,-7.25525,-8.32209,-1.3306,-3.37885,0.430622,44.7003,30.1705,-43.1149,0.0808852,-0.00907202,-0.0390048,276.6,4.2,52.1701,4.42718,-1.9,1.39186,456.546,4.533980000000001,181.697,35.7242,160.716,0.714801,-0.0156848999999999,245.193,0.8538479999999999,1.18665,0.068130493164063,21.9994239807129,-2.64049816131592,22.0,-1144050.0,5599.14,pp-ro,1,1,-1,-1
1570535031.6,2019-10-08,13:43:51.600,14.0,11.0,23.0400009155273,19.0,-7.9,-7.5,48.7,28.0,-43.0,19.7668,-7.50778,-8.145610000000001,-9.73571,1.98492,3.95733,44.7738,30.1525,-43.7562,-0.0223276,-0.0596244,-0.0196234,276.6,4.2,52.1701,4.42718,-1.7,1.39518,457.117,4.53406,180.879,37.2442,161.316,0.7179909999999999,-0.0247409,245.209,0.854808,1.18446,-1.02065277099609,21.9994239807129,-2.902973890304569,22.0,-1143750.0,5783.72,pp-ro,1,1,-1,-1
1570535031.7,2019-10-08,13:43:51.700,14.0,11.0,23.190000534057603,19.1,-8.1,-7.5,49.1,28.1,-42.9,19.7668,-7.50778,-8.145610000000001,-9.73571,1.98492,3.95733,44.7738,30.1525,-43.7562,-0.0223276,-0.0596244,-0.0196234,276.6,4.2,52.1701,4.42718,-1.7,1.3913,454.461,4.53415,180.09099999999998,39.5243,161.916,0.720629,-0.0377999,245.381,0.8635450000000001,1.1904,-1.88086700439453,21.9994239807129,-2.97541785240173,22.0,-1142900.0,5199.2,pp-ro,1,1,-1,-1
1570535031.8,2019-10-08,13:43:51.800,14.0,10.0,23.3099994659424,19.0,-8.4,-7.3,49.4,27.4,-43.4,19.7668,-7.50778,-8.145610000000001,-9.73571,1.98492,3.95733,44.7738,30.1525,-43.7562,-0.0223276,-0.0596244,-0.0196234,276.6,4.2,52.1701,4.42718,-1.7,1.39241,453.225,4.53423,179.24400000000003,41.0443,162.516,0.7237939999999999,-0.046945,245.407,0.871605,1.19344,-2.51920318603516,21.9994239807129,-3.1518149375915496,22.0,-1142580.0,6491.31,pp-ro,1,1,-1,-1
1570535031.9,2019-10-08,13:43:51.900,14.0,10.0,23.350000381469695,18.8,-8.5,-7.0,49.9,26.4,-43.0,19.6169,-8.041730000000001,-7.65677,-4.359030000000001,-2.34928,-0.844924,45.4132,29.3684,-43.9958,0.0278351,-0.0470413,0.122442,276.6,4.2,52.1701,4.42718,-1.7,1.3796700000000002,452.538,4.53431,178.338,43.3243,163.116,0.72659,-0.0602401999999999,245.537,0.896575,1.20479,-2.93565368652344,21.9994239807129,-3.14921355247498,22.0,-1141940.0,5137.67,pp-ro,1,1,-1,-1
1570535032.0,2019-10-08,13:43:52.000,14.0,10.0,23.3099994659424,19.0,-8.5,-6.6,50.2,25.9,-42.7,19.6169,-8.041730000000001,-7.65677,-4.359030000000001,-2.34928,-0.844924,45.4132,29.3684,-43.9958,0.0278351,-0.0470413,0.122442,276.1,4.2,52.1701,4.42718,-1.7,1.36526,437.432,4.5344,177.491,45.6043,163.716,0.729143,-0.0735063,245.735,0.914734,1.23085,-3.11998748779297,21.9994239807129,-2.84538459777832,22.0,-1140950.0,9014.0,pp-ro,1,1,-1,-1
1570535032.1,2019-10-08,13:43:52.100,14.0,11.0,23.2700004577637,19.2,-8.4,-6.3,50.8,25.2,-42.5,19.7545,-8.18473,-6.74184,2.66824,-0.714158,1.0339,46.5838,27.7131,-42.9399,0.0761223999999999,-0.13863,0.163818,276.1,4.2,52.1701,4.42718,-1.7,1.34753,432.556,4.53448,176.615,47.1243,164.21599999999998,0.731915,-0.0828395,245.724,0.931374,1.25353,-3.11656951904297,21.9994239807129,-2.63438510894775,22.0,-1140610.0,6583.6,pp-ro,1,1,-1,-1
1570535032.2,2019-10-08,13:43:52.200,14.0,10.0,23.1599998474121,19.4,-8.5,-5.8,51.2,24.6,-42.5,19.7545,-8.18473,-6.74184,2.66824,-0.714158,1.0339,46.5838,27.7131,-42.9399,0.0761223999999999,-0.13863,0.163818,276.1,4.2,52.1701,4.42718,-1.7,1.3525200000000002,434.923,4.53457,175.709,49.4044,164.717,0.734164,-0.0962741999999999,245.858,0.94734,1.28035,-2.93224334716797,21.9994239807129,-2.3150200843811004,22.0,-1140120.0,5260.73,pp-ro,1,1,-1,-1
1570535032.3,2019-10-08,13:43:52.300,14.0,10.0,23.0799999237061,19.4,-8.5,-5.6,51.4,23.6,-42.8,20.0856,-8.412889999999999,-5.59817,3.42625,-0.973096,4.76605,46.8451,24.81,-43.9433,0.00332121,-0.398047,0.0259889999999999,276.1,4.2,52.1701,4.42718,-1.7,1.37579,444.942,4.53466,174.775,50.9244,165.217,0.7369829999999999,-0.105745,245.837,0.961711,1.29324,-2.6779327392578103,21.9994239807129,-2.33133840560913,22.0,-1139500.0,3537.92,pp-ro,1,1,-1,-1
1570535032.4,2019-10-08,13:43:52.400,14.0,11.0,22.8899993896484,19.4,-8.3,-4.7,51.4,23.1,-43.0,20.2709,-8.47133,-5.03382,2.57693,0.401844,7.203069999999999,47.4084,23.0855,-44.2683,0.0934373999999999,-0.2787989999999999,0.1731,276.1,4.2,52.1701,4.42718,-1.7,1.378,441.125,4.53474,173.928,53.2044,165.417,0.738021,-0.11917,245.854,0.974244,1.33687,-2.40484619140625,21.9994239807129,-1.58800768852234,22.0,-1139150.0,6429.78,pp-ro,1,1,-1,-1
1570535032.5,2019-10-08,13:43:52.500,14.0,11.0,22.8600006103516,19.6,-8.1,-4.2,51.6,20.9,-42.7,20.3105,-8.18857,-4.52804,2.1091900000000003,1.22576,3.79911,47.7732,21.3738,-44.6797,0.1917559999999999,-0.215299,0.2026,276.1,4.2,52.1701,4.42718,-1.7,1.34587,431.427,4.53483,173.08,54.7244,166.017,0.740803,-0.128672,245.99400000000003,1.00988,1.36896,-2.31268310546875,21.9994239807129,-1.24660789966583,22.0,-1138440.0,6399.01,pp-ro,1,1,-1,-1
1570535032.6,2019-10-08,13:43:52.600,14.0,11.0,22.780000686645497,19.5,-7.9,-3.5,51.8,19.6,-42.6,20.4592,-8.13355,-3.71558,2.55946,-1.26109,6.11562,48.615,19.7115,-44.46,0.234886,-0.164663,0.4181939999999999,276.1,4.2,52.1701,4.42718,-1.6,1.34864,429.633,4.53491,172.233,57.0045,166.217,0.741688,-0.142149,246.053,1.0356299999999998,1.40523,-2.1112823486328103,21.9994239807129,-0.653617858886719,22.0,-1137910.0,5383.79,pp-ro,1,1,-1,-1
1570535032.7,2019-10-08,13:43:52.700,14.0,12.0,22.6299991607666,19.3,-7.5,-3.0,52.0,19.3,-41.3,20.3552,-8.02037,-3.44237,-3.30524,4.54284,7.14876,48.8557,18.9192,-44.2098,0.348771,0.0633161999999999,0.192651,276.1,4.2,52.1701,4.42718,-1.6,1.33091,412.08,4.535,171.416,58.9045,166.517,0.743047,-0.153605,246.132,1.0627799999999998,1.43797,-1.5855941772460902,21.9994239807129,-0.183378607034683,22.0,-1137080.0,5722.19,pp-ro,1,1,-1,-1
1570535032.8,2019-10-08,13:43:52.800,14.0,12.0,22.2700004577637,19.3,-7.6,-2.6,52.2,18.1,-41.1,20.3552,-8.02037,-3.44237,-3.30524,4.54284,7.14876,48.8557,18.9192,-44.2098,0.348771,0.0633161999999999,0.192651,276.1,4.2,52.1701,4.42718,-1.6,1.31484,399.226,4.53509,170.627,60.8045,166.61700000000002,0.743668,-0.165026,246.114,1.08734,1.45677,-0.9950485229492192,21.9994239807129,0.084246963262558,22.0,-1136640.0,8183.35,pp-ro,1,1,-1,-1
1570535032.9,2019-10-08,13:43:52.900,14.0,10.0,21.9899997711182,19.1,-7.2,-2.1,52.2,16.1,-40.7,20.3552,-8.02037,-3.44237,-3.30524,4.54284,7.14876,48.8557,18.9192,-44.2098,0.348771,0.0633161999999999,0.192651,276.1,4.2,52.1701,4.42718,-1.6,1.26275,388.454,4.53517,169.86700000000002,62.7045,166.817,0.7444470000000001,-0.176405,246.201,1.12405,1.49065,-0.356719970703125,21.9994239807129,0.630236089229584,22.0,-1135970.0,5199.2,pp-ro,1,1,-1,-1
1570535033.0,2019-10-08,13:43:53.000,14.0,12.0,21.7099990844727,18.6,-7.1,-1.5,52.6,16.0,-39.5,19.9945,-7.505539999999999,-1.99607,-9.19241,6.998189999999999,6.45592,49.9837,16.1497,-43.1081,0.290087,-0.311618,0.0717396999999999,269.6,4.7,52.1701,4.42718,-1.6,1.28104,383.622,4.53526,169.108,64.6046,166.917,0.7448640000000001,-0.187791,246.237,1.1475799999999998,1.51565,0.090263366699219,21.9994239807129,-35.0,22.0,-1135630.0,3876.33,pp-ro,1,1,-1,-1
1570535033.1,2019-10-08,13:43:53.100,14.0,13.0,21.4300003051758,18.5,-6.8,-1.5,52.7,15.6,-39.1,19.9945,-7.505539999999999,-1.99607,-9.19241,6.998189999999999,6.45592,49.9837,16.1497,-43.1081,0.290087,-0.311618,0.0717396999999999,269.6,4.7,52.1701,4.42718,-1.6,1.20402,344.086,4.53532,168.75799999999998,65.3646,167.017,0.745312,-0.192433,246.265,1.16044,1.52662,0.590988159179688,21.9994239807129,-35.0,22.0,-1134560.0,6706.66,pp-ro,1,1,-1,-1
1570535033.2,2019-10-08,13:43:53.200,14.0,12.0,21.1800003051758,18.4,-6.9,-1.1,52.6,14.8,-39.2,19.3805,-7.0756,-1.21265,-3.81868,4.22361,4.6099,50.7005,15.7074,-41.7895,-0.0393702,0.0850876999999999,0.132859,269.6,4.7,52.1701,4.42718,-1.6,1.18961,347.602,4.53537,168.05599999999998,67.6446,167.017,0.7448020000000001,-0.205651,246.401,1.17809,1.54584,0.8243179321289059,21.9994239807129,-35.0,22.0,-1134170.0,2922.63,pp-ro,1,1,-1,-1
1570535033.3,2019-10-08,13:43:53.300,14.0,13.0,20.7600002288818,18.1,-6.8,-0.7,52.3,14.5,-39.6,19.2167,-7.11997,-0.814602,0.516098,0.346298,3.64336,50.6354,14.6814,-41.2022,-0.0971136,-0.0248744,0.0438698,269.6,4.7,52.1701,4.42718,-1.6,1.20347,350.237,4.53543,167.355,69.1646,167.11700000000002,0.7453069999999999,-0.214911,246.414,1.18331,1.56624,0.737457275390625,21.9994239807129,-35.0,22.0,-1134080.0,1538.22,pp-ro,1,1,-1,-1
1570535033.4,2019-10-08,13:43:53.400,14.0,13.0,20.4599990844727,17.8,-6.5,-0.4,51.9,13.5,-40.4,19.2167,-7.11997,-0.814602,0.516098,0.346298,3.64336,50.6354,14.6814,-41.2022,-0.0971136,-0.0248744,0.0438698,269.6,4.7,52.1701,4.42718,-1.6,1.21012,345.112,4.535480000000001,166.625,71.0646,167.11700000000002,0.745136,-0.2262289999999999,246.46,1.19371,1.59124,0.269096374511719,21.9994239807129,-35.0,22.0,-1133670.0,5353.02,pp-ro,1,1,-1,-1
1570535033.5,2019-10-08,13:43:53.500,14.0,13.0,20.159999847412102,17.7,-6.5,-0.2,52.0,13.0,-40.5,18.5292,-6.72105,-0.0747964,-6.45833,-2.04856,5.8263300000000005,50.2189,13.3271,-42.2801,-0.275894,0.0335685,0.0885838,269.6,4.7,52.1701,4.42718,-1.6,1.18574,340.82,4.53554,165.983,72.5847,167.11700000000002,0.745101,-0.235395,246.469,1.20496,1.60391,-0.559822082519531,21.9994239807129,-35.0,22.0,-1133190.0,3784.03,pp-ro,1,1,-1,-1
1570535033.6,2019-10-08,13:43:53.600,14.0,13.0,19.770000457763697,17.5,-6.6,0.3,51.4,12.0,-40.5,18.5292,-6.72105,-0.0747964,-6.45833,-2.04856,5.8263300000000005,50.2189,13.3271,-42.2801,-0.275894,0.0335685,0.0885838,269.6,4.7,52.1701,4.42718,-1.6,1.1840700000000002,328.80800000000005,4.53559,165.31099999999998,74.4847,167.11700000000002,0.7446699999999999,-0.246536,246.584,1.225,1.6251,-1.7682189941406203,21.9994239807129,-35.0,22.0,-1132850.0,3968.62,pp-ro,1,1,-1,-1
1570535033.7,2019-10-08,13:43:53.700,14.0,14.0,19.4500007629395,17.4,-6.0,0.7,51.7,10.4,-39.7,18.0189,-6.55165,0.730646,-5.38967,-2.69203,7.077380000000001,50.5405,12.5755,-41.2271,-0.0530673,0.0485861999999999,0.11356,269.6,4.7,52.1701,4.42718,-1.6,1.11094,287.455,4.53565,164.347,76.7647,167.11700000000002,0.7444649999999999,-0.260236,246.639,1.26398,1.66995,-3.3213882446289102,21.9994239807129,-35.0,22.0,-1131980.0,5968.31,pp-ro,1,1,-1,-1
1570535033.8,2019-10-08,13:43:53.800,14.0,14.0,19.1800003051758,17.6,-5.8,0.9,52.4,10.1,-39.5,18.0189,-6.55165,0.730646,-5.38967,-2.69203,7.077380000000001,50.5405,12.5755,-41.2271,-0.0530673,0.0485861999999999,0.11356,269.6,4.7,52.1701,4.42718,-1.6,1.07658,282.313,4.53571,164.02599999999998,77.5247,167.017,0.744078,-0.264837,246.595,1.2733,1.69009,-5.22785186767578,21.9994239807129,-35.0,22.0,-1131600.0,2768.8,pp-ro,1,1,-1,-1
1570535033.9,2019-10-08,13:43:53.900,14.0,12.0,19.0400009155273,17.9,-5.6,1.6,52.6,8.5,-39.4,17.9275,-6.146,0.97049,4.18181,3.6495,5.87402,50.6499,11.5347,-40.8055,0.292095,-0.0543683,0.125476,269.6,4.7,52.1701,4.42718,-1.6,1.10429,294.047,4.53579,163.441,79.8048,166.918,0.742516,-0.277628,246.867,1.30341,1.7357599999999995,-7.33913421630859,21.9994239807129,-35.0,22.0,-1131490.0,1199.82,pp-ro,1,1,-1,-1
1570535034.0,2019-10-08,13:43:54.000,14.0,12.0,18.9500007629395,18.2,-5.3,2.4,53.1,6.6,-38.7,18.2151,-5.79357,2.12951,-0.988713,-0.448219,8.630980000000001,51.2393,9.82682,-39.734,-0.170052,-0.18848,0.27715,265.5,6.0,52.1701,4.42718,-1.6,1.11315,298.206,4.535819999999999,162.828,81.7048,166.81799999999998,0.7414149999999999,-0.288504,247.016,1.34334,1.7864099999999998,-9.44871520996094,21.9994239807129,-35.0,22.0,-1131380.0,2368.87,pp-ro,1,1,-1,-1
1570535034.1,2019-10-08,13:43:54.100,14.0,15.0,18.8500003814697,18.5,-4.6,3.1,54.0,4.2,-37.5,18.4271,-4.90707,3.2072,6.7858,7.0681,11.602,52.9725,7.41288,-37.547,0.30318,-0.0303272,0.448577,265.5,6.0,52.1701,4.42718,-1.6,1.10927,289.401,4.535830000000001,162.361,83.2248,166.518,0.739779,-0.297114,247.013,1.39427,1.84489,-11.5616989135742,21.9994239807129,-35.0,22.0,-1130910.0,4214.73,pp-ro,1,1,-1,-1
1570535034.2,2019-10-08,13:43:54.200,14.0,13.0,18.8999996185303,18.9,-4.1,4.1,55.1,1.4,-36.4,18.5261,-4.62574,3.63206,5.06912,5.5419,8.19802,53.1663,6.10455,-36.8988,0.191464,-0.039477,0.765516,265.5,6.0,52.1701,4.42718,-1.6,1.0921,290.87,4.53586,161.893,85.5048,166.218,0.7371439999999999,-0.309378,247.283,1.4519,1.90806,-13.659332275390598,21.9994239807129,-35.0,22.0,-1130570.0,2584.22,pp-ro,1,1,-1,-1
1570535034.3,2019-10-08,13:43:54.300,14.0,12.0,18.8999996185303,19.6,-3.5,5.3,56.3,-2.5,-35.1,18.9298,-4.03326,4.70753,5.0429,7.42575,10.9513,54.6217,3.30852,-34.607,0.346625,0.0418048,0.673547,265.5,6.0,52.1701,4.42718,-1.6,1.11426,297.05,4.53587,161.484,87.0249,165.81799999999998,0.734982,-0.31776,247.277,1.52373,1.97545,-15.7723159790039,21.9994239807129,-35.0,22.0,-1130430.0,1784.34,pp-ro,1,1,-1,-1
1570535034.4,2019-10-08,13:43:54.400,14.0,12.0,18.8500003814697,19.7,-2.7,6.6,57.6,-7.5,-33.0,19.2218,-3.23565,5.87885,-1.45814,6.94488,16.4223,56.2125,0.191619,-31.717,0.466462,0.1920089999999999,0.916489,265.5,6.0,52.1701,4.42718,-1.6,1.12035,301.60400000000004,4.5359,161.134,89.3049,165.218,0.731054,-0.329596,247.46,1.62227,2.05338,-17.8818893432617,21.9994239807129,-35.0,22.0,-1130280.0,2799.57,pp-ro,1,1,-1,-1
1570535034.5,2019-10-08,13:43:54.500,14.0,13.0,18.9500007629395,20.3,-1.6,7.9,60.2,-11.1,-29.8,19.2218,-3.23565,5.87885,-1.45814,6.94488,16.4223,56.2125,0.191619,-31.717,0.466462,0.1920089999999999,0.916489,265.5,6.0,52.1701,4.42718,-1.6,1.1331,315.922,4.53592,160.929,90.8249,164.518,0.727428,-0.337337,247.414,1.7122,2.13203,-19.9931716918945,21.9994239807129,-35.0,22.0,-1130080.0,1322.87,pp-ro,1,1,-1,-1
1570535034.6,2019-10-08,13:43:54.600,14.0,12.0,19.270000457763697,20.6,-0.5,9.9,61.2,-14.7,-25.9,19.1207,-2.80003,6.47757,1.72853,11.2007,11.345,56.8483,-1.93781,-30.203000000000003,0.413666,-0.0394788,0.949956,265.5,6.0,52.1701,4.42718,-1.7,1.16413,323.228,4.53594,160.783,93.105,163.718,0.722317,-0.348426,247.635,1.81163,2.2286,-22.1095733642578,21.9994239807129,-35.0,22.0,-1129700.0,4368.56,pp-ro,1,1,-1,-1
1570535034.7,2019-10-08,13:43:54.700,14.0,11.0,19.7600002288818,20.6,1.0,12.0,61.9,-20.6,-22.7,19.1207,-2.80003,6.47757,1.72853,11.2007,11.345,56.8483,-1.93781,-30.203000000000003,0.413666,-0.0394788,0.949956,265.5,6.0,52.1701,4.42718,-1.7,1.15582,322.045,4.53596,160.783,95.005,162.618,0.7164229999999999,-0.357257,247.632,1.93136,2.3345700000000003,-24.225975036621104,21.9994239807129,-35.0,22.0,-1129500.0,3876.33,pp-ro,1,1,-1,-1
1570535034.8,2019-10-08,13:43:54.800,14.0,12.0,20.159999847412102,20.4,2.7,13.7,63.2,-26.7,-20.0,19.1624,-2.21214,7.121160000000001,3.75644,15.1442,13.7035,57.6991,-4.052169999999999,-28.7731,0.288525,-0.151691,0.8416620000000001,265.5,6.0,52.1701,4.42718,-1.7,1.1536,319.684,4.53598,160.987,97.285,161.418,0.709208,-0.367171,247.865,2.04819,2.43382,-26.3423767089844,21.9994239807129,-35.0,22.0,-1129200.0,3014.92,pp-ro,1,1,-1,-1
1570535034.9,2019-10-08,13:43:54.900,14.0,11.0,20.5,19.7,4.3,15.5,63.8,-34.0,-17.7,19.2225,2.50754,13.1903,-3.97426,16.669,12.1044,59.8021,-21.4376,-14.22,0.267285,0.173453,1.29269,265.5,6.0,52.1701,4.42718,-1.7,1.1608,329.88300000000004,4.5360000000000005,161.308,99.1851,160.118,0.701913,-0.374893,247.984,2.17491,2.53329,-28.4536590576172,21.9994239807129,-35.0,22.0,-1128870.0,2861.1,pp-ro,1,1,-1,-1
1570535035.0,2019-10-08,13:43:55.000,14.0,11.0,20.590000152587898,18.3,6.0,16.9,63.2,-40.5,-12.7,18.8424,3.34542,14.0244,-9.33733,18.3186,17.2306,59.7298,-24.6629,-12.1244,0.2913969999999999,-0.0612848,1.30515,267.6,4.5,52.1701,4.42718,-1.7,1.19128,350.582,4.53603,161.805,101.085,158.618,0.693593,-0.382034,248.11,2.31436,2.63891,-30.4181671142578,21.9994239807129,-35.0,22.0,-1128740.0,1076.76,pp-ro,1,1,-1,-1
1570535035.1,2019-10-08,13:43:55.100,14.0,13.0,20.9699993133545,16.8,7.7,18.1,60.4,-47.8,-5.3,16.1611,6.43949,16.4388,-14.753,15.731,4.96696,55.5883,-37.2681,0.577916,0.427635,0.27409,1.56484,267.6,4.5,52.1701,4.42718,-1.7,1.21289,345.25699999999995,4.53603,162.447,102.605,157.118,0.685462,-0.386984,248.199,2.47847,2.74072,-32.046417236328104,21.9994239807129,-35.0,22.0,-1128180.0,6152.9,pp-ro,1,1,-1,-1
1570535035.2,2019-10-08,13:43:55.200,14.0,14.0,21.5,14.6,9.7,19.3,57.3,-54.4,4.4,16.1611,6.43949,16.4388,-14.753,15.731,4.96696,55.5883,-37.2681,0.577916,0.427635,0.27409,1.56484,267.6,4.5,52.1701,4.42718,-1.7,1.17244,333.173,4.53603,163.32299999999998,104.505,155.418,0.675686,-0.392864,248.497,2.64296,2.86694,-33.2957763671875,21.9994239807129,-35.0,22.0,-1127660.0,4399.32,pp-ro,1,1,-1,-1
1570535035.3,2019-10-08,13:43:55.300,14.0,9.0,22.1800003051758,12.1,11.6,19.8,48.5,-58.4,18.2,15.486,7.27988,16.8635,-17.2928,11.367,5.50685,53.2262,-40.4521,5.52366,0.374698,0.358216,1.63352,267.6,4.5,52.1701,4.42718,-1.7,1.17133,324.67400000000004,4.53604,164.34599999999998,105.645,153.718,0.666637,-0.394961,248.595,2.7973,2.99042,-34.2003784179688,21.9994239807129,-35.0,22.0,-1127520.0,2676.51,pp-ro,1,1,-1,-1
1570535035.4,2019-10-08,13:43:55.400,14.0,9.0,22.3400001525879,9.8,13.6,20.0,36.4,-62.6,34.3,15.486,7.27988,16.8635,-17.2928,11.367,5.50685,53.2262,-40.4521,5.52366,0.374698,0.358216,1.63352,267.6,4.5,52.1701,4.42718,-1.7,1.13476,296.16,4.53604,165.543,107.165,152.018,0.656726,-0.398167,248.995,2.95846,3.1095200000000003,-34.778976440429695,21.9994239807129,-35.0,22.0,-1126930.0,7291.18,pp-ro,1,1,-1,-1
1570535035.5,2019-10-08,13:43:55.500,14.0,10.0,22.4899997711182,7.1,15.0,20.4,22.2,-64.6,53.9,14.5551,8.23858,17.4257,-14.0176,19.1846,17.8553,51.099,-43.4836,10.5443,0.301281,0.6090270000000001,1.52206,267.6,4.5,52.1701,4.42718,-1.7,1.086,289.722,4.53603,166.945,107.925,150.218,0.647109,-0.3975309999999999,249.166,3.117,3.22467,-34.965011596679695,21.9994239807129,-23.0,22.0,-1126500.0,2153.51,pp-ro,1,1,-1,-1
1570535035.6,2019-10-08,13:43:55.600,14.0,8.0,22.2900009155273,4.7,16.1,20.6,6.7,-63.4,73.6,7.56645,12.834,18.6654,-23.4276,12.7304,2.62371,23.6182,-52.9112,51.9214,0.303203,0.302578,1.61555,267.6,4.5,52.1701,4.42718,-1.8,1.1331,319.764,4.53605,168.405,108.305,148.618,0.638524,-0.395188,249.354,3.27025,3.32164,-34.9445190429688,21.9994239807129,-23.0,22.0,-1126480.0,0.0,pp-ro,1,1,-1,-1
