time,date,time_of_day,airspeed_temperature,airspeed_angle_of_attack,airspeed_apparent_windspeed,kite_0_vx,kite_0_vy,kite_0_vz,kite_0_roll,kite_0_pitch,kite_0_yaw,kite_1_vx,kite_1_vy,kite_1_vz,kite_1_ax,kite_1_ay,kite_1_az,kite_1_roll,kite_1_pitch,kite_1_yaw,kite_1_roll_rate,kite_1_pitch_rate,kite_1_yaw_rate,ground_upwind_direction,ground_wind_velocity,ground_pos_latitude,ground_pos_longitude,ground_pos_altitude,ground_tether_reelout_speed,ground_tether_force,est_upwind_direction,kite_pos_east,kite_pos_north,kite_height,kite_elevation,kite_azimuth,kite_distance,kite_heading,kite_course,kite_actual_steering,kite_actual_depower,kite_set_steering,kite_set_depower,ground_mech_energy,ground_mech_power,flight_phase,flight_phase_index,phase,pattern,pattern_section
1570539576.9,2019-10-08,14:59:36.900,15.0,8.0,15.3100004196167,10.9,-3.2,1.1,16.1,3.8,-69.6,10.2194,-2.25787,1.78368,7.83615,7.10968,3.41808,19.5069,16.9775,-69.0618,0.112746,0.1615609999999999,0.907121,263.9,7.3,52.1701,4.42718,-5.3,-2.13266,111.822,4.41438,76.5532,-4.93959,235.179,1.25549,0.3624489999999999,247.374,0.299465,1.26558,-34.002395629882805,22.0704860687256,-35.0,22.0,231241.0,1045.99,pp-riro,4,0,-1,-1
1570539577.0,2019-10-08,14:59:37.000,15.0,8.0,15.0799999237061,12.0,-2.4,1.4,18.2,2.9,-64.8,10.2194,-2.25787,1.78368,7.83615,7.10968,3.41808,19.5069,16.9775,-69.0618,0.112746,0.1615609999999999,0.907121,263.9,7.3,52.1701,4.42718,-5.3,-2.06617,109.458,4.41442,76.2319,-3.79955,235.079,1.25685,0.3477659999999999,247.16,0.401578,1.36995,-34.657791137695305,22.0359840393066,-35.0,22.0,231306.0,646.054,pp-riro,4,0,-1,-1
1570539577.1,2019-10-08,14:59:37.100,15.0,8.0,14.8999996185303,12.9,-1.6,1.7,20.3,1.3,-59.7,11.2103,-1.47886,1.99393,8.65226,8.96239,2.59881,21.9094,16.1819,-63.3236,0.259029,0.2592,0.929361,263.9,7.3,52.1701,4.42718,-5.3,-2.0484400000000003,108.95,4.41447,76.0274,-2.65951,234.979,1.2577,0.332883,246.987,0.5113979999999999,1.4601,-34.9496459960938,22.0128116607666,-35.0,22.0,231291.0,-276.88,pp-riro,4,0,-1,-1
1570539577.2,2019-10-08,14:59:37.200,15.0,9.0,14.6599998474121,14.0,-0.7,2.0,22.6,-0.3,-54.7,12.1001,-0.54047,2.35826,6.485930000000001,7.9229,0.308359,24.2292,15.1433,-57.4042,0.166048,0.203034,0.953979,263.9,7.3,52.1701,4.42718,-5.3,-2.01076,106.802,4.41452,75.8522,-1.13946,234.879,1.25839,0.312889,246.826,0.625393,1.55282,-34.970123291015604,22.0019989013672,-35.0,22.0,231166.0,-1292.11,pp-riro,4,0,-1,-1
1570539577.3,2019-10-08,14:59:37.300,15.0,9.0,14.4799995422363,14.8,0.2,2.5,24.6,-2.1,-49.7,13.4038,0.766833,2.97055,8.12771,9.83699,4.85836,27.8413,12.7358,-48.683,0.103755,0.233762,0.92205,258.0,6.6,52.1701,4.42718,-5.3,-1.98639,103.697,4.414569999999999,75.7937,0.000578718,234.679,1.2584,0.297811,246.615,0.735716,1.63549,-34.970123291015604,22.0009689331055,-35.0,22.0,230999.0,-1384.4,pp-riro,4,0,-1,-1
1570539577.4,2019-10-08,14:59:37.400,15.0,9.0,14.289999961853,15.6,1.2,2.8,26.3,-3.8,-44.8,13.7595,1.28775,3.18136,6.62253,10.4584,3.43206,28.6325,11.8892,-45.8989,0.0483653,0.135858,0.916383,258.0,6.6,52.1701,4.42718,-5.3,-1.97697,100.604,4.4145900000000005,75.8521,1.90065,234.48,1.25784,0.272751,246.45,0.854532,1.72223,-34.971832275390604,22.0009689331055,-35.0,22.0,230476.0,-4676.2,pp-riro,4,0,-1,-1
1570539577.5,2019-10-08,14:59:37.500,15.0,9.0,14.2299995422363,16.4,2.3,3.3,28.0,-5.6,-39.7,14.7758,2.75738,3.79664,5.3260000000000005,8.503960000000001,5.09676,31.4738,8.70844,-37.6973,0.122101,0.188717,0.954485,258.0,6.6,52.1701,4.42718,-5.3,-1.98251,99.9902,4.4146,75.9981,3.42071,234.28,1.25682,0.252815,246.322,0.972296,1.80627,-34.9940185546875,22.0009689331055,-35.0,22.0,230213.0,-5014.61,pp-riro,4,0,-1,-1
1570539577.6,2019-10-08,14:59:37.600,15.0,8.0,14.109999656677198,17.0,3.4,3.8,29.3,-7.5,-34.6,15.3743,3.77921,4.23621,5.27866,8.815430000000001,4.96381,33.2272,6.48439,-32.0644,0.23303,0.164972,0.98267,258.0,6.6,52.1701,4.42718,-5.3,-1.98639,98.3581,4.414619999999999,76.2318,4.94076,234.08,1.25534,0.23305,246.23,1.09035,1.88544,-34.9940185546875,22.0009689331055,-35.0,22.0,229751.0,-4491.62,pp-riro,4,0,-1,-1
1570539577.7,2019-10-08,14:59:37.700,15.0,9.0,14.039999961853,17.5,4.5,4.3,30.7,-9.6,-29.5,16.0459,5.37786,4.94112,3.23565,9.7056,5.414569999999999,34.8878,2.88196,-23.916,0.0342609,0.21454,0.966914,258.0,6.6,52.1701,4.42718,-5.3,-2.01409,96.0526,4.414630000000001,76.6114,6.840839999999999,233.78,1.25294,0.2086989999999999,246.108,1.21395,1.96479,-34.9974365234375,22.0009689331055,-35.0,22.0,228855.0,-5814.49,pp-riro,4,0,-1,-1
1570539577.8,2019-10-08,14:59:37.800,15.0,9.0,13.9200000762939,17.8,5.7,4.8,31.6,-12.1,-24.5,16.0459,5.37786,4.94112,3.23565,9.7056,5.414569999999999,34.8878,2.88196,-23.916,0.0342609,0.21454,0.966914,258.0,6.6,52.1701,4.42718,-5.3,-2.03847,95.4584,4.41465,77.1079,8.3609,233.38,1.24995,0.1897309999999999,245.93,1.33257,2.04244,-34.9974365234375,22.0009689331055,-35.0,22.0,228241.0,-5814.49,pp-riro,4,0,-1,-1
1570539577.9,2019-10-08,14:59:37.900,15.0,9.0,13.9799995422363,18.1,7.0,5.2,32.4,-14.4,-19.5,16.3435,6.53009,5.41943,3.4560000000000004,14.0204,5.70558,35.7509,0.3320369999999999,-18.4826,-0.1193309999999999,0.145817,1.02399,258.0,6.6,52.1701,4.42719,-5.1,-2.05786,95.0707,4.41466,77.692,10.261,233.08,1.24645,0.1664119999999999,245.901,1.45391,2.12258,-34.9991455078125,22.0009689331055,-35.0,22.0,227894.0,-6583.6,pp-riro,4,0,-1,-1
1570539578.0,2019-10-08,14:59:38.000,15.0,9.0,14.1000003814697,18.2,8.2,5.8,33.0,-16.5,-14.2,16.5464,7.636239999999999,5.832990000000001,2.10095,11.8844,3.26041,36.2171,-2.11751,-13.0384,0.100247,0.2328309999999999,0.948718,258.0,6.6,52.1701,4.42719,-5.1,-2.0828,95.3532,4.414680000000001,78.393,11.781,232.58,1.2423,0.148543,245.719,1.57313,2.19582,-34.9974365234375,22.0009689331055,-35.0,22.0,227142.0,-7352.71,pp-riro,4,0,-1,-1
1570539578.1,2019-10-08,14:59:38.100,15.0,9.0,14.2299995422363,18.3,9.5,6.4,33.4,-18.9,-8.7,16.6807,8.76797,6.288130000000001,0.774517,11.3797,5.352,36.3497,-4.4844,-7.52061,0.0534901999999999,0.211457,1.03919,258.0,6.6,52.1701,4.42719,-5.1,-2.11161,100.219,4.4147,79.2692,13.6811,232.08,1.23715,0.1267859999999999,245.625,1.70023,2.2727,-34.9974365234375,22.0009689331055,-35.0,22.0,226479.0,-6706.66,pp-riro,4,0,-1,-1
1570539578.2,2019-10-08,14:59:38.200,15.0,9.0,14.289999961853,18.3,10.8,7.0,33.7,-21.2,-3.2,16.6757,9.89469,6.8098600000000005,-2.0284,11.4094,5.16257,36.3417,-6.824260000000001,-1.75675,0.136173,0.293957,0.991099,258.0,6.6,52.1701,4.42719,-5.1,-2.11937,104.873,4.41471,80.2622,15.5812,231.48,1.23127,0.105933,245.495,1.82452,2.347,-34.9974365234375,22.0009689331055,-35.0,22.0,226128.0,-2676.51,pp-riro,4,0,-1,-1
1570539578.3,2019-10-08,14:59:38.300,15.0,10.0,14.539999961853,18.2,12.1,7.6,33.3,-23.3,2.3,16.6114,11.6538,7.6107,-1.7998599999999998,12.2083,5.4023900000000005,35.6793,-10.2714,7.006289999999999,0.151801,0.278467,1.00049,256.9,6.2,52.1701,4.42719,-5.1,-2.10053,109.31,4.4147300000000005,81.3428,17.4813,230.88,1.22492,0.0859718,245.414,1.9451,2.41915,-34.9974365234375,22.0009689331055,-35.0,22.0,225953.0,-646.054,pp-riro,4,0,-1,-1
1570539578.4,2019-10-08,14:59:38.400,15.0,10.0,14.7799997329712,18.0,13.4,8.2,33.0,-25.3,8.0,16.5413,12.2784,7.894439999999999,0.655524,12.429,5.05698,35.3783,-11.3054,9.9543,0.255758,0.285632,1.00359,256.9,6.2,52.1701,4.42719,-5.1,-2.05565,116.058,4.41476,82.5695,19.0014,230.18,1.21809,0.0714383,245.279,2.06153,2.4853400000000003,-34.9974365234375,22.0009689331055,-35.0,22.0,226061.0,1692.05,pp-riro,4,0,-1,-1
1570539578.5,2019-10-08,14:59:38.500,15.0,10.0,15.140000343322802,17.8,14.8,8.9,32.7,-27.3,14.0,16.1464,14.1225,8.739939999999999,-2.15778,11.7335,8.55194,33.9985,-14.4323,19.1451,0.0854944,0.3295369999999999,1.05188,256.9,6.2,52.1701,4.42719,-5.1,-1.97918,125.86,4.4148,83.913,20.9015,229.38,1.2102700000000002,0.0534913,245.14,2.18383,2.55495,-34.9991455078125,22.0009689331055,-35.0,22.0,226389.0,4676.2,pp-riro,4,0,-1,-1
1570539578.6,2019-10-08,14:59:38.600,15.0,10.0,15.4300003051758,17.3,16.2,9.6,31.7,-29.3,20.3,15.7423,15.3852,9.39736,-4.40414,12.4991,5.06004,32.7448,-16.2678,25.6411,0.063817,0.257279,1.10139,256.9,6.2,52.1701,4.42719,-5.1,-1.7847,141.39700000000002,4.41483,85.4025,22.8015,228.48,1.20165,0.0366526,244.983,2.30748,2.628,-34.9991455078125,22.0009689331055,-35.0,22.0,227686.0,10459.9,pp-riro,4,0,-1,-1
1570539578.7,2019-10-08,14:59:38.700,15.0,11.0,15.880000114440902,16.7,17.6,10.3,30.8,-31.5,26.7,15.1687,16.6255,10.0702,-7.21909,12.7335,7.48825,31.1775,-18.1945,32.4067,0.103322,0.181072,1.0808,256.9,6.2,52.1701,4.42719,-5.1,-1.58357,148.982,4.41487,87.0381,24.7016,227.48,1.19225,0.0209894,244.812,2.4302,2.69928,-34.9974365234375,22.0009689331055,35.0,22.0,228957.0,13290.3,pp-riro,4,0,-1,-1
1570539578.8,2019-10-08,14:59:38.800,15.0,11.0,16.2099990844727,15.9,19.0,10.9,29.5,-33.3,33.5,15.1687,16.6255,10.0702,-7.21909,12.7335,7.48825,31.1775,-18.1945,32.4067,0.103322,0.181072,1.0808,256.9,6.2,52.1701,4.42719,-5.1,-1.35639,156.78799999999998,4.4149,88.8197,25.8417,226.48,1.18304,0.014356,244.643,2.54633,2.76418,-34.9991455078125,22.0009689331055,35.0,22.0,230258.0,13259.5,pp-riro,4,0,-1,-1
1570539578.9,2019-10-08,14:59:38.900,15.0,10.0,16.6399993896484,14.9,20.5,11.6,27.8,-35.1,40.7,15.1687,16.6255,10.0702,-7.21909,12.7335,7.48825,31.1775,-18.1945,32.4067,0.103322,0.181072,1.0808,256.9,6.2,52.1701,4.42719,-4.8,-1.21399,160.638,4.4149400000000005,90.7182,27.7418,225.38,1.17239,0.000679315,244.531,2.67156,2.84056,-34.743133544921896,22.0009689331055,35.0,22.0,230910.0,12982.6,pp-riro,4,0,-1,-1
1570539579.0,2019-10-08,14:59:39.000,15.0,10.0,16.8999996185303,13.7,21.6,12.2,25.9,-36.7,47.9,13.0407,19.8239,11.5059,-10.1956,15.6136,5.3659300000000005,26.3387,-22.622,49.8827,0.181912,0.150504,1.14495,256.9,6.2,52.1701,4.42719,-4.8,-0.935291,169.701,4.414969999999999,92.7626,29.2619,224.28,1.16159,-0.00815403,244.46400000000003,2.78895,2.90745,-34.0996704101562,22.0009689331055,-18.464443206787102,22.0,232146.0,11352.1,pp-riro,4,0,-1,-1
1570539579.1,2019-10-08,14:59:39.100,15.0,11.0,17.2099990844727,12.3,22.8,12.7,23.6,-37.6,55.8,11.7739,20.8735,12.0331,-12.7769,8.556610000000001,4.58098,24.0116,-24.2038,57.2492,0.0708805,0.239287,1.05994,256.9,6.2,52.1701,4.42719,-4.8,-0.415562,179.623,4.41501,94.9531,30.402,223.08,1.1505,-0.0124844,244.346,2.908,2.9756400000000003,-33.0995025634766,22.0009689331055,-17.5204734802246,22.0,233373.0,6306.72,pp-ro,1,1,-1,-1
1570539579.2,2019-10-08,14:59:39.200,15.0,10.0,17.4699993133545,10.6,23.7,13.1,20.8,-38.7,63.8,11.0941,21.3757,12.2363,-10.7998,6.612489999999999,4.65665,22.8499,-24.9123,60.8707,0.188004,0.251496,1.09929,256.9,6.2,52.1701,4.42719,-4.8,-0.238255,178.605,4.41504,97.3189,31.9221,221.78,1.13816,-0.0196112,244.288,3.02881,3.04906,-31.751159667968803,22.0009689331055,-16.606819152832,22.0,233551.0,3568.68,pp-ro,1,1,-1,-1
1570539579.3,2019-10-08,14:59:39.300,15.0,9.0,17.7199993133545,9.0,24.5,13.2,17.8,-39.1,71.4,9.65949,22.2388,12.5193,-9.68925,7.45184,-3.1628700000000003,20.2696,-26.1843,68.1679,0.204231,0.11623,1.16862,255.7,6.0,52.1701,4.42719,-4.8,0.139075,172.925,4.415080000000001,99.6554,32.6821,220.58,1.12697,-0.0195889,244.24400000000003,3.13542,3.11022,-30.040954589843803,22.0009689331055,-15.6999788284302,22.0,233456.0,-2276.57,pp-ro,1,1,-1,-1
1570539579.4,2019-10-08,14:59:39.400,15.0,9.0,17.8700008392334,7.3,24.9,13.1,15.1,-39.3,78.5,8.92563,22.6144,12.6423,-10.0045,4.86705,3.68535,18.9603,-26.7223,71.6317,0.0220879,0.212186,1.10569,255.7,6.0,52.1701,4.42719,-4.8,0.4493609999999999,168.368,4.41512,102.109,33.4422,219.28,1.11519,-0.0192181,244.189,3.2336,3.16956,-28.0064849853516,22.0009689331055,-14.8488359451294,22.0,232902.0,-6368.25,pp-ro,1,1,-1,-1
1570539579.5,2019-10-08,14:59:39.500,15.0,9.0,18.0100002288818,5.8,25.2,13.1,12.7,-39.0,85.7,8.92563,22.6144,12.6423,-10.0045,4.86705,3.68535,18.9603,-26.7223,71.6317,0.0220879,0.212186,1.10569,255.7,6.0,52.1701,4.42719,-4.8,0.761863,167.107,4.41517,104.591,34.5823,218.08,1.10305,-0.0221072,244.324,3.33556,3.22463,-25.896911621093803,22.0009689331055,-14.2119617462158,22.0,231984.0,-10121.5,pp-ro,1,1,-1,-1
1570539579.6,2019-10-08,14:59:39.600,15.0,9.0,18.0599994659424,4.3,25.3,12.9,9.9,-38.4,92.6,5.93869,23.5066,12.5558,-18.2665,-1.21073,3.65775,14.1815,-28.2346,85.2241,0.2563809999999999,0.2431719999999999,0.8711110000000001,255.7,6.0,52.1701,4.42719,-4.8,0.948035,163.982,4.41522,107.22,34.9623,216.78,1.09109,-0.0180356,244.361,3.42849,3.27271,-23.2582321166992,22.0009689331055,-13.5025730133057,22.0,231524.0,3199.51,pp-ro,1,1,-1,-1
1570539579.7,2019-10-08,14:59:39.700,15.0,8.0,18.1100006103516,2.9,25.2,12.9,7.7,-37.6,98.5,3.8454,23.7471,12.302,-17.1201,-2.66568,1.01661,10.7447,-28.2937,94.7489,0.2114989999999999,0.254919,0.735001,255.7,6.0,52.1701,4.42719,-4.8,0.831678,165.68099999999998,4.41526,109.732,35.3424,215.58,1.07973,-0.0144605999999999,244.469,3.5089900000000003,3.3169800000000005,-21.1503677368164,22.0009689331055,-12.8791313171387,22.0,232093.0,2984.16,pp-ro,1,1,-1,-1
1570539579.8,2019-10-08,14:59:39.800,15.0,9.0,18.159999847412102,1.6,25.3,13.1,5.4,-36.2,104.3,2.53766,23.6862,12.2168,-12.4623,-2.19673,2.24772,8.26142,-28.0142,100.453,0.281466,0.231978,0.8490409999999999,255.7,6.0,52.1701,4.42719,-4.8,0.927534,186.659,4.41531,112.273,35.7225,214.38,1.06828,-0.010965,244.623,3.59136,3.3587,-19.0373764038086,22.0009689331055,-12.3254337310791,22.0,231664.0,-2984.16,pp-ro,1,1,-1,-1
1570539579.9,2019-10-08,14:59:39.900,15.0,9.0,18.2000007629395,0.3,25.1,13.0,2.6,-35.0,109.3,0.703508,23.7533,12.4,-16.672,-3.42137,0.402035,4.5458300000000005,-27.1046,108.507,-0.178404,0.0997561,0.681404,255.7,6.0,52.1701,4.42719,-4.7,0.935291,194.759,4.41535,114.814,35.7225,213.08,1.05704,-0.00460385,244.666,3.66054,3.3980900000000003,-17.0899505615234,22.0009689331055,-11.7292737960815,22.0,231949.0,3691.74,pp-ro,1,1,-1,-1
1570539580.0,2019-10-08,14:59:40.000,15.0,9.0,18.3999996185303,-0.8,25.2,12.8,0.2,-33.4,113.9,0.703508,23.7533,12.4,-16.672,-3.42137,0.402035,4.5458300000000005,-27.1046,108.507,-0.178404,0.0997561,0.681404,255.7,6.0,52.1701,4.42719,-4.7,0.938061,197.269,4.4154,117.442,35.7226,211.88,1.04569,0.00171216,244.872,3.7273,3.43223,-15.3917083740234,22.0009689331055,-11.2555694580078,22.0,232107.0,1230.58,pp-ro,1,1,-1,-1
1570539580.1,2019-10-08,14:59:40.100,15.0,9.0,18.5400009155273,-1.7,25.2,12.7,-1.7,-31.3,117.5,-0.4238439999999999,23.8557,12.161,-15.1467,3.84991,-1.93351,2.16823,-26.9388,112.736,-0.282587,0.180428,0.4896859999999999,255.7,6.0,52.1701,4.42719,-4.7,0.943048,202.821,4.41544,119.984,35.7226,210.68,1.03464,0.00757271,245.068,3.784780000000001,3.45916,-13.9255828857422,22.0009689331055,-10.9431858062744,22.0,232168.0,1199.82,pp-ro,1,1,-1,-1
1570539580.2,2019-10-08,14:59:40.200,15.0,10.0,18.6800003051758,-2.7,25.0,12.9,-4.3,-30.1,121.2,-1.82671,23.9974,11.9871,-7.206360000000001,0.975182,2.71639,-1.7270299999999998,-24.8479,118.769,-0.0354892,0.329018,0.493363,255.7,6.0,52.1701,4.42719,-4.7,0.965766,215.886,4.41549,122.495,35.7227,209.38,1.02349,0.0131442,245.197,3.83918,3.48811,-13.2855453491211,22.0009689331055,-10.6190223693848,22.0,232226.0,553.761,pp-ro,1,1,-1,-1
1570539580.3,2019-10-08,14:59:40.300,15.0,11.0,18.770000457763697,-3.7,25.0,12.9,-6.6,-28.6,124.1,-1.82671,23.9974,11.9871,-7.206360000000001,0.975182,2.71639,-1.7270299999999998,-24.8479,118.769,-0.0354892,0.329018,0.493363,259.3,7.8,52.1701,4.42719,-4.7,0.990145,230.24,4.41553,125.095,35.3427,207.98,1.01218,0.021503,245.262,3.88278,3.51567,-12.2000350952148,22.0009689331055,-10.2460641860962,22.0,232303.0,769.112,pp-ro,1,1,-1,-1
1570539580.4,2019-10-08,14:59:40.400,15.0,12.0,18.9599990844727,-4.5,25.1,13.0,-9.1,-26.8,126.7,-3.3766800000000003,24.1004,12.1577,-3.70364,0.915299,-1.38614,-5.64375,-24.1563,123.657,-0.104715,0.265689,0.74837,259.3,7.8,52.1701,4.42719,-4.7,1.01508,243.611,4.41558,127.607,34.9628,206.68,1.00137,0.0293880999999999,245.403,3.9255,3.53556,-11.1708526611328,22.0009689331055,-10.0362310409546,22.0,232394.0,922.935,pp-ro,1,1,-1,-1
1570539580.5,2019-10-08,14:59:40.500,15.0,12.0,19.2800006866455,-5.6,25.3,13.4,-11.2,-25.7,128.7,-4.67973,24.3268,12.2561,-8.79085,-2.4195900000000004,2.57938,-10.0871,-22.189,127.141,-0.188291,0.138669,0.367413,259.3,7.8,52.1701,4.42719,-4.7,1.05442,271.567,4.41561,130.148,34.5828,205.18,0.989992,0.037056,245.425,3.95528,3.56266,-10.5564117431641,22.0009689331055,-9.73044013977051,22.0,232569.0,1138.29,pp-ro,1,1,-1,-1
1570539580.6,2019-10-08,14:59:40.600,15.0,13.0,19.6000003814697,-6.6,25.3,13.9,-13.9,-25.1,130.9,-5.79337,24.4928,12.7073,-18.1419,0.108554,4.35142,-13.402,-21.5592,129.49200000000002,-0.341203,-0.1608109999999999,0.266969,259.3,7.8,52.1701,4.42719,-4.7,1.07492,285.475,4.41565,132.776,33.4428,203.68,0.978942,0.0499935,245.425,3.98002,3.58077,-10.1638488769531,22.003026962280305,-9.41061210632324,22.0,232580.0,215.351,pp-ro,1,1,-1,-1
1570539580.7,2019-10-08,14:59:40.700,15.0,12.0,20.1700000762939,-7.7,25.4,14.3,-15.8,-24.3,132.3,-5.79337,24.4928,12.7073,-18.1419,0.108554,4.35142,-13.402,-21.5592,129.49200000000002,-0.341203,-0.1608109999999999,0.266969,259.3,7.8,52.1701,4.42719,-4.7,1.14086,320.358,4.415690000000001,135.317,33.0629,202.08,0.967275,0.0570544,245.439,3.99999,3.60659,-9.81396484375,22.003026962280305,-9.202836990356449,22.0,232571.0,-92.2935,pp-ro,1,1,-1,-1
1570539580.8,2019-10-08,14:59:40.800,15.0,11.0,20.6100006103516,-8.8,24.9,14.9,-17.6,-24.4,133.6,-7.43345,24.7081,13.4131,-10.8761,2.5239700000000003,6.70728,-18.187,-20.6821,132.289,-0.577458,-0.0183524,0.314667,259.3,7.8,52.1701,4.42719,-4.7,1.19072,353.043,4.41573,137.917,32.3029,200.38,0.955454,0.066582,245.391,4.0092300000000005,3.63082,-9.40604400634766,22.0035419464111,-8.963865280151369,22.0,232675.0,1015.23,pp-ro,1,1,-1,-1
1570539580.9,2019-10-08,14:59:40.900,15.0,12.0,21.1499996185303,-9.9,24.6,15.2,-19.3,-24.9,134.5,-9.24834,24.2141,14.2196,-9.06948,-5.174580000000001,1.54942,-21.6758,-21.2686,133.916,-0.386484,-0.108778,0.0313658,259.3,7.8,52.1701,4.42718,-4.6,1.255,378.867,4.415769999999999,140.399,31.1629,198.58,0.943999,0.078197,245.188,4.00774,3.65446,-9.20123291015625,22.004056930542003,-8.65787887573242,22.0,232767.0,1230.58,pp-ro,1,1,-1,-1
1570539581.0,2019-10-08,14:59:41.000,15.0,11.0,21.4899997711182,-10.3,24.5,15.3,-20.0,-25.2,134.8,-9.24834,24.2141,14.2196,-9.06948,-5.174580000000001,1.54942,-21.6758,-21.2686,133.916,-0.386484,-0.108778,0.0313658,259.3,7.8,52.1701,4.42718,-4.6,1.26774,385.767,4.41581,142.82299999999998,30.023000000000003,197.78,0.935075,0.0893819,245.799,4.00009,3.6573,-9.10052490234375,22.0035419464111,-8.65835762023926,22.0,233182.0,4676.2,pp-ro,1,1,-1,-1
1570539581.1,2019-10-08,14:59:41.100,15.0,9.0,21.850000381469695,-11.0,23.9,15.3,-21.2,-25.5,135.9,-10.5689,23.6642,14.7731,-4.38352,-4.450419999999999,1.41562,-24.0448,-22.0392,135.154,-0.0946187,-0.2164559999999999,0.0655056,259.3,7.8,52.1701,4.42718,-4.6,1.26552,379.506,4.41585,145.248,28.883000000000003,195.98,0.923693,0.100243,245.641,4.00354,3.67416,-8.78136444091797,22.003026962280305,-8.5528392791748,22.0,233653.0,5045.38,pp-ro,1,1,-1,-1
1570539581.2,2019-10-08,14:59:41.200,15.0,9.0,22.2900009155273,-12.1,23.5,15.3,-21.9,-26.3,137.1,-10.8927,23.41,14.7763,-1.80304,-6.40229,-4.08908,-24.4199,-22.3248,135.591,-0.152768,-0.161411,0.0163967,259.3,7.8,52.1701,4.42718,-4.6,1.25001,376.002,4.41589,147.73,27.743,193.38,0.910057,0.110863,244.928,4.003769999999999,3.70202,-8.55265808105469,22.0035419464111,-8.413455009460451,22.0,234156.0,4891.55,pp-ro,1,1,-1,-1
1570539581.3,2019-10-08,14:59:41.300,15.0,9.0,22.6800003051758,-12.4,23.1,15.3,-21.9,-26.2,138.1,-10.8927,23.41,14.7763,-1.80304,-6.40229,-4.08908,-24.4199,-22.3248,135.591,-0.152768,-0.161411,0.0163967,255.8,6.7,52.1701,4.42718,-4.6,1.25223,373.835,4.41593,150.00799999999998,26.6031,191.58,0.898975,0.1209369999999999,244.772,4.00985,3.70646,-8.55265808105469,22.0035419464111,-8.64015007019043,22.0,234790.0,4737.73,pp-ro,1,1,-1,-1
1570539581.4,2019-10-08,14:59:41.400,15.0,8.0,23.1399993896484,-13.1,22.6,15.2,-22.0,-26.3,139.4,-12.1137,22.4543,14.8429,-4.38891,-6.177969999999999,-0.647492,-25.2305,-23.7456,137.313,0.0610114,-0.105248,0.203324,255.8,6.7,52.1701,4.42718,-4.6,1.24558,379.306,4.41596,152.287,25.0831,189.981,0.888545,0.133188,244.771,4.01641,3.72332,-8.42123413085938,22.0035419464111,-8.50954627990723,22.0,235231.0,3845.56,pp-ro,1,1,-1,-1
1570539581.5,2019-10-08,14:59:41.500,15.0,9.0,23.5599994659424,-13.4,22.4,15.2,-21.8,-26.4,140.0,-12.8086,21.7424,14.7158,-6.475219999999999,-1.76603,-1.86676,-25.6313,-24.3102,139.72,0.0868272,-0.0443956999999999,0.179491,255.8,6.7,52.1701,4.42718,-4.6,1.27938,396.359,4.41598,153.42600000000002,24.7031,189.081,0.882855,0.136766,244.747,4.02042,3.73134,-8.55094909667969,22.003026962280305,-8.61672306060791,22.0,235483.0,2522.69,pp-ro,1,1,-1,-1
1570539581.6,2019-10-08,14:59:41.600,15.0,9.0,23.850000381469695,-14.1,22.0,15.1,-21.8,-26.7,141.0,-13.1644,21.4551,14.7287,-7.3881,-1.82994,-1.4352200000000002,-25.5573,-24.6458,140.636,0.1660579999999999,-0.355546,0.23442,255.8,6.7,52.1701,4.42718,-4.6,1.29544,406.371,4.41601,155.616,22.8031,187.481,0.8727799999999999,0.150882,244.715,4.01961,3.74607,-8.60897827148438,22.004056930542003,-8.46822929382324,22.0,235664.0,3507.15,pp-ro,1,1,-1,-1
1570539581.7,2019-10-08,14:59:41.700,15.0,9.0,24.0,-14.7,21.5,15.5,-22.6,-26.5,142.7,-13.1644,21.4551,14.7287,-7.3881,-1.82994,-1.4352200000000002,-25.5573,-24.6458,140.636,0.1660579999999999,-0.355546,0.23442,255.8,6.7,52.1701,4.42718,-4.6,1.32869,426.625,4.41603,157.836,21.6631,185.781,0.8619370000000001,0.159957,244.736,4.03639,3.75685,-8.70796966552734,22.004056930542003,-8.74150943756104,22.0,235952.0,2707.28,pp-ro,1,1,-1,-1
1570539581.8,2019-10-08,14:59:41.800,15.0,8.0,24.1399993896484,-14.8,21.0,15.5,-23.8,-25.2,146.5,-14.0848,20.1964,14.8394,-3.05779,-7.1378,3.09439,-25.9554,-25.107,145.91299999999998,0.509787,0.121952,0.484292,255.8,6.7,52.1701,4.42718,-4.6,1.3636,441.469,4.41606,160.903,19.3832,183.381,0.8470209999999999,0.176444,244.732,4.08552,3.75267,-8.54924011230469,22.004571914672898,-9.40394973754883,22.0,236367.0,4922.32,pp-ro,1,1,-1,-1
1570539581.9,2019-10-08,14:59:41.900,15.0,9.0,24.2099990844727,-15.4,20.0,15.6,-24.6,-24.9,148.8,-14.0848,20.1964,14.8394,-3.05779,-7.1378,3.09439,-25.9554,-25.107,145.91299999999998,0.509787,0.121952,0.484292,255.8,6.7,52.1701,4.42718,-4.6,1.3708,443.476,4.41608,162.889,17.8632,181.681,0.836909,0.187077,244.662,4.10961,3.77201,-8.48609161376953,22.004571914672898,35.0,22.0,236877.0,4860.79,pp-ro,1,1,-1,-1
1570539582.0,2019-10-08,14:59:42.000,15.0,10.0,24.1700000762939,-15.4,19.6,15.3,-25.5,-25.2,150.4,-14.6775,19.017,14.8484,0.485464,-5.76212,-9.50406,-27.6459,-24.0278,150.983,0.0685214,-0.127073,0.436077,255.8,6.7,52.1701,4.42718,-4.6,1.36304,431.54,4.41611,163.91099999999997,17.1032,180.881,0.83188,0.1923119999999999,244.698,4.122380000000001,3.77692,-8.89230346679688,22.004571914672898,35.0,22.0,237559.0,7844.94,pp-ro,1,1,-1,-1
1570539582.1,2019-10-08,14:59:42.100,15.0,9.0,24.100000381469695,-15.7,18.7,14.7,-26.8,-23.6,153.4,-14.765,18.6535,14.4327,0.739088,-11.3313,-9.07329,-27.8178,-23.7224,152.014,0.329036,-0.0549493,0.282541,255.8,6.7,52.1701,4.42718,-4.6,1.33257,422.376,4.41613,166.715,14.4432,178.481,0.817603,0.209837,244.659,4.16389,3.79248,-9.40433502197266,22.004571914672898,35.0,22.0,238491.0,3999.38,pp-ro,1,1,-1,-1
1570539582.2,2019-10-08,14:59:42.200,15.0,10.0,23.9500007629395,-16.2,17.8,14.3,-27.6,-23.6,154.6,-15.2774,17.1859,13.7922,-2.53518,-4.63651,-0.917839,-29.0374,-22.5953,154.961,-0.223029,-0.0446129,0.36528,255.8,6.7,52.1701,4.42718,-4.6,1.33755,420.74300000000005,4.41616,167.562,13.6832,177.68099999999998,0.8130390000000001,0.214751,244.611,4.174919999999999,3.82161,-9.58354949951172,22.004056930542003,35.0,22.0,238772.0,5291.49,pp-ro,1,1,-1,-1
1570539582.3,2019-10-08,14:59:42.300,15.0,11.0,23.6100006103516,-16.4,16.9,13.9,-29.4,-23.8,157.4,-15.5863,16.4257,13.4262,-1.87121,-3.63476,0.260795,-29.7806,-21.6118,157.821,0.1965049999999999,0.0366755,0.7391310000000001,256.1,6.5,52.1701,4.42718,-4.6,1.3192700000000002,416.352,4.416180000000001,169.227,12.1632,176.28099999999998,0.804524,0.224453,244.664,4.1993,3.83976,-9.46066284179688,22.004571914672898,35.0,22.0,239405.0,6275.96,pp-ro,1,1,-1,-1
1570539582.4,2019-10-08,14:59:42.400,15.0,11.0,23.2700004577637,-16.2,16.3,13.5,-30.2,-22.1,159.6,-15.3449,15.9956,13.1797,1.89024,-4.70731,-3.26713,-30.468000000000004,-20.7918,158.939,0.0681836,0.0781533,0.508744,256.1,6.5,52.1701,4.42718,-4.6,1.32426,414.192,4.41622,170.833,10.6432,174.78099999999998,0.795851,0.233949,244.634,4.23838,3.84281,-8.91619873046875,22.004571914672898,35.0,22.0,239872.0,4983.85,pp-ro,1,1,-1,-1
1570539582.5,2019-10-08,14:59:42.500,15.0,12.0,22.850000381469695,-16.9,15.7,13.3,-30.5,-19.7,160.8,-15.3449,15.9956,13.1797,1.89024,-4.70731,-3.26713,-30.468000000000004,-20.7918,158.939,0.0681836,0.0781533,0.508744,256.1,6.5,52.1701,4.42718,-4.6,1.30265,401.453,4.41625,172.41,9.12324,173.38099999999997,0.787505,0.243269,244.682,4.27423,3.86968,-8.0201416015625,22.004056930542003,35.0,22.0,240730.0,5476.08,pp-ro,1,1,-1,-1
1570539582.6,2019-10-08,14:59:42.600,15.0,11.0,22.5400009155273,-17.3,15.1,13.2,-31.3,-18.5,162.5,-16.1343,14.8719,12.7748,-7.347989999999999,-6.2393,-4.94949,-32.6183,-18.2122,162.486,-0.349526,-0.0100533999999999,0.169152,256.1,6.5,52.1701,4.42718,-4.6,1.2982200000000002,400.49,4.41629,173.929,7.22324,172.081,0.779625,0.254596,244.776,4.30085,3.88484,-6.76395416259766,22.004571914672898,35.0,22.0,241046.0,6029.84,pp-ro,1,1,-1,-1
1570539582.7,2019-10-08,14:59:42.700,15.0,10.0,22.1399993896484,-17.2,14.3,12.8,-31.8,-18.3,163.6,-16.4067,14.1722,12.7021,3.19873,-3.03608,-0.4584649999999999,-32.9839,-17.2357,163.938,-0.127548,-0.0755205,0.3321389999999999,256.1,6.5,52.1701,4.42718,-4.6,1.29323,405.889,4.41632,175.331,5.70325,170.68099999999998,0.771694,0.26355,244.756,4.30992,3.89692,-5.14763641357422,22.004056930542003,35.0,22.0,241516.0,3568.68,pp-ro,1,1,-1,-1
1570539582.8,2019-10-08,14:59:42.800,15.0,10.0,21.899999618530305,-17.4,14.1,12.5,-32.3,-17.8,163.8,-16.5935,13.6586,12.4461,3.23287,-10.8358,4.03474,-33.8765,-17.7469,164.952,0.133959,-0.0413245999999999,0.314645,256.1,6.5,52.1701,4.42718,-4.6,1.31318,404.045,4.41636,176.704,3.42323,169.38099999999997,0.764147,0.2766619999999999,244.798,4.30912,3.90281,-3.17630767822266,22.004571914672898,35.0,22.0,241924.0,5168.43,pp-ro,1,1,-1,-1
1570539582.9,2019-10-08,14:59:42.900,15.0,13.0,21.8600006103516,-17.6,13.3,12.8,-33.1,-18.9,164.9,-16.785,13.533,12.3876,-8.89748,-2.97966,-2.84453,-34.2914,-18.0895,165.511,-0.182533,-0.24933,-0.119449,256.1,6.5,52.1701,4.42718,-4.5,1.28824,403.473,4.41639,177.989,1.90324,168.081,0.756746,0.285305,244.816,4.3025,3.91127,-1.07527160644531,22.004571914672898,35.0,22.0,242563.0,5876.02,pp-ro,1,1,-1,-1
1570539583.0,2019-10-08,14:59:43.000,15.0,12.0,21.899999618530305,-17.4,13.3,13.0,-33.7,-20.0,165.0,-17.0904,13.134,12.5819,-2.19961,-10.6136,2.75843,-35.2992,-19.0051,166.627,0.247531,-0.4540939999999999,-0.129789,256.1,6.5,52.1701,4.42718,-4.5,1.30708,402.085,4.41643,179.274,0.00323774,166.78099999999998,0.749311,0.2959449999999999,244.857,4.28259,3.8943,1.02359008789062,22.004056930542003,35.0,22.0,242905.0,3476.39,pp-ro,1,1,-1,-1
1570539583.1,2019-10-08,14:59:43.100,15.0,12.0,21.8600006103516,-16.6,13.5,13.2,-34.8,-20.0,165.0,-16.5308,13.1525,12.9224,10.6615,4.55958,4.110119999999999,-36.4266,-21.0,167.583,-0.296604,-0.1228369999999999,-0.0772407,256.1,6.5,52.1701,4.42718,-4.5,1.2804799999999998,391.435,4.41646,180.55900000000003,-1.51675,165.38099999999997,0.741532,0.304329,244.857,4.27665,3.85767,3.1184539794921897,22.004056930542003,35.0,22.0,243625.0,8152.59,pp-ro,1,1,-1,-1
1570539583.2,2019-10-08,14:59:43.200,15.0,11.0,21.850000381469695,-16.6,13.7,14.2,-35.2,-20.6,164.2,-16.4031,13.3194,13.0736,1.14325,-5.41216,3.14187,-36.8968,-21.4694,167.312,-0.0231102,-0.0151367,-0.147466,256.1,6.5,52.1701,4.42718,-4.5,1.2755,392.679,4.4164900000000005,181.845,-3.41676,164.081,0.734004,0.314681,244.952,4.25286,3.82838,5.22694396972656,22.004056930542003,35.0,22.0,244051.0,3445.62,pp-ro,1,1,-1,-1
1570539583.3,2019-10-08,14:59:43.300,15.0,12.0,22.010000228881804,-16.3,13.9,15.0,-36.6,-22.8,163.5,-16.4031,13.3194,13.0736,1.14325,-5.41216,3.14187,-36.8968,-21.4694,167.312,-0.0231102,-0.0151367,-0.147466,253.3,6.2,52.1701,4.42718,-4.5,1.28603,392.324,4.416530000000001,183.159,-4.93674,162.481,0.725464,0.322807,244.891,4.21191,3.7964,7.33202362060547,22.004056930542003,35.0,22.0,244497.0,5260.73,pp-ro,1,1,-1,-1
1570539583.4,2019-10-08,14:59:43.400,15.0,13.0,22.0900001525879,-15.1,14.2,15.6,-36.7,-24.8,161.9,-15.7753,14.1553,15.5373,2.03336,0.8401870000000001,4.96972,-39.503,-26.5248,165.908,-0.42673,-0.0695879,-0.645192,253.3,6.2,52.1701,4.42718,-4.5,1.27605,391.371,4.41654,184.473,-6.45673,160.981,0.717195,0.330839,244.922,4.16361,3.73942,9.44392395019531,22.004056930542003,35.0,22.0,244992.0,4645.44,pp-ro,1,1,-1,-1
1570539583.5,2019-10-08,14:59:43.500,15.0,12.0,21.969999313354503,-14.3,14.7,16.7,-36.7,-27.5,158.9,-15.3274,14.5095,15.976,9.35041,3.5697,6.45632,-39.5947,-27.6457,164.896,-0.0597910999999999,0.171729,-0.4999699999999999,253.3,6.2,52.1701,4.42718,-4.5,1.28325,394.12,4.41656,185.875,-7.976719999999999,159.381,0.7083550000000001,0.3387199999999999,244.981,4.09171,3.68444,11.5524139404297,22.004571914672898,35.0,22.0,245438.0,4522.38,pp-ro,1,1,-1,-1
1570539583.6,2019-10-08,14:59:43.600,15.0,11.0,21.7299995422363,-13.3,15.2,17.8,-36.5,-31.1,156.1,-14.4132,15.300999999999998,17.9563,17.2967,2.50336,7.636710000000001,-40.2826,-33.5886,161.555,-0.425638,-0.73061,-0.760167,253.3,6.2,52.1701,4.42718,-4.5,1.28325,393.534,4.41657,187.306,-9.4967,157.681,0.699102,0.346475,245.025,4.01232,3.62517,13.6523895263672,22.004571914672898,35.0,22.0,245884.0,4491.62,pp-ro,1,1,-1,-1
1570539583.7,2019-10-08,14:59:43.700,15.0,10.0,21.5200004577637,-11.5,15.7,19.0,-36.1,-35.4,152.3,-12.83,16.1014,19.3197,21.5421,9.53478,17.6654,-40.5105,-38.1294,159.136,-0.115651,-0.448851,-0.51804,253.3,6.2,52.1701,4.42718,-4.5,1.29267,406.566,4.41659,188.796,-10.6367,155.881,0.689413,0.352084,245.063,3.91695,3.54195,15.755767822265598,22.004571914672898,35.0,22.0,246522.0,3199.51,pp-ro,1,1,-1,-1
1570539583.8,2019-10-08,14:59:43.800,15.0,11.0,21.3500003814697,-9.4,16.2,20.1,-34.7,-39.1,147.7,-12.83,16.1014,19.3197,21.5421,9.53478,17.6654,-40.5105,-38.1294,159.136,-0.115651,-0.448851,-0.51804,253.3,6.2,52.1701,4.42718,-4.5,1.32093,408.491,4.4166,190.315,-11.7766,153.981,0.679322,0.35759,245.08900000000003,3.82273,3.4516400000000003,17.8608551025391,22.004056930542003,35.0,22.0,246875.0,4583.91,pp-ro,1,1,-1,-1
1570539583.9,2019-10-08,14:59:43.900,15.0,11.0,21.1800003051758,-7.4,16.7,21.2,-32.0,-42.5,141.9,-12.83,16.1014,19.3197,21.5421,9.53478,17.6654,-40.5105,-38.1294,159.136,-0.115651,-0.448851,-0.51804,253.3,6.2,52.1701,4.42718,-4.6,1.30874,404.903,4.41661,191.863,-12.5366,152.08100000000002,0.669209,0.3610239999999999,245.147,3.72348,3.36851,19.9931869506836,22.004056930542003,35.0,22.0,247253.0,7168.13,pp-ro,1,1,-1,-1
1570539584.0,2019-10-08,14:59:44.000,15.0,12.0,21.1800003051758,-5.3,17.1,22.2,-27.7,-46.6,134.4,-8.73143,17.5652,22.0359,17.4866,-0.770282,11.323,-37.8287,-46.9212,149.612,-0.209713,-0.115508,-1.26898,253.3,6.2,52.1701,4.42718,-4.6,1.29323,402.101,4.4166300000000005,193.498,-13.2965,150.08100000000002,0.658556,0.3643699999999999,245.24,3.60407,3.2864,22.1050872802734,22.004571914672898,35.0,22.0,247755.0,4460.85,pp-ro,1,1,-1,-1
1570539584.1,2019-10-08,14:59:44.100,15.0,12.0,21.0599994659424,-2.6,17.2,23.0,-21.4,-50.4,124.2,-6.572260000000001,18.2294,23.3207,24.851,13.4853,10.4169,-34.8504,-51.605,142.987,0.00244915,-0.431327,-1.10559,253.3,6.2,52.1701,4.42718,-4.6,1.30708,407.646,4.41664,195.192,-13.6765,147.981,0.647505,0.3657,245.327,3.46802,3.18986,24.2135772705078,22.004056930542003,35.0,22.0,248168.0,4307.03,pp-ro,1,1,-1,-1
1570539584.2,2019-10-08,14:59:44.200,15.0,12.0,21.0499992370605,0.3,17.4,23.5,-13.7,-53.7,113.0,-6.572260000000001,18.2294,23.3207,24.851,13.4853,10.4169,-34.8504,-51.605,142.987,0.00244915,-0.431327,-1.10559,253.3,6.2,52.1701,4.42718,-4.6,1.31151,408.593,4.41666,196.857,-14.0564,145.881,0.636533,0.367016,245.421,3.3347900000000004,3.08896,26.3152542114258,22.004571914672898,35.0,22.0,248901.0,4768.5,pp-ro,1,1,-1,-1
1570539584.3,2019-10-08,14:59:44.300,15.0,12.0,21.1000003814697,3.3,17.6,23.8,-4.3,-55.2,100.4,-0.559394,18.8475,25.1274,28.3088,-2.75741,3.1953400000000003,-21.4227,-61.7305,121.593,-0.179232,-0.0693623999999999,-1.16097,251.4,5.3,52.1701,4.42718,-4.6,1.31096,410.19,4.41667,198.551,-13.6763,143.681,0.6252979999999999,0.364491,245.466,3.20586,2.98987,27.359275817871104,22.004056930542003,23.018762588501,22.0,249178.0,5506.84,pp-ro,1,1,-1,-1
1570539584.4,2019-10-08,14:59:44.400,15.0,12.0,21.2099990844727,6.7,17.0,23.9,7.8,-55.9,84.7,2.86733,19.2336,25.5769,29.9095,-2.29465,7.367739999999999,-8.74823,-63.8477,104.77,-0.397935,-0.0568071,-1.59364,251.4,5.3,52.1701,4.42718,-4.6,1.31484,417.919,4.41667,200.274,-13.2962,141.381,0.613664,0.362014,245.51,3.0528,2.87893,29.4575500488281,22.004056930542003,23.018762588501,22.0,249623.0,3907.09,pp-ro,1,1,-1,-1
1570539584.5,2019-10-08,14:59:44.500,15.0,13.0,21.340000152587898,10.1,16.1,23.0,19.5,-54.5,69.4,8.455969999999999,18.6368,25.5967,33.9486,-4.0037400000000005,-4.00176,14.5206,-65.0276,75.0752,-0.392985,0.00455124,-1.53155,251.4,5.3,52.1701,4.42718,-4.6,1.34254,424.897,4.41666,201.91,-12.5362,139.181,0.602626,0.357734,245.552,2.90161,2.76116,31.2526550292969,22.004571914672898,23.0211448669434,22.0,250005.0,4645.44,pp-ro,1,1,-1,-1
1570539584.6,2019-10-08,14:59:44.600,15.0,13.0,21.4599990844727,13.2,15.4,21.9,29.6,-51.2,55.8,10.4275,18.2519,25.1407,36.3989,-3.74895,-10.8169,22.517,-64.2391,65.4493,-0.5320010000000001,-0.392379,-1.54415,251.4,5.3,52.1701,4.42718,-4.6,1.32592,418.951,4.41666,203.457,-11.3961,136.981,0.591832,0.351682,245.537,2.75101,2.65188,32.7071533203125,22.004571914672898,23.0211448669434,22.0,250901.0,5599.14,pp-ro,1,1,-1,-1
1570539584.7,2019-10-08,14:59:44.700,15.0,13.0,21.5400009155273,16.0,14.2,20.4,38.3,-46.5,43.8,14.1588,17.5067,23.6845,28.7705,-7.87581,-11.6696,36.0593,-60.1696,47.3707,-0.0692856999999999,-0.246502,-1.56285,251.4,5.3,52.1701,4.42718,-4.6,1.32924,422.425,4.41666,204.976,-10.255999999999998,134.981,0.5817680000000001,0.345724,245.643,2.59458,2.54164,33.800567626953104,22.004571914672898,23.0211448669434,22.0,251193.0,5260.73,pp-ro,1,1,-1,-1
1570539584.8,2019-10-08,14:59:44.800,15.0,14.0,21.8600006103516,18.4,12.5,18.7,44.8,-40.8,33.5,17.3881,16.445999999999998,22.3534,24.9819,-18.3078,-12.9616,44.7033,-54.7465,34.4486,-0.6469659999999999,-0.141196,-1.54566,251.4,5.3,52.1701,4.42718,-4.6,1.3431,439.117,4.41666,206.32,-8.35588,133.08100000000002,0.572496,0.336212,245.659,2.43686,2.4339,34.544830322265604,22.004571914672898,23.0211448669434,22.0,251562.0,3107.21,pp-ro,1,1,-1,-1
1570539584.9,2019-10-08,14:59:44.900,15.0,13.0,22.1700000762939,20.5,10.8,16.4,49.6,-34.1,25.2,17.3881,16.445999999999998,22.3534,24.9819,-18.3078,-12.9616,44.7033,-54.7465,34.4486,-0.6469659999999999,-0.141196,-1.54566,251.4,5.3,52.1701,4.427169999999999,-4.6,1.3885299999999998,447.274,4.41665,207.488,-6.8358,131.481,0.5645720000000001,0.3286699999999999,245.734,2.27727,2.31695,34.9161224365234,22.004571914672898,23.0211448669434,22.0,251876.0,4460.85,pp-ro,1,1,-1,-1
1570539585.0,2019-10-08,14:59:45.000,15.0,14.0,22.4099998474121,22.0,9.3,14.1,52.7,-27.8,19.1,21.7331,13.6168,19.1682,20.5453,-17.6073,-19.9116,52.7966,-44.9698,18.9654,-0.3305369999999999,-0.183553,-1.7897900000000002,251.4,5.3,52.1701,4.427169999999999,-4.6,1.35307,423.439,4.41665,208.539,-4.55571,130.08100000000002,0.557609,0.317582,245.826,2.14038,2.21376,34.9791259765625,22.004571914672898,23.0211448669434,22.0,252712.0,8921.7,pp-ro,1,1,-1,-1
1570539585.1,2019-10-08,14:59:45.100,15.0,13.0,22.280000686645497,23.4,7.9,11.8,54.8,-20.9,13.4,25.7319,10.4169,13.7062,19.6204,-17.0254,-17.0645,56.6486,-30.1283,6.46212,-1.15,-0.0986554,-1.63335,251.4,5.3,52.1701,4.427169999999999,-4.6,1.28713,403.983,4.41664,209.474,-2.65563,128.981,0.551876,0.308424,246.013,1.99464,2.1091900000000003,34.658935546875,22.004571914672898,21.7220840454102,22.0,253819.0,5229.96,pp-ro,1,1,-1,-1
1570539585.2,2019-10-08,14:59:45.200,15.0,14.0,22.0,24.2,6.2,9.6,56.7,-14.3,8.1,27.1342,8.40917,11.0129,9.08066,-23.3301,-31.5453,57.2068,-23.2247,1.41941,-0.253816,0.288112,-1.55752,251.4,5.3,52.1701,4.427169999999999,-4.6,1.31982,419.611,4.41664,210.262,0.00445379,127.981,0.546773,0.295725,246.149,1.85668,2.01186,33.962371826171896,22.004571914672898,19.947443008422898,22.0,254050.0,1753.58,pp-ro,1,1,-1,-1
1570539585.3,2019-10-08,14:59:45.300,15.0,16.0,21.5200004577637,24.4,4.9,7.2,57.6,-7.9,3.5,27.4451,6.42821,8.31917,-0.650893,-9.83751,-21.3829,57.5267,-16.0594,-3.30936,0.128923,0.307562,-1.35945,251.6,4.6,52.1701,4.427169999999999,-4.6,1.3408799999999998,421.177,4.41664,210.904,2.28453,127.281,0.542964,0.284917,246.346,1.72588,1.91883,32.904708862304695,22.004056930542003,18.2253742218018,22.0,254241.0,3784.03,pp-ro,1,1,-1,-1
1570539585.4,2019-10-08,14:59:45.400,15.0,15.0,21.1499996185303,24.7,3.6,4.7,58.4,-1.3,-0.6,27.4451,6.42821,8.31917,-0.650893,-9.83751,-21.3829,57.5267,-16.0594,-3.30936,0.128923,0.307562,-1.35945,251.6,4.6,52.1701,4.427169999999999,-4.6,1.31318,405.485,4.41664,211.459,4.56459,126.781,0.539989,0.2741639999999999,246.595,1.59597,1.81584,31.4877014160156,22.004056930542003,16.287223815918,22.0,254980.0,7691.12,pp-ro,1,1,-1,-1
1570539585.5,2019-10-08,14:59:45.500,15.0,15.0,20.8099994659424,24.9,2.2,2.4,58.4,4.7,-5.2,27.4451,6.42821,8.31917,-0.650893,-9.83751,-21.3829,57.5267,-16.0594,-3.30936,0.128923,0.307562,-1.35945,251.6,4.6,52.1701,4.427169999999999,-4.6,1.28492,403.027,4.41665,211.926,7.224660000000001,126.481,0.53782,0.261667,246.906,1.47134,1.71576,29.2156982421875,22.004571914672898,14.399266242981,22.0,255830.0,4368.56,pp-ro,1,1,-1,-1
1570539585.6,2019-10-08,14:59:45.600,15.0,16.0,20.6800003051758,24.9,1.6,1.2,58.2,10.5,-9.3,27.9147,2.38456,1.45748,2.9473,-20.5422,-31.9245,55.3527,0.819789,-13.8951,-0.0668512,-0.0150214,-1.11138,251.6,4.6,52.1701,4.427169999999999,-4.6,1.2982200000000002,415.49300000000005,4.41665,212.218,9.88473,126.381,0.536646,0.2491969999999999,247.197,1.3544200000000002,1.6689,27.1208419799805,22.004571914672898,13.554821014404302,22.0,255965.0,2522.69,pp-ro,1,1,-1,-1
1570539585.7,2019-10-08,14:59:45.700,15.0,14.0,20.6399993896484,24.1,-0.2,-1.6,58.3,15.7,-13.1,27.7347,1.31716,0.243881,0.811329,-12.3113,-13.6613,55.1241,4.075069999999999,-16.0502,0.339645,-0.130019,-1.36523,251.6,4.6,52.1701,4.427169999999999,-4.6,1.3575,432.224,4.41665,212.364,12.1648,126.381,0.536101,0.238519,247.424,1.24874,1.53867,25.0225677490234,22.004571914672898,11.0215682983398,22.0,256135.0,2338.1,pp-ro,1,1,-1,-1
1570539585.8,2019-10-08,14:59:45.800,15.0,13.0,20.8099994659424,23.7,-1.1,-3.3,58.1,20.2,-16.7,26.333,-0.641848,-3.00256,-3.87716,-11.5881,-16.8613,53.5737,13.2191,-21.9547,-0.137377,0.253215,-1.02298,251.6,4.6,52.1701,4.427169999999999,-4.6,1.34033,419.013,4.41665,212.393,14.8248,126.481,0.53604,0.226051,247.645,1.15677,1.4635,23.9700241088867,22.004571914672898,9.59040832519531,22.0,256888.0,8367.94,pp-ro,1,1,-1,-1
1570539585.9,2019-10-08,14:59:45.900,15.0,11.0,20.8899993896484,23.3,-1.6,-4.2,57.9,22.2,-18.2,26.333,-0.641848,-3.00256,-3.87716,-11.5881,-16.8613,53.5737,13.2191,-21.9547,-0.137377,0.253215,-1.02298,251.6,4.6,52.1701,4.427169999999999,-4.6,1.30043,402.503,4.41665,212.364,17.4849,126.681,0.536379,0.213585,247.896,1.12055,1.42421,21.330154418945305,22.004571914672898,8.87059497833252,22.0,257620.0,6952.77,pp-ro,1,1,-1,-1
1570539586.0,2019-10-08,14:59:46.000,15.0,12.0,20.9400005340576,21.7,-2.7,-6.1,57.4,27.1,-23.1,24.9977,-2.56184,-5.81256,-11.3977,-8.60602,-12.8283,52.3154,20.2757,-27.0258,0.0904301,0.023653,-0.780687,251.6,4.6,52.1701,4.427169999999999,-4.6,1.29323,401.913,4.41666,212.218,19.3849,127.181,0.538072,0.20464,248.168,1.01072,1.31978,18.6902847290039,22.004571914672898,6.79033422470093,22.0,258103.0,4091.68,pp-ro,1,1,-1,-1
1570539586.1,2019-10-08,14:59:46.100,15.0,12.0,20.9400005340576,20.7,-3.3,-6.5,56.7,30.6,-26.6,24.9977,-2.56184,-5.81256,-11.3977,-8.60602,-12.8283,52.3154,20.2757,-27.0258,0.0904301,0.023653,-0.780687,251.6,4.6,52.1701,4.427169999999999,-4.6,1.30542,407.283,4.41666,211.984,21.665,127.582,0.539482,0.193882,248.362,0.935393,1.28357,16.5783843994141,22.004571914672898,6.09669303894043,22.0,258536.0,4614.67,pp-ro,1,1,-1,-1
1570539586.2,2019-10-08,14:59:46.200,15.0,11.0,20.8600006103516,20.3,-3.7,-7.6,56.1,32.3,-28.1,22.26,-3.81994,-8.40283,-16.8543,-10.2524,-24.481,50.4339,28.1169,-33.195,0.0254492,0.122721,-0.741314,251.6,4.6,52.1701,4.427169999999999,-4.6,1.31595,419.714,4.41666,211.867,22.805,127.882,0.540512,0.188502,248.519,0.901019,1.2302799999999998,14.4698944091797,22.004056930542003,5.03749895095825,22.0,258960.0,3845.56,pp-ro,1,1,-1,-1
1570539586.3,2019-10-08,14:59:46.300,15.0,11.0,20.729999542236303,18.7,-4.8,-9.3,54.4,36.2,-33.2,21.8294,-4.34773,-8.97282,-13.7387,-7.97859,-5.42098,49.9914,29.9315,-34.3552,-0.0660086,0.114473,-0.7859079999999999,251.7,5.2,52.1701,4.427169999999999,-4.6,1.34476,424.165,4.41666,211.283,26.225,128.882,0.5443439999999999,0.172234,248.875,0.810341,1.12165,12.3545913696289,22.004056930542003,2.86605906486511,22.0,259387.0,5168.43,pp-ro,1,1,-1,3
1570539586.4,2019-10-08,14:59:46.400,15.0,12.0,20.6900005340576,18.3,-5.2,-9.8,53.7,37.4,-34.8,19.8875,-5.263809999999999,-10.8214,-11.2454,-2.85171,-11.6589,47.9823,34.8891,-39.0331,0.151805,-0.0775825,-0.697982,251.7,5.2,52.1701,4.427169999999999,-4.6,1.35085,441.716,4.41664,211.02,27.365,129.282,0.545962,0.166776,248.982,0.782741,1.08934,10.2529144287109,22.004571914672898,2.2107534408569305,22.0,260129.0,3045.68,pp-ro,1,2,-1,3
1570539586.5,2019-10-08,14:59:46.500,15.0,12.0,20.6000003814697,17.7,-6.0,-10.5,51.9,39.2,-38.7,19.3817,-5.69453,-11.2314,-11.1829,-9.85783,-4.48022,47.3581,36.3579,-40.4629,0.123307,-0.131305,-0.597921,251.7,5.2,52.1701,4.427169999999999,-4.6,1.39463,460.307,4.41662,210.49400000000003,29.265,130.082,0.549265,0.157624,249.17,0.72853,1.0396,8.14442443847656,22.004571914672898,1.18209910392761,22.0,260535.0,5199.2,pp-ro,1,2,-1,3
1570539586.6,2019-10-08,14:59:46.600,15.0,12.0,20.8199996948242,16.7,-6.6,-11.3,50.2,40.5,-42.2,18.6076,-6.60975,-12.0713,-8.97555,-11.1825,-12.2491,45.9435,38.2586,-44.0146,0.367815,-0.124622,-0.5454100000000001,251.7,5.2,52.1701,4.427169999999999,-4.6,1.3985,466.258,4.4166,209.881,31.1651,131.082,0.5533899999999999,0.148378,249.407,0.684556,0.978979,6.18070220947266,22.0050868988037,-0.0903557091951369,22.0,260803.0,5260.73,pp-ro,1,2,-1,3
1570539586.7,2019-10-08,14:59:46.700,15.0,13.0,20.9899997711182,16.1,-7.3,-11.9,49.1,41.6,-45.1,17.6511,-7.12753,-12.7938,-5.76578,-4.28238,-8.816880000000001,44.2187,40.2772,-47.1108,0.0326927,0.00521282,-0.418792,251.7,5.2,52.1701,4.427169999999999,-4.6,1.42067,467.569,4.416580000000001,209.18,32.6851,132.18200000000002,0.558117,0.140812,249.593,0.647831,0.934013,4.39070129394531,22.004571914672898,-1.08513808250427,22.0,261630.0,7937.24,pp-ro,1,2,-1,3
1570539586.8,2019-10-08,14:59:46.800,15.0,12.0,21.1900005340576,15.4,-7.7,-12.3,47.7,42.4,-47.9,17.2691,-7.35314,-13.1514,-5.13771,-9.68534,-4.409730000000001,43.4922,41.0165,-48.4441,-0.0282769,0.066746,-0.4789479999999999,251.7,5.2,52.1701,4.427169999999999,-4.6,1.39407,456.075,4.41656,208.45,34.5851,133.282,0.56274,0.131415,249.823,0.616676,0.897948,3.54253387451172,22.004571914672898,-1.88599526882172,22.0,262368.0,6429.78,pp-ro,1,2,-1,3
1570539586.9,2019-10-08,14:59:46.900,15.0,13.0,21.3999996185303,14.8,-7.8,-12.6,46.8,42.9,-50.4,16.2762,-8.14002,-13.6165,-8.941239999999999,-3.23971,1.6802700000000002,41.6112,42.7103,-52.3756,0.154649,-0.0654829,-0.243634,251.7,5.2,52.1701,4.427169999999999,-4.7,1.38964,449.865,4.416530000000001,207.661,36.1051,134.482,0.567915,0.1237,250.024,0.590853,0.871351,1.9586181640625,22.004571914672898,-2.53364229202271,22.0,262697.0,6429.78,pp-ro,1,2,-1,3
1570539587.0,2019-10-08,14:59:47.000,15.0,13.0,21.3999996185303,14.4,-8.1,-12.7,46.0,43.0,-52.1,16.2762,-8.14002,-13.6165,-8.941239999999999,-3.23971,1.6802700000000002,41.6112,42.7103,-52.3756,0.154649,-0.0654829,-0.243634,251.7,5.2,52.1701,4.427169999999999,-4.7,1.36415,440.819,4.41651,206.843,37.2451,135.68200000000002,0.573264,0.117721,250.162,0.576226,0.853683,0.541595458984375,22.004056930542003,-3.0276682376861603,22.0,263424.0,7075.83,pp-ro,1,2,-1,3
1570539587.1,2019-10-08,14:59:47.100,15.0,12.0,22.010000228881804,14.1,-8.3,-12.9,46.1,42.9,-52.9,15.0541,-8.45266,-13.688,-6.626760000000001,-3.60859,-13.8302,40.176,43.8819,-56.2955,0.0409148,0.0123679,-0.0174867,251.7,5.2,52.1701,4.427169999999999,-4.7,1.36027,435.172,4.4164900000000005,205.996,39.1451,136.882,0.578345,0.108109,250.407,0.5747270000000001,0.8394530000000001,-0.9984664916992192,22.004056930542003,-3.41663551330566,22.0,263950.0,5137.67,pp-ro,1,2,-1,3
1570539587.2,2019-10-08,14:59:47.200,15.0,11.0,22.3299999237061,14.1,-8.4,-13.0,45.9,42.4,-53.8,14.9967,-8.56098,-13.7256,5.12316,-2.74752,-0.785895,40.6073,43.9429,-56.1921,0.26293,-0.0176747999999999,-0.184108,251.7,5.2,52.1701,4.427169999999999,-4.7,1.3442,426.8,4.41647,205.12,40.2851,138.082,0.583762,0.10198,250.527,0.574457,0.8385739999999999,-1.99009704589844,22.004056930542003,-3.58531951904297,22.0,264631.0,7137.36,pp-ro,1,2,-1,3
1570539587.3,2019-10-08,14:59:47.300,15.0,11.0,22.5699996948242,14.3,-8.3,-12.9,46.2,41.7,-54.1,15.2191,-8.53132,-13.5664,8.51977,-0.881282,1.16301,41.2036,43.332,-56.4456,0.186364,0.0335079,0.0521416999999999,246.6,5.2,52.1701,4.427169999999999,-4.7,1.3408799999999998,434.265,4.416440000000001,204.273,42.1851,139.282,0.588754,0.0922958,250.812,0.5844699999999999,0.855109,-2.84007263183594,22.004571914672898,-3.3634862899780296,22.0,265178.0,4583.91,pp-ro,1,2,-1,3
1570539587.4,2019-10-08,14:59:47.400,15.0,12.0,22.9200000762939,14.5,-8.7,-12.8,47.1,41.8,-53.8,15.2191,-8.53132,-13.5664,8.51977,-0.881282,1.16301,41.2036,43.332,-56.4456,0.186364,0.0335079,0.0521416999999999,246.6,5.2,52.1701,4.427169999999999,-4.7,1.38354,469.424,4.4164,203.368,43.3251,140.482,0.594175,0.0860925,250.94,0.590015,0.863294,-3.36576080322266,22.004571914672898,-3.3606116771698,22.0,265417.0,1722.81,pp-ro,1,2,-1,3
1570539587.5,2019-10-08,14:59:47.500,15.0,12.0,23.4099998474121,14.6,-9.2,-12.7,47.3,41.2,-54.3,15.5476,-8.84568,-13.3529,3.25748,-3.6692,2.9782,41.7799,43.3595,-56.0838,0.153751,0.044342,-0.00932037,246.6,5.2,52.1701,4.427169999999999,-4.7,1.46666,492.871,4.41635,202.433,44.4651,141.683,0.599635,0.0798156999999999,251.058,0.594933,0.8666950000000001,-3.4920654296875,22.004571914672898,-3.4600691795349103,22.0,265530.0,2307.34,pp-ro,1,2,-1,3
1570539587.6,2019-10-08,14:59:47.600,15.0,13.0,23.9300003051758,14.5,-9.2,-12.7,47.6,40.7,-54.3,15.8306,-9.48082,-13.1427,-9.45138,2.96177,-1.03377,42.1592,42.1791,-56.6818,0.227483,-0.0388718,0.243983,246.6,5.2,52.1701,4.427169999999999,-4.7,1.44948,491.301,4.4163,201.469,46.3651,142.88299999999998,0.604753,0.0698898,251.307,0.6061340000000001,0.868771,-3.46987915039062,22.0050868988037,-3.54555749893188,22.0,266509.0,9690.81,pp-ro,1,2,-1,3
1570539587.7,2019-10-08,14:59:47.700,15.0,13.0,24.149999618530305,14.3,-9.5,-12.4,48.4,40.2,-54.3,15.7676,-9.38489,-13.0132,-3.10744,0.308884,-0.508406,42.3075,41.6578,-56.7269,0.112164,-0.0868992,0.126835,246.6,5.2,52.1701,4.427169999999999,-4.7,1.4589,488.952,4.41626,200.476,47.5051,144.083,0.61028,0.0634589,251.411,0.6152810000000001,0.8706309999999999,-3.36576080322266,22.0050868988037,-3.68956208229065,22.0,267355.0,7445.01,pp-ro,1,2,-1,3
1570539587.8,2019-10-08,14:59:47.800,15.0,11.0,24.1599998474121,14.5,-9.6,-11.7,48.1,39.3,-55.0,15.7676,-9.38489,-13.0132,-3.10744,0.308884,-0.508406,42.3075,41.6578,-56.7269,0.112164,-0.0868992,0.126835,246.6,5.2,52.1701,4.427169999999999,-4.7,1.44449,480.997,4.41621,199.542,49.0251,145.183,0.615121,0.0552586,251.592,0.622456,0.90199,-3.49889373779297,22.004571914672898,-3.20403337478638,22.0,267794.0,8952.47,pp-ro,1,2,-1,3
1570539587.9,2019-10-08,14:59:47.900,15.0,10.0,23.940000534057603,14.7,-9.1,-10.9,48.0,38.6,-55.2,16.0013,-10.0674,-11.8451,5.35467,3.95994,11.5802,42.9354,38.7579,-57.4659,0.165801,-0.491455,0.0872735,246.6,5.2,52.1701,4.427169999999999,-4.6,1.36858,432.223,4.41616,198.49,50.5451,146.283,0.620183,0.0468779999999999,251.698,0.6328630000000001,0.946234,-3.64055633544922,22.004571914672898,-2.474892854690549,22.0,269222.0,10459.9,pp-ro,1,2,-1,3
1570539588.0,2019-10-08,14:59:48.000,15.0,10.0,23.5699996948242,14.7,-8.8,-10.4,48.1,37.4,-54.3,16.2242,-9.36589,-10.5906,-5.22847,3.81487,5.999219999999999,43.7594,36.9511,-57.1598,0.103957,0.0548069,0.433908,246.6,5.2,52.1701,4.427169999999999,-4.6,1.31816,415.951,4.416119999999999,197.555,51.6851,147.283,0.624847,0.040381,251.777,0.6594939999999999,0.971398,-3.5279083251953103,22.004571914672898,-2.13172507286072,22.0,269966.0,5845.25,pp-ro,1,2,-1,3
1570539588.1,2019-10-08,14:59:48.100,15.0,12.0,23.0,14.7,-8.9,-9.9,48.4,35.8,-53.4,16.2997,-9.19448,-10.1222,0.612058,0.759029,6.1732,45.4218,35.5675,-55.4556,0.249248,-0.129501,0.3664139999999999,246.6,5.2,52.1701,4.427169999999999,-4.6,1.32703,424.632,4.41607,196.592,53.5851,148.183,0.628768,0.0302093,251.948,0.69318,0.992582,-2.8861541748046897,22.004056930542003,-1.8044046163559,22.0,270405.0,4183.97,pp-ro,1,2,-1,3
1570539588.2,2019-10-08,14:59:48.200,15.0,11.0,22.4599990844727,14.7,-8.9,-9.4,49.9,34.5,-52.3,16.2997,-9.19448,-10.1222,0.612058,0.759029,6.1732,45.4218,35.5675,-55.4556,0.249248,-0.129501,0.3664139999999999,246.6,5.2,52.1701,4.427169999999999,-4.6,1.33645,431.687,4.41603,195.628,54.7251,149.183,0.633437,0.0235937999999999,252.033,0.723831,1.01397,-2.31780242919922,22.0050868988037,-1.54700016975403,22.0,270576.0,3261.04,pp-ro,1,2,-1,3
1570539588.3,2019-10-08,14:59:48.300,15.0,13.0,22.1100006103516,15.0,-8.8,-9.0,50.5,34.1,-50.6,16.2997,-9.19448,-10.1222,0.612058,0.759029,6.1732,45.4218,35.5675,-55.4556,0.249248,-0.129501,0.3664139999999999,250.9,5.4,52.1701,4.427169999999999,-4.6,1.36526,432.929,4.41598,194.664,55.8651,150.083,0.637763,0.0169374,252.071,0.750995,1.04374,-1.8655090332031203,22.0056018829346,-1.1102739572525,22.0,270951.0,4737.73,pp-ro,1,2,-1,3
1570539588.4,2019-10-08,14:59:48.400,15.0,12.0,21.9099998474121,15.2,-8.8,-8.7,50.4,32.1,-50.8,16.5368,-9.34321,-8.73236,5.35342,-2.88308,5.4514,47.4578,33.172,-53.3227,0.264493,-0.0828389,0.101459,250.9,5.4,52.1701,4.427169999999999,-4.6,1.32869,424.425,4.41593,193.729,57.7651,150.983,0.641487,0.00667793,252.317,0.778316,1.0669,-1.47636413574219,22.0056018829346,-0.746096849441528,22.0,271986.0,5414.55,pp-ro,1,2,-1,3
1570539588.5,2019-10-08,14:59:48.500,15.0,13.0,21.760000228881804,15.1,-8.9,-8.1,50.9,30.8,-50.2,16.6787,-9.43965,-8.57693,-3.54514,-4.217890000000001,2.37397,47.4774,31.9242,-52.9238,0.12778,-0.0911573,0.63189,250.9,5.4,52.1701,4.427169999999999,-4.6,1.34697,431.26,4.4158800000000005,192.736,58.9051,151.683,0.645185,-0.000100221,252.24,0.80433,1.08785,-1.15548706054688,22.0050868988037,-0.46169638633728,22.0,272408.0,4522.38,pp-ro,1,2,0,3
1570539588.6,2019-10-08,14:59:48.600,15.0,15.0,21.5499992370605,15.1,-8.7,-7.6,51.0,29.7,-49.5,16.6977,-9.3716,-7.84726,-0.741643,0.201822,3.16894,48.2161,29.8412,-52.4146,-0.0221964,-0.0120887999999999,0.202291,250.9,5.4,52.1701,4.427169999999999,-4.6,1.34587,429.947,4.415830000000001,191.772,60.8051,152.483,0.648564,-0.0104826,252.438,0.831619,1.11669,-0.733917236328125,22.0050868988037,0.028907477855682,22.0,272696.0,5506.84,pp-ro,1,2,0,3
1570539588.7,2019-10-08,14:59:48.700,15.0,14.0,21.4300003051758,15.0,-8.5,-7.0,51.4,29.1,-49.3,16.4583,-9.35671,-7.423260000000001,1.11138,0.2611,5.62392,48.3511,29.047,-52.0831,-0.238394,-0.00307447,0.0288269,250.9,5.4,52.1701,4.427169999999999,-4.6,1.33866,417.708,4.415780000000001,190.867,61.9451,153.183,0.652003,-0.0172115999999999,252.453,0.845159,1.14504,-0.343063354492188,22.0050868988037,0.466541886329651,22.0,273299.0,7137.36,pp-ro,1,2,0,3
1570539588.8,2019-10-08,14:59:48.800,15.0,13.0,21.270000457763697,15.0,-8.4,-6.5,51.4,28.6,-49.7,16.4045,-9.06733,-6.7615300000000005,-2.79336,5.91897,5.59595,48.4143,28.4016,-52.0725,0.296488,-0.143644,0.236832,250.9,5.4,52.1701,4.427169999999999,-4.6,1.30431,409.946,4.41573,189.932,63.8451,153.88299999999998,0.654906,-0.0276204,252.647,0.853202,1.17327,0.0187301635742189,22.0050868988037,0.967060387134552,22.0,273986.0,5814.49,pp-ro,1,2,0,3
1570539588.9,2019-10-08,14:59:48.900,15.0,14.0,20.979999542236303,15.0,-8.2,-6.2,51.0,28.7,-50.1,16.4925,-9.00874,-6.50368,7.14578,-4.1940800000000005,4.56011,48.6689,28.3091,-52.1842,-0.0808774999999999,0.00537033,0.137106,250.9,5.4,52.1701,4.427169999999999,-4.5,1.30597,393.99300000000005,4.41566,189.056,64.9852,154.484,0.6579050000000001,-0.0343531,252.647,0.8517459999999999,1.1941,0.449630737304688,22.004571914672898,1.27314782142639,22.0,274477.0,5599.14,pp-ro,1,2,0,3
1570539589.0,2019-10-08,14:59:49.000,15.0,13.0,20.6800003051758,14.9,-7.7,-5.7,50.5,28.4,-51.1,16.5329,-8.96659,-6.2567900000000005,1.71162,-2.03562,4.991680000000001,48.3875,27.9384,-52.7749,0.0426347,-0.116215,-0.185161,250.9,5.4,52.1701,4.427169999999999,-4.5,1.25112,375.817,4.41563,188.209,66.1252,155.084,0.6608149999999999,-0.0411063,252.678,0.8482200000000001,1.22802,0.6965866088867191,22.0050868988037,1.8433393239975,22.0,275309.0,7721.89,pp-ro,1,2,0,3
1570539589.1,2019-10-08,14:59:49.100,15.0,15.0,20.5100002288818,14.9,-7.7,-5.3,50.4,28.9,-52.1,16.3199,-8.51567,-5.59686,2.78235,0.485521,2.5980000000000003,48.1741,27.8262,-53.9832,0.0135722,0.00728412,-0.2569909999999999,250.9,5.4,52.1701,4.427169999999999,-4.5,1.27716,394.038,4.41558,187.362,68.0252,155.684,0.6630729999999999,-0.0514582,252.922,0.837628,1.25134,1.11556243896484,22.0050868988037,2.2799346446991,22.0,275673.0,1907.4,pp-ro,1,2,0,3
1570539589.2,2019-10-08,14:59:49.200,15.0,14.0,20.25,14.5,-8.2,-5.2,49.6,29.0,-53.2,16.3718,-8.54767,-5.40156,0.337649,-7.078460000000001,3.29225,48.0802,28.2875,-54.3567,-0.134303,-0.00050676,-0.394269,250.9,5.4,52.1701,4.427169999999999,-4.5,1.28824,397.138,4.41553,186.515,69.1652,156.184,0.665611,-0.0582476,252.913,0.8282379999999999,1.23584,1.62309265136719,22.0050868988037,1.8811069726944,22.0,275849.0,3537.92,pp-ro,1,2,0,3
1570539589.3,2019-10-08,14:59:49.300,15.0,16.0,20.25,14.2,-8.0,-5.9,49.0,29.4,-53.7,16.4317,-8.77312,-5.2547,-2.30578,-5.30631,-2.19106,47.6622,28.7342,-55.1201,-0.180943,-0.193819,-0.0853018,251.0,5.7,52.1701,4.427169999999999,-4.5,1.28215,384.905,4.4154800000000005,185.639,71.0652,156.784,0.667841,-0.0686926,253.166,0.8246479999999999,1.20824,2.07613372802734,22.004571914672898,1.30242645740509,22.0,276376.0,5906.78,pp-ro,1,2,0,3
1570539589.4,2019-10-08,14:59:49.400,15.0,15.0,20.2999992370605,13.8,-8.4,-6.0,48.1,29.6,-54.8,15.181,-8.86782,-5.85877,-1.26241,-4.38442,2.74079,45.8021,28.6419,-57.1207,0.112289,-0.304361,-0.2169039999999999,251.0,5.7,52.1701,4.427169999999999,-4.5,1.25223,382.346,4.41549,184.762,72.2052,157.384,0.670694,-0.0756565,253.22,0.81416,1.18614,2.26858520507812,22.004571914672898,0.747448444366455,22.0,277008.0,5629.9,pp-ro,1,2,0,3
1570539589.5,2019-10-08,14:59:49.500,15.0,16.0,20.4699993133545,13.3,-9.0,-6.0,47.2,29.1,-55.5,15.181,-8.86782,-5.85877,-1.26241,-4.38442,2.74079,45.8021,28.6419,-57.1207,0.112289,-0.304361,-0.2169039999999999,251.0,5.7,52.1701,4.427169999999999,-4.5,1.31318,411.344,4.41551,183.828,73.3452,157.984,0.673657,-0.0827574,253.241,0.816325,1.16022,2.11530303955078,22.0050868988037,0.105588018894196,22.0,277313.0,2799.57,pp-ro,1,2,0,3
1570539589.6,2019-10-08,14:59:49.600,15.0,16.0,20.6399993896484,13.2,-8.8,-5.9,47.1,29.1,-56.1,14.5862,-9.53205,-5.94066,0.344153,-2.30561,2.52678,44.5919,28.2714,-57.9683,-0.320481,0.047609,-0.0512004,251.0,5.7,52.1701,4.427169999999999,-4.5,1.30985,399.664,4.41552,182.864,74.8652,158.684,0.676613,-0.091722,253.426,0.8151510000000001,1.17115,1.41871643066406,22.0050868988037,0.220360830426216,22.0,277893.0,6522.07,pp-ro,1,2,0,3
1570539589.7,2019-10-08,14:59:49.700,15.0,15.0,20.729999542236303,13.5,-8.8,-6.2,46.4,29.7,-57.3,14.4951,-9.46448,-5.98804,4.37006,-1.08517,0.710244,43.457,28.8102,-59.4334,-0.0481709,-0.0809857,-0.367008,251.0,5.7,52.1701,4.427169999999999,-4.5,1.28603,386.778,4.41555,181.958,76.0052,159.384,0.679756,-0.0988352,253.553,0.798962,1.17323,0.667633056640625,22.004056930542003,0.1149258986115459,22.0,278277.0,7691.12,pp-ro,1,2,0,3
1570539589.8,2019-10-08,14:59:49.800,15.0,14.0,20.6399993896484,13.4,-8.9,-5.8,45.5,28.8,-59.1,14.4951,-9.46448,-5.98804,4.37006,-1.08517,0.710244,43.457,28.8102,-59.4334,-0.0481709,-0.0809857,-0.367008,251.0,5.7,52.1701,4.427169999999999,-4.5,1.25223,379.482,4.41557,181.053,77.5252,160.084,0.682501,-0.107746,253.806,0.793619,1.18998,0.23162841796875,22.004571914672898,0.352757573127747,22.0,278918.0,5845.25,pp-ro,1,2,0,3
1570539589.9,2019-10-08,14:59:49.900,15.0,14.0,20.6900005340576,13.2,-8.7,-5.8,45.4,29.1,-59.9,14.4951,-9.46448,-5.98804,4.37006,-1.08517,0.710244,43.457,28.8102,-59.4334,-0.0481709,-0.0809857,-0.367008,251.0,5.7,52.1701,4.427169999999999,-4.6,1.27384,396.196,4.41558,180.118,79.0452,160.784,0.685267,-0.116738,254.052,0.786718,1.1935,0.144767761230469,22.004571914672898,0.321597576141357,22.0,279166.0,1107.52,pp-ro,1,2,0,3
1570539590.0,2019-10-08,14:59:50.000,15.0,14.0,20.729999542236303,13.0,-8.7,-5.9,45.6,30.0,-59.8,14.1008,-9.50105,-5.58317,-5.83887,2.56042,0.665333,42.8108,28.661,-62.0953,0.153396,0.235059,-0.144781,251.0,5.7,52.1701,4.427169999999999,-4.6,1.28547,388.301,4.4156,179.213,80.1852,161.484,0.6883100000000001,-0.123926,254.213,0.7826960000000001,1.1869,0.212890625,22.004571914672898,0.033625401556492,22.0,279914.0,7414.24,pp-ro,1,2,0,3
1570539590.1,2019-10-08,14:59:50.100,15.0,13.0,20.8600006103516,12.9,-8.9,-6.1,45.5,29.9,-60.4,13.8802,-9.53327,-5.64411,-1.56348,-2.39479,-1.48229,42.6526,29.0663,-62.6536,0.185498,0.103696,-0.0794798,251.0,5.7,52.1701,4.427169999999999,-4.6,1.26165,382.65,4.41562,178.278,81.7052,162.084,0.690692,-0.132965,254.421,0.782691,1.17595,0.323600769042969,22.004571914672898,-0.262175351381302,22.0,280249.0,6675.89,pp-ro,1,2,0,3
1570539590.2,2019-10-08,14:59:50.200,15.0,13.0,20.9400005340576,12.5,-9.0,-6.0,45.4,29.1,-61.3,13.7629,-9.46788,-5.67287,-1.4331200000000002,3.67888,-1.48106,42.4111,29.01,-63.0461,0.228138,-0.0827493999999999,0.0278045,251.0,5.7,52.1701,4.427169999999999,-4.6,1.26552,386.3730000000001,4.41564,177.373,82.8453,162.784,0.69367,-0.140203,254.604,0.785486,1.1682,0.1566925048828119,22.004571914672898,-0.579536974430084,22.0,280634.0,3599.45,pp-ro,1,2,0,3
1570539590.3,2019-10-08,14:59:50.300,15.0,14.0,20.9400005340576,12.3,-8.8,-5.8,45.6,28.8,-61.5,13.4868,-9.76532,-5.73992,1.99123,-1.74647,0.1389,42.8373,28.7782,-62.8947,0.3770739999999999,-0.149562,0.0508857,251.0,5.7,52.1701,4.427169999999999,-4.6,1.27938,394.317,4.41565,176.438,83.9853,163.485,0.696684,-0.147531,254.777,0.791197,1.17879,-0.232124328613281,22.004571914672898,-0.5409374833106989,22.0,280998.0,3507.15,pp-ro,1,2,0,3
1570539590.4,2019-10-08,14:59:50.400,15.0,14.0,20.8600006103516,12.2,-8.9,-5.7,46.0,28.4,-61.1,13.2289,-9.6646,-5.56039,-0.13846,-4.65006,2.41163,43.106,28.4901,-63.347,0.236476,0.0427397,-0.0214076,250.2,6.0,52.1701,4.427169999999999,-4.6,1.2899,393.552,4.41563,175.533,85.5053,164.085,0.698882,-0.156542,255.042,0.806449,1.18289,-0.535926818847656,22.004571914672898,-0.53264594078064,22.0,281442.0,4768.5,pp-ro,1,2,0,3
