time,date,time_of_day,airspeed_temperature,airspeed_angle_of_attack,airspeed_apparent_windspeed,kite_0_vx,kite_0_vy,kite_0_vz,kite_0_roll,kite_0_pitch,kite_0_yaw,kite_1_vx,kite_1_vy,kite_1_vz,kite_1_ax,kite_1_ay,kite_1_az,kite_1_roll,kite_1_pitch,kite_1_yaw,kite_1_roll_rate,kite_1_pitch_rate,kite_1_yaw_rate,ground_upwind_direction,ground_wind_velocity,ground_pos_latitude,ground_pos_longitude,ground_pos_altitude,ground_tether_reelout_speed,ground_tether_force,est_upwind_direction,kite_pos_east,kite_pos_north,kite_height,kite_elevation,kite_azimuth,kite_distance,kite_heading,kite_course,kite_actual_steering,kite_actual_depower,kite_set_steering,kite_set_depower,ground_mech_energy,ground_mech_power,flight_phase,flight_phase_index,phase,pattern,pattern_section
1570538661.1,2019-10-08,14:44:21.100,15.0,7.0,14.9700002670288,10.6,-3.1,2.3,16.7,-2.2,-70.6,9.86115,-2.50236,2.51295,10.6101,9.28706,4.1079300000000005,19.966,10.7292,-73.1245,0.169326,0.218584,0.8529909999999999,262.7,9.0,52.1701,4.42724,0.2,-2.00467,95.1329,4.45193,48.4261,6.840489999999999,236.708,1.36705,0.1201349999999999,241.708,0.4912479999999999,1.47151,-34.111618041992195,22.0323791503906,-35.0,22.0,-119578.0,-7198.89,pp-riro,4,0,-1,-1
1570538661.2,2019-10-08,14:44:21.200,15.0,7.0,14.609999656677198,11.1,-2.6,2.3,17.5,-3.1,-68.2,10.7436,-1.7028599999999998,2.91508,7.240360000000001,7.812410000000001,3.92744,21.721,9.94731,-67.6417,0.0498786,0.199271,0.92667,262.7,9.0,52.1701,4.42724,0.2,-2.01908,93.0859,4.45199,48.2509,7.98053,236.608,1.36697,0.0964892,241.61,0.559615,1.54683,-34.71923828125,22.0102367401123,-35.0,22.0,-119961.0,-7383.48,pp-riro,4,0,-1,-1
1570538661.3,2019-10-08,14:44:21.300,15.0,8.0,14.359999656677198,12.0,-1.9,2.7,19.0,-4.1,-63.4,11.5961,-0.86392,3.18718,7.634710000000001,9.16466,2.83363,23.5431,8.85337,-62.2124,0.220047,0.234668,0.878494,260.0,9.4,52.1701,4.42724,0.2,-2.08723,86.6699,4.45204,48.0172,9.12057,236.408,1.36693,0.0726363999999999,241.408,0.671231,1.64572,-34.973541259765604,22.004056930542003,-35.0,22.0,-121363.0,-10613.7,pp-riro,4,0,-1,-1
1570538661.4,2019-10-08,14:44:21.400,15.0,8.0,14.109999656677198,12.9,-0.9,3.0,20.7,-5.6,-58.4,11.5961,-0.86392,3.18718,7.634710000000001,9.16466,2.83363,23.5431,8.85337,-62.2124,0.220047,0.234668,0.878494,260.0,9.4,52.1701,4.42724,0.2,-2.12768,85.6225,4.4521,47.8712,10.2606,236.208,1.36642,0.0491469,241.228,0.787431,1.7557,-34.975250244140604,21.9983940124512,-35.0,22.0,-121951.0,-11782.8,pp-riro,4,0,-1,-1
1570538661.5,2019-10-08,14:44:21.500,15.0,8.0,13.9799995422363,13.7,0.0,3.3,22.2,-6.9,-53.5,12.3275,0.0774797,3.5583,7.99114,9.55526,5.97645,25.2197,7.62737,-56.6873,0.1721859999999999,0.0987627,0.8419639999999999,260.0,9.4,52.1701,4.42724,0.2,-2.23794,86.7185,4.45215,47.7543,11.4006,236.008,1.36569,0.0258869,241.061,0.901305,1.84767,-34.975250244140604,21.9994239807129,-35.0,22.0,-123807.0,-12982.6,pp-riro,4,0,-1,-1
1570538661.6,2019-10-08,14:44:21.600,15.0,8.0,13.789999961853,14.4,0.7,3.7,23.7,-8.7,-48.6,13.4718,1.31753,4.06428,7.8933,5.7969,4.69771,27.5552,5.3308,-48.5314,0.284096,0.19179,0.91719,260.0,9.4,52.1701,4.42724,0.2,-2.30775,90.2917,4.45221,47.7835,13.3007,235.808,1.36348,-0.0113005,240.968,1.03109,1.93395,-34.9871978759766,21.9994239807129,-35.0,22.0,-124994.0,-12182.7,pp-riro,4,0,-1,-1
1570538661.7,2019-10-08,14:44:21.700,15.0,9.0,13.5299997329712,15.3,1.7,4.1,24.9,-10.4,-43.5,14.185,2.16583,4.49777,9.07815,6.97765,4.27976,28.792,3.58827,-42.8898,0.220468,0.196993,0.981962,260.0,9.4,52.1701,4.42724,0.2,-2.3543,91.3111,4.45226,47.9003,14.4408,235.508,1.3614700000000002,-0.032683,240.764,1.14814,2.01648,-34.9889068603516,21.9994239807129,-35.0,22.0,-125972.0,-9260.11,pp-riro,4,0,-1,-1
1570538661.8,2019-10-08,14:44:21.800,15.0,9.0,13.3999996185303,15.9,2.7,4.5,25.8,-12.3,-38.7,14.8627,3.10126,4.94543,4.7057400000000005,8.83359,3.6123,29.6085,1.7373599999999998,-37.4004,0.0854241,0.12629,0.947227,260.0,9.4,52.1701,4.42724,0.2,-2.38532,89.7046,4.452319999999999,48.13399999999999,15.9608,235.108,1.35836,-0.0600827,240.515,1.26688,2.10085,-34.9957275390625,21.9994239807129,-35.0,22.0,-126480.0,-9998.46,pp-riro,4,0,-1,-1
1570538661.9,2019-10-08,14:44:21.900,15.0,10.0,13.2600002288818,16.4,3.8,4.9,26.6,-14.2,-33.9,15.3823,4.14403,5.2762,6.43702,10.9608,4.91028,30.3829,-0.260283,-32.0849,0.0871745,0.159091,0.912868,260.0,9.4,52.1701,4.42725,0.1,-2.44073,86.484,4.452369999999999,48.426,17.4809,234.808,1.35495,-0.0864058,240.386,1.38438,2.18555,-34.9991455078125,21.9994239807129,-35.0,22.0,-127675.0,-13044.1,pp-riro,4,0,-1,-1
1570538662.0,2019-10-08,14:44:22.000,15.0,10.0,13.2600002288818,17.0,4.9,5.2,27.0,-15.9,-28.7,15.898,5.16176,5.66819,5.524719999999999,10.5857,2.63901,30.9388,-2.3727400000000003,-26.9113,0.162951,0.117245,0.967769,260.0,9.4,52.1701,4.42725,0.1,-2.51166,87.4615,4.45244,48.8349,19.0009,234.408,1.35087,-0.1110839999999999,240.194,1.50612,2.2606900000000003,-34.9991455078125,21.9994239807129,-35.0,22.0,-129050.0,-14182.4,pp-riro,4,0,-1,-1
1570538662.1,2019-10-08,14:44:22.100,15.0,10.0,13.3999996185303,17.4,6.0,5.7,27.5,-17.7,-23.7,16.0861,5.6903,5.81496,5.32368,8.52178,4.05846,31.1397,-3.3945300000000005,-24.2413,0.2237179999999999,0.123624,0.862993,260.0,9.4,52.1701,4.42725,0.1,-2.59366,92.3654,4.45248,49.3606,20.901,233.908,1.34552,-0.1406349999999999,239.972,1.62925,2.34093,-34.9974365234375,21.9994239807129,-35.0,22.0,-130826.0,-12213.5,pp-riro,4,0,-1,-1
1570538662.2,2019-10-08,14:44:22.200,15.0,10.0,13.5299997329712,17.7,7.1,6.1,27.9,-19.7,-18.5,16.5854,7.237789999999999,6.41,1.97201,11.8737,4.9134,31.2565,-6.26889,-15.9032,0.0298389,0.2475659999999999,0.880101,260.0,9.4,52.1701,4.42725,0.1,-2.62026,93.8126,4.45255,49.974,22.4211,233.408,1.3403,-0.161893,239.749,1.74768,2.41012,-34.9991455078125,21.9994239807129,-35.0,22.0,-131435.0,-11229.0,pp-riro,4,0,-1,-1
1570538662.3,2019-10-08,14:44:22.300,15.0,10.0,13.6599998474121,17.9,8.3,6.6,27.6,-21.6,-13.2,16.6461,7.76468,6.639819999999999,1.8288,9.88966,5.831919999999999,31.2205,-7.29403,-13.1044,0.157588,0.1817089999999999,1.00262,256.9,8.8,52.1701,4.42725,0.1,-2.66846,94.5175,4.45258,50.7333,24.3211,232.908,1.33377,-0.18722,239.607,1.87061,2.48671,-34.9974365234375,21.9994239807129,-35.0,22.0,-132766.0,-8644.82,pp-riro,4,0,-1,-1
1570538662.4,2019-10-08,14:44:22.400,15.0,10.0,13.789999961853,18.0,9.6,6.9,27.4,-23.3,-7.5,16.8314,8.90053,7.03299,1.80884,12.2531,2.71937,30.8399,-9.28485,-7.398680000000001,0.1902609999999999,0.162865,0.956325,256.9,8.8,52.1701,4.42725,0.1,-2.69838,96.9722,4.45263,51.6387,26.2212,232.208,1.32637,-0.2100699999999999,239.322,1.9958,2.5621,-34.9991455078125,21.9994239807129,-35.0,22.0,-133739.0,-8552.53,pp-riro,4,0,-1,-1
1570538662.5,2019-10-08,14:44:22.500,15.0,10.0,14.039999961853,18.1,10.8,7.3,26.9,-24.8,-1.8,16.9048,10.0839,7.37703,-0.773404,10.618,4.26093,30.198,-10.9285,-1.64128,0.0690483,0.252949,0.957816,256.9,8.8,52.1701,4.42725,0.1,-2.70725,100.178,4.45267,52.6318,28.1213,231.608,1.31863,-0.2309949999999999,239.172,2.11674,2.6286,-35.0008544921875,21.9994239807129,-35.0,22.0,-134116.0,-7537.3,pp-riro,4,0,-1,-1
1570538662.6,2019-10-08,14:44:22.600,15.0,10.0,14.2299995422363,18.1,12.1,7.7,26.5,-26.1,4.1,16.9048,10.0839,7.37703,-0.773404,10.618,4.26093,30.198,-10.9285,-1.64128,0.0690483,0.252949,0.957816,256.9,8.8,52.1701,4.42725,0.1,-2.7078,109.322,4.452719999999999,53.7708,29.6414,231.008,1.31101,-0.244111,239.029,2.23122,2.6905,-34.9974365234375,21.9994239807129,-35.0,22.0,-134630.0,-2614.98,pp-riro,4,0,-1,-1
1570538662.7,2019-10-08,14:44:22.700,15.0,10.0,14.539999961853,18.0,13.4,8.3,25.6,-27.6,10.0,16.8582,11.8247,7.9742,-1.51205,12.7478,7.81793,28.9594,-13.1876,7.23503,0.04073,0.253799,0.980007,256.9,8.8,52.1701,4.42725,0.1,-2.66292,118.129,4.45276,54.9975,31.5414,230.308,1.30217,-0.261061,238.876,2.34862,2.756,-34.9991455078125,21.9994239807129,-35.0,22.0,-134549.0,1353.64,pp-riro,4,0,-1,-1
1570538662.8,2019-10-08,14:44:22.800,15.0,10.0,14.8999996185303,17.7,14.8,8.8,24.6,-28.8,16.4,16.5237,14.3263,8.89787,-2.3919200000000003,10.3885,3.72547,26.2804,-15.7148,20.1352,0.137293,0.252849,1.06415,256.9,8.8,52.1701,4.42725,0.1,-2.5726,126.564,4.45281,56.3994,33.4415,229.508,1.29252,-0.275629,238.691,2.46887,2.82382,-34.9974365234375,21.9994239807129,-23.0,22.0,-133874.0,7752.65,pp-riro,4,0,-1,-1
1570538662.9,2019-10-08,14:44:22.900,15.0,11.0,15.1899995803833,17.3,16.2,9.2,23.5,-30.1,23.0,16.5237,14.3263,8.89787,-2.3919200000000003,10.3885,3.72547,26.2804,-15.7148,20.1352,0.137293,0.252849,1.06415,256.9,8.8,52.1701,4.42724,0.0,-2.37535,141.733,4.45285,57.9182,35.3416,228.608,1.28228,-0.288323,238.46400000000003,2.58909,2.88891,-34.9974365234375,21.9994239807129,-23.0,22.0,-132152.0,14059.4,pp-riro,4,0,-1,-1
1570538663.0,2019-10-08,14:44:23.000,15.0,10.0,15.6000003814697,16.8,17.7,9.7,22.3,-31.3,29.6,16.1101,15.6237,9.31261,-4.42733,12.7461,2.16832,24.9818,-16.8779,26.6104,0.110429,0.311505,1.01221,256.9,8.8,52.1701,4.42724,0.0,-2.2650900000000003,147.846,4.45291,59.583,36.8617,227.708,1.2723,-0.29455,238.24400000000003,2.70116,2.9503,-34.843826293945305,21.9994239807129,-23.0,22.0,-131265.0,16951.2,pp-riro,4,0,-1,-1
1570538663.1,2019-10-08,14:44:23.100,15.0,11.0,15.9899997711182,16.0,19.2,10.2,20.9,-31.9,37.0,15.2879,17.6206,10.0059,-8.57799,13.3059,6.16386,22.4719,-18.4648,36.9714,0.0383454,0.311876,1.11185,256.9,8.8,52.1701,4.42724,0.0,-1.91435,164.287,4.45294,61.423,38.7617,226.708,1.26076,-0.3034969999999999,238.05900000000003,2.8248,3.01923,-34.2925415039062,21.9994239807129,-23.0,22.0,-128197.0,22088.9,pp-riro,4,0,-1,-1
1570538663.2,2019-10-08,14:44:23.200,15.0,10.0,16.479999542236303,15.1,20.6,10.6,19.5,-32.5,44.0,14.9259,18.2938,10.2352,-7.306310000000001,12.9081,2.00376,21.5194,-18.9097,40.4567,0.090495,0.285611,1.05591,256.9,8.8,52.1701,4.42724,0.0,-1.59853,169.641,4.45298,63.3799,40.2818,225.708,1.2496,-0.306752,237.874,2.93584,3.08013,-33.3845367431641,21.9994239807129,-23.0,22.0,-126060.0,21135.2,pp-riro,4,0,-1,-1
1570538663.3,2019-10-08,14:44:23.300,15.0,10.0,16.8600006103516,14.0,21.9,11.0,18.0,-33.2,50.9,13.550999999999998,20.2472,10.8255,-11.1048,12.0679,3.41198,19.0343,-20.2667,50.6429,0.192598,0.16199,1.10709,261.0,8.8,52.1701,4.42724,0.0,-1.28104,173.44400000000002,4.45302,65.4828,41.8019,224.708,1.23793,-0.308769,237.759,3.043,3.141,-32.1198120117188,21.9994239807129,-23.0,22.0,-124168.0,17997.2,pp-riro,4,0,-1,-1
1570538663.4,2019-10-08,14:44:23.400,15.0,10.0,17.2199993133545,12.6,23.2,11.2,16.3,-33.6,58.3,12.9576,20.8616,10.9657,-12.6317,11.5924,-0.30821,18.0506,-20.7829,54.0346,0.1020669999999999,0.151915,1.04052,261.0,8.8,52.1701,4.42724,0.0,-1.08988,175.99400000000003,4.45306,67.7901,42.942,223.608,1.22624,-0.305307,237.571,3.15136,3.20348,-30.508621215820305,21.9994239807129,-23.0,22.0,-123325.0,15812.9,pp-riro,4,0,-1,-1
1570538663.5,2019-10-08,14:44:23.500,15.0,9.0,17.520000457763697,11.2,24.1,11.3,14.4,-33.5,65.0,11.7801,21.9317,11.1543,-12.4126,10.1616,1.60329,16.2522,-21.6657,60.7997,0.367609,0.335829,0.904323,261.0,8.8,52.1701,4.42724,0.0,-0.740254,180.731,4.45309,70.0975,44.082,222.508,1.21453,-0.30208,237.417,3.24863,3.25795,-28.5560607910156,21.9994239807129,-22.4165382385254,22.0,-122104.0,11475.2,pp-riro,4,0,-1,-1
1570538663.6,2019-10-08,14:44:23.600,15.0,9.0,17.8199996948242,9.7,24.9,11.3,12.7,-33.2,71.7,9.77016,23.198,11.1644,-10.8659,3.43102,-1.81346,13.5517,-22.5627,70.5687,0.0743085,0.222955,0.994043,261.0,8.8,52.1701,4.42724,0.0,-0.344639,181.47,4.453130000000001,72.5217,45.6021,221.408,1.20162,-0.302071,237.404,3.34846,3.31642,-26.7485961914062,21.9994239807129,-21.8315486907959,22.0,-121394.0,5414.55,pp-riro,4,0,-1,-1
1570538663.7,2019-10-08,14:44:23.700,15.0,9.0,18.0699996948242,8.2,25.6,11.1,10.6,-33.0,78.1,9.77016,23.198,11.1644,-10.8659,3.43102,-1.81346,13.5517,-22.5627,70.5687,0.0743085,0.222955,0.994043,261.0,8.8,52.1701,4.42724,0.0,0.0238255,180.748,4.453180000000001,75.0042,46.3622,220.408,1.19024,-0.294433,237.392,3.4369,3.3665199999999995,-25.2193222045898,21.9994239807129,-21.1742115020752,22.0,-121295.0,-584.525,pp-riro,4,0,-1,-1
1570538663.8,2019-10-08,14:44:23.800,15.0,8.0,18.1200008392334,6.7,26.0,10.9,9.0,-32.8,84.0,7.75433,24.3075,10.967,-14.63,6.75537,-3.11133,10.8654,-22.8477,79.8095,0.128767,0.127797,0.848459,261.0,8.8,52.1701,4.42724,0.0,0.410575,180.976,4.4532,77.5745,47.1222,219.308,1.17839,-0.286668,237.349,3.51747,3.4131400000000003,-23.8795013427734,21.9994239807129,-20.6192398071289,22.0,-121548.0,4737.73,pp-riro,4,0,-1,-1
1570538663.9,2019-10-08,14:44:23.900,15.0,8.0,18.1200008392334,5.2,26.1,10.7,7.3,-31.9,89.7,6.34211,24.6198,10.6473,-4.77418,-0.936015,-4.51925,8.99883,-22.9471,85.6725,0.2740889999999999,0.0423639,1.19844,261.0,8.8,52.1701,4.42724,0.1,0.293664,184.356,4.4532300000000005,80.1739,47.5023,218.308,1.16734,-0.2757239999999999,237.366,3.5945400000000003,3.45453,-22.4628753662109,21.9994239807129,-20.0697021484375,22.0,-121335.0,4214.73,pp-riro,4,0,-1,-1
1570538664.0,2019-10-08,14:44:24.000,15.0,8.0,18.3099994659424,3.8,26.1,10.9,5.5,-30.6,95.3,4.86984,24.6865,10.4446,-15.3131,-1.0608799999999998,2.5498,7.1795800000000005,-22.4225,91.0944,0.0504608,0.275559,0.7919229999999999,261.0,8.8,52.1701,4.42724,0.1,0.418332,222.253,4.45327,82.7733,48.2623,217.308,1.15552,-0.268755,237.49400000000003,3.67562,3.4945,-21.5275650024414,21.9994239807129,-19.6940879821777,22.0,-121547.0,0.0,pp-riro,4,0,-1,-1
1570538664.1,2019-10-08,14:44:24.100,15.0,8.0,18.5,2.3,26.1,11.0,3.4,-29.7,100.4,3.54767,24.7597,10.6552,-14.162,5.45829,0.8630329999999999,4.9124,-21.6139,96.4409,-0.114365,0.1651,0.857359,261.0,8.8,52.1701,4.42724,0.1,0.363478,217.219,4.4533,85.3727,48.2624,216.308,1.14513,-0.2554389999999999,237.502,3.74298,3.5330699999999995,-20.6827087402344,21.9994239807129,-19.1425647735596,22.0,-121360.0,1015.23,pp-riro,4,0,-1,-1
1570538664.2,2019-10-08,14:44:24.200,15.0,10.0,18.7399997711182,1.1,26.0,10.6,1.1,-28.8,105.6,2.24797,24.6769,10.5713,-17.2656,-0.99062,-2.57716,3.10664,-20.5778,101.59,0.102549,0.166955,0.605797,261.0,8.8,52.1701,4.42724,0.1,0.371235,207.843,4.45334,87.9429,49.0224,215.308,1.1333799999999998,-0.2494829999999999,237.686,3.81826,3.57101,-20.0153579711914,21.9994239807129,-18.857572555542,22.0,-121359.0,30.7645,pp-riro,4,0,-1,-1
1570538664.3,2019-10-08,14:44:24.300,15.0,8.0,19.020000457763697,-0.1,25.9,10.3,-0.8,-27.1,110.1,0.488221,24.5248,9.93967,-13.0452,1.5549,0.317235,-0.2351619999999999,-19.0255,108.562,0.0142922,0.168742,0.615003,255.7,9.3,52.1701,4.42724,0.1,0.347964,203.613,4.45336,90.63,49.0225,214.308,1.12263,-0.236809,237.792,3.882530000000001,3.60314,-19.4179916381836,21.9994239807129,-18.500873565673803,22.0,-121218.0,1599.75,pp-riro,4,0,-1,-1
1570538664.4,2019-10-08,14:44:24.400,15.0,8.0,19.25,-1.4,26.0,10.3,-2.7,-25.5,114.4,0.488221,24.5248,9.93967,-13.0452,1.5549,0.317235,-0.2351619999999999,-19.0255,108.562,0.0142922,0.168742,0.615003,255.7,9.3,52.1701,4.42724,0.1,0.396723,233.224,4.45337,93.2294,49.0225,213.308,1.11212,-0.2250739999999999,237.898,3.94501,3.63831,-18.9639892578125,21.9994239807129,-18.1086750030518,22.0,-121241.0,-246.116,pp-riro,4,0,-1,-1
1570538664.5,2019-10-08,14:44:24.500,15.0,10.0,19.520000457763697,-2.9,25.8,10.2,-4.0,-24.4,118.2,0.488221,24.5248,9.93967,-13.0452,1.5549,0.317235,-0.2351619999999999,-19.0255,108.562,0.0142922,0.168742,0.615003,255.7,9.3,52.1701,4.42724,0.1,0.415008,243.768,4.45339,95.8288,49.0225,212.308,1.1015700000000002,-0.213852,238.036,3.99794,3.68138,-18.578254699707,21.9994239807129,-17.5895175933838,22.0,-121218.0,430.703,pp-riro,4,0,-1,-1
1570538664.6,2019-10-08,14:44:24.600,15.0,7.0,19.9200000762939,-4.3,25.4,10.0,-6.2,-22.4,121.7,-3.0531200000000003,24.4025,9.68049,-13.1765,-6.048430000000001,-5.25329,-5.57361,-15.7074,118.619,-0.268265,0.339682,0.5298579999999999,255.7,9.3,52.1701,4.42724,0.1,0.44659,265.677,4.4534,98.5159,48.2626,211.308,1.09194,-0.19654,238.088,4.04789,3.71717,-18.1037750244141,21.9994239807129,-17.0500888824463,22.0,-121188.0,123.058,pp-riro,4,0,-1,-1
1570538664.7,2019-10-08,14:44:24.700,15.0,8.0,20.1900005340576,-5.5,25.4,10.0,-8.1,-20.8,125.1,-3.61972,24.2627,9.53172,-6.87007,-4.41915,-4.53332,-6.870830000000001,-14.7669,120.43,-0.147052,0.172979,0.8479909999999999,255.7,9.3,52.1701,4.42724,0.1,0.488147,286.1,4.45341,100.969,47.8826,210.308,1.08238,-0.183833,238.154,4.09828,3.74757,-17.5883255004883,21.9994239807129,-16.7328853607178,22.0,-121151.0,492.232,pp-riro,4,0,-1,-1
1570538664.8,2019-10-08,14:44:24.800,15.0,11.0,20.3999996185303,-7.0,25.2,10.0,-9.6,-19.5,128.4,-3.61972,24.2627,9.53172,-6.87007,-4.41915,-4.53332,-6.870830000000001,-14.7669,120.43,-0.147052,0.172979,0.8479909999999999,255.7,9.3,52.1701,4.42724,0.1,0.538568,318.008,4.45342,103.656,47.1226,209.308,1.07257,-0.167708,238.275,4.14256,3.78544,-17.107009887695302,21.9994239807129,-16.2300148010254,22.0,-121046.0,615.29,pp-riro,4,0,-1,-1
1570538664.9,2019-10-08,14:44:24.900,15.0,11.0,20.3999996185303,-8.4,24.3,10.0,-11.7,-18.5,131.0,-6.4473,24.0644,9.60921,-15.2977,-3.71786,-1.58301,-11.9482,-12.4933,127.528,-0.110719,-0.176404,0.679856,255.7,9.3,52.1701,4.42724,0.3,0.558515,326.968,4.45343,106.139,46.7426,208.208,1.06258,-0.155878,238.33,4.17811,3.82799,-16.905616760253903,21.9994239807129,-15.7567491531372,22.0,-121010.0,646.054,pp-riro,4,0,-1,-1
1570538665.0,2019-10-08,14:44:25.000,15.0,12.0,20.1399993896484,-9.6,23.8,9.5,-13.3,-17.3,134.0,-8.34023,22.8905,9.44169,-13.2936,-5.04191,-6.804760000000001,-14.7122,-11.8656,131.667,-0.429886,-0.221599,0.335275,255.7,9.3,52.1701,4.42724,0.3,0.5851109999999999,336.37300000000005,4.4534400000000005,108.651,45.6027,207.108,1.05353,-0.138443,238.282,4.21671,3.86284,-16.4004058837891,21.9994239807129,-15.2879047393799,22.0,-120876.0,1599.75,pp-riro,4,0,-1,-1
1570538665.1,2019-10-08,14:44:25.100,15.0,12.0,19.9599990844727,-11.0,23.2,9.5,-14.5,-15.7,136.4,-8.34023,22.8905,9.44169,-13.2936,-5.04191,-6.804760000000001,-14.7122,-11.8656,131.667,-0.429886,-0.221599,0.335275,255.7,9.3,52.1701,4.42724,0.3,0.5917600000000001,343.066,4.45346,111.017,44.4627,206.108,1.04504,-0.1220079999999999,238.29,4.25082,3.9006,-15.936164855957,21.9994239807129,-14.768071174621598,22.0,-120611.0,1599.75,pp-riro,4,0,-1,-1
1570538665.2,2019-10-08,14:44:25.200,15.0,11.0,20.1800003051758,-12.1,22.5,9.4,-16.2,-15.3,139.0,-9.68186,22.467,9.14092,-13.719,-5.01002,-0.4291149999999999,-16.4551,-10.7654,134.076,-0.109941,0.1156339999999999,0.560014,255.7,9.3,52.1701,4.42724,0.3,0.602842,346.106,4.453469999999999,113.353,43.3227,205.008,1.03633,-0.10614,238.231,4.27877,3.93162,-15.5026473999023,21.9994239807129,-14.4354972839355,22.0,-120429.0,1999.69,pp-riro,4,0,-1,-1
1570538665.3,2019-10-08,14:44:25.300,15.0,12.0,20.5699996948242,-13.0,21.5,9.1,-16.9,-14.4,141.4,-10.9434,21.6794,9.23582,-2.06901,-3.97787,2.34767,-18.2014,-10.1252,136.631,-0.112613,-0.197629,0.618919,259.5,9.5,52.1701,4.42724,0.3,0.601733,344.43800000000005,4.45349,115.544,42.1827,203.908,1.02801,-0.0911488999999999,238.135,4.308730000000001,3.96427,-14.994026184082,21.9994239807129,-14.0877752304077,22.0,-120315.0,2122.75,pp-riro,4,0,-1,-1
1570538665.4,2019-10-08,14:44:25.400,15.0,12.0,20.5699996948242,-13.6,20.8,8.8,-18.0,-13.6,143.7,-12.2906,20.423,8.78834,-1.60358,-7.4552,0.0855763999999999,-19.608,-9.25907,140.231,-0.0598581,0.0118444,0.507959,259.5,9.5,52.1701,4.42724,0.3,0.5862189999999999,332.733,4.453530000000001,117.676,40.6627,202.808,1.02022,-0.0738446,237.975,4.33452,3.98267,-14.4922332763672,21.9994239807129,-13.9711275100708,22.0,-120087.0,2430.39,pp-riro,4,0,-1,-1
1570538665.5,2019-10-08,14:44:25.500,15.0,12.0,20.4400005340576,-14.4,20.3,8.5,-18.9,-13.1,146.4,-12.9422,19.531,8.52561,-5.52879,-3.49511,-7.25317,-20.5782,-9.08841,142.886,-0.154967,-0.305857,0.430079,259.5,9.5,52.1701,4.42724,0.3,0.5635020000000001,323.492,4.45357,119.837,39.5227,201.808,1.012,-0.0597495,238.012,4.36626,4.0079,-14.1559982299805,21.9994239807129,-13.8397178649902,22.0,-119852.0,2307.34,pp-riro,4,0,-1,-1
1570538665.6,2019-10-08,14:44:25.600,15.0,11.0,20.2600002288818,-15.0,19.6,8.6,-19.5,-11.8,149.3,-12.9422,19.531,8.52561,-5.52879,-3.49511,-7.25317,-20.5782,-9.08841,142.886,-0.154967,-0.305857,0.430079,259.5,9.5,52.1701,4.42724,0.3,0.5768,335.167,4.45361,121.823,37.6227,200.808,1.00508,-0.0407553,237.866,4.4041,4.02001,-13.891448974609402,21.9994239807129,-13.8156042098999,22.0,-119637.0,1107.52,pp-riro,4,0,-1,-1
1570538665.7,2019-10-08,14:44:25.700,15.0,13.0,20.479999542236303,-15.6,18.9,8.3,-19.9,-11.1,152.5,-13.3011,19.3277,8.403880000000001,-5.7084,0.7806069999999999,-0.437713,-21.1255,-9.15923,144.343,-0.227548,-0.084973,0.412456,259.5,9.5,52.1701,4.42724,0.3,0.587327,337.62300000000005,4.45364,123.751,36.4827,199.808,0.997448,-0.0279416,237.842,4.44601,4.04429,-13.8487777709961,21.9994239807129,-13.7433414459229,22.0,-119560.0,1476.7,pp-riro,4,0,-1,-1
1570538665.8,2019-10-08,14:44:25.800,15.0,9.0,20.6900005340576,-16.2,17.8,8.0,-19.9,-10.3,155.1,-14.1204,18.3148,8.29676,-10.4285,-8.017510000000001,-3.90491,-21.9194,-7.474239999999999,148.64700000000002,0.0655518,-0.019485,0.375646,259.5,9.5,52.1701,4.42724,0.3,0.580124,330.98900000000003,4.45368,125.562,34.9627,198.808,0.990494,-0.0128639,237.724,4.47824,4.07498,-13.8095245361328,21.9994239807129,-13.4833946228027,22.0,-119248.0,2091.99,pp-riro,4,0,-1,-1
1570538665.9,2019-10-08,14:44:25.900,15.0,10.0,20.9500007629395,-16.7,16.7,7.5,-19.8,-9.5,157.1,-14.1204,18.3148,8.29676,-10.4285,-8.017510000000001,-3.90491,-21.9194,-7.474239999999999,148.64700000000002,0.0655518,-0.019485,0.375646,259.5,9.5,52.1701,4.42724,0.4,0.572921,324.941,4.45372,127.256,33.0626,197.908,0.984398,0.00447626,237.602,4.50001,4.106240000000001,-13.7412567138672,21.9994239807129,35.0,22.0,-119130.0,2215.04,pp-riro,4,0,-1,-1
1570538666.0,2019-10-08,14:44:26.000,15.0,12.0,21.159999847412102,-17.0,15.8,7.0,-20.1,-8.8,159.2,-15.98,15.3139,7.214519999999999,-5.72565,-9.56055,-6.50807,-22.0717,-4.87366,156.346,0.0853693,-0.00684429,0.242218,259.5,9.5,52.1701,4.42724,0.4,0.5452170000000001,309.38,4.45376,128.892,31.5426,197.008,0.978043,0.018625,237.529,4.52492,4.13209,-13.4749984741211,21.9994239807129,35.0,22.0,-118896.0,2338.1,pp-riro,4,0,-1,-1
1570538666.1,2019-10-08,14:44:26.100,15.0,11.0,21.2399997711182,-17.3,15.3,6.6,-20.0,-8.3,161.3,-15.98,15.3139,7.214519999999999,-5.72565,-9.56055,-6.50807,-22.0717,-4.87366,156.346,0.0853693,-0.00684429,0.242218,259.5,9.5,52.1701,4.42724,0.4,0.660466,295.464,4.4538,130.44,29.6426,196.208,0.972423,0.0351546,237.468,4.54599,4.1462,-13.1148681640625,21.9994239807129,35.0,22.0,-119543.0,-15566.8,pp-riro,4,0,-1,-1
1570538666.2,2019-10-08,14:44:26.200,15.0,11.0,21.1900005340576,-17.4,15.0,6.2,-20.0,-7.6,163.3,-16.4722,14.2741,6.29079,-2.2476,-3.35114,-6.68777,-22.2578,-4.35605,160.95,-0.0358336999999999,-0.14757,0.22793,259.5,9.5,52.1701,4.42724,0.4,1.1608,292.788,4.4538400000000005,131.988,28.1226,195.408,0.966402,0.0486232,237.478,4.5700400000000005,4.15303,-12.4219131469727,21.9994239807129,35.0,22.0,-122095.0,-28272.6,pp-riro,4,0,-1,-1
1570538666.3,2019-10-08,14:44:26.300,15.0,9.0,21.1900005340576,-16.9,14.3,5.9,-20.4,-6.7,165.3,-16.4722,14.2741,6.29079,-2.2476,-3.35114,-6.68777,-22.2578,-4.35605,160.95,-0.0358336999999999,-0.14757,0.22793,250.3,7.6,52.1701,4.42724,0.4,1.00234,271.749,4.4538400000000005,133.39,26.2226,194.708,0.961289,0.0644423,237.469,4.59429,4.149290000000001,-11.3620071411133,21.9994239807129,35.0,22.0,-119599.0,11536.7,pp-riro,4,0,-1,-1
1570538666.4,2019-10-08,14:44:26.400,15.0,8.0,21.1900005340576,-17.0,13.7,5.8,-21.1,-5.9,167.1,-16.2198,13.7634,5.87571,4.93067,-7.63898,-2.99861,-22.0182,-4.35776,163.446,0.226956,-0.0720781,0.498805,250.3,7.6,52.1701,4.42724,0.4,1.02284,276.559,4.4538,134.762,24.7026,194.108,0.956168,0.0772791,237.59,4.61718,4.1592400000000005,-9.94879913330078,21.9994239807129,35.0,22.0,-119986.0,-7229.65,pp-riro,4,0,-1,-1
1570538666.5,2019-10-08,14:44:26.500,15.0,10.0,21.2399997711182,-17.0,13.3,5.6,-21.7,-4.7,168.5,-16.1548,12.7367,5.53365,0.250219,-4.308,-4.56384,-23.1264,-3.69404,167.658,-0.0288556,-0.0194342999999999,0.314681,250.3,7.6,52.1701,4.42724,0.4,1.14252,291.868,4.45376,136.106,22.8025,193.408,0.951047,0.0926322,237.595,4.636480000000001,4.16174,-8.17887115478516,21.9994239807129,35.0,22.0,-120020.0,5383.79,pp-riro,4,0,-1,-1
1570538666.6,2019-10-08,14:44:26.600,15.0,9.0,21.1499996185303,-16.9,13.1,5.5,-22.1,-4.5,169.5,-16.1548,12.7367,5.53365,0.250219,-4.308,-4.56384,-23.1264,-3.69404,167.658,-0.0288556,-0.0194342999999999,0.314681,250.3,7.6,52.1701,4.42724,0.4,1.10152,292.49,4.45373,136.719,22.0425,193.108,0.948663,0.0988129,237.632,4.64757,4.16156,-6.11537933349609,21.9994239807129,35.0,22.0,-119444.0,-61.529,pp-riro,4,0,-1,-1
1570538666.7,2019-10-08,14:44:26.700,15.0,10.0,21.020000457763697,-17.0,12.9,5.9,-23.8,-3.6,171.0,-16.0191,12.4374,5.20301,-4.76514,1.1092799999999998,-4.267440000000001,-23.517,-3.41439,169.66299999999998,0.0322802,-0.23492,0.281161,250.3,7.6,52.1701,4.42724,0.4,1.12146,304.105,4.45369,138.589,19.3825,192.108,0.941244,0.119743,237.672,4.66073,4.1439,-4.00580596923828,21.9994239807129,35.0,22.0,-119332.0,2091.99,pp-riro,4,0,-1,-1
1570538666.8,2019-10-08,14:44:26.800,15.0,11.0,20.770000457763697,-16.9,13.0,6.2,-24.4,-3.3,171.2,-16.2407,12.3654,5.4532,2.32609,-4.43288,4.53555,-24.7891,-3.49732,171.21099999999998,-0.1117,-0.0469971,-0.119629,250.3,7.6,52.1701,4.42724,0.4,1.15471,312.322,4.45365,139.231,18.2425,191.708,0.938607,0.1284539999999999,237.635,4.65955,4.12461,-1.9030532836914096,21.9994239807129,35.0,22.0,-119036.0,2984.16,pp-riro,4,0,-1,-1
1570538666.9,2019-10-08,14:44:26.900,15.0,11.0,20.729999542236303,-16.6,13.2,6.2,-25.7,-3.2,172.0,-16.3154,12.4007,5.93065,0.659959,-4.76782,-0.8870819999999999,-25.8468,-3.61163,172.422,0.0212885,-0.0624751,-0.0802921,250.3,7.6,52.1701,4.42724,0.4,1.13199,312.771,4.45362,140.487,17.1025,191.008,0.933124,0.13763,237.725,4.664280000000001,4.1033,0.197563171386719,21.9994239807129,35.0,22.0,-118537.0,4614.67,pp-riro,4,0,-1,-1
1570538667.0,2019-10-08,14:44:27.000,15.0,11.0,20.729999542236303,-16.8,13.1,6.4,-26.5,-4.2,172.1,-16.1325,12.5442,5.95709,2.85192,5.21399,-2.16685,-26.5134,-3.95621,172.99599999999998,-0.190628,-0.175764,0.120404,250.3,7.6,52.1701,4.42724,0.4,1.13809,326.408,4.4535800000000005,141.743,14.8225,190.308,0.92802,0.154613,237.756,4.64149,4.09367,2.31456756591797,21.9994239807129,35.0,22.0,-118450.0,1661.28,pp-riro,4,0,-1,-1
1570538667.1,2019-10-08,14:44:27.100,15.0,9.0,20.6800003051758,-17.0,12.7,7.3,-28.3,-6.4,171.0,-16.5599,12.824000000000002,6.02376,-10.8578,1.94703,1.2555,-27.7919,-5.21615,173.855,-0.145299,-0.25012,-0.0538561,250.3,7.6,52.1701,4.42724,0.4,1.21289,362.166,4.45355,142.999,13.3025,189.508,0.922298,0.1660859999999999,237.78,4.59373,4.0812,4.412841796875,22.0025119781494,35.0,22.0,-118562.0,-1169.05,pp-riro,4,0,-1,-1
1570538667.2,2019-10-08,14:44:27.200,15.0,10.0,20.5100002288818,-16.2,13.2,7.9,-29.6,-8.1,169.3,-16.5599,12.824000000000002,6.02376,-10.8578,1.94703,1.2555,-27.7919,-5.21615,173.855,-0.145299,-0.25012,-0.0538561,250.3,7.6,52.1701,4.42724,0.4,1.25001,362.9380000000001,4.45351,144.226,11.4024,188.608,0.91646,0.179984,237.706,4.54105,4.02071,6.5111083984375,22.0025119781494,35.0,22.0,-118223.0,5599.14,pp-riro,4,0,-1,-1
1570538667.3,2019-10-08,14:44:27.300,15.0,14.0,20.4200000762939,-15.6,14.0,8.6,-30.2,-9.6,166.1,-16.5599,12.824000000000002,6.02376,-10.8578,1.94703,1.2555,-27.7919,-5.21615,173.855,-0.145299,-0.25012,-0.0538561,253.1,7.7,52.1701,4.42724,0.4,1.17355,323.79400000000004,4.4535,145.54,10.2624,187.708,0.910065,0.188494,237.743,4.47431,3.96163,8.62982177734375,22.0009689331055,35.0,22.0,-117225.0,5968.31,pp-riro,4,0,-1,-1
1570538667.4,2019-10-08,14:44:27.400,15.0,12.0,20.2099990844727,-15.2,14.6,9.8,-30.9,-12.6,163.7,-16.0828,14.4004,9.42866,1.1161,7.33029,7.0853,-32.7387,-15.1496,167.467,-0.194829,-0.272982,-0.83037,253.1,7.7,52.1701,4.42724,0.4,1.15305,322.441,4.45351,146.91299999999998,8.36242,186.708,0.903334,0.202024,237.725,4.3991,3.9017,10.728088378906198,22.0009689331055,35.0,22.0,-116940.0,5414.55,pp-riro,4,0,-1,-1
1570538667.5,2019-10-08,14:44:27.500,15.0,10.0,20.159999847412102,-14.4,15.5,10.8,-31.3,-15.5,160.3,-16.0828,14.4004,9.42866,1.1161,7.33029,7.0853,-32.7387,-15.1496,167.467,-0.194829,-0.272982,-0.83037,253.1,7.7,52.1701,4.42724,0.4,1.18297,336.172,4.453530000000001,148.315,7.22242,185.608,0.896043,0.210203,237.697,4.31604,3.83297,12.8229522705078,22.0009689331055,35.0,22.0,-116663.0,2215.04,pp-riro,4,0,-1,-1
1570538667.6,2019-10-08,14:44:27.600,15.0,12.0,20.0699996948242,-13.4,16.8,12.3,-31.5,-18.3,155.9,-15.1392,16.2601,11.498,9.55964,12.1837,16.0211,-33.7873,-19.9642,161.77100000000002,-0.558657,0.0745469,-0.8747879999999999,253.1,7.7,52.1701,4.42724,0.4,1.19183,339.425,4.45354,149.95,5.7024300000000006,184.408,0.887739,0.220836,237.748,4.21945,3.74424,14.938262939453098,22.0009689331055,35.0,22.0,-116486.0,3537.92,pp-riro,4,0,-1,-1
1570538667.7,2019-10-08,14:44:27.700,15.0,10.0,20.2900009155273,-12.4,17.5,13.6,-30.3,-22.3,151.9,-15.1392,16.2601,11.498,9.55964,12.1837,16.0211,-33.7873,-19.9642,161.77100000000002,-0.558657,0.0745469,-0.8747879999999999,253.1,7.7,52.1701,4.42724,0.4,1.18851,340.375,4.45356,151.55700000000002,4.18243,183.208,0.8794790000000001,0.2312429999999999,237.807,4.1175,3.67349,17.0467529296875,22.0009689331055,35.0,22.0,-115950.0,3137.98,pp-riro,4,0,-1,-1
1570538667.8,2019-10-08,14:44:27.800,15.0,9.0,20.5,-10.5,18.0,14.7,-30.0,-26.8,146.8,-14.0567,17.4406,13.1663,9.55021,7.35998,14.2744,-34.2311,-23.2912,157.755,-0.229618,-0.318219,-0.957205,253.1,7.7,52.1701,4.42724,0.4,1.1946,340.432,4.45357,153.251,3.04245,181.908,0.870597,0.2389679999999999,237.878,4.0003400000000005,3.58131,19.1722717285156,22.0009689331055,35.0,22.0,-115768.0,3384.09,pp-riro,4,0,-1,-1
1570538667.9,2019-10-08,14:44:27.900,15.0,10.0,20.7199993133545,-8.3,18.8,15.5,-28.1,-30.3,140.3,-11.8523,18.7288,15.1848,21.8234,10.2231,8.41095,-33.5663,-30.7883,151.951,-0.245817,-0.1270349999999999,-1.03114,253.1,7.7,52.1701,4.42724,0.2,1.1802,328.903,4.45359,154.974,2.28248,180.508,0.86131,0.244076,237.919,3.87937,3.4813,21.2841720581055,22.0009689331055,35.0,22.0,-115320.0,4645.44,pp-riro,4,0,-1,-1
1570538668.0,2019-10-08,14:44:28.000,15.0,8.0,20.7600002288818,-6.1,19.3,16.1,-25.3,-33.6,133.8,-9.63905,19.642,16.3294,12.4408,12.6248,13.1384,-31.924,-35.1303,145.627,-0.334073,-0.363179,-1.10186,253.1,7.7,52.1701,4.42724,0.2,1.14307,307.79900000000004,4.4536,156.814,1.14251,179.108,0.8516549999999999,0.251502,238.058,3.76157,3.38534,23.3960647583008,22.0009689331055,35.0,22.0,-114778.0,5722.19,pp-riro,4,0,-1,-1
1570538668.1,2019-10-08,14:44:28.100,15.0,9.0,20.7999992370605,-4.0,19.3,16.9,-21.2,-36.6,125.3,-6.01508,20.7116,17.3999,20.3516,8.81441,10.348,-27.4747,-40.8099,133.991,-0.347513,0.103016,-1.18986,253.1,7.7,52.1701,4.42724,0.2,1.13531,311.546,4.45362,158.654,0.7625569999999999,177.608,0.8417,0.253967,238.152,3.627580000000001,3.29989,25.5079650878906,22.0009689331055,35.0,22.0,-114356.0,1138.29,pp-riro,4,0,-1,-1
1570538668.2,2019-10-08,14:44:28.200,15.0,10.0,20.7600002288818,-1.6,19.2,17.3,-15.9,-40.0,114.9,-6.01508,20.7116,17.3999,20.3516,8.81441,10.348,-27.4747,-40.8099,133.991,-0.347513,0.103016,-1.18986,253.1,7.7,52.1701,4.42724,0.2,1.14473,306.92400000000004,4.45363,160.553,0.382607,176.00799999999998,0.8312870000000001,0.256376,238.236,3.47175,3.20519,27.6028289794922,22.0009689331055,35.0,22.0,-114221.0,2645.75,pp-riro,4,0,-1,-1
1570538668.3,2019-10-08,14:44:28.300,15.0,11.0,20.6700000762939,1.2,19.1,17.4,-9.6,-42.0,103.5,-3.84615,20.8288,18.6637,19.1851,-2.95113,11.8697,-23.4892,-44.8911,125.587,-0.516307,-0.105043,-1.2887,254.3,7.8,52.1701,4.42724,0.2,1.11869,300.24,4.45365,162.364,0.382666,174.50799999999998,0.821433,0.256385,238.359,3.31769,3.09692,29.6840667724609,22.0009689331055,35.0,22.0,-113708.0,5106.9,pp-riro,4,0,-1,-1
1570538668.4,2019-10-08,14:44:28.400,15.0,12.0,20.6700000762939,4.0,19.0,17.7,-2.9,-43.1,92.5,2.55846,20.8076,19.1923,32.6617,1.31143,9.66638,-10.0388,-51.9645,101.422,-0.626164,-0.0936246999999999,-1.39781,254.3,7.8,52.1701,4.42724,0.2,1.127,310.423,4.45367,164.233,0.382727,172.908,0.811124,0.256402,238.474,3.17515,2.99045,31.4382934570312,22.0009689331055,23.0044822692871,22.0,-113523.0,922.935,pp-riro,4,0,-1,-1
1570538668.5,2019-10-08,14:44:28.500,15.0,12.0,20.4899997711182,6.7,18.4,17.9,5.2,-43.1,79.7,5.68323,20.8388,19.5921,34.2493,4.1516,5.40514,-1.07304,-53.8717,87.0379,-0.603586,-0.13956,-1.39206,254.3,7.8,52.1701,4.42724,0.2,1.16025,326.454,4.4537,166.102,1.14281,171.208,0.800523,0.251811,238.544,3.0156400000000003,2.89122,32.8553161621094,22.0009689331055,23.0044822692871,22.0,-113334.0,2307.34,pp-ro,1,1,-1,-1
1570538668.6,2019-10-08,14:44:28.600,15.0,13.0,20.3600006103516,9.5,17.4,17.6,12.9,-42.5,67.8,5.68323,20.8388,19.5921,34.2493,4.1516,5.40514,-1.07304,-53.8717,87.0379,-0.603586,-0.13956,-1.39206,254.3,7.8,52.1701,4.42724,0.2,1.19571,345.658,4.4537,167.854,1.90289,169.50799999999998,0.7902680000000001,0.247346,238.562,2.86735,2.78306,33.901046752929695,22.0009689331055,23.0044822692871,22.0,-112983.0,2215.04,pp-ro,1,1,-1,-1
1570538668.7,2019-10-08,14:44:28.700,15.0,14.0,20.1399993896484,12.0,16.1,16.8,20.5,-40.7,56.0,5.68323,20.8388,19.5921,34.2493,4.1516,5.40514,-1.07304,-53.8717,87.0379,-0.603586,-0.13956,-1.39206,254.3,7.8,52.1701,4.42724,0.2,1.20402,342.805,4.45372,169.49,2.66296,167.808,0.780351,0.242955,238.524,2.71472,2.67634,34.589111328125,22.0009689331055,23.0044822692871,22.0,-112597.0,4276.26,pp-ro,1,1,-1,-1
1570538668.8,2019-10-08,14:44:28.800,15.0,13.0,19.9200000762939,14.6,14.8,15.7,26.9,-37.3,45.2,13.7512,18.0103,18.2525,30.6717,-12.0772,-9.31729,23.3024,-51.4736,50.3738,-0.396316,0.0183655,-1.6156700000000002,254.3,7.8,52.1701,4.42724,0.2,1.19183,337.829,4.45374,171.09599999999998,3.80305,166.208,0.770784,0.236422,238.566,2.56179,2.56202,34.933151245117195,22.0009689331055,23.0044822692871,22.0,-112308.0,5322.26,pp-ro,1,1,-1,-1
1570538668.9,2019-10-08,14:44:28.900,15.0,13.0,19.7000007629395,16.9,13.2,14.7,32.2,-33.3,35.7,13.7512,18.0103,18.2525,30.6717,-12.0772,-9.31729,23.3024,-51.4736,50.3738,-0.396316,0.0183655,-1.6156700000000002,254.3,7.8,52.1701,4.427230000000001,0.1,1.17299,330.717,4.45376,172.498,5.70314,164.808,0.762332,0.225576,238.642,2.41772,2.45628,34.955291748046896,22.0009689331055,21.5160999298096,22.0,-111898.0,3476.39,pp-ro,1,1,-1,-1
1570538669.0,2019-10-08,14:44:29.000,15.0,12.0,19.6499996185303,18.3,11.2,12.8,36.3,-28.7,27.4,19.2642,14.5423,15.599,23.9732,-28.3129,-12.9576,35.5422,-43.0076,28.0681,-0.5928220000000001,0.0376344,-1.35029,254.3,7.8,52.1701,4.427230000000001,0.1,1.17299,326.621,4.45378,173.725,7.223219999999999,163.50799999999998,0.754681,0.217052,238.678,2.27619,2.34749,34.589111328125,22.0009689331055,19.5893096923828,22.0,-111527.0,4153.21,pp-ro,1,1,-1,-1
1570538669.1,2019-10-08,14:44:29.100,15.0,13.0,19.6000003814697,19.6,9.5,11.2,39.6,-23.6,19.7,21.2233,12.555,13.7446,28.3857,-19.5661,-18.8163,39.201,-37.4044,18.9618,-0.548692,-0.0853581,-1.16666,254.3,7.8,52.1701,4.427230000000001,0.1,1.1536,318.49,4.4538,174.805,9.12331,162.408,0.747973,0.206444,238.781,2.13404,2.24858,33.856765747070305,22.0009689331055,17.8141136169434,22.0,-111108.0,3784.03,pp-ro,1,1,-1,-1
1570538669.2,2019-10-08,14:44:29.200,15.0,14.0,19.4599990844727,20.4,7.6,9.5,41.7,-18.1,12.5,22.6791,10.4511,11.6784,12.7679,-17.3643,-18.7251,41.8737,-31.5788,11.1723,-0.52571,0.0321269,-1.43138,254.3,7.8,52.1701,4.427230000000001,0.1,1.14972,317.601,4.45382,175.769,10.6434,161.50799999999998,0.7422300000000001,0.198089,238.941,1.98858,2.14806,33.3475341796875,22.0009689331055,15.9902954101562,22.0,-110741.0,3722.5,pp-ro,1,1,-1,-1
1570538669.3,2019-10-08,14:44:29.300,15.0,13.0,19.0499992370605,20.7,6.1,7.9,43.6,-12.0,5.2,23.6663,8.465119999999999,9.79156,5.98705,-17.8227,-17.3838,43.4685,-25.12,4.42394,-0.562718,0.2054619999999999,-1.69292,250.8,7.9,52.1701,4.427230000000001,0.1,1.15027,317.16,4.45381,176.58700000000002,12.9235,160.708,0.737028,0.185524,239.117,1.83508,2.0677,32.0701751708984,22.0009689331055,14.528039932251,22.0,-110456.0,2861.1,pp-ro,1,1,-1,-1
1570538669.4,2019-10-08,14:44:29.400,15.0,14.0,18.6800003051758,20.9,4.6,6.1,44.1,-6.5,-0.7,23.6663,8.465119999999999,9.79156,5.98705,-17.8227,-17.3838,43.4685,-25.12,4.42394,-0.562718,0.2054619999999999,-1.69292,250.8,7.9,52.1701,4.427230000000001,0.1,1.1358700000000002,297.999,4.45377,177.229,14.8235,160.108,0.732955,0.175152,239.3,1.7026599999999998,1.97587,29.9753112792969,22.0009689331055,12.809427261352502,22.0,-110034.0,5106.9,pp-ro,1,1,-1,-1
1570538669.5,2019-10-08,14:44:29.500,15.0,11.0,18.340000152587898,20.4,3.2,4.4,44.4,-1.3,-5.9,24.0267,7.368819999999999,8.85442,4.2187,-22.8021,-26.4239,43.9003,-21.6968,1.26622,-0.218125,0.1067839999999999,-1.33572,250.8,7.9,52.1701,4.427230000000001,0.1,1.08822,281.559,4.45373,177.726,17.1036,159.708,0.729763,0.162718,239.553,1.58302,1.89432,27.9315338134766,22.0009689331055,11.253643989563,22.0,-109485.0,5076.14,pp-ro,1,1,-1,-1
1570538669.6,2019-10-08,14:44:29.600,15.0,10.0,18.2000007629395,20.1,1.4,2.9,44.4,3.9,-10.9,23.4297,2.73054,3.6798,-7.395230000000001,-25.1508,-15.1972,42.9804,-5.48263,-13.205,-0.0201703,0.278275,-1.17832,250.8,7.9,52.1701,4.427230000000001,0.1,1.08101,284.139,4.45369,178.105,18.6237,159.408,0.7273569999999999,0.1545109999999999,239.748,1.46275,1.7929099999999998,25.8264465332031,22.0009689331055,9.29301738739014,22.0,-109290.0,953.699,pp-ro,1,1,-1,-1
1570538669.7,2019-10-08,14:44:29.700,15.0,12.0,18.0499992370605,19.4,0.3,1.4,44.0,8.6,-15.4,23.2136,1.77095,2.9393700000000003,-4.2423,-16.3857,-12.0331,42.5698,-2.60976,-15.9559,-0.0987807,0.0713878,-1.32855,250.8,7.9,52.1701,4.427230000000001,0.1,1.0993,277.086,4.45365,178.33900000000003,20.9037,159.208,0.725395,0.142057,239.977,1.3579,1.71249,23.7213668823242,22.0009689331055,7.716216564178469,22.0,-109036.0,3845.56,pp-ro,1,1,-1,-1
1570538669.8,2019-10-08,14:44:29.800,15.0,13.0,18.0,18.4,-0.6,-0.1,42.6,12.4,-19.6,23.2136,1.77095,2.9393700000000003,-4.2423,-16.3857,-12.0331,42.5698,-2.60976,-15.9559,-0.0987807,0.0713878,-1.32855,250.8,7.9,52.1701,4.427230000000001,0.1,1.04223,251.652,4.45361,178.426,22.4238,159.208,0.724649,0.133738,240.179,1.26585,1.62809,21.6162796020508,22.0009689331055,6.025940418243411,22.0,-108521.0,5137.67,pp-ro,1,1,-1,-1
1570538669.9,2019-10-08,14:44:29.900,15.0,14.0,17.7999992370605,17.3,-1.4,-1.1,42.1,16.2,-23.3,20.3636,-1.31661,-1.28084,-14.8666,-8.78312,-13.4931,39.3257,9.58538,-26.0772,-0.4276939999999999,0.259133,-0.8741620000000001,250.8,7.9,52.1701,4.427230000000001,0.0,1.01508,238.224,4.45356,178.455,24.7038,159.308,0.724058,0.121267,240.491,1.1830200000000002,1.56091,19.5043869018555,22.0009689331055,4.65701150894165,22.0,-108187.0,3076.45,pp-ro,1,1,-1,-1
1570538670.0,2019-10-08,14:44:30.000,15.0,14.0,17.4500007629395,16.5,-2.1,-1.7,41.0,19.7,-27.5,19.7293,-1.68138,-1.84582,-7.341589999999999,-5.8469,-10.6162,39.3127,11.5395,-27.756,-0.153289,0.0314952,-1.02305,250.8,7.9,52.1701,4.427230000000001,0.0,1.00954,239.398,4.453530000000001,178.39700000000002,26.2239,159.408,0.723938,0.1129049999999999,240.674,1.09618,1.50712,17.395896911621097,22.0009689331055,3.5522048473358194,22.0,-107990.0,1292.11,pp-ro,1,1,-1,-1
1570538670.1,2019-10-08,14:44:30.100,15.0,13.0,16.9400005340576,15.7,-2.4,-2.5,39.9,22.4,-31.6,18.0918,-2.80649,-3.02959,-9.82218,-7.89845,-11.7341,37.6965,17.5693,-33.8469,0.132227,-0.0519149,-0.908656,250.8,7.9,52.1701,4.427230000000001,0.0,1.00788,225.182,4.45349,178.25099999999998,28.1239,159.50799999999998,0.723859,0.1024099999999999,240.847,1.02252,1.45653,15.294219970703098,22.0009689331055,2.5020146369934104,22.0,-107756.0,3168.74,pp-ro,1,1,-1,-1
1570538670.2,2019-10-08,14:44:30.200,15.0,16.0,16.4099998474121,15.1,-2.7,-3.5,39.2,24.8,-35.4,18.0918,-2.80649,-3.02959,-9.82218,-7.89845,-11.7341,37.6965,17.5693,-33.8469,0.132227,-0.0519149,-0.908656,250.8,7.9,52.1701,4.427230000000001,0.0,0.958008,206.565,4.45345,178.076,29.6439,159.708,0.724288,0.0939813,241.032,0.955179,1.39382,13.1823272705078,22.0009689331055,1.1926450729370102,22.0,-107349.0,3907.09,pp-ro,1,1,-1,-1
1570538670.3,2019-10-08,14:44:30.300,15.0,16.0,15.9799995422363,14.6,-3.3,-4.0,38.0,27.0,-39.1,18.0918,-2.80649,-3.02959,-9.82218,-7.89845,-11.7341,37.6965,17.5693,-33.8469,0.132227,-0.0519149,-0.908656,257.0,7.5,52.1701,4.427230000000001,0.0,0.952468,205.92,4.45342,177.842,31.544,159.908,0.724657,0.0834251,241.233,0.8933559999999999,1.34348,11.6052093505859,22.0009689331055,0.125705301761627,22.0,-107181.0,1538.22,pp-ro,1,1,-1,-1
1570538670.4,2019-10-08,14:44:30.400,15.0,14.0,15.5900001525879,14.1,-4.0,-4.4,37.3,28.7,-43.2,16.7419,-3.39489,-4.474,-10.5466,-7.17431,-7.45855,36.4674,23.1607,-39.1697,0.112255,0.23934,-0.519231,257.0,7.5,52.1701,4.427230000000001,0.0,0.965211,216.999,4.45339,177.491,32.684,160.208,0.725979,0.0768929,241.326,0.830197,1.29009,9.49671936035156,22.0009689331055,-1.03789365291595,22.0,-107086.0,584.525,pp-ro,1,1,-1,-1
1570538670.5,2019-10-08,14:44:30.500,15.0,14.0,15.0699996948242,13.6,-4.4,-5.0,37.0,29.0,-44.7,15.261,-4.68081,-5.33139,-12.3123,-1.53671,0.4568649999999999,34.8539,27.846,-46.5465,0.130767,0.0432053,-0.560862,257.0,7.5,52.1701,4.427230000000001,0.0,0.989037,215.798,4.45337,177.31599999999997,33.444,160.308,0.72638,0.0726014,241.368,0.811948,1.23585,7.38823699951172,22.0009689331055,-2.16112422943115,22.0,-106910.0,2399.63,pp-ro,1,1,-1,-1
1570538670.6,2019-10-08,14:44:30.600,15.0,14.0,14.6599998474121,13.3,-4.7,-5.7,37.0,30.1,-48.2,14.5625,-4.92256,-5.96603,-5.0793,-2.47856,-7.782019999999999,34.4897,29.8928,-49.2797,0.413546,0.0807832,-0.352274,257.0,7.5,52.1701,4.427230000000001,0.0,0.949697,203.071,4.45334,176.673,35.724000000000004,160.809,0.728459,0.0595367,241.556,0.767025,1.19163,4.73814392089844,22.0009689331055,-3.21200466156006,22.0,-106554.0,3076.45,pp-ro,1,1,-1,-1
1570538670.7,2019-10-08,14:44:30.700,15.0,13.0,14.4799995422363,13.2,-5.0,-5.8,37.4,30.3,-49.4,14.5625,-4.92256,-5.96603,-5.0793,-2.47856,-7.782019999999999,34.4897,29.8928,-49.2797,0.413546,0.0807832,-0.352274,257.0,7.5,52.1701,4.427230000000001,0.0,0.943602,205.154,4.45331,176.148,37.2441,161.009,0.729648,0.0507099,241.534,0.7564930000000001,1.17894,2.72843170166016,22.0009689331055,-3.56893396377563,22.0,-106470.0,1599.75,pp-ro,1,1,-1,-1
1570538670.8,2019-10-08,14:44:30.800,15.0,12.0,14.4200000762939,12.9,-5.4,-5.7,37.3,30.0,-52.2,14.5625,-4.92256,-5.96603,-5.0793,-2.47856,-7.782019999999999,34.4897,29.8928,-49.2797,0.413546,0.0807832,-0.352274,257.0,7.5,52.1701,4.427230000000001,0.0,0.975185,218.975,4.45328,175.885,37.6241,161.409,0.7313729999999999,0.0483673,241.669,0.726689,1.16121,0.8515701293945309,22.0009689331055,-4.03290462493896,22.0,-106464.0,0.0,pp-ro,1,1,-1,-1
1570538670.9,2019-10-08,14:44:30.900,15.0,13.0,14.4200000762939,12.6,-5.7,-5.8,37.6,30.5,-54.9,14.4344,-5.06778,-6.32931,-6.26736,-4.0238,-7.123530000000001,34.5804,30.5812,-50.3108,0.0394176999999999,0.0106831,-0.326849,257.0,7.5,52.1701,4.427230000000001,0.0,0.987929,223.74400000000003,4.45326,175.009,39.9041,161.909,0.733917,0.0349513,241.733,0.697476,1.1446,-0.7748794555664059,22.0009689331055,-4.57399082183838,22.0,-106310.0,1876.63,pp-ro,1,1,-1,-1
1570538671.0,2019-10-08,14:44:31.000,15.0,12.0,14.8400001525879,12.4,-5.8,-5.9,38.0,30.1,-55.2,13.1728,-5.96191,-6.31862,-4.82472,5.08509,-0.6776409999999999,36.5588,32.7095,-56.3314,0.246148,-0.0721258,-0.0251549,257.0,7.5,52.1701,4.427230000000001,0.0,0.977401,213.211,4.4532300000000005,174.71599999999998,40.6641,162.109,0.734847,0.0304858,241.782,0.700762,1.13229,-2.1368865966796897,22.0009689331055,-4.896588802337651,22.0,-106078.0,2645.75,pp-ro,1,1,-1,-1
1570538671.1,2019-10-08,14:44:31.100,15.0,10.0,15.4200000762939,12.0,-6.7,-6.1,39.7,29.0,-55.5,13.1728,-5.96191,-6.31862,-4.82472,5.08509,-0.6776409999999999,36.5588,32.7095,-56.3314,0.246148,-0.0721258,-0.0251549,257.0,7.5,52.1701,4.427230000000001,0.0,0.956346,210.441,4.4532,173.69400000000002,42.5641,162.709,0.738222,0.0188684,241.776,0.715896,1.08658,-3.2428741455078103,22.0009689331055,-6.07527208328247,22.0,-105746.0,1353.64,pp-ro,1,1,-1,-1
1570538671.2,2019-10-08,14:44:31.200,15.0,11.0,15.9300003051758,12.0,-6.8,-6.2,40.4,28.6,-55.1,13.1728,-5.96191,-6.31862,-4.82472,5.08509,-0.6776409999999999,36.5588,32.7095,-56.3314,0.246148,-0.0721258,-0.0251549,257.0,7.5,52.1701,4.427230000000001,0.0,0.963549,212.234,4.453180000000001,173.373,43.3241,163.009,0.739499,0.0143365,241.882,0.728162,1.08215,-4.215736389160161,22.0009689331055,-6.26778936386108,22.0,-105712.0,646.054,pp-ro,1,1,-1,-1
1570538671.3,2019-10-08,14:44:31.300,15.0,12.0,16.370000839233402,11.9,-7.0,-6.0,41.2,27.1,-54.3,12.6394,-6.48342,-6.36514,-2.7206200000000003,-2.0590200000000003,-0.179536,37.8843,32.2507,-56.5914,-0.0976866,-0.0933826,0.0535138,251.1,7.7,52.1701,4.427230000000001,0.0,0.967428,206.158,4.45314,172.613,44.4641,163.409,0.741991,0.00713407,241.816,0.758411,1.08553,-4.976959228515621,22.0009689331055,-6.39952659606934,22.0,-105538.0,2276.57,pp-ro,1,1,-1,-1
1570538671.4,2019-10-08,14:44:31.400,15.0,11.0,16.4200000762939,12.1,-6.8,-5.9,42.7,25.2,-53.1,12.6394,-6.48342,-6.36514,-2.7206200000000003,-2.0590200000000003,-0.179536,37.8843,32.2507,-56.5914,-0.0976866,-0.0933826,0.0535138,251.1,7.7,52.1701,4.427230000000001,0.0,0.942494,198.113,4.4531,171.912,45.9841,163.90900000000002,0.7443310000000001,-0.00207682,241.939,0.799767,1.1102,-5.89179229736328,22.0009689331055,-6.11326789855957,22.0,-105253.0,2707.28,pp-ro,1,1,-1,-1
1570538671.5,2019-10-08,14:44:31.500,15.0,13.0,16.5799999237061,12.5,-6.8,-5.6,44.2,24.0,-51.7,12.3625,-6.77737,-6.156540000000001,3.28641,1.90917,3.25066,40.7788,29.4145,-54.4622,0.215383,-0.124141,0.313517,251.1,7.7,52.1701,4.427230000000001,0.0,0.952468,206.288,4.45306,171.18200000000002,47.1241,164.30900000000003,0.746684,-0.00929938,241.912,0.835451,1.14349,-6.32701873779297,22.0009689331055,-5.651013374328611,22.0,-105110.0,522.996,pp-ro,1,1,-1,-1
1570538671.6,2019-10-08,14:44:31.600,15.0,13.0,16.5799999237061,12.9,-6.9,-5.1,45.1,22.7,-50.4,12.9247,-6.65212,-5.7323900000000005,2.9428400000000003,-0.911646,7.70413,42.8043,27.8233,-51.7481,0.0183507999999999,0.0670681,0.319084,251.1,7.7,52.1701,4.427230000000001,0.0,0.96632,211.317,4.45301,170.423,48.2642,164.80900000000003,0.749394,-0.0165993,241.941,0.8711399999999999,1.18158,-6.41748046875,22.0009689331055,-5.12508106231689,22.0,-104960.0,1845.87,pp-ro,1,1,-1,-1
1570538671.7,2019-10-08,14:44:31.700,15.0,13.0,16.7399997711182,13.4,-6.8,-4.7,46.0,20.8,-49.3,12.9247,-6.65212,-5.7323900000000005,2.9428400000000003,-0.911646,7.70413,42.8043,27.8233,-51.7481,0.0183507999999999,0.0670681,0.319084,251.1,7.7,52.1701,4.427230000000001,0.0,0.965766,213.425,4.45297,169.722,49.7842,165.209,0.751315,-0.0259047,242.029,0.912551,1.22547,-6.35774230957031,22.0009689331055,-4.448923587799071,22.0,-104857.0,1968.93,pp-ro,1,1,-1,-1
1570538671.8,2019-10-08,14:44:31.800,15.0,9.0,16.7399997711182,13.9,-6.5,-4.3,47.2,19.9,-48.1,13.8351,-6.815639999999999,-4.7716,5.98541,3.47395,4.7239,44.9614,24.3791,-49.6219,0.1466299999999999,-0.0163744,0.426731,251.1,7.7,52.1701,4.427230000000001,0.0,0.969644,212.603,4.45293,169.021,50.9242,165.509,0.7532,-0.0331979,241.98,0.943115,1.27356,-5.7535400390625,22.0009689331055,-3.6785671710968,22.0,-104727.0,1292.11,pp-ro,1,1,-1,-1
1570538671.9,2019-10-08,14:44:31.900,15.0,9.0,16.7900009155273,14.3,-6.5,-3.8,48.5,19.4,-46.6,13.8351,-6.815639999999999,-4.7716,5.98541,3.47395,4.7239,44.9614,24.3791,-49.6219,0.1466299999999999,-0.0163744,0.426731,251.1,7.7,52.1701,4.427230000000001,0.1,0.962441,205.99,4.45288,168.34900000000002,52.0642,165.90900000000002,0.7552810000000001,-0.0404487,242.029,0.973049,1.31187,-4.9991455078125,22.0009689331055,-3.12478160858154,22.0,-104492.0,2676.51,pp-ro,1,1,-1,-1
1570538672.0,2019-10-08,14:44:32.000,15.0,10.0,16.6900005340576,14.8,-6.5,-3.4,49.2,18.1,-45.4,14.9157,-6.59552,-3.609080000000001,5.17625,0.471558,2.95736,47.4837,21.3992,-46.4443,0.0652009,0.0537456,0.315418,251.1,7.7,52.1701,4.427230000000001,0.1,0.940278,197.172,4.45284,167.61900000000003,53.9642,166.109,0.756235,-0.0519177,242.075,1.0113299999999998,1.35015,-4.28400421142578,22.0009689331055,-2.52643084526062,22.0,-104200.0,1507.46,pp-ro,1,1,-1,-1
1570538672.1,2019-10-08,14:44:32.100,15.0,10.0,16.5799999237061,15.1,-6.3,-3.0,50.0,16.7,-44.3,15.0768,-6.568689999999999,-3.3646,-0.501233,0.9706,6.93237,48.0021,20.7846,-45.7802,-0.0152194,-0.1123079999999999,0.319666,251.1,7.7,52.1701,4.427230000000001,0.1,0.93917,196.849,4.4528,166.947,55.1042,166.40900000000002,0.757946,-0.0592178,242.074,1.04651,1.38669,-3.6200714111328094,22.0009689331055,-1.99414205551147,22.0,-104123.0,1476.7,pp-ro,1,1,-1,-1
1570538672.2,2019-10-08,14:44:32.200,15.0,10.0,16.6399993896484,15.4,-6.1,-2.5,50.9,15.4,-43.3,15.0768,-6.568689999999999,-3.3646,-0.501233,0.9706,6.93237,48.0021,20.7846,-45.7802,-0.0152194,-0.1123079999999999,0.319666,251.1,7.7,52.1701,4.427230000000001,0.1,0.943048,201.213,4.45275,166.24599999999998,57.0043,166.609,0.7587119999999999,-0.0706913,242.169,1.08253,1.42985,-2.7735137939453103,22.0009689331055,-1.2966710329055802,22.0,-104006.0,1045.99,pp-ro,1,1,-1,-1
1570538672.3,2019-10-08,14:44:32.300,15.0,9.0,16.6900005340576,15.9,-6.2,-2.2,51.5,14.7,-42.1,15.0768,-6.568689999999999,-3.3646,-0.501233,0.9706,6.93237,48.0021,20.7846,-45.7802,-0.0152194,-0.1123079999999999,0.319666,256.5,6.4,52.1701,4.427230000000001,0.1,0.952468,202.696,4.45274,165.574,58.5243,166.709,0.759394,-0.0801074,242.14,1.1126,1.4557,-2.45604705810547,22.0009689331055,-0.925243973731995,22.0,-103889.0,1445.93,pp-ro,1,1,-1,-1
1570538672.4,2019-10-08,14:44:32.400,15.0,9.0,16.6900005340576,16.2,-6.3,-1.6,51.6,13.7,-41.6,15.4222,-6.35499,-3.00406,5.72309,3.28006,3.2113,48.9674,18.9763,-44.9315,0.0017317999999999,0.0956473,0.227685,256.5,6.4,52.1701,4.427230000000001,0.1,0.944156,199.779,4.45276,164.93200000000002,60.0443,166.80900000000003,0.759954,-0.0895112,242.143,1.1374,1.48925,-1.8074722290039096,22.0009689331055,-0.393611878156662,22.0,-103690.0,1907.4,pp-ro,1,1,-1,-1
1570538672.5,2019-10-08,14:44:32.500,15.0,11.0,16.5900001525879,16.4,-6.3,-1.5,51.7,12.6,-41.1,15.9711,-6.3057300000000005,-2.29843,2.20277,-1.4718,2.98525,49.762,17.563,-43.2139,-0.144058,0.0243593,0.195469,256.5,6.4,52.1701,4.427230000000001,0.1,0.946373,202.102,4.452780000000001,164.26,61.5643,166.90900000000002,0.760548,-0.0989829,242.137,1.16351,1.50341,-1.12135314941406,22.0009689331055,-0.258581101894379,22.0,-103554.0,1292.11,pp-ro,1,1,-1,-1
1570538672.6,2019-10-08,14:44:32.600,15.0,11.0,16.5799999237061,16.9,-6.5,-1.5,52.0,11.8,-40.2,15.9711,-6.3057300000000005,-2.29843,2.20277,-1.4718,2.98525,49.762,17.563,-43.2139,-0.144058,0.0243593,0.195469,256.5,6.4,52.1701,4.427230000000001,0.1,0.9569,212.576,4.4528,163.559,63.0843,167.009,0.761175,-0.108524,242.122,1.19111,1.51154,-0.646865844726562,22.0009689331055,-0.253577530384064,22.0,-103452.0,892.17,pp-ro,1,1,-1,-1
1570538672.7,2019-10-08,14:44:32.700,15.0,10.0,16.6900005340576,17.5,-6.9,-1.2,52.0,11.0,-39.8,17.6256,-6.98275,-1.49076,10.3144,-4.2542,2.4222200000000003,50.1783,13.1425,-41.0358,-0.0452385,-0.0987026999999999,0.0988133,256.5,6.4,52.1701,4.427230000000001,0.1,0.999011,235.269,4.45282,162.858,64.9844,167.009,0.761057,-0.120092,242.152,1.214,1.52746,-0.269668579101562,22.0009689331055,-0.047638554126024,22.0,-103383.0,799.877,pp-ro,1,1,-1,-1
1570538672.8,2019-10-08,14:44:32.800,15.0,11.0,17.0599994659424,18.0,-7.1,-1.0,51.9,10.2,-40.1,17.6256,-6.98275,-1.49076,10.3144,-4.2542,2.4222200000000003,50.1783,13.1425,-41.0358,-0.0452385,-0.0987026999999999,0.0988133,256.5,6.4,52.1701,4.427230000000001,0.1,1.01452,245.016,4.4528300000000005,162.09799999999998,66.5044,167.109,0.761737,-0.129775,242.124,1.2268,1.5428,-0.184333801269531,22.0009689331055,0.0827864482998849,22.0,-103333.0,953.699,pp-ro,1,1,-1,-1
1570538672.9,2019-10-08,14:44:32.900,15.0,10.0,17.3600006103516,18.5,-7.2,-0.8,51.9,9.9,-40.6,18.5498,-7.379410000000001,-1.11513,8.27265,-0.513509,1.7351599999999998,49.6883,11.8308,-41.3599,-0.0793575,-0.0831515,0.069163,256.5,6.4,52.1701,4.427230000000001,0.1,1.04389,264.525,4.45285,161.339,68.7844,167.109,0.7612270000000001,-0.143465,242.254,1.23401,1.56358,-0.069976806640625,22.0009689331055,0.3945793807506559,22.0,-103252.0,769.112,pp-ro,1,1,-1,-1
1570538673.0,2019-10-08,14:44:33.000,15.0,9.0,17.7199993133545,18.9,-7.3,-0.2,51.9,9.9,-41.1,18.5498,-7.379410000000001,-1.11513,8.27265,-0.513509,1.7351599999999998,49.6883,11.8308,-41.3599,-0.0793575,-0.0831515,0.069163,256.5,6.4,52.1701,4.427230000000001,0.1,1.10706,296.836,4.45287,160.609,70.3044,167.109,0.761419,-0.153092,242.205,1.23463,1.5940299999999998,0.0187301635742189,22.0009689331055,0.867550015449524,22.0,-103156.0,922.935,pp-ro,1,1,-1,-1
1570538673.1,2019-10-08,14:44:33.100,15.0,8.0,18.0599994659424,19.1,-7.5,0.0,51.5,10.4,-41.6,18.5498,-7.379410000000001,-1.11513,8.27265,-0.513509,1.7351599999999998,49.6883,11.8308,-41.3599,-0.0793575,-0.0831515,0.069163,256.5,6.4,52.1701,4.427230000000001,0.1,1.1242299999999998,300.427,4.45289,159.82,72.5844,167.009,0.7605270000000001,-0.166813,242.287,1.23216,1.60675,0.335517883300781,22.0009689331055,1.05850172042847,22.0,-102935.0,2430.39,pp-ro,1,1,-1,-1
1570538673.2,2019-10-08,14:44:33.200,15.0,9.0,18.4899997711182,19.0,-7.6,-0.3,51.1,10.8,-42.0,19.4441,-7.870610000000001,-0.21375,-2.77086,-5.17687,-0.5975020000000001,48.4361,12.0332,-42.7032,-0.0584906999999999,-0.0706258,-0.0816863999999999,256.5,6.4,52.1701,4.427230000000001,0.1,1.10927,287.491,4.45291,159.031,74.4845,166.90900000000002,0.7600020000000001,-0.17854,242.276,1.23068,1.59981,0.6965866088867191,22.0009689331055,0.838716626167297,22.0,-102528.0,4583.91,pp-ro,1,1,-1,-1
1570538673.3,2019-10-08,14:44:33.300,15.0,9.0,19.0100002288818,18.7,-7.8,-0.6,50.9,11.2,-41.8,19.4441,-7.870610000000001,-0.21375,-2.77086,-5.17687,-0.5975020000000001,48.4361,12.0332,-42.7032,-0.0584906999999999,-0.0706258,-0.0816863999999999,253.3,7.2,52.1701,4.427230000000001,0.1,1.09597,286.66900000000004,4.45291,158.27200000000002,76.3845,166.90900000000002,0.759632,-0.190163,242.37,1.23649,1.58684,1.00655364990234,22.0009689331055,-35.0,22.0,-102288.0,4460.85,pp-ro,1,1,-1,-1
1570538673.4,2019-10-08,14:44:33.400,15.0,10.0,19.6499996185303,18.5,-8.2,-0.6,50.9,11.1,-41.8,19.4441,-7.870610000000001,-0.21375,-2.77086,-5.17687,-0.5975020000000001,48.4361,12.0332,-42.7032,-0.0584906999999999,-0.0706258,-0.0816863999999999,253.3,7.2,52.1701,4.427230000000001,0.1,1.1475,320.363,4.45289,157.454,78.2845,167.009,0.7596430000000001,-0.201897,242.513,1.24597,1.57972,0.998046875,22.0009689331055,-35.0,22.0,-102262.0,-1999.69,pp-ro,1,1,-1,-1
1570538673.5,2019-10-08,14:44:33.500,15.0,10.0,20.229999542236303,18.7,-8.1,-0.7,51.2,11.2,-42.1,19.4441,-7.870610000000001,-0.21375,-2.77086,-5.17687,-0.5975020000000001,48.4361,12.0332,-42.7032,-0.0584906999999999,-0.0706258,-0.0816863999999999,253.3,7.2,52.1701,4.427230000000001,0.1,1.17798,332.11400000000003,4.45287,156.636,79.8045,167.01,0.759777,-0.211691,242.479,1.24795,1.58891,0.62335205078125,22.0009689331055,-35.0,22.0,-101902.0,5506.84,pp-ro,1,1,-1,-1
1570538673.6,2019-10-08,14:44:33.600,15.0,9.0,20.6100006103516,19.2,-8.1,-0.4,51.7,11.7,-42.6,18.8243,-8.25234,-0.8379790000000001,1.071,-3.12289,4.11638,47.2933,12.4956,-43.9673,-0.0129698999999999,0.116283,-0.0258185999999999,253.3,7.2,52.1701,4.427230000000001,0.1,1.19072,363.957,4.45285,155.789,82.0846,167.11,0.759234,-0.225394,242.763,1.24534,1.61594,-0.1092300415039059,22.0009689331055,-35.0,22.0,-101710.0,-430.703,pp-ro,1,1,-1,-1
1570538673.7,2019-10-08,14:44:33.700,15.0,9.0,21.1200008392334,19.8,-8.7,-0.1,52.1,12.3,-43.2,19.3675,-8.42677,-0.836939,4.85165,-1.02656,1.65168,47.8566,13.3731,-43.4378,-0.0239307,0.0561329,-0.216813,253.3,7.2,52.1701,4.427230000000001,0.1,1.24281,388.396,4.4528300000000005,154.971,83.6046,167.11,0.759252,-0.235176,242.758,1.2375200000000002,1.62308,-1.20498657226562,22.0009689331055,-35.0,22.0,-101846.0,-2707.28,pp-ro,1,1,-1,-1
1570538673.8,2019-10-08,14:44:33.800,15.0,12.0,21.5799999237061,20.2,-9.2,-0.1,52.7,11.9,-43.8,20.0893,-9.19195,-0.2438139999999999,-0.760504,-7.839469999999999,3.12166,48.2536,14.6015,-43.7338,0.176415,0.045279,-0.0886646,253.3,7.2,52.1701,4.427230000000001,0.1,1.33091,423.967,4.45281,154.095,85.8846,167.11,0.758323,-0.2489,242.996,1.24473,1.62336,-2.6762237548828103,22.0009689331055,-35.0,22.0,-101769.0,2553.45,pp-ro,1,1,-1,-1
1570538673.9,2019-10-08,14:44:33.900,15.0,12.0,22.100000381469695,20.8,-9.7,-0.1,53.6,11.0,-44.1,20.285,-9.41228,-0.230992,7.65348,-4.13056,1.56063,48.4905,14.6453,-43.8894,0.257151,0.0472825999999999,-0.0972553999999999,253.3,7.2,52.1701,4.427219999999999,0.4,1.35085,436.857,4.45279,153.131,87.7846,167.21,0.758351,-0.2609329999999999,243.134,1.26055,1.62559,-4.49223327636719,22.0025119781494,-35.0,22.0,-101320.0,4614.67,pp-ro,1,1,-1,-1
1570538674.0,2019-10-08,14:44:34.000,15.0,11.0,22.690000534057603,21.3,-10.3,0.4,54.6,9.9,-43.7,20.285,-9.41228,-0.230992,7.65348,-4.13056,1.56063,48.4905,14.6453,-43.8894,0.257151,0.0472825999999999,-0.0972553999999999,253.3,7.2,52.1701,4.427219999999999,0.4,1.40127,469.898,4.45277,152.138,90.0647,167.21,0.757532,-0.274892,243.345,1.28876,1.64093,-6.59156799316406,22.0019989013672,-35.0,22.0,-100771.0,2922.63,pp-ro,1,1,-1,-1
1570538674.1,2019-10-08,14:44:34.100,15.0,11.0,23.149999618530305,21.9,-10.4,1.0,55.8,7.7,-42.9,20.285,-9.41228,-0.230992,7.65348,-4.13056,1.56063,48.4905,14.6453,-43.8894,0.257151,0.0472825999999999,-0.0972553999999999,253.3,7.2,52.1701,4.427219999999999,0.4,1.43674,476.723,4.45275,151.08700000000002,91.9647,167.11,0.7570180000000001,-0.287149,243.332,1.33437,1.67188,-8.69773101806641,22.0025119781494,-35.0,22.0,-100316.0,5660.67,pp-ro,1,1,-1,-1
1570538674.2,2019-10-08,14:44:34.200,15.0,12.0,23.530000686645497,22.6,-10.0,2.4,57.5,5.4,-42.0,20.285,-9.41228,-0.230992,7.65348,-4.13056,1.56063,48.4905,14.6453,-43.8894,0.257151,0.0472825999999999,-0.0972553999999999,253.3,7.2,52.1701,4.427219999999999,0.4,1.43009,474.8,4.45273,150.035,94.2447,166.91,0.7555609999999999,-0.301208,243.416,1.38392,1.7402099999999998,-10.8073043823242,22.0025119781494,-35.0,22.0,-99867.1,8337.18,pp-ro,1,1,-1,-1
1570538674.3,2019-10-08,14:44:34.300,15.0,8.0,23.719999313354503,23.3,-9.1,3.9,58.6,2.2,-41.8,21.2738,-10.4241,0.637707,0.739671,2.60818,7.64543,50.5447,12.6485,-43.1924,-0.0144352,-0.0788036999999999,0.238583,249.7,6.7,52.1701,4.427219999999999,0.4,1.41402,469.499,4.45268,149.071,96.9047,166.61,0.752919,-0.316702,243.663,1.43769,1.823,-12.8946914672852,22.0025119781494,-35.0,22.0,-99194.4,5999.08,pp-ro,1,1,-1,-1
1570538674.4,2019-10-08,14:44:34.400,15.0,10.0,24.0200004577637,23.8,-8.2,5.4,59.9,-0.6,-40.0,22.8896,-8.74576,4.37988,0.5567489999999999,10.2928,8.84356,54.6406,4.21324,-40.3535,0.345066,-0.0228784,0.673353,249.7,6.7,52.1701,4.427219999999999,0.4,1.41346,462.584,4.45263,148.224,98.8048,166.21,0.750775,-0.328188,243.636,1.50313,1.89926,-14.9991455078125,22.0025119781494,-35.0,22.0,-98495.6,7783.42,pp-ro,1,1,-1,-1
1570538674.5,2019-10-08,14:44:34.500,15.0,9.0,24.2700004577637,24.4,-7.0,7.1,61.1,-4.8,-37.3,23.243,-7.6336,6.02135,0.717225,10.5475,17.665,56.4234,1.25651,-37.4761,0.144791,0.0308832999999999,0.6391220000000001,249.7,6.7,52.1701,4.427219999999999,0.4,1.3885299999999998,451.319,4.45256,147.406,101.465,165.51,0.746395,-0.343026,243.756,1.59979,1.98882,-17.108718872070302,22.0025119781494,-35.0,22.0,-97470.2,6029.84,pp-ro,1,1,-1,-1
1570538674.6,2019-10-08,14:44:34.600,15.0,10.0,24.5599994659424,24.8,-5.6,8.9,61.8,-9.2,-34.3,23.243,-7.6336,6.02135,0.717225,10.5475,17.665,56.4234,1.25651,-37.4761,0.144791,0.0308832999999999,0.6391220000000001,249.7,6.7,52.1701,4.427219999999999,0.4,1.38576,453.059,4.4525,146.764,104.125,164.81,0.7415149999999999,-0.357163,244.016,1.70193,2.08223,-19.2285385131836,22.0035419464111,-35.0,22.0,-97125.7,6829.72,pp-ro,1,1,-1,-1
