time,date,time_of_day,airspeed_temperature,airspeed_angle_of_attack,airspeed_apparent_windspeed,kite_0_vx,kite_0_vy,kite_0_vz,kite_0_roll,kite_0_pitch,kite_0_yaw,kite_1_vx,kite_1_vy,kite_1_vz,kite_1_ax,kite_1_ay,kite_1_az,kite_1_roll,kite_1_pitch,kite_1_yaw,kite_1_roll_rate,kite_1_pitch_rate,kite_1_yaw_rate,ground_upwind_direction,ground_wind_velocity,ground_pos_latitude,ground_pos_longitude,ground_pos_altitude,ground_tether_reelout_speed,ground_tether_force,est_upwind_direction,kite_pos_east,kite_pos_north,kite_height,kite_elevation,kite_azimuth,kite_distance,kite_heading,kite_course,kite_actual_steering,kite_actual_depower,kite_set_steering,kite_set_depower,ground_mech_energy,ground_mech_power,flight_phase,flight_phase_index,phase,pattern,pattern_section
1570536564.2,2019-10-08,14:09:24.200,14.0,9.0,13.3199996948242,12.0,-2.3,3.4,23.9,-5.8,-55.0,9.95311,-1.88603,3.30391,8.852310000000001,4.74102,4.6603,27.7451,10.8055,-57.7187,0.2221199999999999,0.14977,0.970863,257.6,5.7,52.1701,4.427219999999999,7.0,-2.44073,87.0185,4.47812,58.7655,15.9609,238.378,1.32069,-0.0309364,246.033,0.9117,1.71253,-34.975250244140604,22.0009689331055,-35.0,22.0,-810472.0,-12059.7,pp-riro,4,0,-1,-1
1570536564.3,2019-10-08,14:09:24.300,14.0,10.0,13.0500001907349,12.7,-1.3,3.8,24.9,-8.2,-50.0,11.1249,-0.983711,3.950930000000001,6.57815,7.4238,1.83265,29.695,7.61246,-49.326,0.0673271,0.0496315,0.982477,257.6,5.7,52.1701,4.427219999999999,7.0,-2.54933,79.8232,4.478280000000001,58.5611,17.480999999999998,238.078,1.31952,-0.0559773,245.797,1.03387,1.82488,-34.9889068603516,22.0009689331055,-35.0,22.0,-812678.0,-17135.8,pp-riro,4,0,-1,-1
1570536564.4,2019-10-08,14:09:24.400,14.0,9.0,12.8400001525879,13.3,-0.3,4.2,25.7,-10.3,-45.1,11.7252,-0.0647295,4.2853,5.26359,8.75676,3.78068,30.4231,5.01612,-44.2507,0.0556380999999999,0.0707294,0.923794,257.6,5.7,52.1701,4.427219999999999,7.0,-2.64408,77.9747,4.47844,58.4442,18.621,237.778,1.31833,-0.0744117,245.563,1.14681,1.92238,-34.9940185546875,22.0009689331055,-35.0,22.0,-814599.0,-19904.6,pp-riro,4,0,-1,-1
1570536564.5,2019-10-08,14:09:24.500,14.0,9.0,12.710000038147,13.8,0.6,4.7,26.2,-12.2,-40.3,12.2448,0.90866,4.70564,4.5114,10.027,5.62643,31.2626,2.5459400000000003,-39.2961,0.117622,0.0975188,0.906284,257.6,5.7,52.1701,4.427219999999999,7.0,-2.71113,77.084,4.4785900000000005,58.4442,20.1411,237.378,1.31604,-0.0980805,245.296,1.26243,2.01298,-34.9940185546875,22.0009689331055,-35.0,22.0,-815617.0,-19320.1,pp-riro,4,0,-1,-1
1570536564.6,2019-10-08,14:09:24.600,14.0,9.0,12.7700004577637,14.1,1.7,5.0,26.4,-14.2,-35.3,12.6859,1.87058,5.1783,2.57826,8.9391,3.41908,31.9351,0.2247829999999999,-34.3423,0.0303406999999999,0.136373,0.916394,257.6,5.7,52.1701,4.427219999999999,7.0,-2.88123,66.4224,4.47875,58.5318,21.2811,236.978,1.3138,-0.115088,245.026,1.37508,2.10385,-34.9940185546875,22.0009689331055,-35.0,22.0,-819102.0,-26334.4,pp-riro,4,0,-1,-1
1570536564.7,2019-10-08,14:09:24.700,14.0,9.0,12.7700004577637,14.5,2.6,5.2,26.8,-16.1,-30.2,12.9637,2.78459,5.49412,1.6122,8.10522,1.06846,32.0878,-1.87741,-29.32,0.00347362,0.134341,0.932184,257.6,5.7,52.1701,4.427219999999999,6.7,-3.0491200000000003,64.8932,4.47891,58.707,22.4212,236.678,1.31126,-0.131344,244.879,1.48782,2.17347,-34.9940185546875,22.0009689331055,-35.0,22.0,-822261.0,-32579.6,pp-riro,4,0,-1,-1
1570536564.8,2019-10-08,14:09:24.800,14.0,9.0,12.9099998474121,14.6,3.2,5.5,26.9,-17.0,-27.6,13.3979,4.19086,5.9041,3.20788,9.4271,5.784680000000001,32.2023,-4.78756,-21.5764,0.164974,0.223763,0.875919,257.6,5.7,52.1701,4.427219999999999,6.7,-3.135,68.8554,4.47915,58.9991,24.3212,236.378,1.30711,-0.157764,244.841,1.5630000000000002,2.23749,-34.9974365234375,22.0009689331055,-35.0,22.0,-824013.0,-33010.3,pp-riro,4,0,-1,-1
1570536564.9,2019-10-08,14:09:24.900,14.0,8.0,12.9799995422363,15.0,4.2,5.8,26.9,-18.6,-22.7,13.7646,5.06829,6.42014,3.56449,11.5976,3.58656,31.9978,-6.43802,-16.1487,-0.0302445,0.236842,0.963459,257.6,5.7,52.1701,4.427219999999999,6.7,-3.28349,78.6738,4.47923,59.1743,24.7013,235.978,1.30547,-0.1622839999999999,244.535,1.6581,2.29611,-34.9974365234375,22.0009689331055,-35.0,22.0,-826778.0,-27195.8,pp-riro,4,0,-1,-1
1570536565.0,2019-10-08,14:09:25.000,14.0,10.0,13.119999885559098,15.3,5.3,6.4,26.8,-20.3,-17.7,13.7646,5.06829,6.42014,3.56449,11.5976,3.58656,31.9978,-6.43802,-16.1487,-0.0302445,0.236842,0.963459,257.6,5.7,52.1701,4.427219999999999,6.7,-3.38046,84.404,4.47939,59.6124,26.2213,235.478,1.30098,-0.181391,244.318,1.7693299999999998,2.37472,-34.9974365234375,22.0009689331055,-35.0,22.0,-829062.0,-21166.0,pp-riro,4,0,-1,-1
1570536565.1,2019-10-08,14:09:25.100,14.0,11.0,13.1800003051758,15.5,6.3,6.8,26.5,-22.2,-12.1,14.0032,6.01854,6.796539999999999,1.3134,7.9538,3.9442,31.2716,-7.97205,-10.5484,0.0990211,0.303423,0.969377,265.5,5.6,52.1701,4.427219999999999,6.7,-3.48906,90.9438,4.47955,60.1673,28.1214,234.878,1.29523,-0.204375,244.088,1.89425,2.44716,-34.9974365234375,22.0009689331055,-35.0,22.0,-831896.0,-16828.2,pp-riro,4,0,-1,-1
1570536565.2,2019-10-08,14:09:25.200,14.0,12.0,13.4499998092651,15.9,7.5,7.2,26.5,-23.5,-6.7,14.1847,6.98574,7.18957,4.02241,10.2826,2.91961,30.7181,-9.60064,-5.52872,0.120568,0.2294929999999999,0.8577969999999999,265.5,5.6,52.1701,4.427219999999999,6.7,-3.52009,96.2026,4.47965,60.8391,29.2614,234.278,1.29023,-0.2155639999999999,243.811,2.00022,2.50897,-34.9974365234375,22.0009689331055,-35.0,22.0,-832757.0,-15997.5,pp-riro,4,0,-1,-1
1570536565.3,2019-10-08,14:09:25.300,14.0,12.0,13.9700002670288,16.1,8.7,7.6,26.2,-24.7,-1.2,14.1847,6.98574,7.18957,4.02241,10.2826,2.91961,30.7181,-9.60064,-5.52872,0.120568,0.2294929999999999,0.8577969999999999,265.5,5.6,52.1701,4.427219999999999,6.7,-3.52895,108.476,4.47975,61.5692,31.1615,233.578,1.28354,-0.235895,243.558,2.11486,2.57953,-34.9991455078125,22.0009689331055,-35.0,22.0,-833540.0,-6029.84,pp-riro,4,0,-1,-1
1570536565.4,2019-10-08,14:09:25.400,14.0,12.0,14.3999996185303,16.3,9.9,8.2,25.4,-26.3,4.4,14.829,9.15829,7.994210000000001,0.886617,12.044,5.59905,29.3268,-12.6532,5.84448,0.00131588,0.279755,0.989248,265.5,5.6,52.1701,4.427219999999999,6.7,-3.48906,119.886,4.47985,62.4454,32.6816,232.778,1.27679,-0.249576,243.21400000000003,2.22546,2.64096,-34.9991455078125,22.0009689331055,-35.0,22.0,-833613.0,1261.34,pp-riro,4,0,-1,-1
1570536565.5,2019-10-08,14:09:25.500,14.0,13.0,14.710000038147,16.2,12.0,9.0,24.8,-28.8,13.2,14.9153,10.9315,8.80839,1.17155,13.7418,3.2676,27.5337,-14.8192,14.9274,0.0259635,0.1809349999999999,1.0118,265.5,5.6,52.1701,4.427219999999999,6.7,-3.39652,127.752,4.47996,64.0518,35.3417,231.478,1.26469,-0.271767,242.763,2.39669,2.7479400000000003,-34.9991455078125,22.0009689331055,-23.0044822692871,22.0,-832619.0,11013.7,pp-riro,4,0,-1,-1
1570536565.6,2019-10-08,14:09:25.600,14.0,11.0,14.9499998092651,16.0,12.8,9.2,24.5,-29.5,16.1,14.8718,11.6119,9.0638,-6.55301,10.6144,6.10116,27.0274,-15.5443,18.0777,0.0527755,0.321158,0.972237,265.5,5.6,52.1701,4.427219999999999,6.7,-3.26465,134.215,4.48006,64.6359,36.1017,231.078,1.26074,-0.277047,242.648,2.44979,2.78714,-34.9991455078125,22.0009689331055,-23.0044822692871,22.0,-831143.0,16459.0,pp-riro,4,0,-1,-1
1570536565.7,2019-10-08,14:09:25.700,14.0,9.0,15.3000001907349,15.6,14.3,9.6,23.7,-30.6,22.1,14.7103,12.3097,9.24027,-6.25888,14.48,5.53064,26.4799,-16.3325,21.116,0.173195,0.300467,0.892194,265.5,5.6,52.1701,4.42721,6.4,-3.0879,141.09,4.48016,65.9502,37.2418,230.178,1.25291,-0.281829,242.319,2.55166,2.85355,-34.973541259765604,22.0009689331055,-23.0044822692871,22.0,-829190.0,20796.8,pp-riro,4,0,-1,-1
1570536565.8,2019-10-08,14:09:25.800,14.0,9.0,15.640000343322802,15.0,15.8,10.1,23.0,-31.6,28.1,14.0974,14.3363,9.94125,-5.97591,14.2558,4.8394900000000005,25.1191,-18.1889,30.0411,0.220689,0.21675,0.966949,265.5,5.6,52.1701,4.42721,6.4,-2.8973,148.72299999999998,4.48026,67.3813,39.1418,229.178,1.24304,-0.294133,242.064,2.65852,2.92898,-34.4546813964844,22.0009689331055,-23.0044822692871,22.0,-826998.0,23934.8,pp-riro,4,0,-1,-1
1570536565.9,2019-10-08,14:09:25.900,14.0,8.0,16.0300006866455,14.3,17.2,10.5,22.0,-32.4,34.2,13.8308,15.0071,10.1587,-5.51021,14.7027,2.86247,24.4527,-18.8223,33.0674,0.191906,0.161237,0.959859,265.5,5.6,52.1701,4.42721,6.4,-2.65405,155.079,4.48037,68.9877,40.2819,228.178,1.23403,-0.296476,241.758,2.75603,2.99141,-33.6320190429688,22.0009689331055,-23.0044822692871,22.0,-824362.0,26149.8,pp-riro,4,0,-1,-1
1570536566.0,2019-10-08,14:09:26.000,14.0,8.0,16.3600006103516,13.4,18.5,10.9,20.7,-33.4,40.5,12.714,16.9707,10.7306,-11.9752,9.09784,3.13242,22.4088,-20.3883,42.2902,0.106814,0.332327,1.05105,265.5,5.6,52.1701,4.42721,6.4,-2.27285,161.713,4.48047,70.7109,42.182,227.178,1.22309,-0.305903,241.639,2.86192,3.0609,-32.4560546875,22.0009689331055,-23.0044822692871,22.0,-820519.0,25196.1,pp-riro,4,0,-1,-1
1570536566.1,2019-10-08,14:09:26.100,14.0,7.0,16.6800003051758,12.4,19.7,11.0,19.6,-33.8,47.1,11.7734,18.0642,10.9445,-10.4305,11.5169,2.35945,20.704,-21.5687,48.6477,0.164299,0.278698,0.938668,264.1,6.1,52.1701,4.42721,6.4,-2.1093900000000003,164.896,4.480569999999999,72.5802,43.3221,226.178,1.21315,-0.306311,241.456,2.96182,3.12013,-31.3415222167969,22.0009689331055,-23.0044822692871,22.0,-819200.0,24888.5,pp-riro,4,0,-1,-1
1570536566.2,2019-10-08,14:09:26.200,14.0,7.0,17.0400009155273,11.2,20.7,11.3,18.3,-34.3,53.6,11.7734,18.0642,10.9445,-10.4305,11.5169,2.35945,20.704,-21.5687,48.6477,0.164299,0.278698,0.938668,264.1,6.1,52.1701,4.42721,6.4,-1.81407,173.09799999999998,4.48074,74.53699999999999,44.4621,225.178,1.20291,-0.3062,241.325,3.05891,3.17948,-29.0407867431641,22.0009689331055,-23.0044822692871,22.0,-816704.0,24765.4,pp-riro,4,0,-1,-1
1570536566.3,2019-10-08,14:09:26.300,14.0,9.0,17.2000007629395,10.0,21.6,11.6,16.4,-34.5,59.5,10.2914,19.6907,11.3087,-13.6981,10.4617,6.666869999999999,18.4021,-22.8333,58.0222,-0.00501102,0.17799,0.943697,264.1,6.1,52.1701,4.42721,6.4,-1.45114,174.695,4.48091,76.5815,45.6022,224.078,1.19222,-0.3055179999999999,241.154,3.14561,3.23488,-27.153099060058604,22.0009689331055,-23.0044822692871,22.0,-814447.0,21719.7,pp-riro,4,0,-1,-1
1570536566.4,2019-10-08,14:09:26.400,14.0,7.0,17.3500003814697,8.8,22.3,11.5,14.4,-34.9,65.0,8.63754,20.8843,11.4744,-8.17263,7.38006,-0.985287,15.9362,-24.1395,66.4523,0.234265,0.0817061,0.8227899999999999,264.1,6.1,52.1701,4.42721,6.4,-0.96632,158.733,4.48107,78.77199999999999,46.7422,222.978,1.18103,-0.304144,241.058,3.22495,3.2857300000000005,-25.6204147338867,22.0009689331055,-23.0044822692871,22.0,-812182.0,11721.3,pp-riro,4,0,-1,-1
1570536566.5,2019-10-08,14:09:26.500,14.0,9.0,17.6000003814697,7.7,22.9,11.2,13.0,-34.6,70.9,8.03236,21.1625,11.3361,-8.034310000000001,3.31042,-2.3846700000000003,15.2499,-24.5378,69.2511,-0.21844,0.137869,0.904792,264.1,6.1,52.1701,4.42721,6.4,-0.804528,153.135,4.481240000000001,80.9917,47.5023,221.878,1.17047,-0.299293,240.927,3.30714,3.3284800000000003,-24.4461517333984,22.0009689331055,-22.9846515655518,22.0,-811692.0,8890.94,pp-riro,4,0,-1,-1
1570536566.6,2019-10-08,14:09:26.600,14.0,8.0,17.7000007629395,6.4,23.2,11.2,10.8,-34.9,76.6,7.497789999999999,21.4179,11.1267,-9.9828,6.63403,-1.59062,14.5478,-24.7839,71.8705,0.144938,0.157841,0.757425,264.1,6.1,52.1701,4.42721,6.4,-0.566272,147.773,4.48141,83.2407,48.2624,220.878,1.15996,-0.294448,240.926,3.38516,3.37362,-23.6217803955078,22.0009689331055,-22.4790191650391,22.0,-811139.0,5014.61,pp-riro,4,0,-1,-1
1570536566.7,2019-10-08,14:09:26.700,14.0,8.0,17.7999992370605,5.4,23.3,11.2,8.6,-34.2,82.0,6.00111,21.9735,11.0098,-12.3216,1.27335,2.76408,11.9768,-24.5954,79.9304,0.161343,0.0657118999999999,0.698488,264.1,6.1,52.1701,4.42721,6.2,-0.232715,142.563,4.48158,85.6064,49.0224,219.778,1.14889,-0.289252,240.902,3.4603,3.4057699999999995,-23.1336364746094,22.0009689331055,-22.2632865905762,22.0,-810705.0,1907.4,pp-riro,4,0,-1,-1
1570536566.8,2019-10-08,14:09:26.800,14.0,9.0,17.6499996185303,4.3,23.2,11.0,6.5,-33.6,87.6,6.00111,21.9735,11.0098,-12.3216,1.27335,2.76408,11.9768,-24.5954,79.9304,0.161343,0.0657118999999999,0.698488,264.1,6.1,52.1701,4.42721,6.2,-0.135196,135.202,4.48174,87.9138,49.4025,218.778,1.13888,-0.281319,240.901,3.53616,3.43861,-22.6796417236328,22.0009689331055,-21.931583404541,22.0,-810655.0,953.699,pp-riro,4,0,-1,-1
1570536566.9,2019-10-08,14:09:26.900,14.0,10.0,17.2900009155273,3.2,23.2,10.5,4.3,-32.6,93.0,4.50892,21.93,10.6294,-9.20673,0.400971,-4.9911,9.266,-23.9636,87.8365,0.145217,0.373779,0.689631,264.1,6.1,52.1701,4.42721,6.2,0.0227174,118.064,4.48191,90.2795,49.7825,217.778,1.12866,-0.273458,240.948,3.61095,3.47505,-22.3451080322266,22.0009689331055,-21.5517768859863,22.0,-810650.0,-61.529,pp-riro,4,0,-1,-1
1570536567.0,2019-10-08,14:09:27.000,14.0,8.0,17.0900001525879,2.2,23.4,10.2,2.8,-31.0,97.6,2.58968,22.0604,9.98669,-12.5752,-0.0881531999999999,-5.68965,6.158119999999999,-22.1177,96.824,0.11949,0.295416,0.642811,264.1,6.1,52.1701,4.42721,6.2,0.0814501,109.99,4.482080000000001,92.6161,50.1626,216.778,1.11851,-0.266073,241.011,3.67786,3.5093,-21.9388961791992,22.0009689331055,-21.233722686767603,22.0,-810655.0,0.0,pp-riro,4,0,-1,-1
1570536567.1,2019-10-08,14:09:27.100,14.0,8.0,16.6100006103516,1.1,23.4,10.3,1.1,-29.8,102.4,2.11539,22.1556,9.93276,-9.39935,-1.7555599999999998,-0.2699789999999999,5.37716,-21.2729,99.1019,0.0347942,0.355037,0.7011350000000001,264.6,6.7,52.1701,4.42721,6.2,0.135196,134.71200000000002,4.48224,94.9235,50.5426,215.877,1.1086200000000002,-0.259129,241.181,3.74721,3.54422,-21.7153091430664,22.0009689331055,-20.9094200134277,22.0,-810669.0,-307.645,pp-riro,4,0,-1,-1
1570536567.2,2019-10-08,14:09:27.200,14.0,9.0,16.3999996185303,0.0,23.6,10.4,-0.5,-28.9,106.4,1.58406,22.2196,9.9248,-14.3282,2.93141,-1.09229,4.526,-20.656,101.419,0.111425,0.25409,0.547854,264.6,6.7,52.1701,4.42721,6.2,0.188942,148.099,4.48229,97.26,50.5426,214.777,1.09891,-0.249158,241.129,3.80138,3.57723,-21.3841934204102,22.0009689331055,-20.5631942749023,22.0,-810731.0,-1107.52,pp-riro,4,0,-1,-1
1570536567.3,2019-10-08,14:09:27.300,14.0,10.0,16.0699996948242,-1.2,23.5,10.4,-2.7,-28.2,111.0,0.376675,22.412,10.1522,-10.2715,-0.4228369999999999,0.981924,2.23959,-19.7137,105.84,-0.0607208,0.169814,0.772525,264.6,6.7,52.1701,4.42721,6.2,0.328017,158.812,4.48234,99.7426,50.5427,213.677,1.08868,-0.2389679999999999,241.166,3.86317,3.61343,-21.0121154785156,22.0009689331055,-20.1911582946777,22.0,-810831.0,215.351,pp-riro,4,0,-1,-1
1570536567.4,2019-10-08,14:09:27.400,14.0,10.0,15.8999996185303,-2.3,23.4,10.2,-4.7,-27.4,115.7,-1.21683,22.199,9.88714,-8.09105,1.7949400000000002,-3.78529,-0.722726,-18.5869,112.625,-0.23142,0.114881,0.865641,264.6,6.7,52.1701,4.42721,6.2,0.248229,162.14,4.4823900000000005,102.05,50.1627,212.577,1.0796,-0.2268389999999999,241.08,3.92561,3.64608,-20.667350769043,22.0009689331055,-19.8029556274414,22.0,-810692.0,-738.3480000000001,pp-riro,4,0,-1,-1
1570536567.5,2019-10-08,14:09:27.500,14.0,11.0,15.8999996185303,-3.5,23.4,10.2,-6.5,-25.7,119.7,-2.35052,22.1884,9.77647,-15.4201,-1.86381,2.08557,-2.66024,-17.939,116.602,-0.0824998999999999,0.107732,0.557653,264.6,6.7,52.1701,4.42721,6.2,0.319706,180.012,4.48243,104.387,50.1627,211.477,1.06977,-0.218011,241.113,3.98693,3.68364,-20.3225784301758,22.0009689331055,-19.4389514923096,22.0,-810713.0,615.29,pp-riro,4,0,-1,-1
1570536567.6,2019-10-08,14:09:27.600,14.0,11.0,16.0699996948242,-4.8,23.1,10.4,-8.7,-24.7,124.0,-3.5186300000000004,22.193,9.86117,-12.9975,-2.31946,2.49625,-4.8558900000000005,-16.8477,120.427,-0.012987,0.1857849999999999,0.57585,264.6,6.7,52.1701,4.42721,6.2,0.31084,184.706,4.482480000000001,106.782,49.7828,210.377,1.06029,-0.206346,241.121,4.04591,3.72073,-19.9505004882812,22.0009689331055,-19.024944305419897,22.0,-810667.0,861.4060000000001,pp-riro,4,0,-1,-1
1570536567.7,2019-10-08,14:09:27.700,14.0,11.0,16.3899993896484,-6.0,22.9,10.2,-10.6,-23.5,127.7,-4.72221,21.9346,9.89577,-7.214469999999999,-1.74753,-3.67498,-7.03745,-15.9259,124.413,-0.2630929999999999,0.0689462,0.815489,264.6,6.7,52.1701,4.42721,5.8,0.332449,185.876,4.482530000000001,109.089,49.4028,209.277,1.05105,-0.195376,241.118,4.09853,3.75856,-19.5733032226562,22.0009689331055,-18.6123485565186,22.0,-810644.0,584.525,pp-riro,4,0,-1,-1
1570536567.8,2019-10-08,14:09:27.800,14.0,10.0,16.9200000762939,-7.3,22.6,9.9,-12.1,-22.9,131.0,-5.27765,21.803,9.75823,-15.582,-3.90177,-2.67394,-7.94942,-15.6069,126.264,-0.1071609999999999,-0.056447,0.532496,264.6,6.7,52.1701,4.42721,5.8,0.32303,185.881,4.4825800000000005,111.367,48.2628,208.177,1.04294,-0.179124,240.976,4.13657,3.79722,-19.1790390014648,22.0009689331055,-18.0381984710693,22.0,-810591.0,984.464,pp-riro,4,0,-1,-1
1570536567.9,2019-10-08,14:09:27.900,14.0,10.0,17.229999542236303,-8.7,22.5,9.7,-13.5,-22.2,133.9,-7.43537,21.5903,9.44358,-14.62,-2.5145,-3.28556,-10.6117,-15.0738,130.774,-0.0190145,0.0890206,0.373508,264.6,6.7,52.1701,4.42721,5.8,0.323584,195.88,4.48262,113.674,47.5028,206.977,1.03389,-0.166064,240.86900000000003,4.1722,3.83941,-18.7182159423828,22.0009689331055,-17.5282402038574,22.0,-810564.0,-30.7645,pp-riro,4,0,-1,-1
1570536568.0,2019-10-08,14:09:28.000,14.0,12.0,17.729999542236303,-10.1,22.1,9.4,-14.1,-20.9,136.2,-7.43537,21.5903,9.44358,-14.62,-2.5145,-3.28556,-10.6117,-15.0738,130.774,-0.0190145,0.0890206,0.373508,264.6,6.7,52.1701,4.42721,5.8,0.369573,223.798,4.48267,115.894,46.7428,205.977,1.02547,-0.1536269999999999,240.921,4.205,3.88529,-18.2471389770508,22.0009689331055,-16.935401916503903,22.0,-810572.0,-30.7645,pp-riro,4,0,-1,-1
1570536568.1,2019-10-08,14:09:28.100,14.0,11.0,18.1299991607666,-11.2,21.2,9.6,-15.1,-20.2,139.0,-9.4728,21.0807,8.99692,-14.6159,-5.73782,-1.02478,-13.3462,-13.8754,134.79399999999998,-0.157976,0.233832,0.391133,267.2,6.3,52.1701,4.42721,5.8,0.4488069999999999,259.132,4.48272,118.055,45.9829,204.877,1.01696,-0.141754,240.886,4.24045,3.9198,-17.7078018188477,22.0009689331055,-16.6044998168945,22.0,-810567.0,430.703,pp-riro,4,0,-1,-1
1570536568.2,2019-10-08,14:09:28.200,14.0,11.0,18.4599990844727,-12.0,20.1,9.3,-16.5,-19.5,142.0,-10.5094,20.1358,9.16519,-8.96818,-12.6236,-0.7697470000000001,-14.9294,-13.3518,137.657,-0.0346705999999999,-0.144809,0.382789,267.2,6.3,52.1701,4.42721,5.8,0.454348,258.199,4.4827900000000005,120.217,44.4629,203.877,1.00955,-0.124649,240.821,4.27461,3.95062,-17.1462707519531,22.0009689331055,-16.2161560058594,22.0,-810513.0,1015.23,pp-riro,4,0,-1,-1
1570536568.3,2019-10-08,14:09:28.300,14.0,11.0,18.6499996185303,-12.7,19.7,8.2,-17.9,-17.6,144.5,-11.1965,19.0012,8.75517,-6.58672,-8.519960000000001,-14.4837,-16.2742,-13.0032,140.558,-0.2792699999999999,-0.0638513,0.463134,267.2,6.3,52.1701,4.42721,5.8,0.427197,236.454,4.48285,122.086,43.3229,202.977,1.00274,-0.111455,240.794,4.315930000000001,3.98616,-16.5915679931641,22.0009689331055,-15.7736682891846,22.0,-810355.0,1907.4,pp-riro,4,0,-1,-1
1570536568.4,2019-10-08,14:09:28.400,14.0,11.0,19.1700000762939,-14.1,19.6,7.6,-18.2,-15.5,146.7,-11.4761,18.7693,8.22045,-11.2526,2.05338,-10.7655,-17.1102,-12.542,141.64600000000002,-0.308669,0.170417,0.333518,267.2,6.3,52.1701,4.42721,5.8,0.382871,224.428,4.48292,124.043,42.1829,202.077,0.995572,-0.0982921,240.834,4.35525,4.03246,-16.1409759521484,22.0009689331055,-15.1625213623047,22.0,-810200.0,1292.11,pp-riro,4,0,-1,-1
1570536568.5,2019-10-08,14:09:28.500,14.0,8.0,19.659999847412102,-15.5,18.9,7.5,-18.7,-14.8,149.9,-11.4761,18.7693,8.22045,-11.2526,2.05338,-10.7655,-17.1102,-12.542,141.64600000000002,-0.308669,0.170417,0.333518,267.2,6.3,52.1701,4.42721,5.8,0.425535,277.031,4.48298,126.0,40.6629,201.277,0.988961,-0.0827623,240.919,4.39418,4.07656,-15.7381820678711,22.0025119781494,-14.5469064712524,22.0,-810225.0,-1045.99,pp-riro,4,0,-1,-1
1570536568.6,2019-10-08,14:09:28.600,14.0,9.0,20.409999847412102,-16.2,17.5,7.4,-19.3,-13.3,152.3,-11.4761,18.7693,8.22045,-11.2526,2.05338,-10.7655,-17.1102,-12.542,141.64600000000002,-0.308669,0.170417,0.333518,267.2,6.3,52.1701,4.42721,5.8,0.582341,355.76300000000003,4.48305,127.84,39.1429,200.477,0.982631,-0.0677807,240.969,4.42985,4.113090000000001,-15.4207229614258,22.003026962280305,-14.0948305130005,22.0,-810511.0,-3045.68,pp-riro,4,0,-1,-1
1570536568.7,2019-10-08,14:09:28.700,14.0,8.0,20.9699993133545,-17.0,16.5,6.7,-20.0,-12.2,154.4,-15.4506,16.3963,7.062930000000001,-9.97185,-6.721830000000001,-2.57369,-22.0434,-7.69163,151.751,0.0608207,0.148827,0.460453,267.2,6.3,52.1701,4.42721,5.5,0.678751,366.41,4.48311,129.476,37.2428,199.677,0.977241,-0.0508064,240.877,4.45603,4.15603,-14.8643112182617,22.003026962280305,-13.445690155029302,22.0,-810395.0,3537.92,pp-riro,4,0,-1,-1
1570536568.8,2019-10-08,14:09:28.800,14.0,6.0,21.7099990844727,-17.5,15.6,6.1,-19.9,-10.6,156.4,-15.8243,15.8529,6.72756,-9.27207,-9.93631,-4.54833,-22.1765,-6.963760000000001,152.851,0.105208,0.154715,0.466317,267.2,6.3,52.1701,4.42721,5.5,0.589544,337.389,4.48318,131.053,35.7228,198.877,0.971566,-0.0369078,240.838,4.48829,4.19051,-14.3591079711914,22.003026962280305,-13.0492420196533,22.0,-809877.0,4214.73,pp-riro,4,0,-1,-1
1570536568.9,2019-10-08,14:09:28.900,14.0,9.0,22.190000534057603,-18.2,14.6,5.6,-20.4,-9.5,158.2,-16.4282,14.977,6.00483,-6.7170000000000005,-5.97348,-4.38738,-22.6506,-5.9679400000000005,154.835,-0.0926385,0.0419297,0.1729099999999999,267.2,6.3,52.1701,4.42721,5.5,0.572367,332.781,4.48324,132.601,33.8228,198.177,0.966456,-0.020569,240.834,4.51105,4.2301,-13.8078155517578,22.0025119781494,-12.5069217681885,22.0,-809695.0,1445.93,pp-riro,4,0,-1,-1
1570536569.0,2019-10-08,14:09:29.000,14.0,7.0,22.350000381469695,-18.5,13.7,5.2,-21.0,-8.7,160.1,-17.3774,13.5728,5.37713,-2.4826,-5.51933,-7.840889999999999,-23.3303,-4.82953,158.029,-0.0823938999999999,-0.0338291,0.531554,267.2,6.3,52.1701,4.42721,5.5,0.5950840000000001,347.37800000000004,4.48331,134.003,32.3028,197.577,0.961643,-0.00746832,240.908,4.53496,4.25842,-13.3009033203125,22.0025119781494,-12.223740577697802,22.0,-809560.0,1292.11,pp-riro,4,0,-1,-1
1570536569.1,2019-10-08,14:09:29.100,14.0,9.0,22.3099994659424,-19.0,13.1,4.9,-21.3,-7.2,161.9,-17.5197,13.0936,5.19085,-4.70824,-7.83781,-1.99662,-23.4072,-4.3000300000000005,158.914,-0.0232136,0.158828,0.457731,264.6,6.6,52.1701,4.42721,5.5,0.6200180000000001,354.655,4.48338,135.376,30.0228,196.977,0.957414,0.0107723,240.889,4.56039,4.27827,-12.6523284912109,22.003026962280305,35.0,22.0,-809401.0,1845.87,pp-riro,4,0,-1,-1
1570536569.2,2019-10-08,14:09:29.200,14.0,10.0,22.1100006103516,-19.5,12.1,4.7,-21.5,-6.5,163.6,-18.3284,12.0055,4.68939,-3.51723,-12.1931,-3.28531,-23.9434,-2.79186,161.66299999999998,0.0230833,0.0183717,0.409236,264.6,6.6,52.1701,4.42721,5.5,0.615031,354.45300000000003,4.48345,136.57299999999998,28.5027,196.477,0.953332,0.0231912999999999,240.972,4.5812,4.3118,-12.2563552856445,22.003026962280305,35.0,22.0,-809161.0,2245.81,pp-riro,4,0,-1,-1
1570536569.3,2019-10-08,14:09:29.300,14.0,10.0,21.75,-19.8,11.5,4.6,-22.3,-5.6,165.7,-18.961,11.2338,4.55633,-1.6848599999999998,0.102449,-0.450507,-24.5098,-2.02484,163.60299999999998,-0.0846414,0.0622099,0.419203,264.6,6.6,52.1701,4.42721,5.5,0.7474569999999999,350.564,4.48353,137.741,26.2227,195.877,0.949522,0.0407366999999999,240.89,4.605580000000001,4.32345,-11.7511520385742,22.0025119781494,35.0,22.0,-809884.0,-17658.8,pp-riro,4,0,-1,-1
1570536569.4,2019-10-08,14:09:29.400,14.0,10.0,21.4200000762939,-19.7,11.4,3.8,-23.2,-4.0,167.4,-18.961,11.2338,4.55633,-1.6848599999999998,0.102449,-0.450507,-24.5098,-2.02484,163.60299999999998,-0.0846414,0.0622099,0.419203,264.6,6.6,52.1701,4.42721,5.5,1.25167,327.973,4.4836,138.91,24.7027,195.377,0.945366,0.0527937,240.99400000000003,4.63593,4.33305,-10.8841094970703,22.0025119781494,35.0,22.0,-812551.0,-29318.6,pp-riro,4,0,-1,-1
1570536569.5,2019-10-08,14:09:29.500,14.0,10.0,21.2099990844727,-19.9,11.1,3.6,-23.1,-2.6,169.0,-18.8268,10.8332,3.73521,-1.94782,1.9228,-3.51615,-25.5502,-1.14809,166.171,-0.272192,0.0431526,0.265993,264.6,6.6,52.1701,4.42721,5.5,1.12922,285.361,4.4836800000000006,140.02,22.4227,194.977,0.941991,0.0699196,241.09,4.65886,4.33694,-9.65864562988281,22.0019989013672,35.0,22.0,-810386.0,25626.8,pp-riro,4,0,-1,-1
1570536569.6,2019-10-08,14:09:29.600,14.0,8.0,21.0,-20.0,10.2,4.1,-23.5,-2.7,171.1,-19.1391,10.5723,3.55072,-3.31746,-5.12125,4.7235,-26.1818,0.027127,167.743,0.0138971,-0.0136062999999999,0.400781,264.6,6.6,52.1701,4.42721,5.5,1.13975,300.77,4.48375,141.013,20.5226,194.477,0.938441,0.0841118,241.095,4.67581,4.342569999999999,-8.07817077636719,22.0009689331055,35.0,22.0,-810670.0,-5199.2,pp-riro,4,0,-1,-1
1570536569.7,2019-10-08,14:09:29.700,14.0,9.0,20.8299999237061,-19.7,9.9,4.0,-23.6,-2.6,171.8,-19.3354,9.72372,3.96012,1.53489,-3.79146,-1.47428,-26.4483,-0.0349858,169.905,-0.0329554,-0.363111,0.377686,264.6,6.6,52.1701,4.4272,5.4,1.15637,306.97,4.48383,141.509,19.3826,194.177,0.936594,0.0924356,241.05,4.67986,4.34129,-6.1324462890625,22.0009689331055,35.0,22.0,-810353.0,6122.13,pp-riro,4,0,-1,-1
1570536569.8,2019-10-08,14:09:29.800,14.0,10.0,20.4500007629395,-19.3,9.5,3.2,-24.0,-1.3,172.8,-19.3354,9.72372,3.96012,1.53489,-3.79146,-1.47428,-26.4483,-0.0349858,169.905,-0.0329554,-0.363111,0.377686,264.6,6.6,52.1701,4.4272,5.4,1.10041,290.137,4.48391,142.911,16.7226,193.577,0.931594,0.111999,241.195,4.69149,4.3502,-4.026283264160161,22.0009689331055,35.0,22.0,-809818.0,3199.51,pp-riro,4,0,-1,-1
1570536569.9,2019-10-08,14:09:29.900,14.0,8.0,20.1399993896484,-19.6,9.3,3.3,-24.2,-1.2,172.8,-18.8648,9.21042,3.26654,-1.27101,-3.17312,0.22123,-26.548,-0.434625,171.99400000000003,-0.327285,-0.1189829999999999,0.127221,264.6,6.6,52.1701,4.4272,5.4,1.09265,292.483,4.48398,143.379,15.5825,193.377,0.929979,0.120151,241.236,4.68591,4.35349,-1.92353820800781,22.0009689331055,35.0,22.0,-809346.0,3291.8,pp-riro,4,0,-1,-1
1570536570.0,2019-10-08,14:09:30.000,14.0,8.0,19.8799991607666,-19.4,8.9,3.7,-24.4,-1.3,172.8,-19.3225,8.75249,3.52885,6.50888,0.861505,3.976,-27.2198,-0.702298,172.91299999999998,-0.147582,-0.198119,-0.00462058,264.6,6.6,52.1701,4.4272,5.4,1.10152,299.473,4.48406,144.226,13.6825,193.077,0.927077,0.133784,241.385,4.67391,4.3413,0.175422668457031,22.0009689331055,35.0,22.0,-809305.0,769.112,pp-riro,4,0,-1,-1
1570536570.1,2019-10-08,14:09:30.100,14.0,9.0,19.4300003051758,-18.8,8.7,4.2,-25.3,-1.9,172.9,-19.3225,8.75249,3.52885,6.50888,0.861505,3.976,-27.2198,-0.702298,172.91299999999998,-0.147582,-0.198119,-0.00462058,268.5,6.1,52.1701,4.4272,5.4,1.14363,304.506,4.48413,145.04399999999998,11.7825,192.576,0.923686,0.1472,241.376,4.65821,4.3117,2.277099609375,22.0009689331055,35.0,22.0,-809160.0,2522.69,pp-riro,4,0,-1,-1
1570536570.2,2019-10-08,14:09:30.200,14.0,8.0,19.4699993133545,-18.5,9.1,4.3,-25.8,-2.1,171.8,-18.856,8.59244,4.219869999999999,1.90966,0.456137,0.149165,-27.7548,-2.73391,173.643,-0.0352745999999999,-0.0853208999999999,-0.105144,268.5,6.1,52.1701,4.4272,5.4,1.06716,261.737,4.48421,145.92,9.88244,192.176,0.920266,0.160552,241.5,4.63011,4.27862,4.38218688964844,22.0009689331055,35.0,22.0,-808305.0,5476.08,pp-riro,4,0,-1,-1
1570536570.3,2019-10-08,14:09:30.300,14.0,9.0,19.4300003051758,-18.3,9.5,4.7,-26.5,-3.2,170.5,-18.6985,8.9504,4.34377,-0.534266,2.45605,2.99886,-27.9059,-3.54577,172.655,-0.08283,-0.2842719999999999,-0.286607,268.5,6.1,52.1701,4.4272,5.4,1.04057,253.774,4.4843,146.767,7.982410000000001,191.676,0.916609,0.173751,241.545,4.58995,4.240069999999999,6.49407958984375,22.0009689331055,35.0,22.0,-808066.0,4460.85,pp-riro,4,0,-1,-1
1570536570.4,2019-10-08,14:09:30.400,14.0,10.0,19.2900009155273,-18.4,10.1,5.6,-27.0,-4.9,168.7,-18.8179,9.47593,4.89428,0.587036,7.861689999999999,7.389010000000001,-28.9733,-5.57691,171.291,-0.0405880999999999,-0.365629,-0.234262,268.5,6.1,52.1701,4.4272,5.4,1.0427799999999998,267.623,4.484380000000001,147.672,6.46239,191.076,0.912371,0.184318,241.576,4.53871,4.19266,8.59575653076172,22.0009689331055,35.0,22.0,-807908.0,769.112,pp-riro,4,0,-1,-1
1570536570.5,2019-10-08,14:09:30.500,14.0,12.0,18.8799991607666,-18.0,10.7,6.8,-27.9,-7.7,167.2,-19.0353,9.83704,5.2903400000000005,-1.36271,9.83676,10.3403,-29.6291,-6.6574,170.66400000000002,-0.176564,-0.133771,-0.3765239999999999,268.5,6.1,52.1701,4.4272,5.4,1.09487,284.867,4.48446,148.607,4.56236,190.376,0.907771,0.197273,241.553,4.478190000000001,4.12568,10.694030761718802,22.0009689331055,35.0,22.0,-807932.0,0.0,pp-riro,4,0,-1,-1
1570536570.6,2019-10-08,14:09:30.600,14.0,12.0,18.5400009155273,-17.2,11.7,7.7,-29.1,-10.3,164.4,-19.0353,9.83704,5.2903400000000005,-1.36271,9.83676,10.3403,-29.6291,-6.6574,170.66400000000002,-0.176564,-0.133771,-0.3765239999999999,268.5,6.1,52.1701,4.4272,5.4,1.10152,287.346,4.48454,149.717,2.66234,189.576,0.902263,0.2100679999999999,241.581,4.40221,4.0451,12.802520751953098,22.0009689331055,35.0,22.0,-807552.0,4430.09,pp-riro,4,0,-1,-1
1570536570.7,2019-10-08,14:09:30.700,14.0,11.0,18.5400009155273,-16.5,12.3,9.0,-29.3,-13.2,161.4,-18.8193,10.5725,6.44829,-1.8982900000000005,6.06885,3.04855,-30.3155,-9.39561,169.497,-0.288355,-0.315738,-0.453472,268.5,6.1,52.1701,4.4272,5.2,1.10539,292.106,4.48462,150.827,0.762314,188.676,0.896418,0.222713,241.554,4.32094,3.97109,14.9178237915039,22.0009689331055,35.0,22.0,-807236.0,1476.7,pp-riro,4,0,-1,-1
1570536570.8,2019-10-08,14:09:30.800,14.0,11.0,18.6900005340576,-15.5,12.9,10.2,-30.2,-17.3,157.7,-16.9506,13.3496,10.2958,12.8688,11.3965,12.0988,-33.1183,-21.3463,162.189,-0.313999,-0.427579,-1.05681,268.5,6.1,52.1701,4.4272,5.2,1.11149,289.343,4.4847,152.024,-0.377683,187.676,0.889965,0.2301699999999999,241.524,4.22264,3.8955,17.0297241210938,22.0009689331055,35.0,22.0,-807099.0,2707.28,pp-riro,4,0,-1,-1
1570536570.9,2019-10-08,14:09:30.900,14.0,11.0,18.6900005340576,-14.0,13.9,11.2,-30.4,-20.7,153.9,-16.9506,13.3496,10.2958,12.8688,11.3965,12.0988,-33.1183,-21.3463,162.189,-0.313999,-0.427579,-1.05681,268.5,6.1,52.1701,4.4272,5.2,1.05885,259.398,4.484780000000001,153.28,-2.2777,186.576,0.8830030000000001,0.242463,241.476,4.12765,3.79514,19.1484298706055,22.0009689331055,35.0,22.0,-806427.0,4122.44,pp-riro,4,0,-1,-1
1570536571.0,2019-10-08,14:09:31.000,14.0,11.0,18.6399993896484,-12.2,14.7,12.2,-30.0,-23.9,149.2,-15.579,14.4756,11.4972,18.8379,8.359160000000001,7.056430000000001,-33.4381,-25.4835,158.423,-0.226517,-0.21194,-0.91477,268.5,6.1,52.1701,4.4272,5.2,1.0245,239.082,4.48487,154.624,-3.4176900000000003,185.376,0.8754799999999999,0.249623,241.422,4.02795,3.6929,21.2535171508789,22.0009689331055,35.0,22.0,-806040.0,3937.85,pp-riro,4,0,-1,-1
1570536571.1,2019-10-08,14:09:31.100,14.0,12.0,18.7800006866455,-10.6,15.5,13.1,-29.3,-27.3,143.9,-15.579,14.4756,11.4972,18.8379,8.359160000000001,7.056430000000001,-33.4381,-25.4835,158.423,-0.226517,-0.21194,-0.91477,273.3,6.3,52.1701,4.4272,5.2,1.00621,235.329,4.48495,156.026,-4.55768,184.176,0.8677459999999999,0.256644,241.424,3.92036,3.60056,22.3128662109375,22.0009689331055,35.0,22.0,-805859.0,3537.92,pp-riro,4,0,-1,-1
1570536571.2,2019-10-08,14:09:31.200,14.0,10.0,18.8199996948242,-8.5,16.0,14.1,-27.6,-30.8,138.2,-10.8354,16.9532,14.2136,28.2428,7.97532,18.3863,-32.2631,-34.2813,145.865,-0.191445,-0.181968,-0.888567,273.3,6.3,52.1701,4.4272,5.2,1.01951,244.45,4.48506,157.545,-5.31765,182.876,0.859392,0.2610639999999999,241.438,3.81117,3.49546,24.4213562011719,22.0009689331055,35.0,22.0,-805689.0,707.5830000000001,pp-riro,4,0,-1,-1
1570536571.3,2019-10-08,14:09:31.300,14.0,11.0,18.8700008392334,-6.2,16.6,14.8,-24.8,-34.5,130.9,-8.61725,17.7689,15.3207,27.1693,13.6979,17.7833,-30.8428,-38.2785,139.977,-0.32091,0.194301,-0.991766,273.3,6.3,52.1701,4.4272,5.2,1.0283799999999998,242.622,4.485180000000001,159.093,-6.45763,181.476,0.850619,0.267775,241.424,3.6813,3.38309,26.5298461914062,22.0009689331055,35.0,22.0,-805594.0,1722.81,pp-riro,4,0,-1,-1
1570536571.4,2019-10-08,14:09:31.400,14.0,11.0,18.8199996948242,-3.7,17.0,15.2,-20.8,-37.3,122.2,-6.06324,18.4081,16.0689,23.9755,-2.88313,3.3418,-28.1134,-42.8621,132.71200000000002,-0.209242,-0.16274,-1.2348,273.3,6.3,52.1701,4.4272,5.2,0.991253,230.937,4.4853,160.787,-6.83759,180.076,0.8414790000000001,0.2695889999999999,241.509,3.54757,3.2707,28.6451416015625,22.0009689331055,35.0,22.0,-805084.0,3076.45,pp-riro,4,0,-1,-1
1570536571.5,2019-10-08,14:09:31.500,14.0,8.0,18.770000457763697,-1.3,16.7,15.5,-15.9,-40.0,113.2,-4.7363,18.5802,16.134,21.218000000000004,4.1444,8.65134,-25.9589,-45.2058,128.576,-0.344373,-0.175441,-1.20967,273.3,6.3,52.1701,4.4272,5.2,0.990145,234.181,4.48542,162.393,-7.21754,178.676,0.8326120000000001,0.271387,241.555,3.41522,3.16601,30.583328247070305,22.0009689331055,35.0,22.0,-805042.0,799.877,pp-riro,4,0,-1,-1
1570536571.6,2019-10-08,14:09:31.600,14.0,9.0,18.8600006103516,0.9,16.6,15.7,-9.8,-41.9,102.5,-0.8688239999999999,18.7744,16.9317,24.3485,-2.78246,4.83721,-17.4844,-50.3636,112.958,-0.3351989999999999,0.0499246999999999,-1.25929,273.3,6.3,52.1701,4.4272,5.2,1.01619,233.664,4.48554,164.02900000000002,-7.21749,177.27599999999998,0.82371,0.270827,241.628,3.27096,3.07029,32.174072265625,22.0009689331055,23.0044822692871,22.0,-804811.0,3291.8,pp-riro,4,0,-1,-1
1570536571.7,2019-10-08,14:09:31.700,14.0,10.0,19.1900005340576,3.4,16.2,15.4,-2.7,-42.6,90.9,-0.8688239999999999,18.7744,16.9317,24.3485,-2.78246,4.83721,-17.4844,-50.3636,112.958,-0.3351989999999999,0.0499246999999999,-1.25929,273.3,6.3,52.1701,4.4272,5.1,0.999011,229.715,4.48565,165.69299999999998,-7.21743,175.77599999999998,0.814443,0.270267,241.668,3.12111,2.95915,33.405426025390604,22.0009689331055,23.0044822692871,22.0,-804625.0,3691.74,pp-ro,1,1,-1,-1
1570536571.8,2019-10-08,14:09:31.800,14.0,11.0,19.3700008392334,6.0,16.0,15.2,3.9,-42.2,79.4,3.4146300000000003,18.6341,16.6824,28.9749,3.11598,2.52584,-5.3062,-53.4593,92.865,-0.7884760000000001,-0.235953,-1.44241,273.3,6.3,52.1701,4.4272,5.1,0.990699,232.884,4.48577,167.271,-6.83737,174.37599999999998,0.805775,0.267472,241.73,2.9749,2.84663,34.2791442871094,22.0009689331055,23.0044822692871,22.0,-804455.0,1169.05,pp-ro,1,1,-1,-1
1570536571.9,2019-10-08,14:09:31.900,14.0,11.0,19.6399993896484,8.3,15.1,15.1,10.8,-41.2,68.6,5.07761,18.4087,16.713,35.0092,-4.54306,-6.4015,-0.945501,-53.6513,86.057,0.153878,-0.0114437999999999,-1.25808,273.3,6.3,52.1701,4.4272,5.1,1.04334,257.778,4.48589,168.81900000000002,-6.0772900000000005,172.976,0.797237,0.262484,241.779,2.83734,2.74549,34.7015228271484,22.0009689331055,23.0044822692871,22.0,-804364.0,1353.64,pp-ro,1,1,-1,-1
1570536572.0,2019-10-08,14:09:32.000,14.0,11.0,19.4500007629395,10.3,14.2,14.4,18.0,-39.6,57.2,9.25386,17.2413,16.2297,33.8925,-14.537,-6.928310000000001,11.4943,-52.2733,66.1594,-0.240207,-0.0263740999999999,-1.43235,273.3,6.3,52.1701,4.4272,5.1,1.04832,254.3,4.48601,170.308,-4.937209999999999,171.476,0.788605,0.255365,241.729,2.69045,2.6502,34.958694458007805,22.0009689331055,23.0044822692871,22.0,-804144.0,2430.39,pp-ro,1,1,-1,-1
1570536572.1,2019-10-08,14:09:32.100,14.0,10.0,19.229999542236303,12.0,13.3,13.3,24.5,-36.5,46.9,9.25386,17.2413,16.2297,33.8925,-14.537,-6.928310000000001,11.4943,-52.2733,66.1594,-0.240207,-0.0263740999999999,-1.43235,266.3,6.2,52.1701,4.4272,5.1,1.04001,247.215,4.48612,171.68099999999998,-4.1771400000000005,170.176,0.780848,0.250591,241.767,2.5430900000000003,2.5565900000000004,34.9127197265625,22.0009689331055,22.9937534332275,22.0,-803960.0,3476.39,pp-ro,1,1,-1,-1
1570536572.2,2019-10-08,14:09:32.200,14.0,10.0,19.0400009155273,13.1,12.2,12.4,29.1,-32.9,38.1,10.3546,16.8684,15.9675,22.9602,-6.46058,1.3809,16.2695,-51.5639,59.4129,-0.2515719999999999,-0.119851,-1.1707,266.3,6.2,52.1701,4.4272,5.1,1.01175,238.907,4.48626,172.995,-3.03706,168.976,0.773569,0.243686,241.846,2.40763,2.48387,34.4426422119141,22.0009689331055,21.7664680480957,22.0,-803617.0,3014.92,pp-ro,1,1,-1,-1
1570536572.3,2019-10-08,14:09:32.300,14.0,9.0,18.8500003814697,13.9,10.9,11.5,33.2,-29.0,30.2,14.8924,13.805,13.1407,17.2428,-21.9669,0.169656,33.3529,-42.6923,31.8164,0.4026619999999999,0.0293988,-0.944534,266.3,6.2,52.1701,4.4272,5.1,1.0067700000000002,230.205,4.48639,174.222,-1.51698,167.77599999999998,0.766534,0.234705,241.876,2.27838,2.41547,33.6149291992188,22.0009689331055,20.6039791107178,22.0,-803318.0,2461.16,pp-ro,1,1,-1,-1
1570536572.4,2019-10-08,14:09:32.400,14.0,10.0,18.7099990844727,14.7,10.1,10.2,36.3,-23.8,23.7,14.8924,13.805,13.1407,17.2428,-21.9669,0.169656,33.3529,-42.6923,31.8164,0.4026619999999999,0.0293988,-0.944534,266.3,6.2,52.1701,4.4272,5.1,0.979618,208.216,4.48652,175.30200000000002,0.00309585,166.77599999999998,0.760478,0.225848,241.961,2.14827,2.34421,32.094024658203104,22.0009689331055,19.3529872894287,22.0,-802970.0,3845.56,pp-ro,1,1,-1,-1
1570536572.5,2019-10-08,14:09:32.500,14.0,9.0,18.4200000762939,15.5,8.8,9.0,38.4,-19.4,18.0,16.2809,12.1529,11.1365,6.27528,-24.0857,-19.7928,38.3169,-34.2576,20.0921,-0.729075,0.0193652,-1.26359,266.3,6.2,52.1701,4.4272,5.1,0.931967,196.949,4.48666,176.354,1.14316,165.976,0.755081,0.21925,242.177,2.0327,2.25726,30.4487762451172,22.0009689331055,17.784574508667,22.0,-802630.0,2553.45,pp-ro,1,1,-1,-1
1570536572.6,2019-10-08,14:09:32.600,14.0,13.0,18.0400009155273,16.3,7.6,7.8,39.8,-15.2,13.3,17.1819,10.7106,9.63043,3.17987,-5.56043,-14.2285,40.0278,-29.3112,13.7488,-0.338205,0.1142089999999999,-1.47679,266.3,6.2,52.1701,4.4272,5.1,0.933075,202.274,4.48679,177.23,2.66323,165.27599999999998,0.750454,0.21064,242.35,1.93133,2.17004,28.4731292724609,22.0009689331055,16.1691608428955,22.0,-802610.0,399.9380000000001,pp-ro,1,1,-1,-1
1570536572.7,2019-10-08,14:09:32.700,14.0,11.0,17.7900009155273,17.0,6.3,6.6,40.4,-11.3,9.4,18.474,8.45472,7.477360000000001,7.81372,-20.6164,-15.3365,41.2342,-21.3348,6.7321800000000005,-0.200032,0.3794119999999999,-1.03124,266.3,6.2,52.1701,4.42719,4.9,0.979618,221.361,4.48692,177.989,4.1833,164.676,0.7464270000000001,0.202034,242.519,1.84212,2.07941,26.368049621582,22.0009689331055,14.4656562805176,22.0,-802651.0,-276.88,pp-ro,1,1,-1,-1
1570536572.8,2019-10-08,14:09:32.800,14.0,11.0,17.5900001525879,17.5,5.1,5.5,41.4,-7.9,5.4,18.9438,7.64403,6.8325,9.57582,-13.7414,-9.27437,41.3656,-18.7559,4.75982,0.0236294999999999,0.195786,-1.08875,266.3,6.2,52.1701,4.42719,4.9,0.995132,227.644,4.48706,178.632,6.08337,164.176,0.742965,0.19129,242.693,1.75885,1.99888,24.2731857299805,22.0009689331055,12.931324005127,22.0,-802477.0,2122.75,pp-ro,1,1,-1,-1
1570536572.9,2019-10-08,14:09:32.900,14.0,11.0,17.5400009155273,17.7,4.1,4.2,41.8,-4.7,1.7,19.5884,5.51764,5.06494,4.73623,-13.4814,-14.0145,41.9858,-13.0528,-1.05457,-0.194394,-0.0789557,-0.778601,266.3,6.2,52.1701,4.42719,4.9,0.987375,222.334,4.48719,179.21599999999998,7.60343,163.776,0.739965,0.182798,242.896,1.6799099999999998,1.91968,21.6333160400391,22.0009689331055,11.4233627319336,22.0,-802265.0,2153.51,pp-ro,1,1,-1,-1
1570536573.0,2019-10-08,14:09:33.000,14.0,10.0,17.3899993896484,17.8,3.2,3.1,42.7,-1.6,-1.5,19.6957,4.60504,3.68433,0.683888,-2.13808,-9.55332,42.1763,-8.926919999999999,-4.453469999999999,-0.0451647,0.265669,-1.04723,266.3,6.2,52.1701,4.42719,4.9,0.974631,215.777,4.48732,179.683,9.8835,163.376,0.737147,0.170116,243.054,1.61081,1.85289,19.5197143554688,22.0009689331055,10.13525390625,22.0,-801931.0,2153.51,pp-ro,1,1,-1,-1
1570536573.1,2019-10-08,14:09:33.100,14.0,11.0,17.229999542236303,17.9,2.5,2.4,43.4,1.0,-5.0,19.7808,3.98869,3.1709400000000003,-4.39326,-11.0359,-10.863,42.1475,-6.7667,-5.85241,0.2796349999999999,0.207836,-0.7432270000000001,270.3,5.7,52.1701,4.42719,4.9,0.965211,209.711,4.48746,180.062,11.4036,163.076,0.734938,0.161686,243.2,1.54174,1.80434,17.4129257202148,22.0009689331055,9.21511650085449,22.0,-801735.0,1907.4,pp-ro,1,1,-1,-1
1570536573.2,2019-10-08,14:09:33.200,14.0,9.0,17.0300006866455,17.5,1.8,1.5,44.3,3.2,-8.5,19.7808,3.98869,3.1709400000000003,-4.39326,-11.0359,-10.863,42.1475,-6.7667,-5.85241,0.2796349999999999,0.207836,-0.7432270000000001,270.3,5.7,52.1701,4.42719,4.9,0.961333,207.479,4.48757,180.354,13.3036,162.776,0.732863,0.151188,243.312,1.4793,1.7522099999999998,16.356979370117198,22.0009689331055,8.20955657958984,22.0,-801626.0,2061.22,pp-ro,1,1,-1,-1
1570536573.3,2019-10-08,14:09:33.300,14.0,9.0,16.8199996948242,17.4,1.2,0.9,44.6,5.2,-11.2,19.7591,3.05912,2.38203,4.90174,-7.217569999999999,-3.41962,42.8446,-3.592,-9.13278,0.274802,0.0246560999999999,-0.612577,270.3,5.7,52.1701,4.42719,4.9,0.955238,206.222,4.48772,180.617,14.8237,162.576,0.7312069999999999,0.142777,243.461,1.42743,1.71017,13.8601684570312,22.0009689331055,7.401471138000491,22.0,-801446.0,1661.28,pp-ro,1,1,-1,-1
1570536573.4,2019-10-08,14:09:33.400,14.0,10.0,16.7199993133545,17.1,0.7,0.4,45.5,6.9,-13.6,19.048,1.58294,0.6711560000000001,-2.8530900000000003,-5.274290000000001,-13.901,43.8833,2.0594200000000003,-14.6408,0.235948,-0.12082,-0.563403,270.3,5.7,52.1701,4.42719,4.9,0.953576,201.791,4.4878,180.822,16.7237,162.375,0.729585,0.132365,243.602,1.38439,1.67724,12.943878173828098,22.0009689331055,6.767428398132321,22.0,-801285.0,1784.34,pp-ro,1,1,-1,-1
1570536573.5,2019-10-08,14:09:33.500,14.0,11.0,16.7199993133545,17.3,0.4,-0.2,46.5,8.5,-15.4,18.6097,0.985512,0.27569,-2.45801,-5.94649,-1.30333,44.8331,4.467890000000001,-16.6726,0.10638,0.2535949999999999,-0.414858,270.3,5.7,52.1701,4.42719,4.9,0.939724,196.842,4.48791,180.938,18.6238,162.275,0.728456,0.1219089999999999,243.76,1.34971,1.64608,10.8592300415039,22.0009689331055,6.14849662780762,22.0,-801015.0,1322.87,pp-ro,1,1,-1,-1
1570536573.6,2019-10-08,14:09:33.600,14.0,11.0,16.6599998474121,17.4,0.1,-0.5,46.9,9.6,-16.3,18.6097,0.985512,0.27569,-2.45801,-5.94649,-1.30333,44.8331,4.467890000000001,-16.6726,0.10638,0.2535949999999999,-0.414858,270.3,5.7,52.1701,4.42719,4.9,0.942494,198.599,4.48803,181.055,20.5238,162.175,0.727276,0.1114869999999999,243.933,1.33199,1.62835,9.00962066650391,22.0009689331055,5.804681777954099,22.0,-800937.0,1507.46,pp-ro,1,1,-1,-1
1570536573.7,2019-10-08,14:09:33.700,14.0,11.0,16.4500007629395,17.9,-0.9,-1.1,48.5,10.7,-19.1,18.6125,0.817715,-0.0634890999999999,2.09262,-0.39319,-4.45126,45.304,5.8473,-17.4116,0.313799,0.139628,-0.497168,270.3,5.7,52.1701,4.42719,4.7,0.955238,218.522,4.4881400000000005,181.055,22.0439,162.175,0.726793,0.103092,244.065,1.29075,1.57202,7.7935791015625,22.0009689331055,4.665539741516111,22.0,-800854.0,184.587,pp-ro,1,1,-1,-1
1570536573.8,2019-10-08,14:09:33.800,14.0,12.0,16.2399997711182,18.0,-1.4,-1.5,49.4,11.2,-20.6,19.1177,-0.952149,-1.32594,2.65008,-7.71662,-4.07262,46.9127,9.92948,-21.4437,-0.0108947,-0.0371264,-0.430917,270.3,5.7,52.1701,4.42719,4.7,1.01397,247.669,4.48826,180.967,24.3239,162.175,0.726242,0.0905242,244.217,1.27518,1.5458,6.75125885009766,22.0009689331055,4.11684608459473,22.0,-800973.0,-1199.82,pp-ro,1,1,-1,-1
1570536573.9,2019-10-08,14:09:33.900,14.0,11.0,16.2900009155273,18.0,-2.0,-1.6,50.6,11.5,-21.8,19.1177,-0.952149,-1.32594,2.65008,-7.71662,-4.07262,46.9127,9.92948,-21.4437,-0.0108947,-0.0371264,-0.430917,270.3,5.7,52.1701,4.42719,4.7,1.05941,262.643,4.48837,180.85,25.8439,162.175,0.725989,0.0820786999999999,244.286,1.26289,1.5255,5.71233367919922,22.0009689331055,3.69012546539307,22.0,-800881.0,1907.4,pp-ro,1,1,-1,-1
1570536574.0,2019-10-08,14:09:34.000,14.0,10.0,16.3999996185303,18.3,-2.6,-2.1,51.5,11.6,-22.3,19.0235,-1.82066,-1.69653,-0.57639,-5.85866,-1.58326,48.5877,11.3747,-22.9634,0.24484,-0.121041,-0.211833,270.3,5.7,52.1701,4.42719,4.7,1.05109,263.434,4.48848,180.763,26.604,162.275,0.726234,0.077779,244.36900000000003,1.25855,1.48935,4.779014587402339,22.0009689331055,2.93691802024841,22.0,-800592.0,2307.34,pp-ro,1,1,-1,-1
1570536574.1,2019-10-08,14:09:34.100,14.0,10.0,16.7199993133545,18.5,-3.1,-2.2,52.8,11.7,-23.0,19.1283,-2.43574,-1.99385,1.44395,-6.166119999999999,-3.1882900000000003,49.4245,12.047,-23.7413,0.0986828,0.0891908,-0.1290869999999999,275.2,6.0,52.1701,4.42719,4.7,1.05774,260.93,4.4886,180.383,29.644,162.375,0.726288,0.0609077,244.505,1.26034,1.48126,4.027931213378911,22.0009689331055,2.70783376693726,22.0,-800388.0,2338.1,pp-ro,1,1,-1,-1
1570536574.2,2019-10-08,14:09:34.200,14.0,11.0,17.0799999237061,18.5,-3.3,-2.1,53.1,11.0,-23.8,19.4267,-3.14275,-2.22373,-5.66858,-4.89476,3.56345,50.7802,11.8675,-24.6151,0.231898,-0.156622,-0.217973,275.2,6.0,52.1701,4.42719,4.7,1.04888,265.215,4.488659999999999,180.266,30.404,162.375,0.726263,0.0566355,244.512,1.26264,1.48122,3.32453155517578,22.0009689331055,2.69272422790527,22.0,-800100.0,2614.98,pp-ro,1,1,-1,-1
1570536574.3,2019-10-08,14:09:34.300,14.0,11.0,17.4899997711182,18.7,-3.6,-2.2,53.6,10.5,-25.1,19.4775,-3.55134,-2.18108,-2.07215,-2.16358,-0.585155,51.2452,11.1806,-25.6633,0.225053,-0.0677345,-0.0327041,275.2,6.0,52.1701,4.42719,4.7,1.09597,287.858,4.48873,179.945,32.6841,162.475,0.72636,0.0439829,244.636,1.26213,1.47771,2.85787200927734,22.0009689331055,2.57221579551697,22.0,-799979.0,1353.64,pp-ro,1,1,-1,-1
1570536574.4,2019-10-08,14:09:34.400,14.0,11.0,17.9400005340576,18.7,-3.9,-2.2,54.1,10.3,-25.3,19.5711,-3.9056,-2.21219,3.02381,-2.2351,0.808894,51.7948,11.1784,-25.9243,0.134051,-0.0780243,-0.011714,275.2,6.0,52.1701,4.42719,4.7,1.1065,292.437,4.4888,179.565,34.5841,162.575,0.72673,0.0333218,244.68400000000003,1.26946,1.47482,2.6637115478515603,22.0009689331055,2.4562852382659903,22.0,-799720.0,2738.04,pp-ro,1,1,-1,-1
1570536574.5,2019-10-08,14:09:34.500,14.0,11.0,18.3700008392334,18.8,-4.2,-2.2,54.8,10.2,-26.1,19.6928,-4.07688,-2.18296,8.73905,-1.53025,-0.129754,51.9045,11.1523,-26.2306,0.16278,-0.0847753,-0.136424,275.2,6.0,52.1701,4.42719,4.7,1.10429,290.856,4.48886,179.185,36.4842,162.675,0.7270439999999999,0.0226595,244.748,1.26843,1.47318,2.5342788696289102,22.0009689331055,2.36973810195923,22.0,-799566.0,2984.16,pp-ro,1,1,-1,-1
1570536574.6,2019-10-08,14:09:34.600,14.0,10.0,18.659999847412102,18.9,-4.3,-2.2,54.9,10.3,-26.2,19.6711,-4.18511,-2.08144,-1.20605,-3.90484,-1.3661,52.0481,11.1225,-26.4994,0.105887,-0.187272,0.0255874,275.2,6.0,52.1701,4.42719,4.7,1.10373,291.578,4.48893,178.77599999999998,38.3842,162.775,0.72738,0.011964,244.806,1.27317,1.47816,2.43889617919922,22.0009689331055,2.4150359630584703,22.0,-799285.0,2768.8,pp-ro,1,1,-1,-1
1570536574.7,2019-10-08,14:09:34.700,14.0,10.0,19.0300006866455,18.8,-4.7,-2.0,54.7,10.1,-26.4,19.7134,-4.37047,-2.15191,-1.25884,-2.29761,-0.627807,52.0024,11.1724,-27.1584,-0.0806473,-0.100853,0.010854,275.2,6.0,52.1701,4.4272,4.5,1.10927,294.385,4.489,178.30900000000003,40.2842,162.875,0.727815,0.00119759,244.837,1.28057,1.47882,2.39632415771484,22.0009689331055,2.368326902389529,22.0,-798906.0,2307.34,pp-ro,1,1,-1,-1
1570536574.8,2019-10-08,14:09:34.800,14.0,11.0,19.3999996185303,18.8,-4.6,-2.1,54.9,9.9,-26.6,19.6221,-4.68842,-2.07613,-0.460164,-0.0489961,-2.97033,52.1828,10.6593,-27.6985,0.221455,-0.0319485,0.0956893,275.2,6.0,52.1701,4.4272,4.5,1.11094,291.663,4.48906,177.812,42.1842,162.975,0.7282689999999999,-0.00960913,244.863,1.28799,1.48534,2.3912124633789102,22.0009689331055,2.4381990432739302,22.0,-798760.0,2768.8,pp-ro,1,1,-1,-1
1570536574.9,2019-10-08,14:09:34.900,14.0,10.0,19.7600002288818,18.7,-4.7,-1.6,54.4,10.1,-27.2,19.6933,-4.81498,-1.80108,3.97995,1.11666,3.13256,52.11600000000001,10.6488,-27.7772,-0.130944,0.0139689,-0.10367,275.2,6.0,52.1701,4.4272,4.5,1.09764,286.927,4.48913,177.37400000000002,44.0843,163.075,0.7285119999999999,-0.0203444999999999,244.946,1.28557,1.50721,2.38951110839844,22.0009689331055,2.8304471969604506,22.0,-798366.0,4060.91,pp-ro,1,1,-1,-1
1570536575.0,2019-10-08,14:09:35.000,14.0,10.0,20.020000457763697,18.6,-4.8,-1.6,54.3,10.8,-27.5,19.6881,-5.02646,-1.58815,1.93933,-2.32975,2.53382,52.0353,11.2105,-28.0683,0.131824,-0.00233169,-0.105929,275.2,6.0,52.1701,4.4272,4.5,1.09043,279.737,4.48925,176.84799999999998,46.3643,163.175,0.728669,-0.0332602,245.054,1.28177,1.51129,2.420166015625,22.0009689331055,2.86976003646851,22.0,-797980.0,2738.04,pp-ro,1,1,-1,-1
1570536575.1,2019-10-08,14:09:35.100,14.0,10.0,19.9300003051758,18.5,-4.9,-1.5,53.9,11.0,-28.3,19.6881,-5.02646,-1.58815,1.93933,-2.32975,2.53382,52.0353,11.2105,-28.0683,0.131824,-0.00233169,-0.105929,284.8,4.9,52.1701,4.4272,4.5,1.0788,277.225,4.48926,176.352,47.8843,163.275,0.729212,-0.0420098999999999,245.055,1.27569,1.51654,2.63135528564453,22.0009689331055,2.9159708023071302,22.0,-797618.0,3507.15,pp-ro,1,1,-1,-1
1570536575.2,2019-10-08,14:09:35.200,14.0,13.0,19.7600002288818,18.5,-5.0,-1.4,53.4,11.6,-28.9,19.6881,-5.02646,-1.58815,1.93933,-2.32975,2.53382,52.0353,11.2105,-28.0683,0.131824,-0.00233169,-0.105929,284.8,4.9,52.1701,4.4272,4.5,1.08101,285.832,4.48936,175.826,49.7844,163.275,0.729209,-0.0528937,245.055,1.26829,1.52432,2.8595733642578103,22.0009689331055,3.0499291419982897,22.0,-797424.0,1322.87,pp-ro,1,1,-1,-1
1570536575.3,2019-10-08,14:09:35.300,14.0,12.0,19.6200008392334,18.4,-5.4,-1.1,53.4,12.2,-29.9,19.6881,-5.02646,-1.58815,1.93933,-2.32975,2.53382,52.0353,11.2105,-28.0683,0.131824,-0.00233169,-0.105929,284.8,4.9,52.1701,4.4272,4.5,1.09875,290.329,4.48946,175.3,51.6844,163.375,0.729452,-0.0637765,245.139,1.25618,1.52889,2.99412536621094,22.0009689331055,3.1038064956665,22.0,-797394.0,584.525,pp-ro,1,1,-1,-1
1570536575.4,2019-10-08,14:09:35.400,14.0,7.0,19.2600002288818,18.1,-5.4,-0.9,53.2,12.8,-30.7,19.1825,-5.81567,-0.8850899999999999,-3.19263,0.667883,4.65422,50.7404,13.08,-31.4659,0.13319,-0.0513206,-0.210997,284.8,4.9,52.1701,4.4272,4.5,1.10373,278.998,4.48955,174.745,53.5844,163.475,0.7297130000000001,-0.0746536999999999,245.217,1.24648,1.54036,3.0469207763671897,22.0009689331055,3.29683089256287,22.0,-797051.0,4491.62,pp-ro,1,1,-1,-1
1570536575.5,2019-10-08,14:09:35.500,14.0,9.0,18.9400005340576,17.9,-5.1,-0.7,52.7,13.4,-31.8,19.1825,-5.81567,-0.8850899999999999,-3.19263,0.667883,4.65422,50.7404,13.08,-31.4659,0.13319,-0.0513206,-0.210997,284.8,4.9,52.1701,4.4272,4.5,1.02893,250.427,4.48965,174.21900000000002,55.4845,163.575,0.729841,-0.0855756,245.332,1.2332299999999998,1.5632700000000002,3.1746597290039102,22.0009689331055,3.73251628875732,22.0,-796392.0,2399.63,pp-ro,1,1,-1,-1
1570536575.6,2019-10-08,14:09:35.600,14.0,9.0,18.5599994659424,18.0,-5.5,-0.9,52.3,15.0,-32.7,19.0659,-5.5084800000000005,-0.777055,2.70234,-3.5769800000000003,-2.29359,49.8992,14.5245,-33.5796,-0.257188,-0.0592629,-0.342477,284.8,4.9,52.1701,4.4272,4.5,1.0317,249.626,4.48974,173.66400000000002,57.3845,163.575,0.7296819999999999,-0.0964904999999999,245.376,1.20978,1.55021,3.26492309570312,22.0009689331055,3.47792196273804,22.0,-796304.0,1599.75,pp-ro,1,1,-1,-1
1570536575.7,2019-10-08,14:09:35.700,14.0,11.0,18.229999542236303,17.8,-6.2,-1.0,51.3,14.7,-34.7,19.0659,-5.5084800000000005,-0.777055,2.70234,-3.5769800000000003,-2.29359,49.8992,14.5245,-33.5796,-0.257188,-0.0592629,-0.342477,284.8,4.9,52.1701,4.4272,4.3,1.0317,248.093,4.489809999999999,173.08,58.9045,163.675,0.7301770000000001,-0.105452,245.39,1.19607,1.52654,3.61917877197266,22.0009689331055,2.95751023292542,22.0,-796064.0,2768.8,pp-ro,1,1,-1,-1
1570536575.8,2019-10-08,14:09:35.800,14.0,14.0,18.3799991607666,17.2,-6.0,-1.1,50.8,13.7,-36.0,18.9914,-6.27393,-0.8863049999999999,0.821601,-5.52001,-1.12404,48.8331,15.0264,-34.9145,0.0283805,-0.2520199999999999,-0.0260620999999999,284.8,4.9,52.1701,4.4272,4.3,1.02616,251.238,4.4899,172.438,60.8045,163.67600000000002,0.730137,-0.116518,245.401,1.20064,1.52808,3.7230682373046897,22.0009689331055,2.99324536323547,22.0,-795836.0,1845.87,pp-ro,1,1,-1,-1
1570536575.9,2019-10-08,14:09:35.900,14.0,13.0,18.229999542236303,17.2,-6.3,-1.2,50.7,14.2,-36.5,18.1834,-6.31744,-0.968345,-4.82831,-1.01107,-6.143269999999999,48.422,13.8178,-37.6155,-0.0490101,-0.015544,0.1283359999999999,284.8,4.9,52.1701,4.4272,4.3,1.0522,263.356,4.49003,171.85299999999998,62.3246,163.87599999999998,0.7308479999999999,-0.125548,245.506,1.19449,1.51993,3.47782135009766,22.0009689331055,2.7664167881012003,22.0,-795757.0,615.29,pp-ro,1,1,-1,-1
1570536576.0,2019-10-08,14:09:36.000,14.0,12.0,18.1299991607666,17.1,-6.8,-0.9,50.4,14.4,-37.9,18.1834,-6.31744,-0.968345,-4.82831,-1.01107,-6.143269999999999,48.422,13.8178,-37.6155,-0.0490101,-0.015544,0.1283359999999999,284.8,4.9,52.1701,4.4272,4.3,1.05331,250.941,4.49012,171.18200000000002,64.6046,163.975,0.7307130000000001,-0.1386109999999999,245.693,1.18421,1.52265,3.0895004272460898,22.0009689331055,2.84782671928406,22.0,-795482.0,3660.97,pp-ro,1,1,-1,-1
1570536576.1,2019-10-08,14:09:36.100,14.0,10.0,17.6399993896484,16.6,-6.3,-0.6,49.7,13.5,-40.0,18.0604,-6.65877,-1.17248,1.76934,-8.28836,-2.66259,48.2624,14.6832,-38.1419,-0.00239659,0.271107,-0.158766,272.1,4.4,52.1701,4.4272,4.3,0.97186,217.175,4.49022,170.53900000000002,66.1246,164.076,0.731171,-0.147722,245.717,1.1764,1.55043,2.8340301513671897,22.0009689331055,3.37036561965942,22.0,-794819.0,3230.27,pp-ro,1,1,-1,-1
1570536576.2,2019-10-08,14:09:36.200,14.0,10.0,17.4899997711182,16.4,-5.7,-0.9,49.6,13.9,-40.9,18.0604,-6.65877,-1.17248,1.76934,-8.28836,-2.66259,48.2624,14.6832,-38.1419,-0.00239659,0.271107,-0.158766,272.1,4.4,52.1701,4.4272,4.3,0.967982,218.576,4.49036,169.926,68.0246,164.176,0.731132,-0.158753,245.877,1.16814,1.56309,2.80166625976562,22.0009689331055,3.65308809280396,22.0,-794752.0,1353.64,pp-ro,1,1,-1,-1
1570536576.3,2019-10-08,14:09:36.300,14.0,10.0,17.5400009155273,16.5,-6.5,-0.9,49.4,15.8,-41.0,17.2185,-6.384930000000001,-0.678118,-0.622894,8.353589999999999,-3.20114,47.9548,14.685,-41.9586,-0.0130846,-0.0445873,-0.244932,272.1,4.4,52.1701,4.4272,4.3,0.981834,212.67,4.4905,169.34099999999998,69.5447,164.275,0.731354,-0.167787,245.966,1.14959,1.54265,3.1457061767578103,22.0009689331055,3.24636840820312,22.0,-794532.0,2984.16,pp-ro,1,1,-1,-1
1570536576.4,2019-10-08,14:09:36.400,14.0,12.0,17.4899997711182,16.0,-6.8,-0.8,49.2,15.7,-42.1,17.0717,-7.06053,-0.744859,1.01773,-7.1256,-0.0550631,47.0621,16.3906,-43.0781,-0.0712771,-0.127399,-0.207227,272.1,4.4,52.1701,4.4272,4.3,0.946373,199.664,4.49064,168.611,71.4447,164.37599999999998,0.7315,-0.17904,246.076,1.14528,1.53584,3.55105590820312,22.0009689331055,3.13619232177734,22.0,-794211.0,2830.33,pp-ro,1,1,-1,-1
1570536576.5,2019-10-08,14:09:36.500,14.0,11.0,17.5900001525879,15.4,-6.3,-1.1,48.8,14.9,-43.3,16.1435,-7.01491,-0.901202,-7.43618,5.98407,-0.6201,46.9369,15.6957,-44.842,0.154816,-0.163077,-0.0472163,272.1,4.4,52.1701,4.4272,4.3,0.937507,196.838,4.49078,167.96900000000002,72.5847,164.576,0.732491,-0.1862869999999999,246.104,1.14554,1.53474,3.6089630126953103,22.0009689331055,-35.0,22.0,-794114.0,1815.1,pp-ro,1,1,-1,-1
1570536576.6,2019-10-08,14:09:36.600,14.0,7.0,17.5400009155273,15.5,-6.3,-1.4,49.5,15.5,-43.5,16.1435,-7.01491,-0.901202,-7.43618,5.98407,-0.6201,46.9369,15.6957,-44.842,0.154816,-0.163077,-0.0472163,272.1,4.4,52.1701,4.4272,4.3,0.942494,203.5,4.49092,167.355,74.4847,164.676,0.732246,-0.197277,246.32,1.14326,1.53042,3.4028778076171897,22.0009689331055,-35.0,22.0,-794012.0,799.877,pp-ro,1,1,-1,-1
1570536576.7,2019-10-08,14:09:36.700,14.0,6.0,17.5400009155273,15.4,-6.6,-0.7,50.1,16.4,-44.2,15.9368,-6.77335,-1.07649,2.46416,2.042,-2.51223,46.9116,15.7906,-45.2965,0.00997593,0.0267533,-0.186394,272.1,4.4,52.1701,4.42721,4.0,0.980726,219.366,4.49106,166.65400000000002,76.0047,164.87599999999998,0.7328899999999999,-0.206555,246.443,1.13008,1.55512,2.95664978027344,22.0009689331055,-35.0,22.0,-793920.0,1169.05,pp-ro,1,1,-1,-1
1570536576.8,2019-10-08,14:09:36.800,14.0,6.0,17.4400005340576,15.1,-6.3,-0.4,49.6,16.4,-45.8,15.713,-7.14849,-0.35775,-5.82107,7.615810000000001,0.761847,47.3114,17.7651,-46.6573,0.0481195,-0.215302,-0.084941,272.1,4.4,52.1701,4.42721,4.0,0.971306,206.667,4.4912,165.982,77.1447,164.87599999999998,0.733252,-0.213885,246.344,1.11579,1.57928,2.2004623413085898,22.0009689331055,-35.0,22.0,-793680.0,2645.75,pp-ro,1,1,-1,-1
1570536576.9,2019-10-08,14:09:36.900,14.0,6.0,17.4899997711182,14.8,-5.7,-0.6,49.7,17.0,-46.2,15.713,-7.14849,-0.35775,-5.82107,7.615810000000001,0.761847,47.3114,17.7651,-46.6573,0.0481195,-0.215302,-0.084941,272.1,4.4,52.1701,4.42721,4.0,0.92975,185.808,4.49134,165.398,79.0448,164.976,0.732789,-0.224768,246.62,1.11111,1.595,1.07978820800781,22.0009689331055,-35.0,22.0,-793342.0,3384.09,pp-ro,1,1,-1,-1
1570536577.0,2019-10-08,14:09:37.000,14.0,8.0,17.7900009155273,14.6,-6.0,-0.7,49.6,16.9,-46.0,15.3613,-6.44904,-0.486795,-2.90853,4.7362,-2.94851,47.18,18.4069,-47.5382,-0.0448919,0.236277,-0.1383339999999999,272.1,4.4,52.1701,4.42721,4.0,0.908695,188.426,4.49148,164.75599999999997,80.5648,165.076,0.732865,-0.233897,246.749,1.12088,1.58124,-0.4062118530273439,22.0009689331055,-35.0,22.0,-793176.0,861.4060000000001,pp-ro,1,1,-1,-1
1570536577.1,2019-10-08,14:09:37.100,14.0,7.0,17.9899997711182,14.1,-6.4,-0.5,50.0,15.7,-46.2,14.9403,-6.25493,-0.55789,-3.11365,-2.26853,0.338973,47.6232,19.5335,-46.6176,-0.057271,0.101841,0.0603218,261.5,3.7,52.1701,4.42721,4.0,0.923655,196.831,4.491619999999999,164.142,82.0848,165.176,0.73283,-0.2429469999999999,246.908,1.13929,1.57196,-2.2290496826171897,22.0009689331055,-35.0,22.0,-793211.0,-676.819,pp-ro,1,1,-1,-1
1570536577.2,2019-10-08,14:09:37.200,14.0,9.0,17.9400005340576,14.3,-6.0,-0.7,50.2,14.3,-46.0,14.2005,-6.59072,-0.329102,-0.5826020000000001,0.133551,1.9267,47.8663,18.4109,-46.3786,0.163961,-0.152346,0.0808248,261.5,3.7,52.1701,4.42721,4.0,0.960779,206.54,4.49176,163.5,83.2248,165.27599999999998,0.733294,-0.250208,246.93,1.16378,1.5865,-4.3369140625,22.0009689331055,-35.0,22.0,-793200.0,769.112,pp-ro,1,1,-1,-1
1570536577.3,2019-10-08,14:09:37.300,14.0,8.0,17.6399993896484,14.9,-5.8,-0.5,51.5,13.4,-45.0,14.2005,-6.59072,-0.329102,-0.5826020000000001,0.133551,1.9267,47.8663,18.4109,-46.3786,0.163961,-0.152346,0.0808248,261.5,3.7,52.1701,4.42721,4.0,0.955792,205.84,4.49189,162.915,84.7448,165.37599999999998,0.733118,-0.259164,247.128,1.193,1.62024,-6.43454742431641,22.0009689331055,-35.0,22.0,-792960.0,2891.86,pp-ro,1,1,-1,-1
1570536577.4,2019-10-08,14:09:37.400,14.0,9.0,17.3899993896484,15.2,-6.0,0.5,52.2,12.1,-44.6,14.2129,-6.4192,-0.357781,-2.53846,5.61311,-3.01271,48.1886,17.9482,-45.9953,-0.0954903,0.0691255,0.195484,261.5,3.7,52.1701,4.42721,4.0,0.98405,233.469,4.492030000000001,162.33100000000002,86.2649,165.37599999999998,0.732603,-0.2680349999999999,247.269,1.22005,1.66893,-8.54924011230469,22.0009689331055,-35.0,22.0,-792925.0,-1230.58,pp-ro,1,1,-1,-1
1570536577.5,2019-10-08,14:09:37.500,14.0,10.0,17.3899993896484,15.7,-5.8,1.1,52.6,9.9,-44.6,15.1466,-6.30066,0.673365,2.33534,-1.50616,15.144,49.9824,16.5441,-43.1483,-0.1229519999999999,-0.0493264999999999,0.25999,261.5,3.7,52.1701,4.42721,4.0,1.0173,236.874,4.49217,161.689,87.7849,165.27599999999998,0.731888,-0.277175,247.316,1.2538200000000002,1.71575,-10.653694152832,22.0009689331055,-35.0,22.0,-792961.0,-676.819,pp-ro,1,1,-1,-1
1570536577.6,2019-10-08,14:09:37.600,14.0,11.0,17.4400005340576,16.2,-5.1,1.6,54.0,8.0,-43.4,15.1466,-6.30066,0.673365,2.33534,-1.50616,15.144,49.9824,16.5441,-43.1483,-0.1229519999999999,-0.0493264999999999,0.25999,261.5,3.7,52.1701,4.42721,4.0,0.999011,218.887,4.49231,161.134,89.6849,165.076,0.730129,-0.287803,247.502,1.29957,1.7767099999999998,-12.7632675170898,22.0009689331055,-35.0,22.0,-792525.0,5568.37,pp-ro,1,1,-1,-1
1570536577.7,2019-10-08,14:09:37.700,14.0,10.0,17.6399993896484,17.0,-5.2,2.4,55.6,5.2,-42.2,15.7073,-5.72788,1.66948,4.07339,7.618289999999999,3.17337,51.5056,14.0228,-41.8659,0.136711,0.0449823,0.3769659999999999,261.5,3.7,52.1701,4.42721,3.9,0.959671,219.114,4.49244,160.608,91.2049,164.87599999999998,0.728755,-0.296515,247.583,1.35564,1.81751,-14.8779678344727,22.0009689331055,-35.0,22.0,-792254.0,-892.17,pp-ro,1,1,-1,-1
1570536577.8,2019-10-08,14:09:37.800,14.0,10.0,17.7399997711182,17.9,-5.1,3.6,56.9,2.3,-41.6,15.7073,-5.72788,1.66948,4.07339,7.618289999999999,3.17337,51.5056,14.0228,-41.8659,0.136711,0.0449823,0.3769659999999999,261.5,3.7,52.1701,4.42721,3.9,0.987929,230.042,4.49258,160.111,93.105,164.576,0.726464,-0.306897,247.769,1.40744,1.87886,-16.9858322143555,22.0009689331055,-35.0,22.0,-792295.0,-769.112,pp-ro,1,1,-1,-1
